{"type": "FeatureCollection", "features": [
{"geometry": {"type": "Point", "coordinates": [-74.113045873, 40.6137851039]}, "type": "Feature", "properties": {"collection_times": [{"days": "Mon-Fri", "time": "4:00pm"}, {"days": "Sat", "time": "11:00am"}, {"days": "Sun", "time": "Closed"}], "id": "1030100003", "name": "USPS COLLECTION BOX - BLUE BOX", "address": {"city": "STATEN ISLAND", "state": "NY", "street": "1492 VICTORY BLVD", "postcode": "10301"}}},
{"geometry": {"type": "Point", "coordinates": [-74.1075402392, 40.6148945964]}, "type": "Feature", "properties": {"collection_times": [{"days": "Mon-Fri", "time": "12:00pm"}, {"days": "Sat", "time": "11:00am"}, {"days": "Sun", "time": "Closed"}], "id": "1030100006", "name": "USPS COLLECTION BOX - BLUE BOX", "address": {"city": "STATEN ISLAND", "state": "NY", "street": "1324 VICTORY BLVD", "postcode": "10301"}}},
{"geometry": {"type": "Point", "coordinates": [-74.1015250984, 40.6074595005]}, "type": "Feature", "properties": {"collection_times": [{"days": "Mon-Fri", "time": "9:00am"}, {"days": "Sat", "time": "8:00am"}, {"days": "Sun", "time": "Closed"}], "id": "1030100007", "name": "USPS COLLECTION BOX - BLUE BOX", "address": {"city": "STATEN ISLAND", "state": "NY", "street": "715 OCEAN TER", "postcode": "10301"}}},
{"geometry": {"type": "Point", "coordinates": [-74.0943477681, 40.6165069174]}, "type": "Feature", "properties": {"collection_times": [{"days": "Mon-Fri", "time": "12:30pm"}, {"days": "Sat", "time": "11:30am"}, {"days": "Sun", "time": "Closed"}], "id": "1030100009", "name": "USPS COLLECTION BOX - BLUE BOX", "address": {"city": "STATEN ISLAND", "state": "NY", "street": "631 HOWARD AVE", "postcode": "10301"}}},
{"geometry": {"type": "Point", "coordinates": [-74.0946643973, 40.6195647883]}, "type": "Feature", "properties": {"collection_times": [{"days": "Mon-Fri", "time": "12:00pm"}, {"days": "Sat", "time": "11:00am"}, {"days": "Sun", "time": "Closed"}], "id": "1030100010", "name": "USPS COLLECTION BOX - BLUE BOX", "address": {"city": "STATEN ISLAND", "state": "NY", "street": "2 STRATFORD AVE", "postcode": "10301"}}},
{"geometry": {"type": "Point", "coordinates": [-74.090511268, 40.6194691861]}, "type": "Feature", "properties": {"collection_times": [{"days": "Mon-Fri", "time": "12:00pm"}, {"days": "Sat", "time": "11:00am"}, {"days": "Sun", "time": "Closed"}], "id": "1030100012", "name": "USPS COLLECTION BOX - BLUE BOX", "address": {"city": "STATEN ISLAND", "state": "NY", "street": "6 ARLO RD", "postcode": "10301"}}},
{"geometry": {"type": "Point", "coordinates": [-74.099144272, 40.6158153326]}, "type": "Feature", "properties": {"collection_times": [{"days": "Mon-Fri", "time": "12:30pm"}, {"days": "Sat", "time": "11:30am"}, {"days": "Sun", "time": "Closed"}], "id": "1030100013", "name": "USPS COLLECTION BOX - BLUE BOX", "address": {"city": "STATEN ISLAND", "state": "NY", "street": "96 GRAND AVE", "postcode": "10301"}}},
{"geometry": {"type": "Point", "coordinates": [-74.0983932824, 40.6127777798]}, "type": "Feature", "properties": {"collection_times": [{"days": "Mon-Fri", "time": "12:30pm"}, {"days": "Sat", "time": "11:30am"}, {"days": "Sun", "time": "Closed"}], "id": "1030100014", "name": "USPS COLLECTION BOX - BLUE BOX", "address": {"city": "STATEN ISLAND", "state": "NY", "street": "850 HOWARD AVE", "postcode": "10301"}}},
{"geometry": {"type": "Point", "coordinates": [-74.1031715517, 40.6190014601]}, "type": "Feature", "properties": {"collection_times": [{"days": "Mon-Fri", "time": "12:00pm"}, {"days": "Sat", "time": "11:00am"}, {"days": "Sun", "time": "Closed"}], "id": "1030100017", "name": "USPS COLLECTION BOX - BLUE BOX", "address": {"city": "STATEN ISLAND", "state": "NY", "street": "76 MELROSE AVE", "postcode": "10301"}}},
{"geometry": {"type": "Point", "coordinates": [-74.0915397292, 40.626494131]}, "type": "Feature", "properties": {"collection_times": [{"days": "Mon-Fri", "time": "12:30pm"}, {"days": "Sat", "time": "11:30am"}, {"days": "Sun", "time": "Closed"}], "id": "1030100018", "name": "USPS COLLECTION BOX - BLUE BOX", "address": {"city": "STATEN ISLAND", "state": "NY", "street": "650 VICTORY BLVD", "postcode": "10301"}}},
{"geometry": {"type": "Point", "coordinates": [-74.0853672946, 40.6343045879]}, "type": "Feature", "properties": {"collection_times": [{"days": "Mon-Fri", "time": "1:30pm"}, {"days": "Sat", "time": "12:30pm"}, {"days": "Sun", "time": "Closed"}], "id": "1030100019", "name": "USPS COLLECTION BOX - BLUE BOX", "address": {"city": "STATEN ISLAND", "state": "NY", "street": "322 VICTORY BLVD", "postcode": "10301"}}},
{"geometry": {"type": "Point", "coordinates": [-74.0790296083, 40.6333157797]}, "type": "Feature", "properties": {"collection_times": [{"days": "Mon-Fri", "time": "2:30pm"}, {"days": "Sat", "time": "1:30pm"}, {"days": "Sun", "time": "Closed"}], "id": "1030100021", "name": "USPS COLLECTION BOX - BLUE BOX", "address": {"city": "STATEN ISLAND", "state": "NY", "street": "184 SAINT PAULS AVE", "postcode": "10301"}}},
{"geometry": {"type": "Point", "coordinates": [-74.0754326391, 40.6326875093]}, "type": "Feature", "properties": {"collection_times": [{"days": "Mon-Fri", "time": "3:00pm"}, {"days": "Sat", "time": "1:30pm"}, {"days": "Sun", "time": "Closed"}], "id": "1030100022", "name": "USPS COLLECTION BOX - BLUE BOX", "address": {"city": "STATEN ISLAND", "state": "NY", "street": "385 BAY ST", "postcode": "10301"}}},
{"geometry": {"type": "Point", "coordinates": [-74.0818735846, 40.6406067924]}, "type": "Feature", "properties": {"collection_times": [{"days": "Mon-Fri", "time": "1:30pm"}, {"days": "Sat", "time": "12:30pm"}, {"days": "Sun", "time": "Closed"}], "id": "1030100032", "name": "USPS COLLECTION BOX - BLUE BOX", "address": {"city": "STATEN ISLAND", "state": "NY", "street": "20 HENDRICKS AVE", "postcode": "10301"}}},
{"geometry": {"type": "Point", "coordinates": [-74.0809323656, 40.6371594968]}, "type": "Feature", "properties": {"collection_times": [{"days": "Mon-Fri", "time": "1:30pm"}, {"days": "Sat", "time": "12:30pm"}, {"days": "Sun", "time": "Closed"}], "id": "1030100033", "name": "USPS COLLECTION BOX - BLUE BOX", "address": {"city": "STATEN ISLAND", "state": "NY", "street": "149 VICTORY BLVD", "postcode": "10301"}}},
{"geometry": {"type": "Point", "coordinates": [-74.0799534656, 40.6418518461]}, "type": "Feature", "properties": {"collection_times": [{"days": "Mon-Fri", "time": "1:30pm"}, {"days": "Sat", "time": "12:30pm"}, {"days": "Sun", "time": "Closed"}], "id": "1030100035", "name": "USPS COLLECTION BOX - BLUE BOX", "address": {"city": "STATEN ISLAND", "state": "NY", "street": "49 FORT PL", "postcode": "10301"}}},
{"geometry": {"type": "Point", "coordinates": [-74.0871499657, 40.6447737179]}, "type": "Feature", "properties": {"collection_times": [{"days": "Mon-Fri", "time": "1:30pm"}, {"days": "Sat", "time": "12:30pm"}, {"days": "Sun", "time": "Closed"}], "id": "1030100036", "name": "USPS COLLECTION BOX - BLUE BOX", "address": {"city": "STATEN ISLAND", "state": "NY", "street": "121 JERSEY ST", "postcode": "10301"}}},
{"geometry": {"type": "Point", "coordinates": [-74.0960752341, 40.6419730528]}, "type": "Feature", "properties": {"collection_times": [{"days": "Mon-Fri", "time": "12:30pm"}, {"days": "Sat", "time": "11:30am"}, {"days": "Sun", "time": "Closed"}], "id": "1030100040", "name": "USPS COLLECTION BOX - BLUE BOX", "address": {"city": "STATEN ISLAND", "state": "NY", "street": "125 CASSIDY PL", "postcode": "10301"}}},
{"geometry": {"type": "Point", "coordinates": [-74.0873531147, 40.6380289438]}, "type": "Feature", "properties": {"collection_times": [{"days": "Mon-Fri", "time": "1:30pm"}, {"days": "Sat", "time": "12:30pm"}, {"days": "Sun", "time": "Closed"}], "id": "1030100046", "name": "USPS COLLECTION BOX - BLUE BOX", "address": {"city": "STATEN ISLAND", "state": "NY", "street": "429 JERSEY ST", "postcode": "10301"}}},
{"geometry": {"type": "Point", "coordinates": [-74.092433585, 40.633400235]}, "type": "Feature", "properties": {"collection_times": [{"days": "Mon-Fri", "time": "12:30pm"}, {"days": "Sat", "time": "11:30am"}, {"days": "Sun", "time": "Closed"}], "id": "1030100048", "name": "USPS COLLECTION BOX - BLUE BOX", "address": {"city": "STATEN ISLAND", "state": "NY", "street": "275 CASTLETON AVE", "postcode": "10301"}}},
{"geometry": {"type": "Point", "coordinates": [-74.1026551688, 40.6349078483]}, "type": "Feature", "properties": {"collection_times": [{"days": "Mon-Fri", "time": "1:00pm"}, {"days": "Sat", "time": "12:00pm"}, {"days": "Sun", "time": "Closed"}], "id": "1030100050", "name": "USPS COLLECTION BOX - BLUE BOX", "address": {"city": "STATEN ISLAND", "state": "NY", "street": "88 CONYINGHAM AVE", "postcode": "10301"}}},
{"geometry": {"type": "Point", "coordinates": [-74.1001852387, 40.6302779377]}, "type": "Feature", "properties": {"collection_times": [{"days": "Mon-Fri", "time": "1:00pm"}, {"days": "Sat", "time": "12:00pm"}, {"days": "Sun", "time": "Closed"}], "id": "1030100052", "name": "USPS COLLECTION BOX - BLUE BOX", "address": {"city": "STATEN ISLAND", "state": "NY", "street": "215 HART BLVD", "postcode": "10301"}}},
{"geometry": {"type": "Point", "coordinates": [-74.1024388633, 40.6310059345]}, "type": "Feature", "properties": {"collection_times": [{"days": "Mon-Fri", "time": "1:00pm"}, {"days": "Sat", "time": "12:00pm"}, {"days": "Sun", "time": "Closed"}], "id": "1030100054", "name": "USPS COLLECTION BOX - BLUE BOX", "address": {"city": "STATEN ISLAND", "state": "NY", "street": "395 FOREST AVE", "postcode": "10301"}}},
{"geometry": {"type": "Point", "coordinates": [-74.0887931058, 40.6321400787]}, "type": "Feature", "properties": {"collection_times": [{"days": "Mon-Fri", "time": "12:30pm"}, {"days": "Sat", "time": "12:00pm"}, {"days": "Sun", "time": "Closed"}], "id": "1030100056", "name": "USPS COLLECTION BOX - BLUE BOX", "address": {"city": "STATEN ISLAND", "state": "NY", "street": "392 WOODSTOCK AVE", "postcode": "10301"}}},
{"geometry": {"type": "Point", "coordinates": [-74.0899691915, 40.6306500742]}, "type": "Feature", "properties": {"collection_times": [{"days": "Mon-Fri", "time": "1:00pm"}, {"days": "Sat", "time": "12:00pm"}, {"days": "Sun", "time": "Closed"}], "id": "1030100057", "name": "USPS COLLECTION BOX - BLUE BOX", "address": {"city": "STATEN ISLAND", "state": "NY", "street": "25 FOREST AVE", "postcode": "10301"}}},
{"geometry": {"type": "Point", "coordinates": [-74.0972248331, 40.6217431564]}, "type": "Feature", "properties": {"collection_times": [{"days": "Mon-Fri", "time": "3:00pm"}, {"days": "Sat", "time": "1:30pm"}, {"days": "Sun", "time": "Closed"}], "id": "1030100058", "name": "USPS COLLECTION BOX - BLUE BOX", "address": {"city": "STATEN ISLAND", "state": "NY", "street": "937 VICTORY BLVD", "postcode": "10301"}}},
{"geometry": {"type": "Point", "coordinates": [-74.077850011, 40.6411029005]}, "type": "Feature", "properties": {"collection_times": [{"days": "Mon-Fri", "time": "4:00pm"}, {"days": "Sat", "time": "1:30pm"}, {"days": "Sun", "time": "Closed"}], "id": "1030100062", "name": "USPS COLLECTION BOX - BLUE BOX", "address": {"city": "STATEN ISLAND", "state": "NY", "street": "350 SAINT MARKS PL", "postcode": "10301"}}},
{"geometry": {"type": "Point", "coordinates": [-74.0905819398, 40.6399206885]}, "type": "Feature", "properties": {"collection_times": [{"days": "Mon-Fri", "time": "12:30pm"}, {"days": "Sat", "time": "11:30am"}, {"days": "Sun", "time": "Closed"}], "id": "1030100082", "name": "USPS COLLECTION BOX - BLUE BOX", "address": {"city": "STATEN ISLAND", "state": "NY", "street": "77 PROSPECT AVE", "postcode": "10301"}}},
{"geometry": {"type": "Point", "coordinates": [-74.0756611294, 40.641039329]}, "type": "Feature", "properties": {"collection_times": [{"days": "Mon-Fri", "time": "2:00pm"}, {"days": "Sat", "time": "12:00pm"}, {"days": "Sun", "time": "Closed"}], "id": "1030100110", "name": "USPS COLLECTION BOX - PO LOBBY", "address": {"city": "STATEN ISLAND", "state": "NY", "street": "45 BAY ST", "postcode": "10301"}}},
{"geometry": {"type": "Point", "coordinates": [-74.1372053577, 40.6360427647]}, "type": "Feature", "properties": {"collection_times": [{"days": "Mon-Fri", "time": "9:30am"}, {"days": "Sat", "time": "8:30am"}, {"days": "Sun", "time": "Closed"}], "id": "1030200007", "name": "USPS COLLECTION BOX - BLUE BOX", "address": {"city": "STATEN ISLAND", "state": "NY", "street": "1616 CASTLETON AVE", "postcode": "10302"}}},
{"geometry": {"type": "Point", "coordinates": [-74.1377759813, 40.6308744892]}, "type": "Feature", "properties": {"collection_times": [{"days": "Mon-Fri", "time": "9:30am"}, {"days": "Sat", "time": "8:30am"}, {"days": "Sun", "time": "Closed"}], "id": "1030200008", "name": "USPS COLLECTION BOX - BLUE BOX", "address": {"city": "STATEN ISLAND", "state": "NY", "street": "221 PT RICHMOND AVE", "postcode": "10302"}}},
{"geometry": {"type": "Point", "coordinates": [-74.1335856242, 40.6314033981]}, "type": "Feature", "properties": {"collection_times": [{"days": "Mon-Fri", "time": "9:30am"}, {"days": "Sat", "time": "8:30am"}, {"days": "Sun", "time": "Closed"}], "id": "1030200012", "name": "USPS COLLECTION BOX - BLUE BOX", "address": {"city": "STATEN ISLAND", "state": "NY", "street": "30 DECKER AVE", "postcode": "10302"}}},
{"geometry": {"type": "Point", "coordinates": [-74.131947003, 40.6264071581]}, "type": "Feature", "properties": {"collection_times": [{"days": "Mon-Fri", "time": "9:00am"}, {"days": "Sat", "time": "8:00am"}, {"days": "Sun", "time": "Closed"}], "id": "1030200013", "name": "USPS COLLECTION BOX - BLUE BOX", "address": {"city": "STATEN ISLAND", "state": "NY", "street": "1267 FOREST AVE", "postcode": "10302"}}},
{"geometry": {"type": "Point", "coordinates": [-74.1424685535, 40.6248127835]}, "type": "Feature", "properties": {"collection_times": [{"days": "Mon-Fri", "time": "9:30am"}, {"days": "Sat", "time": "8:00am"}, {"days": "Sun", "time": "Closed"}], "id": "1030200015", "name": "USPS COLLECTION BOX - BLUE BOX", "address": {"city": "STATEN ISLAND", "state": "NY", "street": "1625 FOREST AVE", "postcode": "10302"}}},
{"geometry": {"type": "Point", "coordinates": [-74.1368699109, 40.6288247601]}, "type": "Feature", "properties": {"collection_times": [{"days": "Mon-Fri", "time": "9:30am"}, {"days": "Sat", "time": "8:30am"}, {"days": "Sun", "time": "Closed"}], "id": "1030200016", "name": "USPS COLLECTION BOX - BLUE BOX", "address": {"city": "STATEN ISLAND", "state": "NY", "street": "135 CATHERINE ST", "postcode": "10302"}}},
{"geometry": {"type": "Point", "coordinates": [-74.1396433919, 40.62443883]}, "type": "Feature", "properties": {"collection_times": [{"days": "Mon-Fri", "time": "9:00am"}, {"days": "Sat", "time": "8:00am"}, {"days": "Sun", "time": "Closed"}], "id": "1030200020", "name": "USPS COLLECTION BOX - BLUE BOX", "address": {"city": "STATEN ISLAND", "state": "NY", "street": "1509 FOREST AVE", "postcode": "10302"}}},
{"geometry": {"type": "Point", "coordinates": [-74.1535347099, 40.6319524367]}, "type": "Feature", "properties": {"collection_times": [{"days": "Mon-Fri", "time": "10:00am"}, {"days": "Sat", "time": "9:00am"}, {"days": "Sun", "time": "Closed"}], "id": "1030300004", "name": "USPS COLLECTION BOX - BLUE BOX", "address": {"city": "STATEN ISLAND", "state": "NY", "street": "175 VAN NAME AVE", "postcode": "10303"}}},
{"geometry": {"type": "Point", "coordinates": [-74.156568935, 40.6317178303]}, "type": "Feature", "properties": {"collection_times": [{"days": "Mon-Fri", "time": "10:00am"}, {"days": "Sat", "time": "9:00am"}, {"days": "Sun", "time": "Closed"}], "id": "1030300005", "name": "USPS COLLECTION BOX - BLUE BOX", "address": {"city": "STATEN ISLAND", "state": "NY", "street": "80 MAPLE PKWY", "postcode": "10303"}}},
{"geometry": {"type": "Point", "coordinates": [-74.1585256095, 40.6264129931]}, "type": "Feature", "properties": {"collection_times": [{"days": "Mon-Fri", "time": "5:00pm"}, {"days": "Sat", "time": "4:00pm"}, {"days": "Sun", "time": "Closed"}], "id": "1030300007", "name": "USPS COLLECTION BOX - BLUE BOX", "address": {"city": "STATEN ISLAND", "state": "NY", "street": "2079 FOREST AVE", "postcode": "10303"}}},
{"geometry": {"type": "Point", "coordinates": [-74.1651719393, 40.6321066092]}, "type": "Feature", "properties": {"collection_times": [{"days": "Mon-Fri", "time": "10:00am"}, {"days": "Sat", "time": "9:00am"}, {"days": "Sun", "time": "Closed"}], "id": "1030300008", "name": "USPS COLLECTION BOX - BLUE BOX", "address": {"city": "STATEN ISLAND", "state": "NY", "street": "351 GRANDVIEW AVE", "postcode": "10303"}}},
{"geometry": {"type": "Point", "coordinates": [-74.167519318, 40.637488093]}, "type": "Feature", "properties": {"collection_times": [{"days": "Mon-Fri", "time": "10:30am"}, {"days": "Sat", "time": "9:30am"}, {"days": "Sun", "time": "Closed"}], "id": "1030300009", "name": "USPS COLLECTION BOX - BLUE BOX", "address": {"city": "STATEN ISLAND", "state": "NY", "street": "122 ARLINGTON AVE", "postcode": "10303"}}},
{"geometry": {"type": "Point", "coordinates": [-74.1713148637, 40.6388431462]}, "type": "Feature", "properties": {"collection_times": [{"days": "Mon-Fri", "time": "10:30am"}, {"days": "Sat", "time": "9:30am"}, {"days": "Sun", "time": "Closed"}], "id": "1030300010", "name": "USPS COLLECTION BOX - BLUE BOX", "address": {"city": "STATEN ISLAND", "state": "NY", "street": "60 HOLLAND AVE", "postcode": "10303"}}},
{"geometry": {"type": "Point", "coordinates": [-74.1628853368, 40.6233941573]}, "type": "Feature", "properties": {"collection_times": [{"days": "Mon-Fri", "time": "11:00am"}, {"days": "Sat", "time": "10:00am"}, {"days": "Sun", "time": "Closed"}], "id": "1030300012", "name": "USPS COLLECTION BOX - BLUE BOX", "address": {"city": "STATEN ISLAND", "state": "NY", "street": "29 AMADOR ST", "postcode": "10303"}}},
{"geometry": {"type": "Point", "coordinates": [-74.1639659607, 40.6256906211]}, "type": "Feature", "properties": {"collection_times": [{"days": "Mon-Fri", "time": "11:00am"}, {"days": "Sat", "time": "10:00am"}, {"days": "Sun", "time": "Closed"}], "id": "1030300013", "name": "USPS COLLECTION BOX - BLUE BOX", "address": {"city": "STATEN ISLAND", "state": "NY", "street": "57 SPARTAN AVE", "postcode": "10303"}}},
{"geometry": {"type": "Point", "coordinates": [-74.1478884388, 40.6280376511]}, "type": "Feature", "properties": {"collection_times": [{"days": "Mon-Fri", "time": "10:00am"}, {"days": "Sat", "time": "9:00am"}, {"days": "Sun", "time": "Closed"}], "id": "1030300018", "name": "USPS COLLECTION BOX - BLUE BOX", "address": {"city": "STATEN ISLAND", "state": "NY", "street": "427 MORNINGSTAR RD", "postcode": "10303"}}},
{"geometry": {"type": "Point", "coordinates": [-74.1585256095, 40.6264129931]}, "type": "Feature", "properties": {"collection_times": [{"days": "Mon-Fri", "time": "5:00pm"}, {"days": "Sat", "time": "4:00pm"}, {"days": "Sun", "time": "Closed"}], "id": "1030300020", "name": "USPS COLLECTION BOX - BLUE BOX", "address": {"city": "STATEN ISLAND", "state": "NY", "street": "2079 FOREST AVE", "postcode": "10303"}}},
{"geometry": {"type": "Point", "coordinates": [-74.1585256095, 40.6264129931]}, "type": "Feature", "properties": {"collection_times": [{"days": "Mon-Fri", "time": "3:00pm"}, {"days": "Sat", "time": "12:00pm"}, {"days": "Sun", "time": "Closed"}], "id": "1030300022", "name": "USPS COLLECTION BOX - PO LOBBY", "address": {"city": "STATEN ISLAND", "state": "NY", "street": "2079 FOREST AVE", "postcode": "10303"}}},
{"geometry": {"type": "Point", "coordinates": [-74.0774651884, 40.6206548976]}, "type": "Feature", "properties": {"collection_times": [{"days": "Mon-Fri", "time": "5:00pm"}, {"days": "Sat", "time": "4:00pm"}, {"days": "Sun", "time": "Closed"}], "id": "1030400001", "name": "USPS COLLECTION BOX - BLUE BOX", "address": {"city": "STATEN ISLAND", "state": "NY", "street": "160 TOMPKINS AVE", "postcode": "10304"}}},
{"geometry": {"type": "Point", "coordinates": [-74.0774651884, 40.6206548976]}, "type": "Feature", "properties": {"collection_times": [{"days": "Mon-Fri", "time": "5:00pm"}, {"days": "Sat", "time": "4:00pm"}, {"days": "Sun", "time": "Closed"}], "id": "1030400002", "name": "USPS COLLECTION BOX - BLUE BOX", "address": {"city": "STATEN ISLAND", "state": "NY", "street": "160 TOMPKINS AVE", "postcode": "10304"}}},
{"geometry": {"type": "Point", "coordinates": [-74.0857444624, 40.6313108947]}, "type": "Feature", "properties": {"collection_times": [{"days": "Mon-Fri", "time": "1:00pm"}, {"days": "Sat", "time": "12:00pm"}, {"days": "Sun", "time": "Closed"}], "id": "1030400003", "name": "USPS COLLECTION BOX - BLUE BOX", "address": {"city": "STATEN ISLAND", "state": "NY", "street": "55 AUSTIN PL", "postcode": "10304"}}},
{"geometry": {"type": "Point", "coordinates": [-74.0833606403, 40.6253588394]}, "type": "Feature", "properties": {"collection_times": [{"days": "Mon-Fri", "time": "2:30pm"}, {"days": "Sat", "time": "1:30pm"}, {"days": "Sun", "time": "Closed"}], "id": "1030400012", "name": "USPS COLLECTION BOX - BLUE BOX", "address": {"city": "STATEN ISLAND", "state": "NY", "street": "67 TARGEE ST", "postcode": "10304"}}},
{"geometry": {"type": "Point", "coordinates": [-74.081392469, 40.6241447574]}, "type": "Feature", "properties": {"collection_times": [{"days": "Mon-Fri", "time": "2:30pm"}, {"days": "Sat", "time": "1:30pm"}, {"days": "Sun", "time": "Closed"}], "id": "1030400014", "name": "USPS COLLECTION BOX - BLUE BOX", "address": {"city": "STATEN ISLAND", "state": "NY", "street": "173 BROAD ST", "postcode": "10304"}}},
{"geometry": {"type": "Point", "coordinates": [-74.076742068, 40.627385307]}, "type": "Feature", "properties": {"collection_times": [{"days": "Mon-Fri", "time": "3:00pm"}, {"days": "Sat", "time": "1:30pm"}, {"days": "Sun", "time": "Closed"}], "id": "1030400017", "name": "USPS COLLECTION BOX - BLUE BOX", "address": {"city": "STATEN ISLAND", "state": "NY", "street": "15 BEACH ST", "postcode": "10304"}}},
{"geometry": {"type": "Point", "coordinates": [-74.0909085963, 40.6085403202]}, "type": "Feature", "properties": {"collection_times": [{"days": "Mon-Fri", "time": "9:00am"}, {"days": "Sat", "time": "8:00am"}, {"days": "Sun", "time": "Closed"}], "id": "1030400018", "name": "USPS COLLECTION BOX - BLUE BOX", "address": {"city": "STATEN ISLAND", "state": "NY", "street": "1796 CLOVE RD", "postcode": "10304"}}},
{"geometry": {"type": "Point", "coordinates": [-74.0866362611, 40.6059806493]}, "type": "Feature", "properties": {"collection_times": [{"days": "Mon-Fri", "time": "9:00am"}, {"days": "Sat", "time": "8:00am"}, {"days": "Sun", "time": "Closed"}], "id": "1030400019", "name": "USPS COLLECTION BOX - BLUE BOX", "address": {"city": "STATEN ISLAND", "state": "NY", "street": "1950 CLOVE RD", "postcode": "10304"}}},
{"geometry": {"type": "Point", "coordinates": [-74.0890336423, 40.5960138572]}, "type": "Feature", "properties": {"collection_times": [{"days": "Mon-Fri", "time": "9:00am"}, {"days": "Sat", "time": "8:00am"}, {"days": "Sun", "time": "Closed"}], "id": "1030400020", "name": "USPS COLLECTION BOX - BLUE BOX", "address": {"city": "STATEN ISLAND", "state": "NY", "street": "120 OLD TOWN RD", "postcode": "10304"}}},
{"geometry": {"type": "Point", "coordinates": [-74.0967919609, 40.5955249219]}, "type": "Feature", "properties": {"collection_times": [{"days": "Mon-Fri", "time": "9:30am"}, {"days": "Sat", "time": "8:30am"}, {"days": "Sun", "time": "Closed"}], "id": "1030400021", "name": "USPS COLLECTION BOX - BLUE BOX", "address": {"city": "STATEN ISLAND", "state": "NY", "street": "1358 RICHMOND RD", "postcode": "10304"}}},
{"geometry": {"type": "Point", "coordinates": [-74.0935018178, 40.596852989]}, "type": "Feature", "properties": {"collection_times": [{"days": "Mon-Fri", "time": "9:30am"}, {"days": "Sat", "time": "8:30am"}, {"days": "Sun", "time": "Closed"}], "id": "1030400022", "name": "USPS COLLECTION BOX - BLUE BOX", "address": {"city": "STATEN ISLAND", "state": "NY", "street": "1244 RICHMOND RD", "postcode": "10304"}}},
{"geometry": {"type": "Point", "coordinates": [-74.0948903021, 40.600310177]}, "type": "Feature", "properties": {"collection_times": [{"days": "Mon-Fri", "time": "9:30am"}, {"days": "Sat", "time": "8:30am"}, {"days": "Sun", "time": "Closed"}], "id": "1030400023", "name": "USPS COLLECTION BOX - BLUE BOX", "address": {"city": "STATEN ISLAND", "state": "NY", "street": "106 SPARKILL AVE", "postcode": "10304"}}},
{"geometry": {"type": "Point", "coordinates": [-74.092724213, 40.6029522631]}, "type": "Feature", "properties": {"collection_times": [{"days": "Mon-Fri", "time": "9:30am"}, {"days": "Sat", "time": "8:30am"}, {"days": "Sun", "time": "Closed"}], "id": "1030400024", "name": "USPS COLLECTION BOX - BLUE BOX", "address": {"city": "STATEN ISLAND", "state": "NY", "street": "979 RICHMOND RD", "postcode": "10304"}}},
{"geometry": {"type": "Point", "coordinates": [-74.0894842525, 40.6075527299]}, "type": "Feature", "properties": {"collection_times": [{"days": "Mon-Fri", "time": "9:30am"}, {"days": "Sat", "time": "8:30am"}, {"days": "Sun", "time": "Closed"}], "id": "1030400026", "name": "USPS COLLECTION BOX - BLUE BOX", "address": {"city": "STATEN ISLAND", "state": "NY", "street": "845 TARGEE ST", "postcode": "10304"}}},
{"geometry": {"type": "Point", "coordinates": [-74.083181882, 40.608925146]}, "type": "Feature", "properties": {"collection_times": [{"days": "Mon-Fri", "time": "9:30am"}, {"days": "Sat", "time": "8:30am"}, {"days": "Sun", "time": "Closed"}], "id": "1030400027", "name": "USPS COLLECTION BOX - BLUE BOX", "address": {"city": "STATEN ISLAND", "state": "NY", "street": "195 STEUBEN ST", "postcode": "10304"}}},
{"geometry": {"type": "Point", "coordinates": [-74.082427437, 40.614164933]}, "type": "Feature", "properties": {"collection_times": [{"days": "Mon-Fri", "time": "9:30am"}, {"days": "Sat", "time": "8:30am"}, {"days": "Sun", "time": "Closed"}], "id": "1030400028", "name": "USPS COLLECTION BOX - BLUE BOX", "address": {"city": "STATEN ISLAND", "state": "NY", "street": "225 PARKHILL AVE", "postcode": "10304"}}},
{"geometry": {"type": "Point", "coordinates": [-74.072069, 40.6217626469]}, "type": "Feature", "properties": {"collection_times": [{"days": "Mon-Fri", "time": "9:30am"}, {"days": "Sat", "time": "8:30am"}, {"days": "Sun", "time": "Closed"}], "id": "1030400036", "name": "USPS COLLECTION BOX - BLUE BOX", "address": {"city": "STATEN ISLAND", "state": "NY", "street": "852 BAY ST", "postcode": "10304"}}},
{"geometry": {"type": "Point", "coordinates": [-74.0977989678, 40.5911425965]}, "type": "Feature", "properties": {"collection_times": [{"days": "Mon-Fri", "time": "11:00am"}, {"days": "Sat", "time": "10:00am"}, {"days": "Sun", "time": "Closed"}], "id": "1030400037", "name": "USPS COLLECTION BOX - BLUE BOX", "address": {"city": "STATEN ISLAND", "state": "NY", "street": "101 CROMWELL AVE", "postcode": "10304"}}},
{"geometry": {"type": "Point", "coordinates": [-74.1007634155, 40.5926125292]}, "type": "Feature", "properties": {"collection_times": [{"days": "Mon-Fri", "time": "1:00pm"}, {"days": "Sat", "time": "10:00am"}, {"days": "Sun", "time": "Closed"}], "id": "1030400038", "name": "USPS COLLECTION BOX - BLUE BOX", "address": {"city": "STATEN ISLAND", "state": "NY", "street": "1550 RICHMOND RD", "postcode": "10304"}}},
{"geometry": {"type": "Point", "coordinates": [-74.0958477452, 40.5892831691]}, "type": "Feature", "properties": {"collection_times": [{"days": "Mon-Fri", "time": "11:00am"}, {"days": "Sat", "time": "10:00am"}, {"days": "Sun", "time": "Closed"}], "id": "1030400040", "name": "USPS COLLECTION BOX - BLUE BOX", "address": {"city": "STATEN ISLAND", "state": "NY", "street": "629 N RAILROAD AVE", "postcode": "10304"}}},
{"geometry": {"type": "Point", "coordinates": [-74.0984170321, 40.5896757694]}, "type": "Feature", "properties": {"collection_times": [{"days": "Mon-Fri", "time": "11:00am"}, {"days": "Sat", "time": "10:00am"}, {"days": "Sun", "time": "Closed"}], "id": "1030400041", "name": "USPS COLLECTION BOX - BLUE BOX", "address": {"city": "STATEN ISLAND", "state": "NY", "street": "90 SEAVIEW AVE", "postcode": "10304"}}},
{"geometry": {"type": "Point", "coordinates": [-74.1043954837, 40.5892756833]}, "type": "Feature", "properties": {"collection_times": [{"days": "Mon-Fri", "time": "11:00am"}, {"days": "Sat", "time": "10:00am"}, {"days": "Sun", "time": "Closed"}], "id": "1030400042", "name": "USPS COLLECTION BOX - BLUE BOX", "address": {"city": "STATEN ISLAND", "state": "NY", "street": "56 EASTENTRY RD", "postcode": "10304"}}},
{"geometry": {"type": "Point", "coordinates": [-74.0751593182, 40.6211771466]}, "type": "Feature", "properties": {"collection_times": [{"days": "Mon-Fri", "time": "9:30am"}, {"days": "Sat", "time": "8:30am"}, {"days": "Sun", "time": "Closed"}], "id": "1030400046", "name": "USPS COLLECTION BOX - BLUE BOX", "address": {"city": "STATEN ISLAND", "state": "NY", "street": "75 VANDERBILT AVE", "postcode": "10304"}}},
{"geometry": {"type": "Point", "coordinates": [-74.0774651884, 40.6206548976]}, "type": "Feature", "properties": {"collection_times": [{"days": "Mon-Fri", "time": "3:00pm"}, {"days": "Sat", "time": "12:00pm"}, {"days": "Sun", "time": "Closed"}], "id": "1030400048", "name": "USPS COLLECTION BOX - PO LOBBY", "address": {"city": "STATEN ISLAND", "state": "NY", "street": "160 TOMPKINS AVE", "postcode": "10304"}}},
{"geometry": {"type": "Point", "coordinates": [-74.0708937116, 40.6121697297]}, "type": "Feature", "properties": {"collection_times": [{"days": "Mon-Fri", "time": "5:00pm"}, {"days": "Sat", "time": "4:00pm"}, {"days": "Sun", "time": "Closed"}], "id": "1030500001", "name": "USPS COLLECTION BOX - BLUE BOX", "address": {"city": "STATEN ISLAND", "state": "NY", "street": "567 TOMPKINS AVE", "postcode": "10305"}}},
{"geometry": {"type": "Point", "coordinates": [-74.0708937116, 40.6121697297]}, "type": "Feature", "properties": {"collection_times": [{"days": "Mon-Fri", "time": "5:00pm"}, {"days": "Sat", "time": "4:00pm"}, {"days": "Sun", "time": "Closed"}], "id": "1030500002", "name": "USPS COLLECTION BOX - BLUE BOX", "address": {"city": "STATEN ISLAND", "state": "NY", "street": "567 TOMPKINS AVE", "postcode": "10305"}}},
{"geometry": {"type": "Point", "coordinates": [-74.0832859187, 40.6035498008]}, "type": "Feature", "properties": {"collection_times": [{"days": "Mon-Fri", "time": "9:00am"}, {"days": "Sat", "time": "8:00am"}, {"days": "Sun", "time": "Closed"}], "id": "1030500003", "name": "USPS COLLECTION BOX - BLUE BOX", "address": {"city": "STATEN ISLAND", "state": "NY", "street": "2095 CLOVE RD", "postcode": "10305"}}},
{"geometry": {"type": "Point", "coordinates": [-74.0875037026, 40.6010801927]}, "type": "Feature", "properties": {"collection_times": [{"days": "Mon-Fri", "time": "1:00pm"}, {"days": "Sat", "time": "8:00am"}, {"days": "Sun", "time": "Closed"}], "id": "1030500005", "name": "USPS COLLECTION BOX - BLUE BOX", "address": {"city": "STATEN ISLAND", "state": "NY", "street": "950 W FINGERBOARD RD", "postcode": "10305"}}},
{"geometry": {"type": "Point", "coordinates": [-74.0747586026, 40.5992701546]}, "type": "Feature", "properties": {"collection_times": [{"days": "Mon-Fri", "time": "9:30am"}, {"days": "Sat", "time": "8:30am"}, {"days": "Sun", "time": "Closed"}], "id": "1030500010", "name": "USPS COLLECTION BOX - BLUE BOX", "address": {"city": "STATEN ISLAND", "state": "NY", "street": "1191 BAY ST", "postcode": "10305"}}},
{"geometry": {"type": "Point", "coordinates": [-74.0612401728, 40.6073551072]}, "type": "Feature", "properties": {"collection_times": [{"days": "Mon-Fri", "time": "9:30am"}, {"days": "Sat", "time": "8:30am"}, {"days": "Sun", "time": "Closed"}], "id": "1030500013", "name": "USPS COLLECTION BOX - BLUE BOX", "address": {"city": "STATEN ISLAND", "state": "NY", "street": "1488 BAY ST", "postcode": "10305"}}},
{"geometry": {"type": "Point", "coordinates": [-74.0579045102, 40.606849253]}, "type": "Feature", "properties": {"collection_times": [{"days": "Mon-Fri", "time": "10:00am"}, {"days": "Sat", "time": "9:00am"}, {"days": "Sun", "time": "Closed"}], "id": "1030500014", "name": "USPS COLLECTION BOX - BLUE BOX", "address": {"city": "STATEN ISLAND", "state": "NY", "street": "110 MONT SEC AVE", "postcode": "10305"}}},
{"geometry": {"type": "Point", "coordinates": [-74.0689405565, 40.6046899296]}, "type": "Feature", "properties": {"collection_times": [{"days": "Mon-Fri", "time": "10:00am"}, {"days": "Sat", "time": "9:00am"}, {"days": "Sun", "time": "Closed"}], "id": "1030500016", "name": "USPS COLLECTION BOX - BLUE BOX", "address": {"city": "STATEN ISLAND", "state": "NY", "street": "275 FINGERBOARD RD", "postcode": "10305"}}},
{"geometry": {"type": "Point", "coordinates": [-74.0720273323, 40.6021769748]}, "type": "Feature", "properties": {"collection_times": [{"days": "Mon-Fri", "time": "10:00am"}, {"days": "Sat", "time": "9:00am"}, {"days": "Sun", "time": "Closed"}], "id": "1030500020", "name": "USPS COLLECTION BOX - BLUE BOX", "address": {"city": "STATEN ISLAND", "state": "NY", "street": "322 GRASMERE DR", "postcode": "10305"}}},
{"geometry": {"type": "Point", "coordinates": [-74.0750767387, 40.596153345]}, "type": "Feature", "properties": {"collection_times": [{"days": "Mon-Fri", "time": "10:00am"}, {"days": "Sat", "time": "9:00am"}, {"days": "Sun", "time": "Closed"}], "id": "1030500021", "name": "USPS COLLECTION BOX - BLUE BOX", "address": {"city": "STATEN ISLAND", "state": "NY", "street": "3 WINDMERE RD", "postcode": "10305"}}},
{"geometry": {"type": "Point", "coordinates": [-74.080348282, 40.601765909]}, "type": "Feature", "properties": {"collection_times": [{"days": "Mon-Fri", "time": "10:00am"}, {"days": "Sat", "time": "9:00am"}, {"days": "Sun", "time": "Closed"}], "id": "1030500022", "name": "USPS COLLECTION BOX - BLUE BOX", "address": {"city": "STATEN ISLAND", "state": "NY", "street": "791 W FINGERBOARD RD", "postcode": "10305"}}},
{"geometry": {"type": "Point", "coordinates": [-74.0732996227, 40.5979876795]}, "type": "Feature", "properties": {"collection_times": [{"days": "Mon-Fri", "time": "10:00am"}, {"days": "Sat", "time": "9:00am"}, {"days": "Sun", "time": "Closed"}], "id": "1030500024", "name": "USPS COLLECTION BOX - BLUE BOX", "address": {"city": "STATEN ISLAND", "state": "NY", "street": "895 HYLAN BLVD", "postcode": "10305"}}},
{"geometry": {"type": "Point", "coordinates": [-74.0704831898, 40.5966855847]}, "type": "Feature", "properties": {"collection_times": [{"days": "Mon-Fri", "time": "10:00am"}, {"days": "Sat", "time": "9:00am"}, {"days": "Sun", "time": "Closed"}], "id": "1030500025", "name": "USPS COLLECTION BOX - BLUE BOX", "address": {"city": "STATEN ISLAND", "state": "NY", "street": "120 SAN D LN", "postcode": "10305"}}},
{"geometry": {"type": "Point", "coordinates": [-74.0682950824, 40.5926033133]}, "type": "Feature", "properties": {"collection_times": [{"days": "Mon-Fri", "time": "10:30am"}, {"days": "Sat", "time": "9:30am"}, {"days": "Sun", "time": "Closed"}], "id": "1030500026", "name": "USPS COLLECTION BOX - BLUE BOX", "address": {"city": "STATEN ISLAND", "state": "NY", "street": "278 SAND LN", "postcode": "10305"}}},
{"geometry": {"type": "Point", "coordinates": [-74.0750767387, 40.596153345]}, "type": "Feature", "properties": {"collection_times": [{"days": "Mon-Fri", "time": "10:30am"}, {"days": "Sat", "time": "9:30am"}, {"days": "Sun", "time": "Closed"}], "id": "1030500027", "name": "USPS COLLECTION BOX - BLUE BOX", "address": {"city": "STATEN ISLAND", "state": "NY", "street": "70 FR CAPODANNO BLVD", "postcode": "10305"}}},
{"geometry": {"type": "Point", "coordinates": [-74.0631675856, 40.5990707247]}, "type": "Feature", "properties": {"collection_times": [{"days": "Mon-Fri", "time": "10:30am"}, {"days": "Sat", "time": "9:30am"}, {"days": "Sun", "time": "Closed"}], "id": "1030500028", "name": "USPS COLLECTION BOX - BLUE BOX", "address": {"city": "STATEN ISLAND", "state": "NY", "street": "40 MCCLEAN AVE", "postcode": "10305"}}},
{"geometry": {"type": "Point", "coordinates": [-74.0666256521, 40.5980591447]}, "type": "Feature", "properties": {"collection_times": [{"days": "Mon-Fri", "time": "10:30am"}, {"days": "Sat", "time": "9:30am"}, {"days": "Sun", "time": "Closed"}], "id": "1030500029", "name": "USPS COLLECTION BOX - BLUE BOX", "address": {"city": "STATEN ISLAND", "state": "NY", "street": "135 MCCLEAN AVE", "postcode": "10305"}}},
{"geometry": {"type": "Point", "coordinates": [-74.0737947097, 40.5959824858]}, "type": "Feature", "properties": {"collection_times": [{"days": "Mon-Fri", "time": "10:30am"}, {"days": "Sat", "time": "9:30am"}, {"days": "Sun", "time": "Closed"}], "id": "1030500030", "name": "USPS COLLECTION BOX - BLUE BOX", "address": {"city": "STATEN ISLAND", "state": "NY", "street": "69 HICKORY AVE", "postcode": "10305"}}},
{"geometry": {"type": "Point", "coordinates": [-74.0773869969, 40.5947904449]}, "type": "Feature", "properties": {"collection_times": [{"days": "Mon-Fri", "time": "10:30am"}, {"days": "Sat", "time": "9:30am"}, {"days": "Sun", "time": "Closed"}], "id": "1030500031", "name": "USPS COLLECTION BOX - BLUE BOX", "address": {"city": "STATEN ISLAND", "state": "NY", "street": "160 LAMPORT BLVD", "postcode": "10305"}}},
{"geometry": {"type": "Point", "coordinates": [-74.0771724477, 40.5911328303]}, "type": "Feature", "properties": {"collection_times": [{"days": "Mon-Fri", "time": "10:30am"}, {"days": "Sat", "time": "9:30am"}, {"days": "Sun", "time": "Closed"}], "id": "1030500032", "name": "USPS COLLECTION BOX - BLUE BOX", "address": {"city": "STATEN ISLAND", "state": "NY", "street": "328 NORWAY AVE", "postcode": "10305"}}},
{"geometry": {"type": "Point", "coordinates": [-74.0727106826, 40.5924278893]}, "type": "Feature", "properties": {"collection_times": [{"days": "Mon-Fri", "time": "10:30am"}, {"days": "Sat", "time": "9:30am"}, {"days": "Sun", "time": "Closed"}], "id": "1030500033", "name": "USPS COLLECTION BOX - BLUE BOX", "address": {"city": "STATEN ISLAND", "state": "NY", "street": "125 OLYMPIA BLVD", "postcode": "10305"}}},
{"geometry": {"type": "Point", "coordinates": [-74.0805896803, 40.5984980576]}, "type": "Feature", "properties": {"collection_times": [{"days": "Mon-Fri", "time": "10:30am"}, {"days": "Sat", "time": "9:30am"}, {"days": "Sun", "time": "Closed"}], "id": "1030500034", "name": "USPS COLLECTION BOX - BLUE BOX", "address": {"city": "STATEN ISLAND", "state": "NY", "street": "1142 HYLAN BLVD", "postcode": "10305"}}},
{"geometry": {"type": "Point", "coordinates": [-74.0834509502, 40.5980964708]}, "type": "Feature", "properties": {"collection_times": [{"days": "Mon-Fri", "time": "10:30am"}, {"days": "Sat", "time": "9:30am"}, {"days": "Sun", "time": "Closed"}], "id": "1030500035", "name": "USPS COLLECTION BOX - BLUE BOX", "address": {"city": "STATEN ISLAND", "state": "NY", "street": "1217 HYLAN BLVD", "postcode": "10305"}}},
{"geometry": {"type": "Point", "coordinates": [-74.0853834618, 40.5971524311]}, "type": "Feature", "properties": {"collection_times": [{"days": "Mon-Fri", "time": "11:00am"}, {"days": "Sat", "time": "10:00am"}, {"days": "Sun", "time": "Closed"}], "id": "1030500036", "name": "USPS COLLECTION BOX - BLUE BOX", "address": {"city": "STATEN ISLAND", "state": "NY", "street": "1305 HYLAN BLVD", "postcode": "10305"}}},
{"geometry": {"type": "Point", "coordinates": [-74.0866726694, 40.5943000131]}, "type": "Feature", "properties": {"collection_times": [{"days": "Mon-Fri", "time": "11:00am"}, {"days": "Sat", "time": "10:00am"}, {"days": "Sun", "time": "Closed"}], "id": "1030500037", "name": "USPS COLLECTION BOX - BLUE BOX", "address": {"city": "STATEN ISLAND", "state": "NY", "street": "1405 HYLAN BLVD", "postcode": "10305"}}},
{"geometry": {"type": "Point", "coordinates": [-74.0877406812, 40.5917541985]}, "type": "Feature", "properties": {"collection_times": [{"days": "Mon-Fri", "time": "11:00am"}, {"days": "Sat", "time": "10:00am"}, {"days": "Sun", "time": "Closed"}], "id": "1030500038", "name": "USPS COLLECTION BOX - BLUE BOX", "address": {"city": "STATEN ISLAND", "state": "NY", "street": "1505 HYLAN BLVD", "postcode": "10305"}}},
{"geometry": {"type": "Point", "coordinates": [-74.0895198422, 40.5896395523]}, "type": "Feature", "properties": {"collection_times": [{"days": "Mon-Fri", "time": "11:00am"}, {"days": "Sat", "time": "10:00am"}, {"days": "Sun", "time": "Closed"}], "id": "1030500039", "name": "USPS COLLECTION BOX - BLUE BOX", "address": {"city": "STATEN ISLAND", "state": "NY", "street": "1605 HYLAN BLVD", "postcode": "10305"}}},
{"geometry": {"type": "Point", "coordinates": [-74.0896632054, 40.5834423249]}, "type": "Feature", "properties": {"collection_times": [{"days": "Mon-Fri", "time": "11:00am"}, {"days": "Sat", "time": "10:00am"}, {"days": "Sun", "time": "Closed"}], "id": "1030500040", "name": "USPS COLLECTION BOX - BLUE BOX", "address": {"city": "STATEN ISLAND", "state": "NY", "street": "388 MASON AVE", "postcode": "10305"}}},
{"geometry": {"type": "Point", "coordinates": [-74.0779146631, 40.5794837763]}, "type": "Feature", "properties": {"collection_times": [{"days": "Mon-Fri", "time": "11:00am"}, {"days": "Sat", "time": "10:00am"}, {"days": "Sun", "time": "Closed"}], "id": "1030500041", "name": "USPS COLLECTION BOX - BLUE BOX", "address": {"city": "STATEN ISLAND", "state": "NY", "street": "785 SEAVIEW AVE", "postcode": "10305"}}},
{"geometry": {"type": "Point", "coordinates": [-74.0869922745, 40.5841405879]}, "type": "Feature", "properties": {"collection_times": [{"days": "Mon-Fri", "time": "1:00pm"}, {"days": "Sat", "time": "10:00am"}, {"days": "Sun", "time": "Closed"}], "id": "1030500043", "name": "USPS COLLECTION BOX - BLUE BOX", "address": {"city": "STATEN ISLAND", "state": "NY", "street": "475 SEAVIEW AVE", "postcode": "10305"}}},
{"geometry": {"type": "Point", "coordinates": [-74.0914034346, 40.5875295557]}, "type": "Feature", "properties": {"collection_times": [{"days": "Mon-Fri", "time": "11:00am"}, {"days": "Sat", "time": "10:00am"}, {"days": "Sun", "time": "Closed"}], "id": "1030500048", "name": "USPS COLLECTION BOX - BLUE BOX", "address": {"city": "STATEN ISLAND", "state": "NY", "street": "1693 HYLAN BLVD", "postcode": "10305"}}},
{"geometry": {"type": "Point", "coordinates": [-74.0939099206, 40.5849937496]}, "type": "Feature", "properties": {"collection_times": [{"days": "Mon-Fri", "time": "11:00am"}, {"days": "Sat-Sun", "time": "Closed"}], "id": "1030500049", "name": "USPS COLLECTION BOX - BLUE BOX", "address": {"city": "STATEN ISLAND", "state": "NY", "street": "1817 HYLAN BLVD", "postcode": "10305"}}},
{"geometry": {"type": "Point", "coordinates": [-75.6107001075, 42.9370820155]}, "type": "Feature", "properties": {"collection_times": [{"days": "Mon-Fri", "time": "4:00pm"}, {"days": "Sat", "time": "8:30am"}, {"days": "Sun", "time": "Closed"}], "id": "1030500051", "name": "USPS COLLECTION BOX - BLUE BOX", "address": {"city": "STATEN ISLAND", "state": "NY", "street": "1 EDGEWATER ST", "postcode": "10305"}}},
{"geometry": {"type": "Point", "coordinates": [-74.0750767387, 40.596153345]}, "type": "Feature", "properties": {"collection_times": [{"days": "Mon-Fri", "time": "10:00am"}, {"days": "Sat", "time": "9:00am"}, {"days": "Sun", "time": "Closed"}], "id": "1030500053", "name": "USPS COLLECTION BOX - BLUE BOX", "address": {"city": "STATEN ISLAND", "state": "NY", "street": "1 MISSOURI LN", "postcode": "10305"}}},
{"geometry": {"type": "Point", "coordinates": [-74.085481899, 40.5830646467]}, "type": "Feature", "properties": {"collection_times": [{"days": "Mon-Fri", "time": "11:00am"}, {"days": "Sat", "time": "10:00am"}, {"days": "Sun", "time": "Closed"}], "id": "1030500054", "name": "USPS COLLECTION BOX - BLUE BOX", "address": {"city": "STATEN ISLAND", "state": "NY", "street": "450 SEAVIEW AVE", "postcode": "10305"}}},
{"geometry": {"type": "Point", "coordinates": [-74.0875037026, 40.6010801927]}, "type": "Feature", "properties": {"collection_times": [{"days": "Mon-Fri", "time": "1:00pm"}, {"days": "Sat", "time": "8:00am"}, {"days": "Sun", "time": "Closed"}], "id": "1030500055", "name": "USPS COLLECTION BOX - BLUE BOX", "address": {"city": "STATEN ISLAND", "state": "NY", "street": "950 W FINGERBOARD RD", "postcode": "10305"}}},
{"geometry": {"type": "Point", "coordinates": [-74.0869922745, 40.5841405879]}, "type": "Feature", "properties": {"collection_times": [{"days": "Mon-Fri", "time": "1:00pm"}, {"days": "Sat", "time": "10:00am"}, {"days": "Sun", "time": "Closed"}], "id": "1030500056", "name": "USPS COLLECTION BOX - BLUE BOX", "address": {"city": "STATEN ISLAND", "state": "NY", "street": "475 SEAVIEW AVE", "postcode": "10305"}}},
{"geometry": {"type": "Point", "coordinates": [-74.1105650434, 40.569489915]}, "type": "Feature", "properties": {"collection_times": [{"days": "Mon-Fri", "time": "5:00pm"}, {"days": "Sat", "time": "4:00pm"}, {"days": "Sun", "time": "Closed"}], "id": "1030600001", "name": "USPS COLLECTION BOX - BLUE BOX", "address": {"city": "STATEN ISLAND", "state": "NY", "street": "2562 HYLAN BLVD", "postcode": "10306"}}},
{"geometry": {"type": "Point", "coordinates": [-74.1105650434, 40.569489915]}, "type": "Feature", "properties": {"collection_times": [{"days": "Mon-Fri", "time": "5:00pm"}, {"days": "Sat", "time": "4:00pm"}, {"days": "Sun", "time": "Closed"}], "id": "1030600002", "name": "USPS COLLECTION BOX - BLUE BOX", "address": {"city": "STATEN ISLAND", "state": "NY", "street": "2562 HYLAN BLVD", "postcode": "10306"}}},
{"geometry": {"type": "Point", "coordinates": [-74.1105650434, 40.569489915]}, "type": "Feature", "properties": {"collection_times": [{"days": "Mon-Fri", "time": "5:00pm"}, {"days": "Sat", "time": "4:00pm"}, {"days": "Sun", "time": "Closed"}], "id": "1030600003", "name": "USPS COLLECTION BOX - BLUE BOX", "address": {"city": "STATEN ISLAND", "state": "NY", "street": "2562 HYLAN BLVD", "postcode": "10306"}}},
{"geometry": {"type": "Point", "coordinates": [-74.1113169292, 40.5817015125]}, "type": "Feature", "properties": {"collection_times": [{"days": "Mon-Fri", "time": "9:00am"}, {"days": "Sat", "time": "8:00am"}, {"days": "Sun", "time": "Closed"}], "id": "1030600006", "name": "USPS COLLECTION BOX - BLUE BOX", "address": {"city": "STATEN ISLAND", "state": "NY", "street": "2086 RICHMOND RD", "postcode": "10306"}}},
{"geometry": {"type": "Point", "coordinates": [-74.1085731197, 40.5792544499]}, "type": "Feature", "properties": {"collection_times": [{"days": "Mon-Fri", "time": "9:00am"}, {"days": "Sat", "time": "8:00am"}, {"days": "Sun", "time": "Closed"}], "id": "1030600007", "name": "USPS COLLECTION BOX - BLUE BOX", "address": {"city": "STATEN ISLAND", "state": "NY", "street": "122 LINCOLN AVE", "postcode": "10306"}}},
{"geometry": {"type": "Point", "coordinates": [-74.1107236557, 40.578535765]}, "type": "Feature", "properties": {"collection_times": [{"days": "Mon-Fri", "time": "9:00am"}, {"days": "Sat", "time": "8:00am"}, {"days": "Sun", "time": "Closed"}], "id": "1030600008", "name": "USPS COLLECTION BOX - BLUE BOX", "address": {"city": "STATEN ISLAND", "state": "NY", "street": "1185 N RAILROAD AVE", "postcode": "10306"}}},
{"geometry": {"type": "Point", "coordinates": [-74.1171023111, 40.5780700575]}, "type": "Feature", "properties": {"collection_times": [{"days": "Mon-Fri", "time": "9:00am"}, {"days": "Sat", "time": "8:00am"}, {"days": "Sun", "time": "Closed"}], "id": "1030600009", "name": "USPS COLLECTION BOX - BLUE BOX", "address": {"city": "STATEN ISLAND", "state": "NY", "street": "2314 RICHMOND RD", "postcode": "10306"}}},
{"geometry": {"type": "Point", "coordinates": [-74.0970614328, 40.5745919122]}, "type": "Feature", "properties": {"collection_times": [{"days": "Mon-Fri", "time": "9:00am"}, {"days": "Sat", "time": "8:30am"}, {"days": "Sun", "time": "Closed"}], "id": "1030600012", "name": "USPS COLLECTION BOX - BLUE BOX", "address": {"city": "STATEN ISLAND", "state": "NY", "street": "463 MIDLAND AVE", "postcode": "10306"}}},
{"geometry": {"type": "Point", "coordinates": [-74.0919663277, 40.5716321411]}, "type": "Feature", "properties": {"collection_times": [{"days": "Mon-Fri", "time": "9:00am"}, {"days": "Sat", "time": "8:30am"}, {"days": "Sun", "time": "Closed"}], "id": "1030600013", "name": "USPS COLLECTION BOX - BLUE BOX", "address": {"city": "STATEN ISLAND", "state": "NY", "street": "608 MIDLAND AVE", "postcode": "10306"}}},
{"geometry": {"type": "Point", "coordinates": [-74.094763364, 40.572008446]}, "type": "Feature", "properties": {"collection_times": [{"days": "Mon-Fri", "time": "9:00am"}, {"days": "Sat", "time": "8:30am"}, {"days": "Sun", "time": "Closed"}], "id": "1030600014", "name": "USPS COLLECTION BOX - BLUE BOX", "address": {"city": "STATEN ISLAND", "state": "NY", "street": "553 LINCOLN AVE", "postcode": "10306"}}},
{"geometry": {"type": "Point", "coordinates": [-74.0958413839, 40.57924618]}, "type": "Feature", "properties": {"collection_times": [{"days": "Mon-Fri", "time": "9:00am"}, {"days": "Sat", "time": "8:00am"}, {"days": "Sun", "time": "Closed"}], "id": "1030600015", "name": "USPS COLLECTION BOX - BLUE BOX", "address": {"city": "STATEN ISLAND", "state": "NY", "street": "346 JEFFERSON AVE", "postcode": "10306"}}},
{"geometry": {"type": "Point", "coordinates": [-74.0999767373, 40.5748280358]}, "type": "Feature", "properties": {"collection_times": [{"days": "Mon-Fri", "time": "9:00am"}, {"days": "Sat", "time": "8:30am"}, {"days": "Sun", "time": "Closed"}], "id": "1030600016", "name": "USPS COLLECTION BOX - BLUE BOX", "address": {"city": "STATEN ISLAND", "state": "NY", "street": "425 LINCOLN AVE", "postcode": "10306"}}},
{"geometry": {"type": "Point", "coordinates": [-74.1094539119, 40.5737893608]}, "type": "Feature", "properties": {"collection_times": [{"days": "Mon-Fri", "time": "9:00am"}, {"days": "Sat", "time": "8:30am"}, {"days": "Sun", "time": "Closed"}], "id": "1030600020", "name": "USPS COLLECTION BOX - BLUE BOX", "address": {"city": "STATEN ISLAND", "state": "NY", "street": "226 CLAWSON ST", "postcode": "10306"}}},
{"geometry": {"type": "Point", "coordinates": [-74.1132226358, 40.5688980334]}, "type": "Feature", "properties": {"collection_times": [{"days": "Mon-Fri", "time": "1:00pm"}, {"days": "Sat", "time": "8:30am"}, {"days": "Sun", "time": "Closed"}], "id": "1030600021", "name": "USPS COLLECTION BOX - BLUE BOX", "address": {"city": "STATEN ISLAND", "state": "NY", "street": "125 STERLING AVE", "postcode": "10306"}}},
{"geometry": {"type": "Point", "coordinates": [-74.1162096401, 40.570592231]}, "type": "Feature", "properties": {"collection_times": [{"days": "Mon-Fri", "time": "9:00am"}, {"days": "Sat", "time": "8:30am"}, {"days": "Sun", "time": "Closed"}], "id": "1030600022", "name": "USPS COLLECTION BOX - BLUE BOX", "address": {"city": "STATEN ISLAND", "state": "NY", "street": "101 10TH ST", "postcode": "10306"}}},
{"geometry": {"type": "Point", "coordinates": [-74.1131467001, 40.5669140381]}, "type": "Feature", "properties": {"collection_times": [{"days": "Mon-Fri", "time": "1:00pm"}, {"days": "Sat", "time": "9:00am"}, {"days": "Sun", "time": "Closed"}], "id": "1030600024", "name": "USPS COLLECTION BOX - BLUE BOX", "address": {"city": "STATEN ISLAND", "state": "NY", "street": "2670 HYLAN BLVD", "postcode": "10306"}}},
{"geometry": {"type": "Point", "coordinates": [-74.1129853981, 40.567072495]}, "type": "Feature", "properties": {"collection_times": [{"days": "Mon-Fri", "time": "1:00pm"}, {"days": "Sat", "time": "9:00am"}, {"days": "Sun", "time": "Closed"}], "id": "1030600025", "name": "USPS COLLECTION BOX - BLUE BOX", "address": {"city": "STATEN ISLAND", "state": "NY", "street": "2660 HYLAN BLVD", "postcode": "10306"}}},
{"geometry": {"type": "Point", "coordinates": [-74.112882765, 40.5619065373]}, "type": "Feature", "properties": {"collection_times": [{"days": "Mon-Fri", "time": "10:00am"}, {"days": "Sat", "time": "9:00am"}, {"days": "Sun", "time": "Closed"}], "id": "1030600027", "name": "USPS COLLECTION BOX - BLUE BOX", "address": {"city": "STATEN ISLAND", "state": "NY", "street": "685 TYSENS LN", "postcode": "10306"}}},
{"geometry": {"type": "Point", "coordinates": [-74.104981351, 40.5615959312]}, "type": "Feature", "properties": {"collection_times": [{"days": "Mon-Fri", "time": "10:00am"}, {"days": "Sat", "time": "9:00am"}, {"days": "Sun", "time": "Closed"}], "id": "1030600028", "name": "USPS COLLECTION BOX - BLUE BOX", "address": {"city": "STATEN ISLAND", "state": "NY", "street": "174 EBBITTS ST", "postcode": "10306"}}},
{"geometry": {"type": "Point", "coordinates": [-74.1024479637, 40.563109721]}, "type": "Feature", "properties": {"collection_times": [{"days": "Mon-Fri", "time": "10:00am"}, {"days": "Sat", "time": "9:00am"}, {"days": "Sun", "time": "Closed"}], "id": "1030600029", "name": "USPS COLLECTION BOX - BLUE BOX", "address": {"city": "STATEN ISLAND", "state": "NY", "street": "113 ROMA AVE", "postcode": "10306"}}},
{"geometry": {"type": "Point", "coordinates": [-74.1028633247, 40.5669943628]}, "type": "Feature", "properties": {"collection_times": [{"days": "Mon-Fri", "time": "10:00am"}, {"days": "Sat", "time": "9:00am"}, {"days": "Sun", "time": "Closed"}], "id": "1030600030", "name": "USPS COLLECTION BOX - BLUE BOX", "address": {"city": "STATEN ISLAND", "state": "NY", "street": "626 NEW DORP LN", "postcode": "10306"}}},
{"geometry": {"type": "Point", "coordinates": [-74.1201151991, 40.5717155464]}, "type": "Feature", "properties": {"collection_times": [{"days": "Mon-Fri", "time": "1:30pm"}, {"days": "Sat", "time": "9:00am"}, {"days": "Sun", "time": "Closed"}], "id": "1030600031", "name": "USPS COLLECTION BOX - BLUE BOX", "address": {"city": "STATEN ISLAND", "state": "NY", "street": "187 NEW DORP PLZ N", "postcode": "10306"}}},
{"geometry": {"type": "Point", "coordinates": [-74.1198365246, 40.5757944011]}, "type": "Feature", "properties": {"collection_times": [{"days": "Mon-Fri", "time": "10:00am"}, {"days": "Sat", "time": "9:00am"}, {"days": "Sun", "time": "Closed"}], "id": "1030600032", "name": "USPS COLLECTION BOX - BLUE BOX", "address": {"city": "STATEN ISLAND", "state": "NY", "street": "2 NEW DORP LN", "postcode": "10306"}}},
{"geometry": {"type": "Point", "coordinates": [-74.117220063, 40.5738503045]}, "type": "Feature", "properties": {"collection_times": [{"days": "Mon-Fri", "time": "1:30pm"}, {"days": "Sat", "time": "9:00am"}, {"days": "Sun", "time": "Closed"}], "id": "1030600033", "name": "USPS COLLECTION BOX - BLUE BOX", "address": {"city": "STATEN ISLAND", "state": "NY", "street": "31 NEW DORP PLZ N", "postcode": "10306"}}},
{"geometry": {"type": "Point", "coordinates": [-74.1174400929, 40.5730597116]}, "type": "Feature", "properties": {"collection_times": [{"days": "Mon-Fri", "time": "1:30pm"}, {"days": "Sat", "time": "9:00am"}, {"days": "Sun", "time": "Closed"}], "id": "1030600036", "name": "USPS COLLECTION BOX - BLUE BOX", "address": {"city": "STATEN ISLAND", "state": "NY", "street": "80 NEW DORP PLZ S", "postcode": "10306"}}},
{"geometry": {"type": "Point", "coordinates": [-74.1212896053, 40.5728564271]}, "type": "Feature", "properties": {"collection_times": [{"days": "Mon-Fri", "time": "11:00am"}, {"days": "Sat", "time": "10:30am"}, {"days": "Sun", "time": "Closed"}], "id": "1030600038", "name": "USPS COLLECTION BOX - BLUE BOX", "address": {"city": "STATEN ISLAND", "state": "NY", "street": "2604 AMBOY RD", "postcode": "10306"}}},
{"geometry": {"type": "Point", "coordinates": [-74.1204915217, 40.5785304306]}, "type": "Feature", "properties": {"collection_times": [{"days": "Mon-Fri", "time": "10:00am"}, {"days": "Sat", "time": "9:00am"}, {"days": "Sun", "time": "Closed"}], "id": "1030600039", "name": "USPS COLLECTION BOX - BLUE BOX", "address": {"city": "STATEN ISLAND", "state": "NY", "street": "39 WALDEN AVE", "postcode": "10306"}}},
{"geometry": {"type": "Point", "coordinates": [-74.1265410111, 40.5761928288]}, "type": "Feature", "properties": {"collection_times": [{"days": "Mon-Fri", "time": "10:00am"}, {"days": "Sat", "time": "9:00am"}, {"days": "Sun", "time": "Closed"}], "id": "1030600040", "name": "USPS COLLECTION BOX - BLUE BOX", "address": {"city": "STATEN ISLAND", "state": "NY", "street": "3150 RICHMOND RD", "postcode": "10306"}}},
{"geometry": {"type": "Point", "coordinates": [-74.1240806109, 40.5757759687]}, "type": "Feature", "properties": {"collection_times": [{"days": "Mon-Fri", "time": "10:00am"}, {"days": "Sat", "time": "9:00am"}, {"days": "Sun", "time": "Closed"}], "id": "1030600041", "name": "USPS COLLECTION BOX - BLUE BOX", "address": {"city": "STATEN ISLAND", "state": "NY", "street": "3080 RICHMOND RD", "postcode": "10306"}}},
{"geometry": {"type": "Point", "coordinates": [-74.1245436967, 40.5693117971]}, "type": "Feature", "properties": {"collection_times": [{"days": "Mon-Fri", "time": "10:30am"}, {"days": "Sat", "time": "9:30am"}, {"days": "Sun", "time": "Closed"}], "id": "1030600042", "name": "USPS COLLECTION BOX - BLUE BOX", "address": {"city": "STATEN ISLAND", "state": "NY", "street": "2781 AMBOY RD", "postcode": "10306"}}},
{"geometry": {"type": "Point", "coordinates": [-74.1336902738, 40.5676138419]}, "type": "Feature", "properties": {"collection_times": [{"days": "Mon-Fri", "time": "11:00am"}, {"days": "Sat", "time": "10:00am"}, {"days": "Sun", "time": "Closed"}], "id": "1030600043", "name": "USPS COLLECTION BOX - BLUE BOX", "address": {"city": "STATEN ISLAND", "state": "NY", "street": "159 WOLVERINE ST", "postcode": "10306"}}},
{"geometry": {"type": "Point", "coordinates": [-74.1322709335, 40.5638361734]}, "type": "Feature", "properties": {"collection_times": [{"days": "Mon-Fri", "time": "1:30pm"}, {"days": "Sat", "time": "10:30am"}, {"days": "Sun", "time": "Closed"}], "id": "1030600044", "name": "USPS COLLECTION BOX - BLUE BOX", "address": {"city": "STATEN ISLAND", "state": "NY", "street": "3150 AMBOY RD", "postcode": "10306"}}},
{"geometry": {"type": "Point", "coordinates": [-74.1257333567, 40.5682592846]}, "type": "Feature", "properties": {"collection_times": [{"days": "Mon-Fri", "time": "11:00am"}, {"days": "Sat", "time": "10:30am"}, {"days": "Sun", "time": "Closed"}], "id": "1030600045", "name": "USPS COLLECTION BOX - BLUE BOX", "address": {"city": "STATEN ISLAND", "state": "NY", "street": "2900 AMBOY RD", "postcode": "10306"}}},
{"geometry": {"type": "Point", "coordinates": [-74.124525429, 40.5615727789]}, "type": "Feature", "properties": {"collection_times": [{"days": "Mon-Fri", "time": "10:30am"}, {"days": "Sat", "time": "9:30am"}, {"days": "Sun", "time": "Closed"}], "id": "1030600047", "name": "USPS COLLECTION BOX - BLUE BOX", "address": {"city": "STATEN ISLAND", "state": "NY", "street": "206 ADELAIDE AVE", "postcode": "10306"}}},
{"geometry": {"type": "Point", "coordinates": [-74.1360829718, 40.5569580012]}, "type": "Feature", "properties": {"collection_times": [{"days": "Mon-Fri", "time": "11:00am"}, {"days": "Sat", "time": "9:30am"}, {"days": "Sun", "time": "Closed"}], "id": "1030600049", "name": "USPS COLLECTION BOX - BLUE BOX", "address": {"city": "STATEN ISLAND", "state": "NY", "street": "45 JUSTIN AVE", "postcode": "10306"}}},
{"geometry": {"type": "Point", "coordinates": [-74.1310651984, 40.5589476324]}, "type": "Feature", "properties": {"collection_times": [{"days": "Mon-Fri", "time": "10:30am"}, {"days": "Sat", "time": "9:30am"}, {"days": "Sun", "time": "Closed"}], "id": "1030600050", "name": "USPS COLLECTION BOX - BLUE BOX", "address": {"city": "STATEN ISLAND", "state": "NY", "street": "30 OGORMAN AVE", "postcode": "10306"}}},
{"geometry": {"type": "Point", "coordinates": [-74.1195350503, 40.5606938429]}, "type": "Feature", "properties": {"collection_times": [{"days": "Mon-Fri", "time": "10:30am"}, {"days": "Sat", "time": "9:30am"}, {"days": "Sun", "time": "Closed"}], "id": "1030600052", "name": "USPS COLLECTION BOX - BLUE BOX", "address": {"city": "STATEN ISLAND", "state": "NY", "street": "2984 HYLAN BLVD", "postcode": "10306"}}},
{"geometry": {"type": "Point", "coordinates": [-74.1266827481, 40.5644735096]}, "type": "Feature", "properties": {"collection_times": [{"days": "Mon-Fri", "time": "10:30am"}, {"days": "Sat", "time": "9:30am"}, {"days": "Sun", "time": "Closed"}], "id": "1030600053", "name": "USPS COLLECTION BOX - BLUE BOX", "address": {"city": "STATEN ISLAND", "state": "NY", "street": "115 GUYON AVE", "postcode": "10306"}}},
{"geometry": {"type": "Point", "coordinates": [-74.1411639026, 40.5684371445]}, "type": "Feature", "properties": {"collection_times": [{"days": "Mon-Fri", "time": "11:00am"}, {"days": "Sat", "time": "10:00am"}, {"days": "Sun", "time": "Closed"}], "id": "1030600054", "name": "USPS COLLECTION BOX - BLUE BOX", "address": {"city": "STATEN ISLAND", "state": "NY", "street": "299 CLARKE AVE", "postcode": "10306"}}},
{"geometry": {"type": "Point", "coordinates": [-74.1459375283, 40.5711241852]}, "type": "Feature", "properties": {"collection_times": [{"days": "Mon-Fri", "time": "11:00am"}, {"days": "Sat", "time": "10:00am"}, {"days": "Sun", "time": "Closed"}], "id": "1030600055", "name": "USPS COLLECTION BOX - BLUE BOX", "address": {"city": "STATEN ISLAND", "state": "NY", "street": "309 CENTER AVE", "postcode": "10306"}}},
{"geometry": {"type": "Point", "coordinates": [-74.1115291848, 40.5714880769]}, "type": "Feature", "properties": {"collection_times": [{"days": "Mon-Fri", "time": "1:30pm"}, {"days": "Sat", "time": "9:00am"}, {"days": "Sun", "time": "Closed"}], "id": "1030600060", "name": "USPS COLLECTION BOX - BLUE BOX", "address": {"city": "STATEN ISLAND", "state": "NY", "street": "331 NEW DORP LN", "postcode": "10306"}}},
{"geometry": {"type": "Point", "coordinates": [-74.1304291629, 40.5651349606]}, "type": "Feature", "properties": {"collection_times": [{"days": "Mon-Fri", "time": "1:30pm"}, {"days": "Sat", "time": "10:30am"}, {"days": "Sun", "time": "Closed"}], "id": "1030600062", "name": "USPS COLLECTION BOX - BLUE BOX", "address": {"city": "STATEN ISLAND", "state": "NY", "street": "3151 AMBOY RD", "postcode": "10306"}}},
{"geometry": {"type": "Point", "coordinates": [-74.1112043289, 40.5689066587]}, "type": "Feature", "properties": {"collection_times": [{"days": "Mon-Fri", "time": "5:00pm"}, {"days": "Sat", "time": "4:00pm"}, {"days": "Sun", "time": "Closed"}], "id": "1030600063", "name": "USPS COLLECTION BOX - APC", "address": {"city": "STATEN ISLAND", "state": "NY", "street": "2562 HYLAN BLVD", "postcode": "10306"}}},
{"geometry": {"type": "Point", "coordinates": [-74.1105650434, 40.569489915]}, "type": "Feature", "properties": {"collection_times": [{"days": "Mon-Fri", "time": "3:00pm"}, {"days": "Sat", "time": "12:00pm"}, {"days": "Sun", "time": "Closed"}], "id": "1030600064", "name": "USPS COLLECTION BOX - PO LOBBY", "address": {"city": "STATEN ISLAND", "state": "NY", "street": "2562 HYLAN BLVD", "postcode": "10306"}}},
{"geometry": {"type": "Point", "coordinates": [-74.2475154034, 40.5096288837]}, "type": "Feature", "properties": {"collection_times": [{"days": "Mon-Fri", "time": "5:00pm"}, {"days": "Sat", "time": "3:00pm"}, {"days": "Sun", "time": "Closed"}], "id": "1030700001", "name": "USPS COLLECTION BOX - BLUE BOX", "address": {"city": "STATEN ISLAND", "state": "NY", "street": "228 MAIN ST", "postcode": "10307"}}},
{"geometry": {"type": "Point", "coordinates": [-74.2475154034, 40.5096288837]}, "type": "Feature", "properties": {"collection_times": [{"days": "Mon-Fri", "time": "5:00pm"}, {"days": "Sat", "time": "3:00pm"}, {"days": "Sun", "time": "Closed"}], "id": "1030700002", "name": "USPS COLLECTION BOX - BLUE BOX", "address": {"city": "STATEN ISLAND", "state": "NY", "street": "228 MAIN ST", "postcode": "10307"}}},
{"geometry": {"type": "Point", "coordinates": [-74.238207795, 40.5058836919]}, "type": "Feature", "properties": {"collection_times": [{"days": "Mon-Fri", "time": "11:00am"}, {"days": "Sat", "time": "10:00am"}, {"days": "Sun", "time": "Closed"}], "id": "1030700003", "name": "USPS COLLECTION BOX - BLUE BOX", "address": {"city": "STATEN ISLAND", "state": "NY", "street": "221 SPRAGUE AVE", "postcode": "10307"}}},
{"geometry": {"type": "Point", "coordinates": [-74.2431845175, 40.5101444997]}, "type": "Feature", "properties": {"collection_times": [{"days": "Mon-Fri", "time": "11:00am"}, {"days": "Sat", "time": "10:00am"}, {"days": "Sun", "time": "Closed"}], "id": "1030700004", "name": "USPS COLLECTION BOX - BLUE BOX", "address": {"city": "STATEN ISLAND", "state": "NY", "street": "7400 AMBOY RD", "postcode": "10307"}}},
{"geometry": {"type": "Point", "coordinates": [-74.2523175995, 40.5076574833]}, "type": "Feature", "properties": {"collection_times": [{"days": "Mon-Fri", "time": "11:00am"}, {"days": "Sat", "time": "10:00am"}, {"days": "Sun", "time": "Closed"}], "id": "1030700005", "name": "USPS COLLECTION BOX - BLUE BOX", "address": {"city": "STATEN ISLAND", "state": "NY", "street": "7725 AMBOY RD", "postcode": "10307"}}},
{"geometry": {"type": "Point", "coordinates": [-74.238806982, 40.5124502002]}, "type": "Feature", "properties": {"collection_times": [{"days": "Mon-Fri", "time": "11:30am"}, {"days": "Sat", "time": "10:30am"}, {"days": "Sun", "time": "Closed"}], "id": "1030700009", "name": "USPS COLLECTION BOX - BLUE BOX", "address": {"city": "STATEN ISLAND", "state": "NY", "street": "7220 AMBOY RD", "postcode": "10307"}}},
{"geometry": {"type": "Point", "coordinates": [-74.2334191739, 40.5159767334]}, "type": "Feature", "properties": {"collection_times": [{"days": "Mon-Fri", "time": "4:00pm"}, {"days": "Sat", "time": "3:00pm"}, {"days": "Sun", "time": "Closed"}], "id": "1030700010", "name": "USPS COLLECTION BOX - BLUE BOX", "address": {"city": "STATEN ISLAND", "state": "NY", "street": "7001 AMBOY RD", "postcode": "10307"}}},
{"geometry": {"type": "Point", "coordinates": [-74.1509828266, 40.5503779765]}, "type": "Feature", "properties": {"collection_times": [{"days": "Mon-Fri", "time": "4:00pm"}, {"days": "Sat", "time": "3:00pm"}, {"days": "Sun", "time": "Closed"}], "id": "1030800001", "name": "USPS COLLECTION BOX - BLUE BOX", "address": {"city": "STATEN ISLAND", "state": "NY", "street": "15 NELSON AVE", "postcode": "10308"}}},
{"geometry": {"type": "Point", "coordinates": [-74.1509828266, 40.5503779765]}, "type": "Feature", "properties": {"collection_times": [{"days": "Mon-Fri", "time": "4:00pm"}, {"days": "Sat", "time": "3:00pm"}, {"days": "Sun", "time": "Closed"}], "id": "1030800002", "name": "USPS COLLECTION BOX - BLUE BOX", "address": {"city": "STATEN ISLAND", "state": "NY", "street": "15 NELSON AVE", "postcode": "10308"}}},
{"geometry": {"type": "Point", "coordinates": [-74.160879335, 40.5557930882]}, "type": "Feature", "properties": {"collection_times": [{"days": "Mon-Fri", "time": "9:00am"}, {"days": "Sat", "time": "8:30am"}, {"days": "Sun", "time": "Closed"}], "id": "1030800004", "name": "USPS COLLECTION BOX - BLUE BOX", "address": {"city": "STATEN ISLAND", "state": "NY", "street": "440 LEVERETT AVE", "postcode": "10308"}}},
{"geometry": {"type": "Point", "coordinates": [-74.1525261883, 40.5492274171]}, "type": "Feature", "properties": {"collection_times": [{"days": "Mon-Fri", "time": "10:30am"}, {"days": "Sat", "time": "9:00am"}, {"days": "Sun", "time": "Closed"}], "id": "1030800006", "name": "USPS COLLECTION BOX - BLUE BOX", "address": {"city": "STATEN ISLAND", "state": "NY", "street": "55 LINDENWOOD RD", "postcode": "10308"}}},
{"geometry": {"type": "Point", "coordinates": [-74.14970933, 40.5469038594]}, "type": "Feature", "properties": {"collection_times": [{"days": "Mon-Fri", "time": "10:30am"}, {"days": "Sat", "time": "9:00am"}, {"days": "Sun", "time": "Closed"}], "id": "1030800007", "name": "USPS COLLECTION BOX - BLUE BOX", "address": {"city": "STATEN ISLAND", "state": "NY", "street": "110 NELSON AVE", "postcode": "10308"}}},
{"geometry": {"type": "Point", "coordinates": [-74.1481628269, 40.5399352234]}, "type": "Feature", "properties": {"collection_times": [{"days": "Mon-Fri", "time": "10:30am"}, {"days": "Sat", "time": "9:00am"}, {"days": "Sun", "time": "Closed"}], "id": "1030800008", "name": "USPS COLLECTION BOX - BLUE BOX", "address": {"city": "STATEN ISLAND", "state": "NY", "street": "4099 HYLAN BLVD", "postcode": "10308"}}},
{"geometry": {"type": "Point", "coordinates": [-74.1493098827, 40.5382145879]}, "type": "Feature", "properties": {"collection_times": [{"days": "Mon-Fri", "time": "10:30am"}, {"days": "Sat", "time": "9:00am"}, {"days": "Sun", "time": "Closed"}], "id": "1030800009", "name": "USPS COLLECTION BOX - BLUE BOX", "address": {"city": "STATEN ISLAND", "state": "NY", "street": "4170 HYLAN BLVD", "postcode": "10308"}}},
{"geometry": {"type": "Point", "coordinates": [-74.1543398188, 40.5593348332]}, "type": "Feature", "properties": {"collection_times": [{"days": "Mon-Fri", "time": "11:00am"}, {"days": "Sat", "time": "10:00am"}, {"days": "Sun", "time": "Closed"}], "id": "1030800010", "name": "USPS COLLECTION BOX - BLUE BOX", "address": {"city": "STATEN ISLAND", "state": "NY", "street": "195 BARLOW AVE", "postcode": "10308"}}},
{"geometry": {"type": "Point", "coordinates": [-74.1567112572, 40.5543278254]}, "type": "Feature", "properties": {"collection_times": [{"days": "Mon-Fri", "time": "11:00am"}, {"days": "Sat", "time": "10:00am"}, {"days": "Sun", "time": "Closed"}], "id": "1030800011", "name": "USPS COLLECTION BOX - BLUE BOX", "address": {"city": "STATEN ISLAND", "state": "NY", "street": "129 BROOKFIELD AVE", "postcode": "10308"}}},
{"geometry": {"type": "Point", "coordinates": [-74.1514019452, 40.5535344764]}, "type": "Feature", "properties": {"collection_times": [{"days": "Mon-Fri", "time": "11:00am"}, {"days": "Sat", "time": "10:00am"}, {"days": "Sun", "time": "Closed"}], "id": "1030800012", "name": "USPS COLLECTION BOX - BLUE BOX", "address": {"city": "STATEN ISLAND", "state": "NY", "street": "90 GIFFORDS LN", "postcode": "10308"}}},
{"geometry": {"type": "Point", "coordinates": [-74.1472878487, 40.5542794667]}, "type": "Feature", "properties": {"collection_times": [{"days": "Mon-Fri", "time": "11:00am"}, {"days": "Sat", "time": "10:00am"}, {"days": "Sun", "time": "Closed"}], "id": "1030800013", "name": "USPS COLLECTION BOX - BLUE BOX", "address": {"city": "STATEN ISLAND", "state": "NY", "street": "40 KATAN AVE", "postcode": "10308"}}},
{"geometry": {"type": "Point", "coordinates": [-74.1483313141, 40.5575932109]}, "type": "Feature", "properties": {"collection_times": [{"days": "Mon-Fri", "time": "11:00am"}, {"days": "Sat", "time": "10:00am"}, {"days": "Sun", "time": "Closed"}], "id": "1030800014", "name": "USPS COLLECTION BOX - BLUE BOX", "address": {"city": "STATEN ISLAND", "state": "NY", "street": "215 EXETER ST", "postcode": "10308"}}},
{"geometry": {"type": "Point", "coordinates": [-74.1375014352, 40.549667161]}, "type": "Feature", "properties": {"collection_times": [{"days": "Mon-Fri", "time": "11:00am"}, {"days": "Sat", "time": "10:30am"}, {"days": "Sun", "time": "Closed"}], "id": "1030800017", "name": "USPS COLLECTION BOX - BLUE BOX", "address": {"city": "STATEN ISLAND", "state": "NY", "street": "3635 HYLAN BLVD", "postcode": "10308"}}},
{"geometry": {"type": "Point", "coordinates": [-74.1428322633, 40.5455035989]}, "type": "Feature", "properties": {"collection_times": [{"days": "Mon-Fri", "time": "11:00am"}, {"days": "Sat", "time": "10:30am"}, {"days": "Sun", "time": "Closed"}], "id": "1030800018", "name": "USPS COLLECTION BOX - BLUE BOX", "address": {"city": "STATEN ISLAND", "state": "NY", "street": "3855 HYLAN BLVD", "postcode": "10308"}}},
{"geometry": {"type": "Point", "coordinates": [-74.1473280108, 40.5484965008]}, "type": "Feature", "properties": {"collection_times": [{"days": "Mon-Fri", "time": "11:00am"}, {"days": "Sat", "time": "10:30am"}, {"days": "Sun", "time": "Closed"}], "id": "1030800019", "name": "USPS COLLECTION BOX - BLUE BOX", "address": {"city": "STATEN ISLAND", "state": "NY", "street": "124 HILLSIDE TER", "postcode": "10308"}}},
{"geometry": {"type": "Point", "coordinates": [-74.1453837707, 40.5462092243]}, "type": "Feature", "properties": {"collection_times": [{"days": "Mon-Fri", "time": "11:00am"}, {"days": "Sat", "time": "10:30am"}, {"days": "Sun", "time": "Closed"}], "id": "1030800021", "name": "USPS COLLECTION BOX - BLUE BOX", "address": {"city": "STATEN ISLAND", "state": "NY", "street": "760 DURANT AVE", "postcode": "10308"}}},
{"geometry": {"type": "Point", "coordinates": [-74.1533780497, 40.5663331048]}, "type": "Feature", "properties": {"collection_times": [{"days": "Mon-Fri", "time": "9:00am"}, {"days": "Sat", "time": "8:00am"}, {"days": "Sun", "time": "Closed"}], "id": "1030800022", "name": "USPS COLLECTION BOX - BLUE BOX", "address": {"city": "STATEN ISLAND", "state": "NY", "street": "324 ARTHUR KILL RD", "postcode": "10308"}}},
{"geometry": {"type": "Point", "coordinates": [-74.1509828266, 40.5503779765]}, "type": "Feature", "properties": {"collection_times": [{"days": "Mon-Fri", "time": "3:00pm"}, {"days": "Sat", "time": "12:00pm"}, {"days": "Sun", "time": "Closed"}], "id": "1030800024", "name": "USPS COLLECTION BOX - PO LOBBY", "address": {"city": "STATEN ISLAND", "state": "NY", "street": "15 NELSON AVE", "postcode": "10308"}}},
{"geometry": {"type": "Point", "coordinates": [-74.2086686128, 40.5435193985]}, "type": "Feature", "properties": {"collection_times": [{"days": "Mon-Fri", "time": "4:00pm"}, {"days": "Sat", "time": "3:00pm"}, {"days": "Sun", "time": "Closed"}], "id": "1030900001", "name": "USPS COLLECTION BOX - BLUE BOX", "address": {"city": "STATEN ISLAND", "state": "NY", "street": "645 ROSSVILLE AVE", "postcode": "10309"}}},
{"geometry": {"type": "Point", "coordinates": [-74.2117178802, 40.5509970045]}, "type": "Feature", "properties": {"collection_times": [{"days": "Mon-Fri", "time": "10:30am"}, {"days": "Sat", "time": "9:30am"}, {"days": "Sun", "time": "Closed"}], "id": "1030900003", "name": "USPS COLLECTION BOX - BLUE BOX", "address": {"city": "STATEN ISLAND", "state": "NY", "street": "994 ROSSVILLE AVE", "postcode": "10309"}}},
{"geometry": {"type": "Point", "coordinates": [-74.2015761234, 40.5262056227]}, "type": "Feature", "properties": {"collection_times": [{"days": "Mon-Fri", "time": "10:30am"}, {"days": "Sat", "time": "9:30am"}, {"days": "Sun", "time": "Closed"}], "id": "1030900007", "name": "USPS COLLECTION BOX - BLUE BOX", "address": {"city": "STATEN ISLAND", "state": "NY", "street": "2 SEGUINE AVE", "postcode": "10309"}}},
{"geometry": {"type": "Point", "coordinates": [-74.1968140552, 40.5167917246]}, "type": "Feature", "properties": {"collection_times": [{"days": "Mon-Fri", "time": "10:30am"}, {"days": "Sat", "time": "9:30am"}, {"days": "Sun", "time": "Closed"}], "id": "1030900008", "name": "USPS COLLECTION BOX - BLUE BOX", "address": {"city": "STATEN ISLAND", "state": "NY", "street": "375 SEGUINE AVE", "postcode": "10309"}}},
{"geometry": {"type": "Point", "coordinates": [-74.2124333196, 40.5176133047]}, "type": "Feature", "properties": {"collection_times": [{"days": "Mon-Fri", "time": "10:30am"}, {"days": "Sat", "time": "9:30am"}, {"days": "Sun", "time": "Closed"}], "id": "1030900010", "name": "USPS COLLECTION BOX - BLUE BOX", "address": {"city": "STATEN ISLAND", "state": "NY", "street": "243 SHARROTT AVE", "postcode": "10309"}}},
{"geometry": {"type": "Point", "coordinates": [-74.216628562, 40.52240642]}, "type": "Feature", "properties": {"collection_times": [{"days": "Mon-Fri", "time": "10:30am"}, {"days": "Sat", "time": "9:30am"}, {"days": "Sun", "time": "Closed"}], "id": "1030900011", "name": "USPS COLLECTION BOX - BLUE BOX", "address": {"city": "STATEN ISLAND", "state": "NY", "street": "6372 AMBOY RD", "postcode": "10309"}}},
{"geometry": {"type": "Point", "coordinates": [-74.2151674557, 40.5351726796]}, "type": "Feature", "properties": {"collection_times": [{"days": "Mon-Fri", "time": "11:00am"}, {"days": "Sat", "time": "10:00am"}, {"days": "Sun", "time": "Closed"}], "id": "1030900013", "name": "USPS COLLECTION BOX - BLUE BOX", "address": {"city": "STATEN ISLAND", "state": "NY", "street": "4407 ARTHUR KILL RD", "postcode": "10309"}}},
{"geometry": {"type": "Point", "coordinates": [-74.2382543095, 40.528223056]}, "type": "Feature", "properties": {"collection_times": [{"days": "Mon-Fri", "time": "5:00pm"}, {"days": "Sat", "time": "3:00pm"}, {"days": "Sun", "time": "Closed"}], "id": "1030900015", "name": "USPS COLLECTION BOX - BLUE BOX", "address": {"city": "STATEN ISLAND", "state": "NY", "street": "3031 VETERANS RD W", "postcode": "10309"}}},
{"geometry": {"type": "Point", "coordinates": [-74.2086800518, 40.5435461588]}, "type": "Feature", "properties": {"collection_times": [{"days": "Mon-Fri", "time": "3:00pm"}, {"days": "Sat", "time": "12:00pm"}, {"days": "Sun", "time": "Closed"}], "id": "1030900016", "name": "USPS COLLECTION BOX - PO LOBBY", "address": {"city": "STATEN ISLAND", "state": "NY", "street": "655 ROSSVILLE AVE", "postcode": "10309"}}},
{"geometry": {"type": "Point", "coordinates": [-74.1160510066, 40.6347336578]}, "type": "Feature", "properties": {"collection_times": [{"days": "Mon-Fri", "time": "5:00pm"}, {"days": "Sat", "time": "4:00pm"}, {"days": "Sun", "time": "Closed"}], "id": "1031000001", "name": "USPS COLLECTION BOX - BLUE BOX", "address": {"city": "STATEN ISLAND", "state": "NY", "street": "1015 CASTLETON AVE", "postcode": "10310"}}},
{"geometry": {"type": "Point", "coordinates": [-74.1160510066, 40.6347336578]}, "type": "Feature", "properties": {"collection_times": [{"days": "Mon-Fri", "time": "5:00pm"}, {"days": "Sat", "time": "4:00pm"}, {"days": "Sun", "time": "Closed"}], "id": "1031000002", "name": "USPS COLLECTION BOX - BLUE BOX", "address": {"city": "STATEN ISLAND", "state": "NY", "street": "1015 CASTLETON AVE", "postcode": "10310"}}},
{"geometry": {"type": "Point", "coordinates": [-75.6107001075, 42.9370820155]}, "type": "Feature", "properties": {"collection_times": [{"days": "Mon-Fri", "time": "12:30pm"}, {"days": "Sat", "time": "11:30am"}, {"days": "Sun", "time": "Closed"}], "id": "1031000004", "name": "USPS COLLECTION BOX - BLUE BOX", "address": {"city": "STATEN ISLAND", "state": "NY", "street": "716 BEMENT AVE", "postcode": "10310"}}},
{"geometry": {"type": "Point", "coordinates": [-74.1182282252, 40.6252301413]}, "type": "Feature", "properties": {"collection_times": [{"days": "Mon-Fri", "time": "12:00pm"}, {"days": "Sat", "time": "11:00am"}, {"days": "Sun", "time": "Closed"}], "id": "1031000006", "name": "USPS COLLECTION BOX - BLUE BOX", "address": {"city": "STATEN ISLAND", "state": "NY", "street": "665 CLOVE RD", "postcode": "10310"}}},
{"geometry": {"type": "Point", "coordinates": [-74.1163722213, 40.6288841883]}, "type": "Feature", "properties": {"collection_times": [{"days": "Mon-Fri", "time": "12:00pm"}, {"days": "Sat", "time": "11:00am"}, {"days": "Sun", "time": "Closed"}], "id": "1031000007", "name": "USPS COLLECTION BOX - BLUE BOX", "address": {"city": "STATEN ISLAND", "state": "NY", "street": "814 FOREST AVE", "postcode": "10310"}}},
{"geometry": {"type": "Point", "coordinates": [-74.1109701238, 40.629674866]}, "type": "Feature", "properties": {"collection_times": [{"days": "Mon-Fri", "time": "12:00pm"}, {"days": "Sat", "time": "11:00am"}, {"days": "Sun", "time": "Closed"}], "id": "1031000008", "name": "USPS COLLECTION BOX - BLUE BOX", "address": {"city": "STATEN ISLAND", "state": "NY", "street": "654 FOREST AVE", "postcode": "10310"}}},
{"geometry": {"type": "Point", "coordinates": [-74.1089175436, 40.6300570503]}, "type": "Feature", "properties": {"collection_times": [{"days": "Mon-Fri", "time": "12:00pm"}, {"days": "Sat", "time": "11:00am"}, {"days": "Sun", "time": "Closed"}], "id": "1031000011", "name": "USPS COLLECTION BOX - BLUE BOX", "address": {"city": "STATEN ISLAND", "state": "NY", "street": "584 FOREST AVE", "postcode": "10310"}}},
{"geometry": {"type": "Point", "coordinates": [-74.1083093027, 40.6260023229]}, "type": "Feature", "properties": {"collection_times": [{"days": "Mon-Fri", "time": "12:30pm"}, {"days": "Sat", "time": "11:30am"}, {"days": "Sun", "time": "Closed"}], "id": "1031000012", "name": "USPS COLLECTION BOX - BLUE BOX", "address": {"city": "STATEN ISLAND", "state": "NY", "street": "663 PELTON AVE", "postcode": "10310"}}},
{"geometry": {"type": "Point", "coordinates": [-74.1048191477, 40.626467302]}, "type": "Feature", "properties": {"collection_times": [{"days": "Mon-Fri", "time": "12:30pm"}, {"days": "Sat", "time": "11:30am"}, {"days": "Sun", "time": "Closed"}], "id": "1031000013", "name": "USPS COLLECTION BOX - BLUE BOX", "address": {"city": "STATEN ISLAND", "state": "NY", "street": "683 BARD AVE", "postcode": "10310"}}},
{"geometry": {"type": "Point", "coordinates": [-74.1073031799, 40.6289361011]}, "type": "Feature", "properties": {"collection_times": [{"days": "Mon-Fri", "time": "12:00pm"}, {"days": "Sat", "time": "11:00am"}, {"days": "Sun", "time": "Closed"}], "id": "1031000014", "name": "USPS COLLECTION BOX - BLUE BOX", "address": {"city": "STATEN ISLAND", "state": "NY", "street": "50 MORRISON AVE", "postcode": "10310"}}},
{"geometry": {"type": "Point", "coordinates": [-74.1058728016, 40.6299499577]}, "type": "Feature", "properties": {"collection_times": [{"days": "Mon-Fri", "time": "12:00pm"}, {"days": "Sat", "time": "11:00am"}, {"days": "Sun", "time": "Closed"}], "id": "1031000015", "name": "USPS COLLECTION BOX - BLUE BOX", "address": {"city": "STATEN ISLAND", "state": "NY", "street": "540 BARD AVE", "postcode": "10310"}}},
{"geometry": {"type": "Point", "coordinates": [-74.113357948, 40.6348100264]}, "type": "Feature", "properties": {"collection_times": [{"days": "Mon-Fri", "time": "1:30pm"}, {"days": "Sat", "time": "12:30pm"}, {"days": "Sun", "time": "Closed"}], "id": "1031000016", "name": "USPS COLLECTION BOX - BLUE BOX", "address": {"city": "STATEN ISLAND", "state": "NY", "street": "927 CASTLETON AVE", "postcode": "10310"}}},
{"geometry": {"type": "Point", "coordinates": [-74.108651962, 40.6381868528]}, "type": "Feature", "properties": {"collection_times": [{"days": "Mon-Fri", "time": "12:30pm"}, {"days": "Sat", "time": "11:30am"}, {"days": "Sun", "time": "Closed"}], "id": "1031000018", "name": "USPS COLLECTION BOX - BLUE BOX", "address": {"city": "STATEN ISLAND", "state": "NY", "street": "508 HENDERSON AVE", "postcode": "10310"}}},
{"geometry": {"type": "Point", "coordinates": [-74.1066092333, 40.6354712899]}, "type": "Feature", "properties": {"collection_times": [{"days": "Mon-Fri", "time": "12:30pm"}, {"days": "Sat", "time": "11:30am"}, {"days": "Sun", "time": "Closed"}], "id": "1031000020", "name": "USPS COLLECTION BOX - BLUE BOX", "address": {"city": "STATEN ISLAND", "state": "NY", "street": "355 BARD AVE", "postcode": "10310"}}},
{"geometry": {"type": "Point", "coordinates": [-74.1082456618, 40.6410066059]}, "type": "Feature", "properties": {"collection_times": [{"days": "Mon-Fri", "time": "12:30pm"}, {"days": "Sat", "time": "11:30am"}, {"days": "Sun", "time": "Closed"}], "id": "1031000021", "name": "USPS COLLECTION BOX - BLUE BOX", "address": {"city": "STATEN ISLAND", "state": "NY", "street": "146 BARD AVE", "postcode": "10310"}}},
{"geometry": {"type": "Point", "coordinates": [-74.1107329125, 40.6446236445]}, "type": "Feature", "properties": {"collection_times": [{"days": "Mon-Fri", "time": "12:30pm"}, {"days": "Sat", "time": "11:30am"}, {"days": "Sun", "time": "Closed"}], "id": "1031000022", "name": "USPS COLLECTION BOX - BLUE BOX", "address": {"city": "STATEN ISLAND", "state": "NY", "street": "1 DAVIS AVE", "postcode": "10310"}}},
{"geometry": {"type": "Point", "coordinates": [-74.1098374295, 40.6399351012]}, "type": "Feature", "properties": {"collection_times": [{"days": "Mon-Fri", "time": "12:30pm"}, {"days": "Sat", "time": "11:30am"}, {"days": "Sun", "time": "Closed"}], "id": "1031000023", "name": "USPS COLLECTION BOX - BLUE BOX", "address": {"city": "STATEN ISLAND", "state": "NY", "street": "171 DAVIS AVE", "postcode": "10310"}}},
{"geometry": {"type": "Point", "coordinates": [-74.1132275796, 40.6404128211]}, "type": "Feature", "properties": {"collection_times": [{"days": "Mon-Fri", "time": "1:30pm"}, {"days": "Sat", "time": "12:30pm"}, {"days": "Sun", "time": "Closed"}], "id": "1031000024", "name": "USPS COLLECTION BOX - BLUE BOX", "address": {"city": "STATEN ISLAND", "state": "NY", "street": "186 HARRISON PL", "postcode": "10310"}}},
{"geometry": {"type": "Point", "coordinates": [-74.1185123794, 40.6367432767]}, "type": "Feature", "properties": {"collection_times": [{"days": "Mon-Fri", "time": "1:30pm"}, {"days": "Sat", "time": "12:30pm"}, {"days": "Sun", "time": "Closed"}], "id": "1031000026", "name": "USPS COLLECTION BOX - BLUE BOX", "address": {"city": "STATEN ISLAND", "state": "NY", "street": "788 HENDERSON AVE", "postcode": "10310"}}},
{"geometry": {"type": "Point", "coordinates": [-74.1198746097, 40.6343801313]}, "type": "Feature", "properties": {"collection_times": [{"days": "Mon-Fri", "time": "1:30pm"}, {"days": "Sat", "time": "12:30pm"}, {"days": "Sun", "time": "Closed"}], "id": "1031000028", "name": "USPS COLLECTION BOX - BLUE BOX", "address": {"city": "STATEN ISLAND", "state": "NY", "street": "1115 CASTLETON AVE", "postcode": "10310"}}},
{"geometry": {"type": "Point", "coordinates": [-74.1227409063, 40.6340478183]}, "type": "Feature", "properties": {"collection_times": [{"days": "Mon-Fri", "time": "1:30pm"}, {"days": "Sat", "time": "12:30pm"}, {"days": "Sun", "time": "Closed"}], "id": "1031000029", "name": "USPS COLLECTION BOX - BLUE BOX", "address": {"city": "STATEN ISLAND", "state": "NY", "street": "1214 CASTLETON AVE", "postcode": "10310"}}},
{"geometry": {"type": "Point", "coordinates": [-74.1277081121, 40.6312241088]}, "type": "Feature", "properties": {"collection_times": [{"days": "Mon-Fri", "time": "1:30pm"}, {"days": "Sat", "time": "12:30pm"}, {"days": "Sun", "time": "Closed"}], "id": "1031000031", "name": "USPS COLLECTION BOX - BLUE BOX", "address": {"city": "STATEN ISLAND", "state": "NY", "street": "789 POST AVE", "postcode": "10310"}}},
{"geometry": {"type": "Point", "coordinates": [-74.1242888304, 40.6318387836]}, "type": "Feature", "properties": {"collection_times": [{"days": "Mon-Fri", "time": "1:30pm"}, {"days": "Sat", "time": "12:30pm"}, {"days": "Sun", "time": "Closed"}], "id": "1031000032", "name": "USPS COLLECTION BOX - BLUE BOX", "address": {"city": "STATEN ISLAND", "state": "NY", "street": "681 CARY AVE", "postcode": "10310"}}},
{"geometry": {"type": "Point", "coordinates": [-74.120567153, 40.6281554994]}, "type": "Feature", "properties": {"collection_times": [{"days": "Mon-Fri", "time": "1:30pm"}, {"days": "Sat", "time": "12:30pm"}, {"days": "Sun", "time": "Closed"}], "id": "1031000035", "name": "USPS COLLECTION BOX - BLUE BOX", "address": {"city": "STATEN ISLAND", "state": "NY", "street": "941 FOREST AVE", "postcode": "10310"}}},
{"geometry": {"type": "Point", "coordinates": [-74.1280055951, 40.6267613002]}, "type": "Feature", "properties": {"collection_times": [{"days": "Mon-Fri", "time": "9:00am"}, {"days": "Sat", "time": "8:00am"}, {"days": "Sun", "time": "Closed"}], "id": "1031000036", "name": "USPS COLLECTION BOX - BLUE BOX", "address": {"city": "STATEN ISLAND", "state": "NY", "street": "1145 FOREST AVE", "postcode": "10310"}}},
{"geometry": {"type": "Point", "coordinates": [-74.1281692764, 40.6246666701]}, "type": "Feature", "properties": {"collection_times": [{"days": "Mon-Fri", "time": "9:00am"}, {"days": "Sat", "time": "8:00am"}, {"days": "Sun", "time": "Closed"}], "id": "1031000037", "name": "USPS COLLECTION BOX - BLUE BOX", "address": {"city": "STATEN ISLAND", "state": "NY", "street": "160 EGBERT AVE", "postcode": "10310"}}},
{"geometry": {"type": "Point", "coordinates": [-74.1160510066, 40.6347336578]}, "type": "Feature", "properties": {"collection_times": [{"days": "Mon-Fri", "time": "3:00pm"}, {"days": "Sat", "time": "12:00pm"}, {"days": "Sun", "time": "Closed"}], "id": "1031000038", "name": "USPS COLLECTION BOX - PO LOBBY", "address": {"city": "STATEN ISLAND", "state": "NY", "street": "1015 CASTLETON AVE", "postcode": "10310"}}},
{"geometry": {"type": "Point", "coordinates": [-74.1626266236, 40.5443169529]}, "type": "Feature", "properties": {"collection_times": [{"days": "Mon-Fri", "time": "5:00pm"}, {"days": "Sat", "time": "4:00pm"}, {"days": "Sun", "time": "Closed"}], "id": "1031200001", "name": "USPS COLLECTION BOX - BLUE BOX", "address": {"city": "STATEN ISLAND", "state": "NY", "street": "4455 AMBOY RD", "postcode": "10312"}}},
{"geometry": {"type": "Point", "coordinates": [-74.1626266236, 40.5443169529]}, "type": "Feature", "properties": {"collection_times": [{"days": "Mon-Fri", "time": "5:00pm"}, {"days": "Sat", "time": "4:00pm"}, {"days": "Sun", "time": "Closed"}], "id": "1031200002", "name": "USPS COLLECTION BOX - BLUE BOX", "address": {"city": "STATEN ISLAND", "state": "NY", "street": "4455 AMBOY RD", "postcode": "10312"}}},
{"geometry": {"type": "Point", "coordinates": [-74.1626266236, 40.5443169529]}, "type": "Feature", "properties": {"collection_times": [{"days": "Mon-Fri", "time": "5:00pm"}, {"days": "Sat", "time": "4:00pm"}, {"days": "Sun", "time": "Closed"}], "id": "1031200003", "name": "USPS COLLECTION BOX - BLUE BOX", "address": {"city": "STATEN ISLAND", "state": "NY", "street": "4455 AMBOY RD", "postcode": "10312"}}},
{"geometry": {"type": "Point", "coordinates": [-74.1774660238, 40.5632587815]}, "type": "Feature", "properties": {"collection_times": [{"days": "Mon-Fri", "time": "9:00am"}, {"days": "Sat", "time": "8:30am"}, {"days": "Sun", "time": "Closed"}], "id": "1031200004", "name": "USPS COLLECTION BOX - BLUE BOX", "address": {"city": "STATEN ISLAND", "state": "NY", "street": "17 ANNADALE RD", "postcode": "10312"}}},
{"geometry": {"type": "Point", "coordinates": [-74.1745546896, 40.5607263423]}, "type": "Feature", "properties": {"collection_times": [{"days": "Mon-Fri", "time": "9:00am"}, {"days": "Sat", "time": "8:30am"}, {"days": "Sun", "time": "Closed"}], "id": "1031200005", "name": "USPS COLLECTION BOX - BLUE BOX", "address": {"city": "STATEN ISLAND", "state": "NY", "street": "59 BERRY AVE", "postcode": "10312"}}},
{"geometry": {"type": "Point", "coordinates": [-74.1852405763, 40.5532401538]}, "type": "Feature", "properties": {"collection_times": [{"days": "Mon-Fri", "time": "9:30am"}, {"days": "Sat", "time": "8:30am"}, {"days": "Sun", "time": "Closed"}], "id": "1031200006", "name": "USPS COLLECTION BOX - BLUE BOX", "address": {"city": "STATEN ISLAND", "state": "NY", "street": "483 WOODROW RD", "postcode": "10312"}}},
{"geometry": {"type": "Point", "coordinates": [-74.1823361218, 40.5442202421]}, "type": "Feature", "properties": {"collection_times": [{"days": "Mon-Fri", "time": "9:30am"}, {"days": "Sat", "time": "8:30am"}, {"days": "Sun", "time": "Closed"}], "id": "1031200007", "name": "USPS COLLECTION BOX - BLUE BOX", "address": {"city": "STATEN ISLAND", "state": "NY", "street": "750 DRUMGOOLE BV", "postcode": "10312"}}},
{"geometry": {"type": "Point", "coordinates": [-74.1721866728, 40.549212273]}, "type": "Feature", "properties": {"collection_times": [{"days": "Mon-Fri", "time": "9:00am"}, {"days": "Sat", "time": "8:30am"}, {"days": "Sun", "time": "Closed"}], "id": "1031200008", "name": "USPS COLLECTION BOX - BLUE BOX", "address": {"city": "STATEN ISLAND", "state": "NY", "street": "130 LAREDO AVE", "postcode": "10312"}}},
{"geometry": {"type": "Point", "coordinates": [-74.1757463198, 40.5542477029]}, "type": "Feature", "properties": {"collection_times": [{"days": "Mon-Fri", "time": "9:00am"}, {"days": "Sat", "time": "8:30am"}, {"days": "Sun", "time": "Closed"}], "id": "1031200009", "name": "USPS COLLECTION BOX - BLUE BOX", "address": {"city": "STATEN ISLAND", "state": "NY", "street": "345 ANNADALE RD", "postcode": "10312"}}},
{"geometry": {"type": "Point", "coordinates": [-74.1694509475, 40.5593752583]}, "type": "Feature", "properties": {"collection_times": [{"days": "Mon-Fri", "time": "9:00am"}, {"days": "Sat", "time": "8:00am"}, {"days": "Sun", "time": "Closed"}], "id": "1031200010", "name": "USPS COLLECTION BOX - BLUE BOX", "address": {"city": "STATEN ISLAND", "state": "NY", "street": "3283 RICHMOND AVE", "postcode": "10312"}}},
{"geometry": {"type": "Point", "coordinates": [-74.1542300197, 40.5343459592]}, "type": "Feature", "properties": {"collection_times": [{"days": "Mon-Fri", "time": "10:30am"}, {"days": "Sat", "time": "9:00am"}, {"days": "Sun", "time": "Closed"}], "id": "1031200012", "name": "USPS COLLECTION BOX - BLUE BOX", "address": {"city": "STATEN ISLAND", "state": "NY", "street": "4308 RICHMOND AVE", "postcode": "10312"}}},
{"geometry": {"type": "Point", "coordinates": [-74.1679622034, 40.5520789907]}, "type": "Feature", "properties": {"collection_times": [{"days": "Mon-Fri", "time": "9:00am"}, {"days": "Sat", "time": "8:00am"}, {"days": "Sun", "time": "Closed"}], "id": "1031200013", "name": "USPS COLLECTION BOX - BLUE BOX", "address": {"city": "STATEN ISLAND", "state": "NY", "street": "3530 RICHMOND AVE", "postcode": "10312"}}},
{"geometry": {"type": "Point", "coordinates": [-74.1771633539, 40.544786931]}, "type": "Feature", "properties": {"collection_times": [{"days": "Mon-Fri", "time": "9:30am"}, {"days": "Sat", "time": "8:00am"}, {"days": "Sun", "time": "Closed"}], "id": "1031200014", "name": "USPS COLLECTION BOX - BLUE BOX", "address": {"city": "STATEN ISLAND", "state": "NY", "street": "822 ARDEN AVE", "postcode": "10312"}}},
{"geometry": {"type": "Point", "coordinates": [-74.1775070807, 40.5419871716]}, "type": "Feature", "properties": {"collection_times": [{"days": "Mon-Fri", "time": "4:00pm"}, {"days": "Sat", "time": "8:30am"}, {"days": "Sun", "time": "Closed"}], "id": "1031200015", "name": "USPS COLLECTION BOX - BLUE BOX", "address": {"city": "STATEN ISLAND", "state": "NY", "street": "820 ANNADALE RD", "postcode": "10312"}}},
{"geometry": {"type": "Point", "coordinates": [-74.1688492311, 40.5405010883]}, "type": "Feature", "properties": {"collection_times": [{"days": "Mon-Fri", "time": "9:30am"}, {"days": "Sat", "time": "8:30am"}, {"days": "Sun", "time": "Closed"}], "id": "1031200018", "name": "USPS COLLECTION BOX - BLUE BOX", "address": {"city": "STATEN ISLAND", "state": "NY", "street": "1235 ARDEN AVE", "postcode": "10312"}}},
{"geometry": {"type": "Point", "coordinates": [-74.1584733564, 40.5409654862]}, "type": "Feature", "properties": {"collection_times": [{"days": "Mon-Fri", "time": "10:30am"}, {"days": "Sat", "time": "8:30am"}, {"days": "Sun", "time": "Closed"}], "id": "1031200021", "name": "USPS COLLECTION BOX - BLUE BOX", "address": {"city": "STATEN ISLAND", "state": "NY", "street": "358 THORYCROFT AVE", "postcode": "10312"}}},
{"geometry": {"type": "Point", "coordinates": [-74.1562610998, 40.5387206149]}, "type": "Feature", "properties": {"collection_times": [{"days": "Mon-Fri", "time": "10:30am"}, {"days": "Sat", "time": "8:30am"}, {"days": "Sun", "time": "Closed"}], "id": "1031200022", "name": "USPS COLLECTION BOX - BLUE BOX", "address": {"city": "STATEN ISLAND", "state": "NY", "street": "258 THORYCROFT AVE", "postcode": "10312"}}},
{"geometry": {"type": "Point", "coordinates": [-74.1638894611, 40.535991163]}, "type": "Feature", "properties": {"collection_times": [{"days": "Mon-Fri", "time": "10:00am"}, {"days": "Sat", "time": "9:00am"}, {"days": "Sun", "time": "Closed"}], "id": "1031200024", "name": "USPS COLLECTION BOX - BLUE BOX", "address": {"city": "STATEN ISLAND", "state": "NY", "street": "199 WOODS OF ARDEN RD", "postcode": "10312"}}},
{"geometry": {"type": "Point", "coordinates": [-74.1651786487, 40.5442450899]}, "type": "Feature", "properties": {"collection_times": [{"days": "Mon-Fri", "time": "10:00am"}, {"days": "Sat", "time": "9:00am"}, {"days": "Sun", "time": "Closed"}], "id": "1031200025", "name": "USPS COLLECTION BOX - BLUE BOX", "address": {"city": "STATEN ISLAND", "state": "NY", "street": "3839 RICHMOND AVE", "postcode": "10312"}}},
{"geometry": {"type": "Point", "coordinates": [-74.1612144887, 40.5295674533]}, "type": "Feature", "properties": {"collection_times": [{"days": "Mon-Fri", "time": "10:30am"}, {"days": "Sat", "time": "9:00am"}, {"days": "Sun", "time": "Closed"}], "id": "1031200026", "name": "USPS COLLECTION BOX - BLUE BOX", "address": {"city": "STATEN ISLAND", "state": "NY", "street": "4641 HYLAN BLVD", "postcode": "10312"}}},
{"geometry": {"type": "Point", "coordinates": [-74.1876917969, 40.5301075214]}, "type": "Feature", "properties": {"collection_times": [{"days": "Mon-Fri", "time": "10:30am"}, {"days": "Sat", "time": "9:30am"}, {"days": "Sun", "time": "Closed"}], "id": "1031200028", "name": "USPS COLLECTION BOX - BLUE BOX", "address": {"city": "STATEN ISLAND", "state": "NY", "street": "348 DEISIUS ST", "postcode": "10312"}}},
{"geometry": {"type": "Point", "coordinates": [-74.186191223, 40.5240304206]}, "type": "Feature", "properties": {"collection_times": [{"days": "Mon-Fri", "time": "10:30am"}, {"days": "Sat", "time": "9:30am"}, {"days": "Sun", "time": "Closed"}], "id": "1031200029", "name": "USPS COLLECTION BOX - BLUE BOX", "address": {"city": "STATEN ISLAND", "state": "NY", "street": "1270 HUGENOT AVE", "postcode": "10312"}}},
{"geometry": {"type": "Point", "coordinates": [-74.1921074646, 40.5324251511]}, "type": "Feature", "properties": {"collection_times": [{"days": "Mon-Fri", "time": "10:30am"}, {"days": "Sat", "time": "9:30am"}, {"days": "Sun", "time": "Closed"}], "id": "1031200030", "name": "USPS COLLECTION BOX - BLUE BOX", "address": {"city": "STATEN ISLAND", "state": "NY", "street": "900 HUGUENOT AVE", "postcode": "10312"}}},
{"geometry": {"type": "Point", "coordinates": [-74.1968660171, 40.5417542875]}, "type": "Feature", "properties": {"collection_times": [{"days": "Mon-Fri", "time": "10:30am"}, {"days": "Sat", "time": "9:30am"}, {"days": "Sun", "time": "Closed"}], "id": "1031200031", "name": "USPS COLLECTION BOX - BLUE BOX", "address": {"city": "STATEN ISLAND", "state": "NY", "street": "640 SINCLAIR AVE", "postcode": "10312"}}},
{"geometry": {"type": "Point", "coordinates": [-74.2004819885, 40.5499196082]}, "type": "Feature", "properties": {"collection_times": [{"days": "Mon-Fri", "time": "10:30am"}, {"days": "Sat", "time": "9:30am"}, {"days": "Sun", "time": "Closed"}], "id": "1031200033", "name": "USPS COLLECTION BOX - BLUE BOX", "address": {"city": "STATEN ISLAND", "state": "NY", "street": "149 HUGUENOT AVE", "postcode": "10312"}}},
{"geometry": {"type": "Point", "coordinates": [-74.1918861666, 40.5531468421]}, "type": "Feature", "properties": {"collection_times": [{"days": "Mon-Fri", "time": "4:00pm"}, {"days": "Sat", "time": "8:30am"}, {"days": "Sun", "time": "Closed"}], "id": "1031200035", "name": "USPS COLLECTION BOX - BLUE BOX", "address": {"city": "STATEN ISLAND", "state": "NY", "street": "230 ARDEN AVE", "postcode": "10312"}}},
{"geometry": {"type": "Point", "coordinates": [-74.1626266236, 40.5443169529]}, "type": "Feature", "properties": {"collection_times": [{"days": "Mon-Fri", "time": "3:00pm"}, {"days": "Sat", "time": "12:00pm"}, {"days": "Sun", "time": "Closed"}], "id": "1031200036", "name": "USPS COLLECTION BOX - PO LOBBY", "address": {"city": "STATEN ISLAND", "state": "NY", "street": "4455 AMBOY RD", "postcode": "10312"}}},
{"geometry": {"type": "Point", "coordinates": [-74.1226431755, 40.6144025526]}, "type": "Feature", "properties": {"collection_times": [{"days": "Mon-Sat", "time": "5:00pm"}, {"days": "Sun", "time": "Closed"}], "id": "1031400001", "name": "USPS COLLECTION BOX - BLUE BOX", "address": {"city": "STATEN ISLAND", "state": "NY", "street": "550 MANOR RD", "postcode": "10314"}}},
{"geometry": {"type": "Point", "coordinates": [-74.1173096624, 40.6157627185]}, "type": "Feature", "properties": {"collection_times": [{"days": "Mon-Fri", "time": "3:00pm"}, {"days": "Sat", "time": "11:00am"}, {"days": "Sun", "time": "Closed"}], "id": "1031400009", "name": "USPS COLLECTION BOX - BLUE BOX", "address": {"city": "STATEN ISLAND", "state": "NY", "street": "200 SLOSSON AVE", "postcode": "10314"}}},
{"geometry": {"type": "Point", "coordinates": [-74.1234783287, 40.6202651151]}, "type": "Feature", "properties": {"collection_times": [{"days": "Mon-Fri", "time": "12:00pm"}, {"days": "Sat", "time": "11:00am"}, {"days": "Sun", "time": "Closed"}], "id": "1031400010", "name": "USPS COLLECTION BOX - BLUE BOX", "address": {"city": "STATEN ISLAND", "state": "NY", "street": "321 MANOR RD", "postcode": "10314"}}},
{"geometry": {"type": "Point", "coordinates": [-74.1289468481, 40.6211890604]}, "type": "Feature", "properties": {"collection_times": [{"days": "Mon-Fri", "time": "9:00am"}, {"days": "Sat", "time": "8:00am"}, {"days": "Sun", "time": "Closed"}], "id": "1031400011", "name": "USPS COLLECTION BOX - BLUE BOX", "address": {"city": "STATEN ISLAND", "state": "NY", "street": "250 COLLEGE AVE", "postcode": "10314"}}},
{"geometry": {"type": "Point", "coordinates": [-74.1321691642, 40.6204026872]}, "type": "Feature", "properties": {"collection_times": [{"days": "Mon-Fri", "time": "11:30am"}, {"days": "Sat", "time": "10:00am"}, {"days": "Sun", "time": "Closed"}], "id": "1031400012", "name": "USPS COLLECTION BOX - BLUE BOX", "address": {"city": "STATEN ISLAND", "state": "NY", "street": "245 MAINE AVE", "postcode": "10314"}}},
{"geometry": {"type": "Point", "coordinates": [-74.1311721885, 40.6163678541]}, "type": "Feature", "properties": {"collection_times": [{"days": "Mon-Fri", "time": "11:30am"}, {"days": "Sat", "time": "10:00am"}, {"days": "Sun", "time": "Closed"}], "id": "1031400014", "name": "USPS COLLECTION BOX - BLUE BOX", "address": {"city": "STATEN ISLAND", "state": "NY", "street": "832 JEWETT AVE", "postcode": "10314"}}},
{"geometry": {"type": "Point", "coordinates": [-74.1335510384, 40.6179526765]}, "type": "Feature", "properties": {"collection_times": [{"days": "Mon-Fri", "time": "11:30am"}, {"days": "Sat", "time": "10:00am"}, {"days": "Sun", "time": "Closed"}], "id": "1031400015", "name": "USPS COLLECTION BOX - BLUE BOX", "address": {"city": "STATEN ISLAND", "state": "NY", "street": "220 FISKE AVE", "postcode": "10314"}}},
{"geometry": {"type": "Point", "coordinates": [-74.1453779767, 40.6047405629]}, "type": "Feature", "properties": {"collection_times": [{"days": "Mon-Fri", "time": "11:30am"}, {"days": "Sat", "time": "10:00am"}, {"days": "Sun", "time": "Closed"}], "id": "1031400018", "name": "USPS COLLECTION BOX - BLUE BOX", "address": {"city": "STATEN ISLAND", "state": "NY", "street": "114 DICKIE AVE", "postcode": "10314"}}},
{"geometry": {"type": "Point", "coordinates": [-74.1415896609, 40.6164670752]}, "type": "Feature", "properties": {"collection_times": [{"days": "Mon-Fri", "time": "1:00pm"}, {"days": "Sat", "time": "12:00pm"}, {"days": "Sun", "time": "Closed"}], "id": "1031400019", "name": "USPS COLLECTION BOX - BLUE BOX", "address": {"city": "STATEN ISLAND", "state": "NY", "street": "366 WATCHOGUE RD", "postcode": "10314"}}},
{"geometry": {"type": "Point", "coordinates": [-74.1400303989, 40.607286272]}, "type": "Feature", "properties": {"collection_times": [{"days": "Mon-Fri", "time": "12:30pm"}, {"days": "Sat", "time": "11:30am"}, {"days": "Sun", "time": "Closed"}], "id": "1031400020", "name": "USPS COLLECTION BOX - BLUE BOX", "address": {"city": "STATEN ISLAND", "state": "NY", "street": "538 S GANNON AVE", "postcode": "10314"}}},
{"geometry": {"type": "Point", "coordinates": [-74.1230010274, 40.6085427522]}, "type": "Feature", "properties": {"collection_times": [{"days": "Mon-Fri", "time": "11:00am"}, {"days": "Sat", "time": "10:00am"}, {"days": "Sun", "time": "Closed"}], "id": "1031400022", "name": "USPS COLLECTION BOX - BLUE BOX", "address": {"city": "STATEN ISLAND", "state": "NY", "street": "25 FANNING ST", "postcode": "10314"}}},
{"geometry": {"type": "Point", "coordinates": [-74.1253160948, 40.6061011728]}, "type": "Feature", "properties": {"collection_times": [{"days": "Mon-Fri", "time": "11:00am"}, {"days": "Sat", "time": "10:00am"}, {"days": "Sun", "time": "Closed"}], "id": "1031400023", "name": "USPS COLLECTION BOX - BLUE BOX", "address": {"city": "STATEN ISLAND", "state": "NY", "street": "434 WESTWOOD AVE", "postcode": "10314"}}},
{"geometry": {"type": "Point", "coordinates": [-74.1317394276, 40.597934779]}, "type": "Feature", "properties": {"collection_times": [{"days": "Mon-Fri", "time": "1:30pm"}, {"days": "Sat", "time": "8:00am"}, {"days": "Sun", "time": "Closed"}], "id": "1031400025", "name": "USPS COLLECTION BOX - BLUE BOX", "address": {"city": "STATEN ISLAND", "state": "NY", "street": "460 BRIELLE AVE", "postcode": "10314"}}},
{"geometry": {"type": "Point", "coordinates": [-74.1400074374, 40.5992076073]}, "type": "Feature", "properties": {"collection_times": [{"days": "Mon-Fri", "time": "12:30pm"}, {"days": "Sat", "time": "11:30am"}, {"days": "Sun", "time": "Closed"}], "id": "1031400026", "name": "USPS COLLECTION BOX - BLUE BOX", "address": {"city": "STATEN ISLAND", "state": "NY", "street": "953 FOREST HILL RD", "postcode": "10314"}}},
{"geometry": {"type": "Point", "coordinates": [-74.1379298342, 40.6031887757]}, "type": "Feature", "properties": {"collection_times": [{"days": "Mon-Fri", "time": "12:30pm"}, {"days": "Sat", "time": "11:30am"}, {"days": "Sun", "time": "Closed"}], "id": "1031400027", "name": "USPS COLLECTION BOX - BLUE BOX", "address": {"city": "STATEN ISLAND", "state": "NY", "street": "1060 WILLOWBROOK RD", "postcode": "10314"}}},
{"geometry": {"type": "Point", "coordinates": [-74.1306781354, 40.6002098833]}, "type": "Feature", "properties": {"collection_times": [{"days": "Mon-Fri", "time": "11:00am"}, {"days": "Sat", "time": "10:00am"}, {"days": "Sun", "time": "Closed"}], "id": "1031400028", "name": "USPS COLLECTION BOX - BLUE BOX", "address": {"city": "STATEN ISLAND", "state": "NY", "street": "289 PORTAGE AVE", "postcode": "10314"}}},
{"geometry": {"type": "Point", "coordinates": [-74.1205401511, 40.6020392066]}, "type": "Feature", "properties": {"collection_times": [{"days": "Mon-Fri", "time": "11:00am"}, {"days": "Sat", "time": "10:00am"}, {"days": "Sun", "time": "Closed"}], "id": "1031400029", "name": "USPS COLLECTION BOX - BLUE BOX", "address": {"city": "STATEN ISLAND", "state": "NY", "street": "995 MANOR RD", "postcode": "10314"}}},
{"geometry": {"type": "Point", "coordinates": [-74.165970039, 40.5965099621]}, "type": "Feature", "properties": {"collection_times": [{"days": "Mon-Fri", "time": "11:00am"}, {"days": "Sat", "time": "10:00am"}, {"days": "Sun", "time": "Closed"}], "id": "1031400030", "name": "USPS COLLECTION BOX - BLUE BOX", "address": {"city": "STATEN ISLAND", "state": "NY", "street": "761 SCHMIDTS LN", "postcode": "10314"}}},
{"geometry": {"type": "Point", "coordinates": [-74.1268649866, 40.6128279611]}, "type": "Feature", "properties": {"collection_times": [{"days": "Mon-Fri", "time": "9:00am"}, {"days": "Sat", "time": "8:00am"}, {"days": "Sun", "time": "Closed"}], "id": "1031400031", "name": "USPS COLLECTION BOX - BLUE BOX", "address": {"city": "STATEN ISLAND", "state": "NY", "street": "1891 VICTORY BLVD", "postcode": "10314"}}},
{"geometry": {"type": "Point", "coordinates": [-74.1306765977, 40.6130250243]}, "type": "Feature", "properties": {"collection_times": [{"days": "Mon-Fri", "time": "9:00am"}, {"days": "Sat", "time": "8:00am"}, {"days": "Sun", "time": "Closed"}], "id": "1031400032", "name": "USPS COLLECTION BOX - BLUE BOX", "address": {"city": "STATEN ISLAND", "state": "NY", "street": "961 JEWETT AVE", "postcode": "10314"}}},
{"geometry": {"type": "Point", "coordinates": [-74.1279820467, 40.6186184632]}, "type": "Feature", "properties": {"collection_times": [{"days": "Mon-Fri", "time": "9:00am"}, {"days": "Sat", "time": "8:00am"}, {"days": "Sun", "time": "Closed"}], "id": "1031400033", "name": "USPS COLLECTION BOX - BLUE BOX", "address": {"city": "STATEN ISLAND", "state": "NY", "street": "70 WESTCOTT BLVD", "postcode": "10314"}}},
{"geometry": {"type": "Point", "coordinates": [-74.1630554032, 40.5776827478]}, "type": "Feature", "properties": {"collection_times": [{"days": "Mon-Fri", "time": "12:00pm"}, {"days": "Sat", "time": "11:00am"}, {"days": "Sun", "time": "Closed"}], "id": "1031400037", "name": "USPS COLLECTION BOX - BLUE BOX", "address": {"city": "STATEN ISLAND", "state": "NY", "street": "2 WINDHAM LOOP", "postcode": "10314"}}},
{"geometry": {"type": "Point", "coordinates": [-74.1695647901, 40.5764737115]}, "type": "Feature", "properties": {"collection_times": [{"days": "Mon-Fri", "time": "5:00pm"}, {"days": "Sat", "time": "4:00pm"}, {"days": "Sun", "time": "Closed"}], "id": "1031400038", "name": "USPS COLLECTION BOX - BLUE BOX", "address": {"city": "STATEN ISLAND", "state": "NY", "street": "2845 RICHMOND AVE", "postcode": "10314"}}},
{"geometry": {"type": "Point", "coordinates": [-74.1695647901, 40.5764737115]}, "type": "Feature", "properties": {"collection_times": [{"days": "Mon-Fri", "time": "5:00pm"}, {"days": "Sat", "time": "4:00pm"}, {"days": "Sun", "time": "Closed"}], "id": "1031400039", "name": "USPS COLLECTION BOX - BLUE BOX", "address": {"city": "STATEN ISLAND", "state": "NY", "street": "2845 RICHMOND AVE", "postcode": "10314"}}},
{"geometry": {"type": "Point", "coordinates": [-74.1690755741, 40.5809084788]}, "type": "Feature", "properties": {"collection_times": [{"days": "Mon-Fri", "time": "12:30pm"}, {"days": "Sat", "time": "11:30am"}, {"days": "Sun", "time": "Closed"}], "id": "1031400042", "name": "USPS COLLECTION BOX - BLUE BOX", "address": {"city": "STATEN ISLAND", "state": "NY", "street": "2655 RICHMOND AVE", "postcode": "10314"}}},
{"geometry": {"type": "Point", "coordinates": [-74.1690755741, 40.5809084788]}, "type": "Feature", "properties": {"collection_times": [{"days": "Mon-Fri", "time": "12:30pm"}, {"days": "Sat", "time": "11:30am"}, {"days": "Sun", "time": "Closed"}], "id": "1031400043", "name": "USPS COLLECTION BOX - BLUE BOX", "address": {"city": "STATEN ISLAND", "state": "NY", "street": "2655 RICHMOND AVE", "postcode": "10314"}}},
{"geometry": {"type": "Point", "coordinates": [-74.1655225462, 40.5907042042]}, "type": "Feature", "properties": {"collection_times": [{"days": "Mon-Fri", "time": "12:30pm"}, {"days": "Sat", "time": "11:30am"}, {"days": "Sun", "time": "Closed"}], "id": "1031400045", "name": "USPS COLLECTION BOX - BLUE BOX", "address": {"city": "STATEN ISLAND", "state": "NY", "street": "2375 RICHMOND AVE", "postcode": "10314"}}},
{"geometry": {"type": "Point", "coordinates": [-74.1650206091, 40.5943063525]}, "type": "Feature", "properties": {"collection_times": [{"days": "Mon-Fri", "time": "1:30pm"}, {"days": "Sat", "time": "12:30pm"}, {"days": "Sun", "time": "Closed"}], "id": "1031400047", "name": "USPS COLLECTION BOX - BLUE BOX", "address": {"city": "STATEN ISLAND", "state": "NY", "street": "160 ROCKVILLE AVE", "postcode": "10314"}}},
{"geometry": {"type": "Point", "coordinates": [-74.1665191894, 40.6019499912]}, "type": "Feature", "properties": {"collection_times": [{"days": "Mon-Fri", "time": "1:30pm"}, {"days": "Sat", "time": "12:30pm"}, {"days": "Sun", "time": "Closed"}], "id": "1031400048", "name": "USPS COLLECTION BOX - BLUE BOX", "address": {"city": "STATEN ISLAND", "state": "NY", "street": "96 SIGNS RD", "postcode": "10314"}}},
{"geometry": {"type": "Point", "coordinates": [-74.1865179182, 40.5942021814]}, "type": "Feature", "properties": {"collection_times": [{"days": "Mon-Fri", "time": "1:30pm"}, {"days": "Sat", "time": "12:30pm"}, {"days": "Sun", "time": "Closed"}], "id": "1031400050", "name": "USPS COLLECTION BOX - BLUE BOX", "address": {"city": "STATEN ISLAND", "state": "NY", "street": "3955 VICTORY BLVD", "postcode": "10314"}}},
{"geometry": {"type": "Point", "coordinates": [-74.1906476604, 40.5916097386]}, "type": "Feature", "properties": {"collection_times": [{"days": "Mon-Fri", "time": "1:30pm"}, {"days": "Sat", "time": "12:30pm"}, {"days": "Sun", "time": "Closed"}], "id": "1031400051", "name": "USPS COLLECTION BOX - BLUE BOX", "address": {"city": "STATEN ISLAND", "state": "NY", "street": "4108 VICTORY BLVD", "postcode": "10314"}}},
{"geometry": {"type": "Point", "coordinates": [-74.1637176589, 40.6151758872]}, "type": "Feature", "properties": {"collection_times": [{"days": "Mon-Fri", "time": "2:00pm"}, {"days": "Sat", "time": "1:00pm"}, {"days": "Sun", "time": "Closed"}], "id": "1031400057", "name": "USPS COLLECTION BOX - BLUE BOX", "address": {"city": "STATEN ISLAND", "state": "NY", "street": "35 ARLENE ST", "postcode": "10314"}}},
{"geometry": {"type": "Point", "coordinates": [-74.1591984384, 40.6127278612]}, "type": "Feature", "properties": {"collection_times": [{"days": "Mon-Fri", "time": "1:30pm"}, {"days": "Sat", "time": "1:00pm"}, {"days": "Sun", "time": "Closed"}], "id": "1031400058", "name": "USPS COLLECTION BOX - BLUE BOX", "address": {"city": "STATEN ISLAND", "state": "NY", "street": "1460 RICHMOND AVE", "postcode": "10314"}}},
{"geometry": {"type": "Point", "coordinates": [-74.1631423576, 40.6101699259]}, "type": "Feature", "properties": {"collection_times": [{"days": "Mon-Fri", "time": "1:30pm"}, {"days": "Sat", "time": "12:30pm"}, {"days": "Sun", "time": "Closed"}], "id": "1031400059", "name": "USPS COLLECTION BOX - BLUE BOX", "address": {"city": "STATEN ISLAND", "state": "NY", "street": "100 MERRILL AVE", "postcode": "10314"}}},
{"geometry": {"type": "Point", "coordinates": [-74.1574934641, 40.6093656334]}, "type": "Feature", "properties": {"collection_times": [{"days": "Mon-Fri", "time": "1:00pm"}, {"days": "Sat", "time": "12:00pm"}, {"days": "Sun", "time": "Closed"}], "id": "1031400061", "name": "USPS COLLECTION BOX - BLUE BOX", "address": {"city": "STATEN ISLAND", "state": "NY", "street": "131 MORANI ST", "postcode": "10314"}}},
{"geometry": {"type": "Point", "coordinates": [-74.1564217444, 40.616659445]}, "type": "Feature", "properties": {"collection_times": [{"days": "Mon-Sat", "time": "1:00pm"}, {"days": "Sun", "time": "Closed"}], "id": "1031400062", "name": "USPS COLLECTION BOX - BLUE BOX", "address": {"city": "STATEN ISLAND", "state": "NY", "street": "1319 RICHMOND AVE", "postcode": "10314"}}},
{"geometry": {"type": "Point", "coordinates": [-74.1548108512, 40.6189754803]}, "type": "Feature", "properties": {"collection_times": [{"days": "Mon-Sat", "time": "1:00pm"}, {"days": "Sun", "time": "Closed"}], "id": "1031400063", "name": "USPS COLLECTION BOX - BLUE BOX", "address": {"city": "STATEN ISLAND", "state": "NY", "street": "5 REGIS DR", "postcode": "10314"}}},
{"geometry": {"type": "Point", "coordinates": [-74.1552699373, 40.6101166458]}, "type": "Feature", "properties": {"collection_times": [{"days": "Mon-Fri", "time": "2:00pm"}, {"days": "Sat", "time": "1:00pm"}, {"days": "Sun", "time": "Closed"}], "id": "1031400064", "name": "USPS COLLECTION BOX - BLUE BOX", "address": {"city": "STATEN ISLAND", "state": "NY", "street": "260 CHRISTOPHER LN", "postcode": "10314"}}},
{"geometry": {"type": "Point", "coordinates": [-74.146941111, 40.610219565]}, "type": "Feature", "properties": {"collection_times": [{"days": "Mon-Fri", "time": "3:30pm"}, {"days": "Sat", "time": "2:30pm"}, {"days": "Sun", "time": "Closed"}], "id": "1031400066", "name": "USPS COLLECTION BOX - BLUE BOX", "address": {"city": "STATEN ISLAND", "state": "NY", "street": "2509 VICTORY BLVD", "postcode": "10314"}}},
{"geometry": {"type": "Point", "coordinates": [-74.1514709574, 40.6152648374]}, "type": "Feature", "properties": {"collection_times": [{"days": "Mon-Fri", "time": "1:00pm"}, {"days": "Sat", "time": "12:00pm"}, {"days": "Sun", "time": "Closed"}], "id": "1031400068", "name": "USPS COLLECTION BOX - BLUE BOX", "address": {"city": "STATEN ISLAND", "state": "NY", "street": "434 CASWELL AVE", "postcode": "10314"}}},
{"geometry": {"type": "Point", "coordinates": [-74.1445653553, 40.6144033013]}, "type": "Feature", "properties": {"collection_times": [{"days": "Mon-Fri", "time": "1:00pm"}, {"days": "Sat", "time": "12:00pm"}, {"days": "Sun", "time": "Closed"}], "id": "1031400069", "name": "USPS COLLECTION BOX - BLUE BOX", "address": {"city": "STATEN ISLAND", "state": "NY", "street": "286 BRYSON AVE", "postcode": "10314"}}},
{"geometry": {"type": "Point", "coordinates": [-74.1446422109, 40.6169781759]}, "type": "Feature", "properties": {"collection_times": [{"days": "Mon-Fri", "time": "1:00pm"}, {"days": "Sat", "time": "12:00pm"}, {"days": "Sun", "time": "Closed"}], "id": "1031400071", "name": "USPS COLLECTION BOX - BLUE BOX", "address": {"city": "STATEN ISLAND", "state": "NY", "street": "431 WATCHOGUE RD", "postcode": "10314"}}},
{"geometry": {"type": "Point", "coordinates": [-74.1411123935, 40.6110454672]}, "type": "Feature", "properties": {"collection_times": [{"days": "Mon-Fri", "time": "2:30pm"}, {"days": "Sat", "time": "1:30pm"}, {"days": "Sun", "time": "Closed"}], "id": "1031400072", "name": "USPS COLLECTION BOX - BLUE BOX", "address": {"city": "STATEN ISLAND", "state": "NY", "street": "505 WOOLLEY AVE", "postcode": "10314"}}},
{"geometry": {"type": "Point", "coordinates": [-74.1686348267, 40.5839501979]}, "type": "Feature", "properties": {"collection_times": [{"days": "Mon-Fri", "time": "12:30pm"}, {"days": "Sat", "time": "11:30am"}, {"days": "Sun", "time": "Closed"}], "id": "1031400080", "name": "USPS COLLECTION BOX - BLUE BOX", "address": {"city": "STATEN ISLAND", "state": "NY", "street": "2555 RICHMOND AVE", "postcode": "10314"}}},
{"geometry": {"type": "Point", "coordinates": [-74.145377977, 40.6047535516]}, "type": "Feature", "properties": {"collection_times": [{"days": "Mon-Sat", "time": "5:00pm"}, {"days": "Sun", "time": "Closed"}], "id": "1031400081", "name": "USPS COLLECTION BOX - EXPRESS", "address": {"city": "STATEN ISLAND", "state": "NY", "street": "550 MANOR RD", "postcode": "10314"}}},
{"geometry": {"type": "Point", "coordinates": [-74.153347211, 40.6087581451]}, "type": "Feature", "properties": {"collection_times": [{"days": "Mon-Fri", "time": "2:30pm"}, {"days": "Sat", "time": "1:30pm"}, {"days": "Sun", "time": "Closed"}], "id": "1031400085", "name": "USPS COLLECTION BOX - BLUE BOX", "address": {"city": "STATEN ISLAND", "state": "NY", "street": "2800 VICTORY BLVD", "postcode": "10314"}}},
{"geometry": {"type": "Point", "coordinates": [-74.1938711396, 40.6012751429]}, "type": "Feature", "properties": {"collection_times": [{"days": "Mon-Fri", "time": "3:30pm"}, {"days": "Sat-Sun", "time": "Closed"}], "id": "1031400087", "name": "USPS COLLECTION BOX - BLUE BOX", "address": {"city": "STATEN ISLAND", "state": "NY", "street": "1775 SOUTH AVE", "postcode": "10314"}}},
{"geometry": {"type": "Point", "coordinates": [-74.1764543954, 40.6114040173]}, "type": "Feature", "properties": {"collection_times": [{"days": "Mon-Fri", "time": "4:00pm"}, {"days": "Sat-Sun", "time": "Closed"}], "id": "1031400115", "name": "USPS COLLECTION BOX - BLUE BOX", "address": {"city": "STATEN ISLAND", "state": "NY", "street": "1110 SOUTH AVE", "postcode": "10314"}}},
{"geometry": {"type": "Point", "coordinates": [-74.1695647901, 40.5764737115]}, "type": "Feature", "properties": {"collection_times": [{"days": "Mon-Fri", "time": "3:00pm"}, {"days": "Sat", "time": "12:00pm"}, {"days": "Sun", "time": "Closed"}], "id": "1031400119", "name": "USPS COLLECTION BOX - PO LOBBY", "address": {"city": "STATEN ISLAND", "state": "NY", "street": "2845 RICHMOND AVE", "postcode": "10314"}}}
]}
