{"type": "FeatureCollection", "features": [
{"geometry": {"type": "Point", "coordinates": [-73.7661348815, 41.2874459105]}, "type": "Feature", "properties": {"collection_times": [{"days": "Mon-Fri", "time": "4:45pm"}, {"days": "Sat", "time": "12:30pm"}, {"days": "Sun", "time": "Closed"}], "id": "1050100002", "name": "USPS COLLECTION BOX - BLUE BOX", "address": {"city": "AMAWALK", "state": "NY", "street": "3 MAHOPAC AVE", "postcode": "10501"}}},
{"geometry": {"type": "Point", "coordinates": [-73.7645002388, 41.2930697054]}, "type": "Feature", "properties": {"collection_times": [{"days": "Mon-Fri", "time": "4:45pm"}, {"days": "Sat", "time": "12:30pm"}, {"days": "Sun", "time": "Closed"}], "id": "1050100007", "name": "USPS COLLECTION BOX - PO LOBBY", "address": {"city": "AMAWALK", "state": "NY", "street": "3 MAHOPAC-LOBBY DROP AVE", "postcode": "10501"}}},
{"geometry": {"type": "Point", "coordinates": [-73.8483771041, 41.011799396]}, "type": "Feature", "properties": {"collection_times": [{"days": "Mon-Fri", "time": "1:00pm"}, {"days": "Sat", "time": "11:00am"}, {"days": "Sun", "time": "Closed"}], "id": "1050200001", "name": "USPS COLLECTION BOX - BLUE BOX", "address": {"city": "ARDSLEY", "state": "NY", "street": "731 SAW MILL RIVER RD", "postcode": "10502"}}},
{"geometry": {"type": "Point", "coordinates": [-73.8482981592, 41.011867088]}, "type": "Feature", "properties": {"collection_times": [{"days": "Mon-Fri", "time": "1:00pm"}, {"days": "Sat", "time": "11:00am"}, {"days": "Sun", "time": "Closed"}], "id": "1050200002", "name": "USPS COLLECTION BOX - BLUE BOX", "address": {"city": "ARDSLEY", "state": "NY", "street": "473 ASHFORD AVE", "postcode": "10502"}}},
{"geometry": {"type": "Point", "coordinates": [-73.8441867865, 41.0180886337]}, "type": "Feature", "properties": {"collection_times": [{"days": "Mon-Fri", "time": "5:00pm"}, {"days": "Sat", "time": "1:30pm"}, {"days": "Sun", "time": "Closed"}], "id": "1050200006", "name": "USPS COLLECTION BOX - BLUE BOX", "address": {"city": "ARDSLEY", "state": "NY", "street": "875 SAW MILL RIVER RD", "postcode": "10502"}}},
{"geometry": {"type": "Point", "coordinates": [-73.8441867865, 41.0180886337]}, "type": "Feature", "properties": {"collection_times": [{"days": "Mon-Fri", "time": "5:00pm"}, {"days": "Sat", "time": "1:30pm"}, {"days": "Sun", "time": "Closed"}], "id": "1050200007", "name": "USPS COLLECTION BOX - BLUE BOX", "address": {"city": "ARDSLEY", "state": "NY", "street": "875 SAW MILL RIVER RD", "postcode": "10502"}}},
{"geometry": {"type": "Point", "coordinates": [-73.8442495805, 41.0105682982]}, "type": "Feature", "properties": {"collection_times": [{"days": "Mon-Fri", "time": "1:00pm"}, {"days": "Sat", "time": "11:00am"}, {"days": "Sun", "time": "Closed"}], "id": "1050200008", "name": "USPS COLLECTION BOX - BLUE BOX", "address": {"city": "ARDSLEY", "state": "NY", "street": "535 ASHFORD AVE", "postcode": "10502"}}},
{"geometry": {"type": "Point", "coordinates": [-73.8441867865, 41.0180886337]}, "type": "Feature", "properties": {"collection_times": [{"days": "Mon-Fri", "time": "5:00pm"}, {"days": "Sat", "time": "1:30pm"}, {"days": "Sun", "time": "Closed"}], "id": "1050200013", "name": "USPS COLLECTION BOX - PO LOBBY", "address": {"city": "ARDSLEY", "state": "NY", "street": "875 SAW MILL RIVER RD-LOBBY DROP", "postcode": "10502"}}},
{"geometry": {"type": "Point", "coordinates": [-73.8743340242, 41.0263230025]}, "type": "Feature", "properties": {"collection_times": [{"days": "Mon-Fri", "time": "4:30pm"}, {"days": "Sat", "time": "12:00pm"}, {"days": "Sun", "time": "Closed"}], "id": "1050300001", "name": "USPS COLLECTION BOX - BLUE BOX", "address": {"city": "ARDSLEY HDSN", "state": "NY", "street": "110 ARDSLEY AVE W", "postcode": "10503"}}},
{"geometry": {"type": "Point", "coordinates": [-73.8743340242, 41.0263230025]}, "type": "Feature", "properties": {"collection_times": [{"days": "Mon-Fri", "time": "2:00pm"}, {"days": "Sat", "time": "12:00pm"}, {"days": "Sun", "time": "Closed"}], "id": "1050300002", "name": "USPS COLLECTION BOX - PO LOBBY", "address": {"city": "ARDSLEY HDSN", "state": "NY", "street": "110 ARDSLEY AVE W LBBY DROP", "postcode": "10503"}}},
{"geometry": {"type": "Point", "coordinates": [-73.7146474242, 41.123983074]}, "type": "Feature", "properties": {"collection_times": [{"days": "Mon-Fri", "time": "5:00pm"}, {"days": "Sat", "time": "2:00pm"}, {"days": "Sun", "time": "Closed"}], "id": "1050400001", "name": "USPS COLLECTION BOX - BLUE BOX", "address": {"city": "ARMONK", "state": "NY", "street": "407 MAIN ST", "postcode": "10504"}}},
{"geometry": {"type": "Point", "coordinates": [-73.7088042022, 41.1186597042]}, "type": "Feature", "properties": {"collection_times": [{"days": "Mon-Fri", "time": "2:00pm"}, {"days": "Sat-Sun", "time": "Closed"}], "id": "1050400003", "name": "USPS COLLECTION BOX - BLUE BOX", "address": {"city": "ARMONK", "state": "NY", "street": "80 BUSINESS PARK DR", "postcode": "10504"}}},
{"geometry": {"type": "Point", "coordinates": [-73.708729471, 41.1187972097]}, "type": "Feature", "properties": {"collection_times": [{"days": "Mon-Fri", "time": "2:00pm"}, {"days": "Sat-Sun", "time": "Closed"}], "id": "1050400005", "name": "USPS COLLECTION BOX - BLUE BOX", "address": {"city": "ARMONK", "state": "NY", "street": "84 BUSINESS PARK DR", "postcode": "10504"}}},
{"geometry": {"type": "Point", "coordinates": [-73.7102008469, 41.1225333534]}, "type": "Feature", "properties": {"collection_times": [{"days": "Mon-Fri", "time": "2:00pm"}, {"days": "Sat-Sun", "time": "Closed"}], "id": "1050400010", "name": "USPS COLLECTION BOX - BLUE BOX", "address": {"city": "ARMONK", "state": "NY", "street": "200 BUSINESS PARK DR", "postcode": "10504"}}},
{"geometry": {"type": "Point", "coordinates": [-73.7088042022, 41.1186597042]}, "type": "Feature", "properties": {"collection_times": [{"days": "Mon-Fri", "time": "2:00pm"}, {"days": "Sat-Sun", "time": "Closed"}], "id": "1050400011", "name": "USPS COLLECTION BOX - BLUE BOX", "address": {"city": "ARMONK", "state": "NY", "street": "80 BUSINESS PARK DR", "postcode": "10504"}}},
{"geometry": {"type": "Point", "coordinates": [-73.7263673754, 41.1298931895]}, "type": "Feature", "properties": {"collection_times": [{"days": "Mon-Sat", "time": "2:00pm"}, {"days": "Sun", "time": "Closed"}], "id": "1050400012", "name": "USPS COLLECTION BOX - BLUE BOX", "address": {"city": "ARMONK", "state": "NY", "street": "19 WHIPPOORWILL RD E", "postcode": "10504"}}},
{"geometry": {"type": "Point", "coordinates": [-73.7146474242, 41.123983074]}, "type": "Feature", "properties": {"collection_times": [{"days": "Mon-Fri", "time": "5:00pm"}, {"days": "Sat", "time": "2:00pm"}, {"days": "Sun", "time": "Closed"}], "id": "1050400013", "name": "USPS COLLECTION BOX - PO LOBBY", "address": {"city": "ARMONK", "state": "NY", "street": "407 MAIN ST LBBY DROP", "postcode": "10504"}}},
{"geometry": {"type": "Point", "coordinates": [-73.7443833439, 41.3417443792]}, "type": "Feature", "properties": {"collection_times": [{"days": "Mon-Fri", "time": "5:00pm"}, {"days": "Sat", "time": "12:00pm"}, {"days": "Sun", "time": "Closed"}], "id": "1050500001", "name": "USPS COLLECTION BOX - BLUE BOX", "address": {"city": "BALDWIN PLACE", "state": "NY", "street": "167 ROUTE 6", "postcode": "10505"}}},
{"geometry": {"type": "Point", "coordinates": [-73.7443833439, 41.3417443792]}, "type": "Feature", "properties": {"collection_times": [{"days": "Mon-Fri", "time": "5:00pm"}, {"days": "Sat", "time": "12:00pm"}, {"days": "Sun", "time": "Closed"}], "id": "1050500003", "name": "USPS COLLECTION BOX - PO LOBBY", "address": {"city": "BALDWIN PLACE", "state": "NY", "street": "167 ROUTE 6 LBBY DROP", "postcode": "10505"}}},
{"geometry": {"type": "Point", "coordinates": [-73.642920351, 41.2029838854]}, "type": "Feature", "properties": {"collection_times": [{"days": "Mon-Fri", "time": "5:00pm"}, {"days": "Sat", "time": "2:00pm"}, {"days": "Sun", "time": "Closed"}], "id": "1050600001", "name": "USPS COLLECTION BOX - BLUE BOX", "address": {"city": "BEDFORD", "state": "NY", "street": "40 VILLAGE GRN", "postcode": "10506"}}},
{"geometry": {"type": "Point", "coordinates": [-73.642920351, 41.2029838854]}, "type": "Feature", "properties": {"collection_times": [{"days": "Mon-Fri", "time": "5:00pm"}, {"days": "Sat", "time": "2:00pm"}, {"days": "Sun", "time": "Closed"}], "id": "1050600002", "name": "USPS COLLECTION BOX - BLUE BOX", "address": {"city": "BEDFORD", "state": "NY", "street": "40 VILLAGE GRN", "postcode": "10506"}}},
{"geometry": {"type": "Point", "coordinates": [-73.655192682, 41.1956528657]}, "type": "Feature", "properties": {"collection_times": [{"days": "Mon-Sat", "time": "11:00am"}, {"days": "Sun", "time": "Closed"}], "id": "1050600003", "name": "USPS COLLECTION BOX - BLUE BOX", "address": {"city": "BEDFORD", "state": "NY", "street": "440 OLD POST RD", "postcode": "10506"}}},
{"geometry": {"type": "Point", "coordinates": [-73.642920351, 41.2029838854]}, "type": "Feature", "properties": {"collection_times": [{"days": "Mon-Fri", "time": "5:00pm"}, {"days": "Sat", "time": "2:00pm"}, {"days": "Sun", "time": "Closed"}], "id": "1050600004", "name": "USPS COLLECTION BOX - PO LOBBY", "address": {"city": "BEDFORD", "state": "NY", "street": "40 VILLAGE GRN LBBY DROP", "postcode": "10506"}}},
{"geometry": {"type": "Point", "coordinates": [-73.6990329959, 41.2375024683]}, "type": "Feature", "properties": {"collection_times": [{"days": "Mon-Fri", "time": "5:00pm"}, {"days": "Sat", "time": "12:30pm"}, {"days": "Sun", "time": "Closed"}], "id": "1050700001", "name": "USPS COLLECTION BOX - BLUE BOX", "address": {"city": "BEDFORD HILLS", "state": "NY", "street": "60 ADAMS ST", "postcode": "10507"}}},
{"geometry": {"type": "Point", "coordinates": [-73.6993167367, 41.2393007256]}, "type": "Feature", "properties": {"collection_times": [{"days": "Mon-Sat", "time": "12:00pm"}, {"days": "Sun", "time": "Closed"}], "id": "1050700005", "name": "USPS COLLECTION BOX - BLUE BOX", "address": {"city": "BEDFORD HILLS", "state": "NY", "street": "321 BEDFORD RD", "postcode": "10507"}}},
{"geometry": {"type": "Point", "coordinates": [-73.7142964856, 41.2244831404]}, "type": "Feature", "properties": {"collection_times": [{"days": "Mon-Sat", "time": "12:00pm"}, {"days": "Sun", "time": "Closed"}], "id": "1050700006", "name": "USPS COLLECTION BOX - BLUE BOX", "address": {"city": "BEDFORD HILLS", "state": "NY", "street": "737 BEDFORD RD", "postcode": "10507"}}},
{"geometry": {"type": "Point", "coordinates": [-73.6998774592, 41.2366556294]}, "type": "Feature", "properties": {"collection_times": [{"days": "Mon-Sat", "time": "12:00pm"}, {"days": "Sun", "time": "Closed"}], "id": "1050700009", "name": "USPS COLLECTION BOX - BLUE BOX", "address": {"city": "BEDFORD HILLS", "state": "NY", "street": "7 BABBITT RD", "postcode": "10507"}}},
{"geometry": {"type": "Point", "coordinates": [-73.686132659, 41.2402813986]}, "type": "Feature", "properties": {"collection_times": [{"days": "Mon-Sat", "time": "12:00pm"}, {"days": "Sun", "time": "Closed"}], "id": "1050700013", "name": "USPS COLLECTION BOX - BLUE BOX", "address": {"city": "BEDFORD HILLS", "state": "NY", "street": "212 BABBITT RD", "postcode": "10507"}}},
{"geometry": {"type": "Point", "coordinates": [-73.6990329959, 41.2375024683]}, "type": "Feature", "properties": {"collection_times": [{"days": "Mon-Fri", "time": "5:00pm"}, {"days": "Sat", "time": "12:30pm"}, {"days": "Sun", "time": "Closed"}], "id": "1050700016", "name": "USPS COLLECTION BOX - PO LOBBY", "address": {"city": "BEDFORD HILLS", "state": "NY", "street": "60 ADAMS ST LBBY DROP", "postcode": "10507"}}},
{"geometry": {"type": "Point", "coordinates": [-73.6181929723, 41.403177629]}, "type": "Feature", "properties": {"collection_times": [{"days": "Mon-Fri", "time": "12:00pm"}, {"days": "Sat", "time": "2:00pm"}, {"days": "Sun", "time": "Closed"}], "id": "1050900003", "name": "USPS COLLECTION BOX - BLUE BOX", "address": {"city": "BREWSTER", "state": "NY", "street": "570 N MAIN ST", "postcode": "10509"}}},
{"geometry": {"type": "Point", "coordinates": [-73.5478099313, 41.4603132913]}, "type": "Feature", "properties": {"collection_times": [{"days": "Mon-Fri", "time": "11:30am"}, {"days": "Sat", "time": "2:00pm"}, {"days": "Sun", "time": "Closed"}], "id": "1050900004", "name": "USPS COLLECTION BOX - BLUE BOX", "address": {"city": "BREWSTER", "state": "NY", "street": "74 FAIRFIELD DR", "postcode": "10509"}}},
{"geometry": {"type": "Point", "coordinates": [-73.5770366344, 41.421714181]}, "type": "Feature", "properties": {"collection_times": [{"days": "Mon-Fri", "time": "12:00pm"}, {"days": "Sat", "time": "2:00pm"}, {"days": "Sun", "time": "Closed"}], "id": "1050900005", "name": "USPS COLLECTION BOX - BLUE BOX", "address": {"city": "BREWSTER", "state": "NY", "street": "1511 ROUTE 22", "postcode": "10509"}}},
{"geometry": {"type": "Point", "coordinates": [-73.6023575481, 41.3977793854]}, "type": "Feature", "properties": {"collection_times": [{"days": "Mon-Fri", "time": "11:30am"}, {"days": "Sat", "time": "2:00pm"}, {"days": "Sun", "time": "Closed"}], "id": "1050900006", "name": "USPS COLLECTION BOX - BLUE BOX", "address": {"city": "BREWSTER", "state": "NY", "street": "993 ROUTE 22", "postcode": "10509"}}},
{"geometry": {"type": "Point", "coordinates": [-73.6170407577, 41.3944493428]}, "type": "Feature", "properties": {"collection_times": [{"days": "Mon-Fri", "time": "11:30am"}, {"days": "Sat", "time": "2:00pm"}, {"days": "Sun", "time": "Closed"}], "id": "1050900008", "name": "USPS COLLECTION BOX - BLUE BOX", "address": {"city": "BREWSTER", "state": "NY", "street": "79 MAIN ST", "postcode": "10509"}}},
{"geometry": {"type": "Point", "coordinates": [-73.6195501093, 41.3949706406]}, "type": "Feature", "properties": {"collection_times": [{"days": "Mon-Fri", "time": "11:30am"}, {"days": "Sat", "time": "2:00pm"}, {"days": "Sun", "time": "Closed"}], "id": "1050900010", "name": "USPS COLLECTION BOX - BLUE BOX", "address": {"city": "BREWSTER", "state": "NY", "street": "14 MAIN ST", "postcode": "10509"}}},
{"geometry": {"type": "Point", "coordinates": [-73.5704688462, 41.4368714342]}, "type": "Feature", "properties": {"collection_times": [{"days": "Mon-Fri", "time": "5:00pm"}, {"days": "Sat", "time": "3:00pm"}, {"days": "Sun", "time": "Closed"}], "id": "1050900013", "name": "USPS COLLECTION BOX - BLUE BOX", "address": {"city": "BREWSTER", "state": "NY", "street": "3 MOUNT EBO RD N", "postcode": "10509"}}},
{"geometry": {"type": "Point", "coordinates": [-73.5770206115, 41.4287213101]}, "type": "Feature", "properties": {"collection_times": [{"days": "Mon-Fri", "time": "12:00pm"}, {"days": "Sat", "time": "2:00pm"}, {"days": "Sun", "time": "Closed"}], "id": "1050900015", "name": "USPS COLLECTION BOX - BLUE BOX", "address": {"city": "BREWSTER", "state": "NY", "street": "1622 ROUTE 22", "postcode": "10509"}}},
{"geometry": {"type": "Point", "coordinates": [-73.5704688462, 41.4368714342]}, "type": "Feature", "properties": {"collection_times": [{"days": "Mon-Fri", "time": "5:00pm"}, {"days": "Sat", "time": "3:00pm"}, {"days": "Sun", "time": "Closed"}], "id": "1050900017", "name": "USPS COLLECTION BOX - PO LOBBY", "address": {"city": "BREWSTER", "state": "NY", "street": "3 MOUNT EBO RD N", "postcode": "10509"}}},
{"geometry": {"type": "Point", "coordinates": [-73.8280881134, 41.1478220654]}, "type": "Feature", "properties": {"collection_times": [{"days": "Mon-Fri", "time": "5:00pm"}, {"days": "Sat", "time": "1:30pm"}, {"days": "Sun", "time": "Closed"}], "id": "1051000002", "name": "USPS COLLECTION BOX - BLUE BOX", "address": {"city": "BRIARCLIFF", "state": "NY", "street": "1077 PLEASANTVILLE RD", "postcode": "10510"}}},
{"geometry": {"type": "Point", "coordinates": [-73.8280881134, 41.1478220654]}, "type": "Feature", "properties": {"collection_times": [{"days": "Mon-Fri", "time": "5:00pm"}, {"days": "Sat", "time": "1:30pm"}, {"days": "Sun", "time": "Closed"}], "id": "1051000004", "name": "USPS COLLECTION BOX - BLUE BOX", "address": {"city": "BRIARCLIFF", "state": "NY", "street": "1077 PLEASANTVILLE RD", "postcode": "10510"}}},
{"geometry": {"type": "Point", "coordinates": [-73.8451270757, 41.1635736075]}, "type": "Feature", "properties": {"collection_times": [{"days": "Mon-Sat", "time": "9:30am"}, {"days": "Sun", "time": "Closed"}], "id": "1051000011", "name": "USPS COLLECTION BOX - BLUE BOX", "address": {"city": "BRIARCLIFF", "state": "NY", "street": "1844 PLEASANTVILLE RD", "postcode": "10510"}}},
{"geometry": {"type": "Point", "coordinates": [-73.8650303126, 41.1351270779]}, "type": "Feature", "properties": {"collection_times": [{"days": "Mon-Sat", "time": "11:30am"}, {"days": "Sun", "time": "Closed"}], "id": "1051000015", "name": "USPS COLLECTION BOX - BLUE BOX", "address": {"city": "BRIARCLIFF", "state": "NY", "street": "156 SCARBOROUGH STA RD", "postcode": "10510"}}},
{"geometry": {"type": "Point", "coordinates": [-73.8304311765, 41.1502783317]}, "type": "Feature", "properties": {"collection_times": [{"days": "Mon-Sat", "time": "9:30am"}, {"days": "Sun", "time": "Closed"}], "id": "1051000016", "name": "USPS COLLECTION BOX - BLUE BOX", "address": {"city": "BRIARCLIFF", "state": "NY", "street": "1187 PLEASANTVILLE RD", "postcode": "10510"}}},
{"geometry": {"type": "Point", "coordinates": [-73.8280881134, 41.1478220654]}, "type": "Feature", "properties": {"collection_times": [{"days": "Mon-Fri", "time": "5:00pm"}, {"days": "Sat", "time": "1:30pm"}, {"days": "Sun", "time": "Closed"}], "id": "1051000017", "name": "USPS COLLECTION BOX - PO LOBBY", "address": {"city": "BRIARCLIFF", "state": "NY", "street": "1077 PLEASANTVILLE RD LBBY DROP", "postcode": "10510"}}},
{"geometry": {"type": "Point", "coordinates": [-73.8650303126, 41.1351270779]}, "type": "Feature", "properties": {"collection_times": [{"days": "Mon-Fri", "time": "11:30am"}, {"days": "Sat", "time": "9:30am"}, {"days": "Sun", "time": "Closed"}], "id": "1051000018", "name": "USPS COLLECTION BOX - PO LOBBY", "address": {"city": "BRIARCLIFF", "state": "NY", "street": "156 SCARBOROUGH STA RD LBBY D", "postcode": "10510"}}},
{"geometry": {"type": "Point", "coordinates": [-73.938262618, 41.2621945305]}, "type": "Feature", "properties": {"collection_times": [{"days": "Mon-Fri", "time": "5:00pm"}, {"days": "Sat", "time": "12:00pm"}, {"days": "Sun", "time": "Closed"}], "id": "1051100002", "name": "USPS COLLECTION BOX - BLUE BOX", "address": {"city": "BUCHANAN", "state": "NY", "street": "252 TATE AVE", "postcode": "10511"}}},
{"geometry": {"type": "Point", "coordinates": [-73.9394213574, 41.2610867382]}, "type": "Feature", "properties": {"collection_times": [{"days": "Mon-Sat", "time": "12:00pm"}, {"days": "Sun", "time": "Closed"}], "id": "1051100003", "name": "USPS COLLECTION BOX - BLUE BOX", "address": {"city": "BUCHANAN", "state": "NY", "street": "236 TATE AVE", "postcode": "10511"}}},
{"geometry": {"type": "Point", "coordinates": [-73.9342926077, 41.2568274457]}, "type": "Feature", "properties": {"collection_times": [{"days": "Mon-Sat", "time": "12:00pm"}, {"days": "Sun", "time": "Closed"}], "id": "1051100006", "name": "USPS COLLECTION BOX - BLUE BOX", "address": {"city": "BUCHANAN", "state": "NY", "street": "102 ALBANY POST RD", "postcode": "10511"}}},
{"geometry": {"type": "Point", "coordinates": [-73.9353782917, 41.2604216478]}, "type": "Feature", "properties": {"collection_times": [{"days": "Mon-Sat", "time": "12:00pm"}, {"days": "Sun", "time": "Closed"}], "id": "1051100007", "name": "USPS COLLECTION BOX - BLUE BOX", "address": {"city": "BUCHANAN", "state": "NY", "street": "155 ALBANY POST RD", "postcode": "10511"}}},
{"geometry": {"type": "Point", "coordinates": [-73.938262618, 41.2621945305]}, "type": "Feature", "properties": {"collection_times": [{"days": "Mon-Fri", "time": "5:00pm"}, {"days": "Sat", "time": "12:00pm"}, {"days": "Sun", "time": "Closed"}], "id": "1051100008", "name": "USPS COLLECTION BOX - PO LOBBY", "address": {"city": "BUCHANAN", "state": "NY", "street": "252 TATE AVE LBBY DROP", "postcode": "10511"}}},
{"geometry": {"type": "Point", "coordinates": [-73.6795991766, 41.4296896903]}, "type": "Feature", "properties": {"collection_times": [{"days": "Mon-Sat", "time": "2:00pm"}, {"days": "Sun", "time": "Closed"}], "id": "1051200001", "name": "USPS COLLECTION BOX - BLUE BOX", "address": {"city": "CARMEL", "state": "NY", "street": "94 GLENEIDA AVE", "postcode": "10512"}}},
{"geometry": {"type": "Point", "coordinates": [-73.6790230756, 41.4269475915]}, "type": "Feature", "properties": {"collection_times": [{"days": "Mon-Sat", "time": "2:00pm"}, {"days": "Sun", "time": "Closed"}], "id": "1051200003", "name": "USPS COLLECTION BOX - BLUE BOX", "address": {"city": "CARMEL", "state": "NY", "street": "51 GLENEIDA AVE", "postcode": "10512"}}},
{"geometry": {"type": "Point", "coordinates": [-73.6782692589, 41.421414125]}, "type": "Feature", "properties": {"collection_times": [{"days": "Mon-Sat", "time": "2:00pm"}, {"days": "Sun", "time": "Closed"}], "id": "1051200004", "name": "USPS COLLECTION BOX - BLUE BOX", "address": {"city": "CARMEL", "state": "NY", "street": "7 SEMINARY HILL RD", "postcode": "10512"}}},
{"geometry": {"type": "Point", "coordinates": [-73.660563001, 41.4749485174]}, "type": "Feature", "properties": {"collection_times": [{"days": "Mon-Sat", "time": "2:00pm"}, {"days": "Sun", "time": "Closed"}], "id": "1051200006", "name": "USPS COLLECTION BOX - BLUE BOX", "address": {"city": "CARMEL", "state": "NY", "street": "113 PUTNAM DR", "postcode": "10512"}}},
{"geometry": {"type": "Point", "coordinates": [-73.6789319878, 41.4261348987]}, "type": "Feature", "properties": {"collection_times": [{"days": "Mon-Sat", "time": "2:00pm"}, {"days": "Sun", "time": "Closed"}], "id": "1051200007", "name": "USPS COLLECTION BOX - BLUE BOX", "address": {"city": "CARMEL", "state": "NY", "street": "40 GLENEIDA AVE", "postcode": "10512"}}},
{"geometry": {"type": "Point", "coordinates": [-73.6821873557, 41.4429529076]}, "type": "Feature", "properties": {"collection_times": [{"days": "Mon-Sat", "time": "2:00pm"}, {"days": "Sun", "time": "Closed"}], "id": "1051200008", "name": "USPS COLLECTION BOX - BLUE BOX", "address": {"city": "CARMEL", "state": "NY", "street": "180 ROUTE 52", "postcode": "10512"}}},
{"geometry": {"type": "Point", "coordinates": [-73.6802659096, 41.4927679879]}, "type": "Feature", "properties": {"collection_times": [{"days": "Mon-Sat", "time": "2:00pm"}, {"days": "Sun", "time": "Closed"}], "id": "1051200011", "name": "USPS COLLECTION BOX - BLUE BOX", "address": {"city": "CARMEL", "state": "NY", "street": "1112 ROUTE 52", "postcode": "10512"}}},
{"geometry": {"type": "Point", "coordinates": [-73.6708133404, 41.4550369521]}, "type": "Feature", "properties": {"collection_times": [{"days": "Mon-Sat", "time": "2:00pm"}, {"days": "Sun", "time": "Closed"}], "id": "1051200014", "name": "USPS COLLECTION BOX - BLUE BOX", "address": {"city": "CARMEL", "state": "NY", "street": "497 ROUTE 52", "postcode": "10512"}}},
{"geometry": {"type": "Point", "coordinates": [-73.6640906866, 41.3861432458]}, "type": "Feature", "properties": {"collection_times": [{"days": "Mon-Sat", "time": "2:00pm"}, {"days": "Sun", "time": "Closed"}], "id": "1051200015", "name": "USPS COLLECTION BOX - BLUE BOX", "address": {"city": "CARMEL", "state": "NY", "street": "666 STONELEIGH AVE", "postcode": "10512"}}},
{"geometry": {"type": "Point", "coordinates": [-73.6821873557, 41.4429529076]}, "type": "Feature", "properties": {"collection_times": [{"days": "Mon-Sat", "time": "2:00pm"}, {"days": "Sun", "time": "Closed"}], "id": "1051200017", "name": "USPS COLLECTION BOX - BLUE BOX", "address": {"city": "CARMEL", "state": "NY", "street": "2101 MARTINGALE DR", "postcode": "10512"}}},
{"geometry": {"type": "Point", "coordinates": [-73.6767861002, 41.4278998734]}, "type": "Feature", "properties": {"collection_times": [{"days": "Mon-Fri", "time": "5:00pm"}, {"days": "Sat", "time": "2:00pm"}, {"days": "Sun", "time": "Closed"}], "id": "1051200020", "name": "USPS COLLECTION BOX - BLUE BOX", "address": {"city": "CARMEL", "state": "NY", "street": "29 FAIR ST", "postcode": "10512"}}},
{"geometry": {"type": "Point", "coordinates": [-73.6767861002, 41.4278998734]}, "type": "Feature", "properties": {"collection_times": [{"days": "Mon-Fri", "time": "5:00pm"}, {"days": "Sat", "time": "2:00pm"}, {"days": "Sun", "time": "Closed"}], "id": "1051200027", "name": "USPS COLLECTION BOX - PO LOBBY", "address": {"city": "CARMEL", "state": "NY", "street": "29 FAIR ST LBBY DROP", "postcode": "10512"}}},
{"geometry": {"type": "Point", "coordinates": [-73.7712276292, 41.1613437298]}, "type": "Feature", "properties": {"collection_times": [{"days": "Mon-Fri", "time": "5:00pm"}, {"days": "Sat", "time": "3:00pm"}, {"days": "Sun", "time": "Closed"}], "id": "1051400002", "name": "USPS COLLECTION BOX - BLUE BOX", "address": {"city": "CHAPPAQUA", "state": "NY", "street": "107 N GREELEY AVE", "postcode": "10514"}}},
{"geometry": {"type": "Point", "coordinates": [-73.7649710941, 41.1585840694]}, "type": "Feature", "properties": {"collection_times": [{"days": "Mon-Sat", "time": "1:00pm"}, {"days": "Sun", "time": "Closed"}], "id": "1051400005", "name": "USPS COLLECTION BOX - BLUE BOX", "address": {"city": "CHAPPAQUA", "state": "NY", "street": "411 KING ST", "postcode": "10514"}}},
{"geometry": {"type": "Point", "coordinates": [-73.7723388392, 41.159800255]}, "type": "Feature", "properties": {"collection_times": [{"days": "Mon-Sat", "time": "1:00pm"}, {"days": "Sun", "time": "Closed"}], "id": "1051400006", "name": "USPS COLLECTION BOX - BLUE BOX", "address": {"city": "CHAPPAQUA", "state": "NY", "street": "30 N GREELEY AVE", "postcode": "10514"}}},
{"geometry": {"type": "Point", "coordinates": [-73.7719882718, 41.1591386943]}, "type": "Feature", "properties": {"collection_times": [{"days": "Mon-Sat", "time": "1:00pm"}, {"days": "Sun", "time": "Closed"}], "id": "1051400007", "name": "USPS COLLECTION BOX - BLUE BOX", "address": {"city": "CHAPPAQUA", "state": "NY", "street": "53 KING ST", "postcode": "10514"}}},
{"geometry": {"type": "Point", "coordinates": [-73.7712276292, 41.1613437298]}, "type": "Feature", "properties": {"collection_times": [{"days": "Mon-Fri", "time": "5:00pm"}, {"days": "Sat", "time": "3:00pm"}, {"days": "Sun", "time": "Closed"}], "id": "1051400008", "name": "USPS COLLECTION BOX - PO LOBBY", "address": {"city": "CHAPPAQUA", "state": "NY", "street": "107 N GREELEY AVE LBBY DROP", "postcode": "10514"}}},
{"geometry": {"type": "Point", "coordinates": [-73.9588168691, 41.4175908792]}, "type": "Feature", "properties": {"collection_times": [{"days": "Mon-Sat", "time": "9:00am"}, {"days": "Sun", "time": "Closed"}], "id": "1051600001", "name": "USPS COLLECTION BOX - BLUE BOX", "address": {"city": "COLD SPRING", "state": "NY", "street": "58 MAIN ST", "postcode": "10516"}}},
{"geometry": {"type": "Point", "coordinates": [-73.9506170016, 41.4228314508]}, "type": "Feature", "properties": {"collection_times": [{"days": "Mon-Sat", "time": "9:00am"}, {"days": "Sun", "time": "Closed"}], "id": "1051600002", "name": "USPS COLLECTION BOX - BLUE BOX", "address": {"city": "COLD SPRING", "state": "NY", "street": "238 MAIN ST", "postcode": "10516"}}},
{"geometry": {"type": "Point", "coordinates": [-73.9547563485, 41.4201119633]}, "type": "Feature", "properties": {"collection_times": [{"days": "Mon-Sat", "time": "9:00am"}, {"days": "Sun", "time": "Closed"}], "id": "1051600003", "name": "USPS COLLECTION BOX - BLUE BOX", "address": {"city": "COLD SPRING", "state": "NY", "street": "2 MORRIS AVE", "postcode": "10516"}}},
{"geometry": {"type": "Point", "coordinates": [-73.9572100522, 41.4184463442]}, "type": "Feature", "properties": {"collection_times": [{"days": "Mon-Sat", "time": "9:00am"}, {"days": "Sun", "time": "Closed"}], "id": "1051600008", "name": "USPS COLLECTION BOX - BLUE BOX", "address": {"city": "COLD SPRING", "state": "NY", "street": "125 MAIN ST", "postcode": "10516"}}},
{"geometry": {"type": "Point", "coordinates": [-73.9514087946, 41.4180289645]}, "type": "Feature", "properties": {"collection_times": [{"days": "Mon-Fri", "time": "5:00pm"}, {"days": "Sat", "time": "2:00pm"}, {"days": "Sun", "time": "Closed"}], "id": "1051600010", "name": "USPS COLLECTION BOX - BLUE BOX", "address": {"city": "COLD SPRING", "state": "NY", "street": "51 CHESTNUT ST", "postcode": "10516"}}},
{"geometry": {"type": "Point", "coordinates": [-73.9514087946, 41.4180289645]}, "type": "Feature", "properties": {"collection_times": [{"days": "Mon-Fri", "time": "5:00pm"}, {"days": "Sat", "time": "2:00pm"}, {"days": "Sun", "time": "Closed"}], "id": "1051600011", "name": "USPS COLLECTION BOX - PO LOBBY", "address": {"city": "COLD SPRING", "state": "NY", "street": "51 CHESTNUT ST LBBY DROP", "postcode": "10516"}}},
{"geometry": {"type": "Point", "coordinates": [-73.8619192048, 41.3019211961]}, "type": "Feature", "properties": {"collection_times": [{"days": "Mon-Fri", "time": "4:45pm"}, {"days": "Sat", "time": "11:45am"}, {"days": "Sun", "time": "Closed"}], "id": "1051700001", "name": "USPS COLLECTION BOX - BLUE BOX", "address": {"city": "CROMPOND", "state": "NY", "street": "60 BARON DE HIRSCH RD", "postcode": "10517"}}},
{"geometry": {"type": "Point", "coordinates": [-73.8619192048, 41.3019211961]}, "type": "Feature", "properties": {"collection_times": [{"days": "Mon-Fri", "time": "4:45pm"}, {"days": "Sat", "time": "11:45am"}, {"days": "Sun", "time": "Closed"}], "id": "1051700002", "name": "USPS COLLECTION BOX - PO LOBBY", "address": {"city": "CROMPOND", "state": "NY", "street": "60 BARON DE HIRSCH RD LBBY DROP", "postcode": "10517"}}},
{"geometry": {"type": "Point", "coordinates": [-73.6096865939, 41.2686008719]}, "type": "Feature", "properties": {"collection_times": [{"days": "Mon-Fri", "time": "5:00pm"}, {"days": "Sat", "time": "12:30pm"}, {"days": "Sun", "time": "Closed"}], "id": "1051800001", "name": "USPS COLLECTION BOX - BLUE BOX", "address": {"city": "CROSS RIVER", "state": "NY", "street": "20 CROSS RIVER SHOPPING CTR STE H", "postcode": "10518"}}},
{"geometry": {"type": "Point", "coordinates": [-73.6096865939, 41.2686008719]}, "type": "Feature", "properties": {"collection_times": [{"days": "Mon-Fri", "time": "5:00pm"}, {"days": "Sat", "time": "12:30pm"}, {"days": "Sun", "time": "Closed"}], "id": "1051800002", "name": "USPS COLLECTION BOX - PO LOBBY", "address": {"city": "CROSS RIVER", "state": "NY", "street": "20 CROSS RIVER SHOPPING CTR STE H", "postcode": "10518"}}},
{"geometry": {"type": "Point", "coordinates": [-73.6624793502, 41.3517097652]}, "type": "Feature", "properties": {"collection_times": [{"days": "Mon-Fri", "time": "4:45pm"}, {"days": "Sat", "time": "12:00pm"}, {"days": "Sun", "time": "Closed"}], "id": "1051900001", "name": "USPS COLLECTION BOX - BLUE BOX", "address": {"city": "CROTON FALLS", "state": "NY", "street": "8 FRONT ST", "postcode": "10519"}}},
{"geometry": {"type": "Point", "coordinates": [-73.6624793502, 41.3517097652]}, "type": "Feature", "properties": {"collection_times": [{"days": "Mon-Fri", "time": "4:45pm"}, {"days": "Sat", "time": "12:00pm"}, {"days": "Sun", "time": "Closed"}], "id": "1051900003", "name": "USPS COLLECTION BOX - PO LOBBY", "address": {"city": "CROTON FALLS", "state": "NY", "street": "8 FRONT ST LBBY DROP", "postcode": "10519"}}},
{"geometry": {"type": "Point", "coordinates": [-73.8831020562, 41.1924163961]}, "type": "Feature", "properties": {"collection_times": [{"days": "Mon-Sat", "time": "1:00pm"}, {"days": "Sun", "time": "Closed"}], "id": "1052000001", "name": "USPS COLLECTION BOX - BLUE BOX", "address": {"city": "CROTON HDSN", "state": "NY", "street": "2 GATEWAY PLZ", "postcode": "10520"}}},
{"geometry": {"type": "Point", "coordinates": [-73.8778029582, 41.1924918257]}, "type": "Feature", "properties": {"collection_times": [{"days": "Mon-Sat", "time": "9:45am"}, {"days": "Sun", "time": "Closed"}], "id": "1052000002", "name": "USPS COLLECTION BOX - BLUE BOX", "address": {"city": "CROTON HDSN", "state": "NY", "street": "460 S RIVERSIDE AVE", "postcode": "10520"}}},
{"geometry": {"type": "Point", "coordinates": [-73.8788733461, 41.2054479889]}, "type": "Feature", "properties": {"collection_times": [{"days": "Mon-Sat", "time": "1:00pm"}, {"days": "Sun", "time": "Closed"}], "id": "1052000005", "name": "USPS COLLECTION BOX - BLUE BOX", "address": {"city": "CROTON HDSN", "state": "NY", "street": "116 RADNOR AVE", "postcode": "10520"}}},
{"geometry": {"type": "Point", "coordinates": [-73.884079537, 41.208893858]}, "type": "Feature", "properties": {"collection_times": [{"days": "Mon-Sat", "time": "9:45am"}, {"days": "Sun", "time": "Closed"}], "id": "1052000007", "name": "USPS COLLECTION BOX - BLUE BOX", "address": {"city": "CROTON HDSN", "state": "NY", "street": "126 GRAND ST", "postcode": "10520"}}},
{"geometry": {"type": "Point", "coordinates": [-73.8871169539, 41.20855673]}, "type": "Feature", "properties": {"collection_times": [{"days": "Mon-Sat", "time": "9:45am"}, {"days": "Sun", "time": "Closed"}], "id": "1052000008", "name": "USPS COLLECTION BOX - BLUE BOX", "address": {"city": "CROTON HDSN", "state": "NY", "street": "1 VAN WYCK ST", "postcode": "10520"}}},
{"geometry": {"type": "Point", "coordinates": [-73.9089342502, 41.2275096769]}, "type": "Feature", "properties": {"collection_times": [{"days": "Mon-Sat", "time": "1:00pm"}, {"days": "Sun", "time": "Closed"}], "id": "1052000012", "name": "USPS COLLECTION BOX - BLUE BOX", "address": {"city": "CROTON HDSN", "state": "NY", "street": "11 BALTIC PL", "postcode": "10520"}}},
{"geometry": {"type": "Point", "coordinates": [-73.919800339, 41.2322089429]}, "type": "Feature", "properties": {"collection_times": [{"days": "Mon-Sat", "time": "9:45am"}, {"days": "Sun", "time": "Closed"}], "id": "1052000013", "name": "USPS COLLECTION BOX - BLUE BOX", "address": {"city": "CROTON HDSN", "state": "NY", "street": "31 SPRINGVALE RD", "postcode": "10520"}}},
{"geometry": {"type": "Point", "coordinates": [-73.9156243323, 41.2351591863]}, "type": "Feature", "properties": {"collection_times": [{"days": "Mon-Fri", "time": "5:00pm"}, {"days": "Sat", "time": "9:45am"}, {"days": "Sun", "time": "Closed"}], "id": "1052000014", "name": "USPS COLLECTION BOX - BLUE BOX", "address": {"city": "CROTON HDSN", "state": "NY", "street": "500 ALBANY POST RD", "postcode": "10520"}}},
{"geometry": {"type": "Point", "coordinates": [-73.897989963, 41.2135855637]}, "type": "Feature", "properties": {"collection_times": [{"days": "Mon-Sat", "time": "1:00pm"}, {"days": "Sun", "time": "Closed"}], "id": "1052000015", "name": "USPS COLLECTION BOX - BLUE BOX", "address": {"city": "CROTON HDSN", "state": "NY", "street": "171 S RIVERSIDE AVE", "postcode": "10520"}}},
{"geometry": {"type": "Point", "coordinates": [-73.8854328536, 41.2026431932]}, "type": "Feature", "properties": {"collection_times": [{"days": "Mon-Fri", "time": "5:00pm"}, {"days": "Sat", "time": "1:30pm"}, {"days": "Sun", "time": "Closed"}], "id": "1052000017", "name": "USPS COLLECTION BOX - BLUE BOX", "address": {"city": "CROTON HDSN", "state": "NY", "street": "50 MAPLE ST", "postcode": "10520"}}},
{"geometry": {"type": "Point", "coordinates": [-73.8854328536, 41.2026431932]}, "type": "Feature", "properties": {"collection_times": [{"days": "Mon-Fri", "time": "5:00pm"}, {"days": "Sat", "time": "1:30pm"}, {"days": "Sun", "time": "Closed"}], "id": "1052000018", "name": "USPS COLLECTION BOX - PO LOBBY", "address": {"city": "CROTON HDSN", "state": "NY", "street": "50 MAPLE ST LBBY DROP", "postcode": "10520"}}},
{"geometry": {"type": "Point", "coordinates": [-73.9156243323, 41.2351591863]}, "type": "Feature", "properties": {"collection_times": [{"days": "Mon-Fri", "time": "5:00pm"}, {"days": "Sat", "time": "9:45am"}, {"days": "Sun", "time": "Closed"}], "id": "1052000020", "name": "USPS COLLECTION BOX - PO LOBBY", "address": {"city": "CROTON HDSN", "state": "NY", "street": "500 ALBANY POST RD LBBY SLOT", "postcode": "10520"}}},
{"geometry": {"type": "Point", "coordinates": [-73.8685788912, 41.0155452222]}, "type": "Feature", "properties": {"collection_times": [{"days": "Mon-Sat", "time": "1:00pm"}, {"days": "Sun", "time": "Closed"}], "id": "1052200001", "name": "USPS COLLECTION BOX - BLUE BOX", "address": {"city": "DOBBS FERRY", "state": "NY", "street": "12 ASHFORD AVE", "postcode": "10522"}}},
{"geometry": {"type": "Point", "coordinates": [-73.8614969748, 41.0086857902]}, "type": "Feature", "properties": {"collection_times": [{"days": "Mon-Sat", "time": "1:00pm"}, {"days": "Sun", "time": "Closed"}], "id": "1052200002", "name": "USPS COLLECTION BOX - BLUE BOX", "address": {"city": "DOBBS FERRY", "state": "NY", "street": "200 BEACON HILL DR", "postcode": "10522"}}},
{"geometry": {"type": "Point", "coordinates": [-73.8734961379, 41.0025355695]}, "type": "Feature", "properties": {"collection_times": [{"days": "Mon-Sat", "time": "1:00pm"}, {"days": "Sun", "time": "Closed"}], "id": "1052200003", "name": "USPS COLLECTION BOX - BLUE BOX", "address": {"city": "DOBBS FERRY", "state": "NY", "street": "2 BEECHDALE RD", "postcode": "10522"}}},
{"geometry": {"type": "Point", "coordinates": [-73.8758491682, 41.0119442521]}, "type": "Feature", "properties": {"collection_times": [{"days": "Mon-Sat", "time": "1:00pm"}, {"days": "Sun", "time": "Closed"}], "id": "1052200005", "name": "USPS COLLECTION BOX - BLUE BOX", "address": {"city": "DOBBS FERRY", "state": "NY", "street": "269 BROADWAY", "postcode": "10522"}}},
{"geometry": {"type": "Point", "coordinates": [-73.8740006218, 41.0137638712]}, "type": "Feature", "properties": {"collection_times": [{"days": "Mon-Sat", "time": "1:00pm"}, {"days": "Sun", "time": "Closed"}], "id": "1052200006", "name": "USPS COLLECTION BOX - BLUE BOX", "address": {"city": "DOBBS FERRY", "state": "NY", "street": "300 BROADWAY", "postcode": "10522"}}},
{"geometry": {"type": "Point", "coordinates": [-73.8709190671, 41.0152509242]}, "type": "Feature", "properties": {"collection_times": [{"days": "Mon-Sat", "time": "1:30pm"}, {"days": "Sun", "time": "Closed"}], "id": "1052200007", "name": "USPS COLLECTION BOX - BLUE BOX", "address": {"city": "DOBBS FERRY", "state": "NY", "street": "16 CEDAR ST", "postcode": "10522"}}},
{"geometry": {"type": "Point", "coordinates": [-73.8724262565, 41.015652179]}, "type": "Feature", "properties": {"collection_times": [{"days": "Mon-Sat", "time": "2:00pm"}, {"days": "Sun", "time": "Closed"}], "id": "1052200009", "name": "USPS COLLECTION BOX - BLUE BOX", "address": {"city": "DOBBS FERRY", "state": "NY", "street": "60 CEDAR ST", "postcode": "10522"}}},
{"geometry": {"type": "Point", "coordinates": [-73.8771165681, 41.014556291]}, "type": "Feature", "properties": {"collection_times": [{"days": "Mon-Sat", "time": "2:00pm"}, {"days": "Sun", "time": "Closed"}], "id": "1052200011", "name": "USPS COLLECTION BOX - BLUE BOX", "address": {"city": "DOBBS FERRY", "state": "NY", "street": "95 PALISADE ST", "postcode": "10522"}}},
{"geometry": {"type": "Point", "coordinates": [-73.8718127163, 41.0129227617]}, "type": "Feature", "properties": {"collection_times": [{"days": "Mon-Sat", "time": "1:00pm"}, {"days": "Sun", "time": "Closed"}], "id": "1052200012", "name": "USPS COLLECTION BOX - BLUE BOX", "address": {"city": "DOBBS FERRY", "state": "NY", "street": "49 CLINTON AVE", "postcode": "10522"}}},
{"geometry": {"type": "Point", "coordinates": [-73.8695687113, 41.0126777832]}, "type": "Feature", "properties": {"collection_times": [{"days": "Mon-Sat", "time": "1:00pm"}, {"days": "Sun", "time": "Closed"}], "id": "1052200014", "name": "USPS COLLECTION BOX - BLUE BOX", "address": {"city": "DOBBS FERRY", "state": "NY", "street": "8 DASSERN DR", "postcode": "10522"}}},
{"geometry": {"type": "Point", "coordinates": [-73.8740378976, 41.0167808536]}, "type": "Feature", "properties": {"collection_times": [{"days": "Mon-Sat", "time": "2:00pm"}, {"days": "Sun", "time": "Closed"}], "id": "1052200015", "name": "USPS COLLECTION BOX - BLUE BOX", "address": {"city": "DOBBS FERRY", "state": "NY", "street": "110 DRAPER LN", "postcode": "10522"}}},
{"geometry": {"type": "Point", "coordinates": [-73.8778347554, 41.0102265895]}, "type": "Feature", "properties": {"collection_times": [{"days": "Mon-Sat", "time": "1:00pm"}, {"days": "Sun", "time": "Closed"}], "id": "1052200017", "name": "USPS COLLECTION BOX - BLUE BOX", "address": {"city": "DOBBS FERRY", "state": "NY", "street": "191 BROADWAY", "postcode": "10522"}}},
{"geometry": {"type": "Point", "coordinates": [-73.8633737546, 41.0121547761]}, "type": "Feature", "properties": {"collection_times": [{"days": "Mon-Sat", "time": "1:00pm"}, {"days": "Sun", "time": "Closed"}], "id": "1052200019", "name": "USPS COLLECTION BOX - BLUE BOX", "address": {"city": "DOBBS FERRY", "state": "NY", "street": "7 KELLER LN", "postcode": "10522"}}},
{"geometry": {"type": "Point", "coordinates": [-73.8607123504, 41.0142961072]}, "type": "Feature", "properties": {"collection_times": [{"days": "Mon-Sat", "time": "1:30pm"}, {"days": "Sun", "time": "Closed"}], "id": "1052200020", "name": "USPS COLLECTION BOX - BLUE BOX", "address": {"city": "DOBBS FERRY", "state": "NY", "street": "213 ASHFORD AVE", "postcode": "10522"}}},
{"geometry": {"type": "Point", "coordinates": [-73.8767637643, 41.0133434428]}, "type": "Feature", "properties": {"collection_times": [{"days": "Mon-Sat", "time": "2:00pm"}, {"days": "Sun", "time": "Closed"}], "id": "1052200023", "name": "USPS COLLECTION BOX - BLUE BOX", "address": {"city": "DOBBS FERRY", "state": "NY", "street": "73 MAIN ST", "postcode": "10522"}}},
{"geometry": {"type": "Point", "coordinates": [-73.8755789435, 41.0145260706]}, "type": "Feature", "properties": {"collection_times": [{"days": "Mon-Fri", "time": "5:00pm"}, {"days": "Sat", "time": "2:00pm"}, {"days": "Sun", "time": "Closed"}], "id": "1052200024", "name": "USPS COLLECTION BOX - BLUE BOX", "address": {"city": "DOBBS FERRY", "state": "NY", "street": "120 MAIN ST", "postcode": "10522"}}},
{"geometry": {"type": "Point", "coordinates": [-73.8691864664, 41.0165996985]}, "type": "Feature", "properties": {"collection_times": [{"days": "Mon-Sat", "time": "1:30pm"}, {"days": "Sun", "time": "Closed"}], "id": "1052200026", "name": "USPS COLLECTION BOX - BLUE BOX", "address": {"city": "DOBBS FERRY", "state": "NY", "street": "456 BROADWAY", "postcode": "10522"}}},
{"geometry": {"type": "Point", "coordinates": [-73.8529039691, 41.0143610851]}, "type": "Feature", "properties": {"collection_times": [{"days": "Mon-Sat", "time": "1:30pm"}, {"days": "Sun", "time": "Closed"}], "id": "1052200027", "name": "USPS COLLECTION BOX - BLUE BOX", "address": {"city": "DOBBS FERRY", "state": "NY", "street": "405 ASHFORD AVE", "postcode": "10522"}}},
{"geometry": {"type": "Point", "coordinates": [-73.8745588152, 41.0143723788]}, "type": "Feature", "properties": {"collection_times": [{"days": "Mon-Sat", "time": "2:00pm"}, {"days": "Sun", "time": "Closed"}], "id": "1052200029", "name": "USPS COLLECTION BOX - BLUE BOX", "address": {"city": "DOBBS FERRY", "state": "NY", "street": "19 ELM ST", "postcode": "10522"}}},
{"geometry": {"type": "Point", "coordinates": [-73.8598931242, 41.0073286071]}, "type": "Feature", "properties": {"collection_times": [{"days": "Mon-Sat", "time": "1:30pm"}, {"days": "Sun", "time": "Closed"}], "id": "1052200030", "name": "USPS COLLECTION BOX - BLUE BOX", "address": {"city": "DOBBS FERRY", "state": "NY", "street": "3 ROUND HILL RD", "postcode": "10522"}}},
{"geometry": {"type": "Point", "coordinates": [-73.8764437366, 41.0151834381]}, "type": "Feature", "properties": {"collection_times": [{"days": "Mon-Sat", "time": "2:00pm"}, {"days": "Sun", "time": "Closed"}], "id": "1052200032", "name": "USPS COLLECTION BOX - BLUE BOX", "address": {"city": "DOBBS FERRY", "state": "NY", "street": "145 PALISADE ST", "postcode": "10522"}}},
{"geometry": {"type": "Point", "coordinates": [-73.8492785647, 41.0156237841]}, "type": "Feature", "properties": {"collection_times": [{"days": "Mon-Sat", "time": "1:30pm"}, {"days": "Sun", "time": "Closed"}], "id": "1052200035", "name": "USPS COLLECTION BOX - BLUE BOX", "address": {"city": "DOBBS FERRY", "state": "NY", "street": "87 NORTHFIELD AVE", "postcode": "10522"}}},
{"geometry": {"type": "Point", "coordinates": [-73.8627850486, 41.0148324921]}, "type": "Feature", "properties": {"collection_times": [{"days": "Mon-Sat", "time": "1:30pm"}, {"days": "Sun", "time": "Closed"}], "id": "1052200036", "name": "USPS COLLECTION BOX - BLUE BOX", "address": {"city": "DOBBS FERRY", "state": "NY", "street": "128 ASHFORD AVE", "postcode": "10522"}}},
{"geometry": {"type": "Point", "coordinates": [-73.8778842767, 41.005796401]}, "type": "Feature", "properties": {"collection_times": [{"days": "Mon-Sat", "time": "1:00pm"}, {"days": "Sun", "time": "Closed"}], "id": "1052200038", "name": "USPS COLLECTION BOX - BLUE BOX", "address": {"city": "DOBBS FERRY", "state": "NY", "street": "117 SOUTHLAWN AVE", "postcode": "10522"}}},
{"geometry": {"type": "Point", "coordinates": [-73.8785099961, 41.0121787493]}, "type": "Feature", "properties": {"collection_times": [{"days": "Mon-Sat", "time": "2:00pm"}, {"days": "Sun", "time": "Closed"}], "id": "1052200039", "name": "USPS COLLECTION BOX - BLUE BOX", "address": {"city": "DOBBS FERRY", "state": "NY", "street": "2 HIGH ST", "postcode": "10522"}}},
{"geometry": {"type": "Point", "coordinates": [-73.8788200245, 41.0104963692]}, "type": "Feature", "properties": {"collection_times": [{"days": "Mon-Sat", "time": "1:30pm"}, {"days": "Sun", "time": "Closed"}], "id": "1052200042", "name": "USPS COLLECTION BOX - BLUE BOX", "address": {"city": "DOBBS FERRY", "state": "NY", "street": "50 LIVINGSTONE AVE", "postcode": "10522"}}},
{"geometry": {"type": "Point", "coordinates": [-73.8755789435, 41.0145260706]}, "type": "Feature", "properties": {"collection_times": [{"days": "Mon-Fri", "time": "5:00pm"}, {"days": "Sat", "time": "2:00pm"}, {"days": "Sun", "time": "Closed"}], "id": "1052200043", "name": "USPS COLLECTION BOX - PO LOBBY", "address": {"city": "DOBBS FERRY", "state": "NY", "street": "120 MAIN ST LBBY DROP", "postcode": "10522"}}},
{"geometry": {"type": "Point", "coordinates": [-73.8168429248, 41.0539238927]}, "type": "Feature", "properties": {"collection_times": [{"days": "Mon-Fri", "time": "12:30pm"}, {"days": "Sat", "time": "9:30am"}, {"days": "Sun", "time": "Closed"}], "id": "1052300005", "name": "USPS COLLECTION BOX - BLUE BOX", "address": {"city": "ELMSFORD", "state": "NY", "street": "59 E MAIN ST", "postcode": "10523"}}},
{"geometry": {"type": "Point", "coordinates": [-73.8199457806, 41.0550392121]}, "type": "Feature", "properties": {"collection_times": [{"days": "Mon-Fri", "time": "12:30pm"}, {"days": "Sat", "time": "9:30am"}, {"days": "Sun", "time": "Closed"}], "id": "1052300006", "name": "USPS COLLECTION BOX - BLUE BOX", "address": {"city": "ELMSFORD", "state": "NY", "street": "3 W MAIN ST", "postcode": "10523"}}},
{"geometry": {"type": "Point", "coordinates": [-73.8138017144, 41.0717982985]}, "type": "Feature", "properties": {"collection_times": [{"days": "Mon-Fri", "time": "12:30pm"}, {"days": "Sat", "time": "1:00pm"}, {"days": "Sun", "time": "Closed"}], "id": "1052300010", "name": "USPS COLLECTION BOX - BLUE BOX", "address": {"city": "ELMSFORD", "state": "NY", "street": "250 CLEARBROOK RD", "postcode": "10523"}}},
{"geometry": {"type": "Point", "coordinates": [-73.813995977, 41.0732881623]}, "type": "Feature", "properties": {"collection_times": [{"days": "Mon-Fri", "time": "5:00pm"}, {"days": "Sat", "time": "2:00pm"}, {"days": "Sun", "time": "Closed"}], "id": "1052300012", "name": "USPS COLLECTION BOX - BLUE BOX", "address": {"city": "ELMSFORD", "state": "NY", "street": "150 CLEARBROOK RD", "postcode": "10523"}}},
{"geometry": {"type": "Point", "coordinates": [-73.819933345, 41.0549085055]}, "type": "Feature", "properties": {"collection_times": [{"days": "Mon-Fri", "time": "5:00pm"}, {"days": "Sat", "time": "1:00pm"}, {"days": "Sun", "time": "Closed"}], "id": "1052300016", "name": "USPS COLLECTION BOX - BLUE BOX", "address": {"city": "ELMSFORD", "state": "NY", "street": "2 E MAIN ST", "postcode": "10523"}}},
{"geometry": {"type": "Point", "coordinates": [-73.8121444224, 41.0656337602]}, "type": "Feature", "properties": {"collection_times": [{"days": "Mon-Sat", "time": "9:00am"}, {"days": "Sun", "time": "Closed"}], "id": "1052300018", "name": "USPS COLLECTION BOX - BLUE BOX", "address": {"city": "ELMSFORD", "state": "NY", "street": "800 OLD COUNTRY RD", "postcode": "10523"}}},
{"geometry": {"type": "Point", "coordinates": [-73.8106649505, 41.0700621895]}, "type": "Feature", "properties": {"collection_times": [{"days": "Mon-Fri", "time": "12:30pm"}, {"days": "Sat-Sun", "time": "Closed"}], "id": "1052300021", "name": "USPS COLLECTION BOX - BLUE BOX", "address": {"city": "ELMSFORD", "state": "NY", "street": "8 WESTCHESTER PLZ", "postcode": "10523"}}},
{"geometry": {"type": "Point", "coordinates": [-73.8073876185, 41.0696764297]}, "type": "Feature", "properties": {"collection_times": [{"days": "Mon-Fri", "time": "12:30pm"}, {"days": "Sat-Sun", "time": "Closed"}], "id": "1052300026", "name": "USPS COLLECTION BOX - BLUE BOX", "address": {"city": "ELMSFORD", "state": "NY", "street": "400 EXECUTIVE BLVD", "postcode": "10523"}}},
{"geometry": {"type": "Point", "coordinates": [-73.8183529819, 41.0562963295]}, "type": "Feature", "properties": {"collection_times": [{"days": "Mon-Sat", "time": "10:00am"}, {"days": "Sun", "time": "Closed"}], "id": "1052300029", "name": "USPS COLLECTION BOX - BLUE BOX", "address": {"city": "ELMSFORD", "state": "NY", "street": "52 N CENTRAL AVE", "postcode": "10523"}}},
{"geometry": {"type": "Point", "coordinates": [-73.8189395126, 41.0636214644]}, "type": "Feature", "properties": {"collection_times": [{"days": "Mon-Sat", "time": "11:00am"}, {"days": "Sun", "time": "Closed"}], "id": "1052300031", "name": "USPS COLLECTION BOX - BLUE BOX", "address": {"city": "ELMSFORD", "state": "NY", "street": "1 WAREHOUSE LN", "postcode": "10523"}}},
{"geometry": {"type": "Point", "coordinates": [-73.8229665929, 41.0558605398]}, "type": "Feature", "properties": {"collection_times": [{"days": "Mon-Sat", "time": "1:00pm"}, {"days": "Sun", "time": "Closed"}], "id": "1052300034", "name": "USPS COLLECTION BOX - BLUE BOX", "address": {"city": "ELMSFORD", "state": "NY", "street": "56 NOB HILL DR", "postcode": "10523"}}},
{"geometry": {"type": "Point", "coordinates": [-73.8200156424, 41.055068554]}, "type": "Feature", "properties": {"collection_times": [{"days": "Mon-Fri", "time": "12:30pm"}, {"days": "Sat-Sun", "time": "Closed"}], "id": "1052300037", "name": "USPS COLLECTION BOX - BLUE BOX", "address": {"city": "ELMSFORD", "state": "NY", "street": "5 W MAIN ST", "postcode": "10523"}}},
{"geometry": {"type": "Point", "coordinates": [-73.8138706765, 41.0521288634]}, "type": "Feature", "properties": {"collection_times": [{"days": "Mon-Fri", "time": "12:30pm"}, {"days": "Sat", "time": "9:30am"}, {"days": "Sun", "time": "Closed"}], "id": "1052300038", "name": "USPS COLLECTION BOX - BLUE BOX", "address": {"city": "ELMSFORD", "state": "NY", "street": "125 E MAIN ST", "postcode": "10523"}}},
{"geometry": {"type": "Point", "coordinates": [-73.819933345, 41.0549085055]}, "type": "Feature", "properties": {"collection_times": [{"days": "Mon-Fri", "time": "5:00pm"}, {"days": "Sat", "time": "1:00pm"}, {"days": "Sun", "time": "Closed"}], "id": "1052300039", "name": "USPS COLLECTION BOX - PO LOBBY", "address": {"city": "ELMSFORD", "state": "NY", "street": "2 E MAIN ST LBBY DROP", "postcode": "10523"}}},
{"geometry": {"type": "Point", "coordinates": [-73.9358032463, 41.3838973488]}, "type": "Feature", "properties": {"collection_times": [{"days": "Mon-Fri", "time": "5:00pm"}, {"days": "Sat", "time": "1:00pm"}, {"days": "Sun", "time": "Closed"}], "id": "1052400002", "name": "USPS COLLECTION BOX - BLUE BOX", "address": {"city": "GARRISON", "state": "NY", "street": "1145 ROUTE 9D", "postcode": "10524"}}},
{"geometry": {"type": "Point", "coordinates": [-73.9358032463, 41.3838973488]}, "type": "Feature", "properties": {"collection_times": [{"days": "Mon-Fri", "time": "5:00pm"}, {"days": "Sat", "time": "1:00pm"}, {"days": "Sun", "time": "Closed"}], "id": "1052400003", "name": "USPS COLLECTION BOX - PO LOBBY", "address": {"city": "GARRISON", "state": "NY", "street": "1145 ROUTE 9D LBBY DROP", "postcode": "10524"}}},
{"geometry": {"type": "Point", "coordinates": [-73.6651958912, 41.2940315769]}, "type": "Feature", "properties": {"collection_times": [{"days": "Mon-Fri", "time": "5:00pm"}, {"days": "Sat", "time": "1:30pm"}, {"days": "Sun", "time": "Closed"}], "id": "1052600001", "name": "USPS COLLECTION BOX - BLUE BOX", "address": {"city": "GOLDENS BRIDGE", "state": "NY", "street": "104 N COUNTY SHOPPING CTR", "postcode": "10526"}}},
{"geometry": {"type": "Point", "coordinates": [-73.6651958912, 41.2940315769]}, "type": "Feature", "properties": {"collection_times": [{"days": "Mon-Fri", "time": "5:00pm"}, {"days": "Sat", "time": "1:30pm"}, {"days": "Sun", "time": "Closed"}], "id": "1052600002", "name": "USPS COLLECTION BOX - PO LOBBY", "address": {"city": "GOLDENS BRIDGE", "state": "NY", "street": "104 N COUNTY SHOPPING CTR LBBY DRO", "postcode": "10526"}}},
{"geometry": {"type": "Point", "coordinates": [-73.7613311958, 41.3121860594]}, "type": "Feature", "properties": {"collection_times": [{"days": "Mon-Fri", "time": "4:30pm"}, {"days": "Sat", "time": "11:30am"}, {"days": "Sun", "time": "Closed"}], "id": "1052700001", "name": "USPS COLLECTION BOX - BLUE BOX", "address": {"city": "GRANITE SPRINGS", "state": "NY", "street": "137 MAHOPAC AVE", "postcode": "10527"}}},
{"geometry": {"type": "Point", "coordinates": [-73.7613311958, 41.3121860594]}, "type": "Feature", "properties": {"collection_times": [{"days": "Mon-Fri", "time": "4:30pm"}, {"days": "Sat", "time": "11:30am"}, {"days": "Sun", "time": "Closed"}], "id": "1052700002", "name": "USPS COLLECTION BOX - PO LOBBY", "address": {"city": "GRANITE SPRINGS", "state": "NY", "street": "137 MAHOPAC AVE-LOBBY DROP", "postcode": "10527"}}},
{"geometry": {"type": "Point", "coordinates": [-73.7206900523, 40.9637258587]}, "type": "Feature", "properties": {"collection_times": [{"days": "Mon-Fri", "time": "9:00am"}, {"days": "Sat", "time": "2:00pm"}, {"days": "Sun", "time": "Closed"}], "id": "1052800001", "name": "USPS COLLECTION BOX - BLUE BOX", "address": {"city": "HARRISON", "state": "NY", "street": "126 HALSTEAD AVE", "postcode": "10528"}}},
{"geometry": {"type": "Point", "coordinates": [-73.723243987, 40.9619863305]}, "type": "Feature", "properties": {"collection_times": [{"days": "Mon-Fri", "time": "9:00am"}, {"days": "Sat", "time": "2:00pm"}, {"days": "Sun", "time": "Closed"}], "id": "1052800002", "name": "USPS COLLECTION BOX - BLUE BOX", "address": {"city": "HARRISON", "state": "NY", "street": "15 HALSTEAD AVE", "postcode": "10528"}}},
{"geometry": {"type": "Point", "coordinates": [-73.7167305322, 40.965028063]}, "type": "Feature", "properties": {"collection_times": [{"days": "Mon-Fri", "time": "9:00am"}, {"days": "Sat", "time": "2:00pm"}, {"days": "Sun", "time": "Closed"}], "id": "1052800003", "name": "USPS COLLECTION BOX - BLUE BOX", "address": {"city": "HARRISON", "state": "NY", "street": "117 OAK ST", "postcode": "10528"}}},
{"geometry": {"type": "Point", "coordinates": [-73.7188873425, 40.9646880692]}, "type": "Feature", "properties": {"collection_times": [{"days": "Mon-Fri", "time": "9:00am"}, {"days": "Sat", "time": "2:00pm"}, {"days": "Sun", "time": "Closed"}], "id": "1052800004", "name": "USPS COLLECTION BOX - BLUE BOX", "address": {"city": "HARRISON", "state": "NY", "street": "195 HALSTEAD AVE", "postcode": "10528"}}},
{"geometry": {"type": "Point", "coordinates": [-73.7154997065, 40.967212149]}, "type": "Feature", "properties": {"collection_times": [{"days": "Mon-Fri", "time": "9:00am"}, {"days": "Sat", "time": "2:00pm"}, {"days": "Sun", "time": "Closed"}], "id": "1052800006", "name": "USPS COLLECTION BOX - BLUE BOX", "address": {"city": "HARRISON", "state": "NY", "street": "341 HALSTEAD AVE", "postcode": "10528"}}},
{"geometry": {"type": "Point", "coordinates": [-73.7141387024, 40.968222026]}, "type": "Feature", "properties": {"collection_times": [{"days": "Mon-Fri", "time": "9:00am"}, {"days": "Sat", "time": "2:00pm"}, {"days": "Sun", "time": "Closed"}], "id": "1052800007", "name": "USPS COLLECTION BOX - BLUE BOX", "address": {"city": "HARRISON", "state": "NY", "street": "402 HALSTEAD AVE", "postcode": "10528"}}},
{"geometry": {"type": "Point", "coordinates": [-73.7088799496, 40.9710198691]}, "type": "Feature", "properties": {"collection_times": [{"days": "Mon-Fri", "time": "9:30am"}, {"days": "Sat", "time": "2:00pm"}, {"days": "Sun", "time": "Closed"}], "id": "1052800008", "name": "USPS COLLECTION BOX - BLUE BOX", "address": {"city": "HARRISON", "state": "NY", "street": "2 SOUTH RD", "postcode": "10528"}}},
{"geometry": {"type": "Point", "coordinates": [-73.7128958576, 40.9698862987]}, "type": "Feature", "properties": {"collection_times": [{"days": "Mon-Fri", "time": "9:30am"}, {"days": "Sat", "time": "2:00pm"}, {"days": "Sun", "time": "Closed"}], "id": "1052800009", "name": "USPS COLLECTION BOX - BLUE BOX", "address": {"city": "HARRISON", "state": "NY", "street": "1 HEINEMAN PL", "postcode": "10528"}}},
{"geometry": {"type": "Point", "coordinates": [-73.7117241489, 40.9912876023]}, "type": "Feature", "properties": {"collection_times": [{"days": "Mon-Fri", "time": "9:30am"}, {"days": "Sat", "time": "2:00pm"}, {"days": "Sun", "time": "Closed"}], "id": "1052800010", "name": "USPS COLLECTION BOX - BLUE BOX", "address": {"city": "HARRISON", "state": "NY", "street": "275 NORTH ST", "postcode": "10528"}}},
{"geometry": {"type": "Point", "coordinates": [-73.7398368543, 40.9805794206]}, "type": "Feature", "properties": {"collection_times": [{"days": "Mon-Fri", "time": "9:30am"}, {"days": "Sat", "time": "2:00pm"}, {"days": "Sun", "time": "Closed"}], "id": "1052800012", "name": "USPS COLLECTION BOX - BLUE BOX", "address": {"city": "HARRISON", "state": "NY", "street": "251 UNION AVE", "postcode": "10528"}}},
{"geometry": {"type": "Point", "coordinates": [-73.7162517776, 40.9733235313]}, "type": "Feature", "properties": {"collection_times": [{"days": "Mon-Fri", "time": "9:30am"}, {"days": "Sat", "time": "2:00pm"}, {"days": "Sun", "time": "Closed"}], "id": "1052800015", "name": "USPS COLLECTION BOX - BLUE BOX", "address": {"city": "HARRISON", "state": "NY", "street": "112 NELSON AVE", "postcode": "10528"}}},
{"geometry": {"type": "Point", "coordinates": [-73.7168845245, 40.9691248871]}, "type": "Feature", "properties": {"collection_times": [{"days": "Mon-Fri", "time": "9:30am"}, {"days": "Sat", "time": "2:00pm"}, {"days": "Sun", "time": "Closed"}], "id": "1052800017", "name": "USPS COLLECTION BOX - BLUE BOX", "address": {"city": "HARRISON", "state": "NY", "street": "99 CALVERT ST", "postcode": "10528"}}},
{"geometry": {"type": "Point", "coordinates": [-73.71748522, 40.9658377921]}, "type": "Feature", "properties": {"collection_times": [{"days": "Mon-Fri", "time": "5:00pm"}, {"days": "Sat", "time": "3:00pm"}, {"days": "Sun", "time": "Closed"}], "id": "1052800018", "name": "USPS COLLECTION BOX - BLUE BOX", "address": {"city": "HARRISON", "state": "NY", "street": "258 HALSTEAD AVE", "postcode": "10528"}}},
{"geometry": {"type": "Point", "coordinates": [-73.7430943025, 40.9737476557]}, "type": "Feature", "properties": {"collection_times": [{"days": "Mon-Fri", "time": "4:00pm"}, {"days": "Sat", "time": "2:00pm"}, {"days": "Sun", "time": "Closed"}], "id": "1052800021", "name": "USPS COLLECTION BOX - BLUE BOX", "address": {"city": "HARRISON", "state": "NY", "street": "550 MAMARONECK AVE", "postcode": "10528"}}},
{"geometry": {"type": "Point", "coordinates": [-73.7429771435, 40.9718087627]}, "type": "Feature", "properties": {"collection_times": [{"days": "Mon-Fri", "time": "4:00pm"}, {"days": "Sat", "time": "2:00pm"}, {"days": "Sun", "time": "Closed"}], "id": "1052800023", "name": "USPS COLLECTION BOX - BLUE BOX", "address": {"city": "HARRISON", "state": "NY", "street": "600 MAMARONECK AVE", "postcode": "10528"}}},
{"geometry": {"type": "Point", "coordinates": [-73.71748522, 40.9658377921]}, "type": "Feature", "properties": {"collection_times": [{"days": "Mon-Fri", "time": "5:00pm"}, {"days": "Sat", "time": "3:00pm"}, {"days": "Sun", "time": "Closed"}], "id": "1052800026", "name": "USPS COLLECTION BOX - PO LOBBY", "address": {"city": "HARRISON", "state": "NY", "street": "258 HALSTEAD AVE LBBY DROP", "postcode": "10528"}}},
{"geometry": {"type": "Point", "coordinates": [-73.8162709594, 41.0332138952]}, "type": "Feature", "properties": {"collection_times": [{"days": "Mon-Sat", "time": "1:00pm"}, {"days": "Sun", "time": "Closed"}], "id": "1053000002", "name": "USPS COLLECTION BOX - BLUE BOX", "address": {"city": "HARTSDALE", "state": "NY", "street": "152 LONGFELLOW ST", "postcode": "10530"}}},
{"geometry": {"type": "Point", "coordinates": [-73.806589071, 41.0314033987]}, "type": "Feature", "properties": {"collection_times": [{"days": "Mon-Sat", "time": "1:00pm"}, {"days": "Sun", "time": "Closed"}], "id": "1053000004", "name": "USPS COLLECTION BOX - BLUE BOX", "address": {"city": "HARTSDALE", "state": "NY", "street": "199 STONE OAKS DR", "postcode": "10530"}}},
{"geometry": {"type": "Point", "coordinates": [-73.8032547528, 41.0247770314]}, "type": "Feature", "properties": {"collection_times": [{"days": "Mon-Sat", "time": "1:00pm"}, {"days": "Sun", "time": "Closed"}], "id": "1053000006", "name": "USPS COLLECTION BOX - BLUE BOX", "address": {"city": "HARTSDALE", "state": "NY", "street": "1 MAPLEWOOD RD", "postcode": "10530"}}},
{"geometry": {"type": "Point", "coordinates": [-73.8077508015, 41.0106679293]}, "type": "Feature", "properties": {"collection_times": [{"days": "Mon-Sat", "time": "2:00pm"}, {"days": "Sun", "time": "Closed"}], "id": "1053000007", "name": "USPS COLLECTION BOX - BLUE BOX", "address": {"city": "HARTSDALE", "state": "NY", "street": "285 S CENTRAL AVE", "postcode": "10530"}}},
{"geometry": {"type": "Point", "coordinates": [-73.7945031444, 41.0304169593]}, "type": "Feature", "properties": {"collection_times": [{"days": "Mon-Sat", "time": "1:30pm"}, {"days": "Sun", "time": "Closed"}], "id": "1053000008", "name": "USPS COLLECTION BOX - BLUE BOX", "address": {"city": "HARTSDALE", "state": "NY", "street": "17 FIELDSTONE DR", "postcode": "10530"}}},
{"geometry": {"type": "Point", "coordinates": [-73.8087292763, 41.0221146373]}, "type": "Feature", "properties": {"collection_times": [{"days": "Mon-Sat", "time": "1:30pm"}, {"days": "Sun", "time": "Closed"}], "id": "1053000009", "name": "USPS COLLECTION BOX - BLUE BOX", "address": {"city": "HARTSDALE", "state": "NY", "street": "624 THE COLONY", "postcode": "10530"}}},
{"geometry": {"type": "Point", "coordinates": [-73.7966917957, 41.0141057963]}, "type": "Feature", "properties": {"collection_times": [{"days": "Mon-Sat", "time": "1:30pm"}, {"days": "Sun", "time": "Closed"}], "id": "1053000012", "name": "USPS COLLECTION BOX - BLUE BOX", "address": {"city": "HARTSDALE", "state": "NY", "street": "230 E HARTSDALE AVE", "postcode": "10530"}}},
{"geometry": {"type": "Point", "coordinates": [-73.7976789736, 41.0179399511]}, "type": "Feature", "properties": {"collection_times": [{"days": "Mon-Sat", "time": "1:30pm"}, {"days": "Sun", "time": "Closed"}], "id": "1053000013", "name": "USPS COLLECTION BOX - BLUE BOX", "address": {"city": "HARTSDALE", "state": "NY", "street": "68 E HARTSDALE AVE", "postcode": "10530"}}},
{"geometry": {"type": "Point", "coordinates": [-73.7966607796, 41.0145354755]}, "type": "Feature", "properties": {"collection_times": [{"days": "Mon-Sat", "time": "1:30pm"}, {"days": "Sun", "time": "Closed"}], "id": "1053000016", "name": "USPS COLLECTION BOX - BLUE BOX", "address": {"city": "HARTSDALE", "state": "NY", "street": "221 E HARTSDALE AVE", "postcode": "10530"}}},
{"geometry": {"type": "Point", "coordinates": [-73.7966805318, 41.0158363053]}, "type": "Feature", "properties": {"collection_times": [{"days": "Mon-Sat", "time": "1:30pm"}, {"days": "Sun", "time": "Closed"}], "id": "1053000017", "name": "USPS COLLECTION BOX - BLUE BOX", "address": {"city": "HARTSDALE", "state": "NY", "street": "181 E HARTSDALE AVE", "postcode": "10530"}}},
{"geometry": {"type": "Point", "coordinates": [-73.7967227632, 41.0161861568]}, "type": "Feature", "properties": {"collection_times": [{"days": "Mon-Sat", "time": "1:30pm"}, {"days": "Sun", "time": "Closed"}], "id": "1053000018", "name": "USPS COLLECTION BOX - BLUE BOX", "address": {"city": "HARTSDALE", "state": "NY", "street": "159 E HARTSDALE AVE", "postcode": "10530"}}},
{"geometry": {"type": "Point", "coordinates": [-73.7942974251, 41.0228393445]}, "type": "Feature", "properties": {"collection_times": [{"days": "Mon-Sat", "time": "2:00pm"}, {"days": "Sun", "time": "Closed"}], "id": "1053000022", "name": "USPS COLLECTION BOX - BLUE BOX", "address": {"city": "HARTSDALE", "state": "NY", "street": "280 N CENTRAL AVE", "postcode": "10530"}}},
{"geometry": {"type": "Point", "coordinates": [-73.7916526123, 41.0265944069]}, "type": "Feature", "properties": {"collection_times": [{"days": "Mon-Sat", "time": "1:30pm"}, {"days": "Sun", "time": "Closed"}], "id": "1053000023", "name": "USPS COLLECTION BOX - BLUE BOX", "address": {"city": "HARTSDALE", "state": "NY", "street": "359 N CENTRAL AVE", "postcode": "10530"}}},
{"geometry": {"type": "Point", "coordinates": [-73.7977890224, 41.0196412795]}, "type": "Feature", "properties": {"collection_times": [{"days": "Mon-Sat", "time": "2:00pm"}, {"days": "Sun", "time": "Closed"}], "id": "1053000026", "name": "USPS COLLECTION BOX - BLUE BOX", "address": {"city": "HARTSDALE", "state": "NY", "street": "27 N CENTRAL AVE", "postcode": "10530"}}},
{"geometry": {"type": "Point", "coordinates": [-73.8005874605, 41.0167410689]}, "type": "Feature", "properties": {"collection_times": [{"days": "Mon-Sat", "time": "2:00pm"}, {"days": "Sun", "time": "Closed"}], "id": "1053000027", "name": "USPS COLLECTION BOX - BLUE BOX", "address": {"city": "HARTSDALE", "state": "NY", "street": "141 S CENTRAL AVE", "postcode": "10530"}}},
{"geometry": {"type": "Point", "coordinates": [-73.7913384207, 41.027201466]}, "type": "Feature", "properties": {"collection_times": [{"days": "Mon-Fri", "time": "5:00pm"}, {"days": "Sat", "time": "2:30pm"}, {"days": "Sun", "time": "Closed"}], "id": "1053000030", "name": "USPS COLLECTION BOX - BLUE BOX", "address": {"city": "HARTSDALE", "state": "NY", "street": "441 CENTRAL PARK AVE", "postcode": "10530"}}},
{"geometry": {"type": "Point", "coordinates": [-73.7913384207, 41.027201466]}, "type": "Feature", "properties": {"collection_times": [{"days": "Mon-Fri", "time": "5:00pm"}, {"days": "Sat", "time": "2:30pm"}, {"days": "Sun", "time": "Closed"}], "id": "1053000033", "name": "USPS COLLECTION BOX - APC", "address": {"city": "HARTSDALE", "state": "NY", "street": "441 CENTRAL AVE", "postcode": "10530"}}},
{"geometry": {"type": "Point", "coordinates": [-73.8112485548, 41.0061414399]}, "type": "Feature", "properties": {"collection_times": [{"days": "Mon-Fri", "time": "5:00pm"}, {"days": "Sat", "time": "2:30pm"}, {"days": "Sun", "time": "Closed"}], "id": "1053000034", "name": "USPS COLLECTION BOX - PO LOBBY", "address": {"city": "HARTSDALE", "state": "NY", "street": "441 CENTRAL PARK AVE LOBBY DROP", "postcode": "10530"}}},
{"geometry": {"type": "Point", "coordinates": [-73.7953202597, 41.1072322349]}, "type": "Feature", "properties": {"collection_times": [{"days": "Mon-Sat", "time": "2:00pm"}, {"days": "Sun", "time": "Closed"}], "id": "1053200005", "name": "USPS COLLECTION BOX - BLUE BOX", "address": {"city": "HAWTHORNE", "state": "NY", "street": "342 ELWOOD AVE", "postcode": "10532"}}},
{"geometry": {"type": "Point", "coordinates": [-73.7979080857, 41.1070104246]}, "type": "Feature", "properties": {"collection_times": [{"days": "Mon-Fri", "time": "5:00pm"}, {"days": "Sat", "time": "2:00pm"}, {"days": "Sun", "time": "Closed"}], "id": "1053200006", "name": "USPS COLLECTION BOX - BLUE BOX", "address": {"city": "HAWTHORNE", "state": "NY", "street": "9 CROSS ST W", "postcode": "10532"}}},
{"geometry": {"type": "Point", "coordinates": [-73.8080105553, 41.1026571356]}, "type": "Feature", "properties": {"collection_times": [{"days": "Mon-Fri", "time": "2:00pm"}, {"days": "Sat-Sun", "time": "Closed"}], "id": "1053200011", "name": "USPS COLLECTION BOX - BLUE BOX", "address": {"city": "HAWTHORNE", "state": "NY", "street": "245 SAW MILL RIVER RD", "postcode": "10532"}}},
{"geometry": {"type": "Point", "coordinates": [-73.7979080857, 41.1070104246]}, "type": "Feature", "properties": {"collection_times": [{"days": "Mon-Fri", "time": "5:00pm"}, {"days": "Sat", "time": "2:00pm"}, {"days": "Sun", "time": "Closed"}], "id": "1053200013", "name": "USPS COLLECTION BOX - BLUE BOX", "address": {"city": "HAWTHORNE", "state": "NY", "street": "9 CROSS ST W", "postcode": "10532"}}},
{"geometry": {"type": "Point", "coordinates": [-73.8122242551, 41.0919206]}, "type": "Feature", "properties": {"collection_times": [{"days": "Mon-Fri", "time": "2:00pm"}, {"days": "Sat-Sun", "time": "Closed"}], "id": "1053200015", "name": "USPS COLLECTION BOX - BLUE BOX", "address": {"city": "HAWTHORNE", "state": "NY", "street": "4 SKYLINE DR", "postcode": "10532"}}},
{"geometry": {"type": "Point", "coordinates": [-73.7979080857, 41.1070104246]}, "type": "Feature", "properties": {"collection_times": [{"days": "Mon-Fri", "time": "5:00pm"}, {"days": "Sat", "time": "2:00pm"}, {"days": "Sun", "time": "Closed"}], "id": "1053200016", "name": "USPS COLLECTION BOX - PO LOBBY", "address": {"city": "HAWTHORNE", "state": "NY", "street": "9 CROSS ST W LBBY DROP", "postcode": "10532"}}},
{"geometry": {"type": "Point", "coordinates": [-73.8694419083, 41.039434365]}, "type": "Feature", "properties": {"collection_times": [{"days": "Mon-Sat", "time": "12:30pm"}, {"days": "Sun", "time": "Closed"}], "id": "1053300002", "name": "USPS COLLECTION BOX - BLUE BOX", "address": {"city": "IRVINGTON", "state": "NY", "street": "85 MAIN ST", "postcode": "10533"}}},
{"geometry": {"type": "Point", "coordinates": [-73.8624768735, 41.0449011935]}, "type": "Feature", "properties": {"collection_times": [{"days": "Mon-Sat", "time": "12:30pm"}, {"days": "Sun", "time": "Closed"}], "id": "1053300005", "name": "USPS COLLECTION BOX - BLUE BOX", "address": {"city": "IRVINGTON", "state": "NY", "street": "140 N BROADWAY", "postcode": "10533"}}},
{"geometry": {"type": "Point", "coordinates": [-73.849949224, 41.0472722452]}, "type": "Feature", "properties": {"collection_times": [{"days": "Mon-Sat", "time": "12:30pm"}, {"days": "Sun", "time": "Closed"}], "id": "1053300006", "name": "USPS COLLECTION BOX - BLUE BOX", "address": {"city": "IRVINGTON", "state": "NY", "street": "3 TAXTER RD", "postcode": "10533"}}},
{"geometry": {"type": "Point", "coordinates": [-73.8709459866, 41.0396297532]}, "type": "Feature", "properties": {"collection_times": [{"days": "Mon-Sat", "time": "12:30pm"}, {"days": "Sun", "time": "Closed"}], "id": "1053300008", "name": "USPS COLLECTION BOX - BLUE BOX", "address": {"city": "IRVINGTON", "state": "NY", "street": "47 MAIN ST", "postcode": "10533"}}},
{"geometry": {"type": "Point", "coordinates": [-73.8720431205, 41.0386111898]}, "type": "Feature", "properties": {"collection_times": [{"days": "Mon-Sat", "time": "12:30pm"}, {"days": "Sun", "time": "Closed"}], "id": "1053300009", "name": "USPS COLLECTION BOX - BLUE BOX", "address": {"city": "IRVINGTON", "state": "NY", "street": "77 S BUCKHOUT ST", "postcode": "10533"}}},
{"geometry": {"type": "Point", "coordinates": [-73.8727639454, 41.0398702231]}, "type": "Feature", "properties": {"collection_times": [{"days": "Mon-Sat", "time": "12:30pm"}, {"days": "Sun", "time": "Closed"}], "id": "1053300011", "name": "USPS COLLECTION BOX - BLUE BOX", "address": {"city": "IRVINGTON", "state": "NY", "street": "1 MAIN ST", "postcode": "10533"}}},
{"geometry": {"type": "Point", "coordinates": [-73.8718709635, 41.0399959397]}, "type": "Feature", "properties": {"collection_times": [{"days": "Mon-Fri", "time": "5:00pm"}, {"days": "Sat", "time": "12:30pm"}, {"days": "Sun", "time": "Closed"}], "id": "1053300014", "name": "USPS COLLECTION BOX - BLUE BOX", "address": {"city": "IRVINGTON", "state": "NY", "street": "25 N BUCKHOUT ST", "postcode": "10533"}}},
{"geometry": {"type": "Point", "coordinates": [-73.8732429198, 41.0409851136]}, "type": "Feature", "properties": {"collection_times": [{"days": "Mon-Sat", "time": "12:30pm"}, {"days": "Sun", "time": "Closed"}], "id": "1053300015", "name": "USPS COLLECTION BOX - BLUE BOX", "address": {"city": "IRVINGTON", "state": "NY", "street": "1 BRIDGE ST", "postcode": "10533"}}},
{"geometry": {"type": "Point", "coordinates": [-73.8731800835, 41.0352278368]}, "type": "Feature", "properties": {"collection_times": [{"days": "Mon-Sat", "time": "12:30pm"}, {"days": "Sun", "time": "Closed"}], "id": "1053300016", "name": "USPS COLLECTION BOX - BLUE BOX", "address": {"city": "IRVINGTON", "state": "NY", "street": "274 S BUCKHOUT ST", "postcode": "10533"}}},
{"geometry": {"type": "Point", "coordinates": [-73.8718709635, 41.0399959397]}, "type": "Feature", "properties": {"collection_times": [{"days": "Mon-Fri", "time": "5:00pm"}, {"days": "Sat", "time": "12:30pm"}, {"days": "Sun", "time": "Closed"}], "id": "1053300017", "name": "USPS COLLECTION BOX - PO LOBBY", "address": {"city": "IRVINGTON", "state": "NY", "street": "25 N BUCKHOUT ST LBBY DROP", "postcode": "10533"}}},
{"geometry": {"type": "Point", "coordinates": [-73.8096103787, 41.3326155951]}, "type": "Feature", "properties": {"collection_times": [{"days": "Mon-Fri", "time": "5:00pm"}, {"days": "Sat", "time": "12:00pm"}, {"days": "Sun", "time": "Closed"}], "id": "1053500001", "name": "USPS COLLECTION BOX - BLUE BOX", "address": {"city": "JEFFERSON VLY", "state": "NY", "street": "3652 LEE RD", "postcode": "10535"}}},
{"geometry": {"type": "Point", "coordinates": [-73.8096103787, 41.3326155951]}, "type": "Feature", "properties": {"collection_times": [{"days": "Mon-Fri", "time": "5:00pm"}, {"days": "Sat", "time": "12:00pm"}, {"days": "Sun", "time": "Closed"}], "id": "1053500003", "name": "USPS COLLECTION BOX - PO LOBBY", "address": {"city": "JEFFERSON VLY", "state": "NY", "street": "3652 LEE RD LBBY DROP", "postcode": "10535"}}},
{"geometry": {"type": "Point", "coordinates": [-73.6838135532, 41.2550510737]}, "type": "Feature", "properties": {"collection_times": [{"days": "Mon-Fri", "time": "5:00pm"}, {"days": "Sat", "time": "1:30pm"}, {"days": "Sun", "time": "Closed"}], "id": "1053600001", "name": "USPS COLLECTION BOX - BLUE BOX", "address": {"city": "KATONAH", "state": "NY", "street": "292 KATONAH AVE", "postcode": "10536"}}},
{"geometry": {"type": "Point", "coordinates": [-73.68435201, 41.2597868437]}, "type": "Feature", "properties": {"collection_times": [{"days": "Mon-Sat", "time": "12:30pm"}, {"days": "Sun", "time": "Closed"}], "id": "1053600003", "name": "USPS COLLECTION BOX - BLUE BOX", "address": {"city": "KATONAH", "state": "NY", "street": "17 KATONAH AVE", "postcode": "10536"}}},
{"geometry": {"type": "Point", "coordinates": [-73.6839232902, 41.2569667662]}, "type": "Feature", "properties": {"collection_times": [{"days": "Mon-Sat", "time": "12:30pm"}, {"days": "Sun", "time": "Closed"}], "id": "1053600005", "name": "USPS COLLECTION BOX - BLUE BOX", "address": {"city": "KATONAH", "state": "NY", "street": "200 KATONAH AVE", "postcode": "10536"}}},
{"geometry": {"type": "Point", "coordinates": [-73.684144105, 41.2584149766]}, "type": "Feature", "properties": {"collection_times": [{"days": "Mon-Sat", "time": "12:30pm"}, {"days": "Sun", "time": "Closed"}], "id": "1053600007", "name": "USPS COLLECTION BOX - BLUE BOX", "address": {"city": "KATONAH", "state": "NY", "street": "95 KATONAH AVE", "postcode": "10536"}}},
{"geometry": {"type": "Point", "coordinates": [-73.6838135532, 41.2550510737]}, "type": "Feature", "properties": {"collection_times": [{"days": "Mon-Fri", "time": "5:00pm"}, {"days": "Sat", "time": "1:30pm"}, {"days": "Sun", "time": "Closed"}], "id": "1053600009", "name": "USPS COLLECTION BOX - PO LOBBY", "address": {"city": "KATONAH", "state": "NY", "street": "292 KATONAH AVE LBBY DROP", "postcode": "10536"}}},
{"geometry": {"type": "Point", "coordinates": [-73.8794376176, 41.3377158138]}, "type": "Feature", "properties": {"collection_times": [{"days": "Mon-Fri", "time": "5:00pm"}, {"days": "Sat", "time": "12:00pm"}, {"days": "Sun", "time": "Closed"}], "id": "1053700001", "name": "USPS COLLECTION BOX - BLUE BOX", "address": {"city": "LAKE PEEKSKILL", "state": "NY", "street": "132 LAKE DR", "postcode": "10537"}}},
{"geometry": {"type": "Point", "coordinates": [-73.8794376176, 41.3377158138]}, "type": "Feature", "properties": {"collection_times": [{"days": "Mon-Fri", "time": "5:00pm"}, {"days": "Sat", "time": "12:00pm"}, {"days": "Sun", "time": "Closed"}], "id": "1053700002", "name": "USPS COLLECTION BOX - PO LOBBY", "address": {"city": "LAKE PEEKSKILL", "state": "NY", "street": "132 LAKE DR LBBY DROP", "postcode": "10537"}}},
{"geometry": {"type": "Point", "coordinates": [-73.7507506095, 40.9183592266]}, "type": "Feature", "properties": {"collection_times": [{"days": "Mon-Sat", "time": "3:00pm"}, {"days": "Sun", "time": "Closed"}], "id": "1053800001", "name": "USPS COLLECTION BOX - BLUE BOX", "address": {"city": "LARCHMONT", "state": "NY", "street": "31 BEACH AVE", "postcode": "10538"}}},
{"geometry": {"type": "Point", "coordinates": [-73.7507840212, 40.9267439532]}, "type": "Feature", "properties": {"collection_times": [{"days": "Mon-Sat", "time": "3:00pm"}, {"days": "Sun", "time": "Closed"}], "id": "1053800002", "name": "USPS COLLECTION BOX - BLUE BOX", "address": {"city": "LARCHMONT", "state": "NY", "street": "111 LARCHMONT AVE", "postcode": "10538"}}},
{"geometry": {"type": "Point", "coordinates": [-73.76760186, 40.9399707039]}, "type": "Feature", "properties": {"collection_times": [{"days": "Mon-Sat", "time": "2:00pm"}, {"days": "Sun", "time": "Closed"}], "id": "1053800005", "name": "USPS COLLECTION BOX - BLUE BOX", "address": {"city": "LARCHMONT", "state": "NY", "street": "220 ROCKINGSTONE AVE", "postcode": "10538"}}},
{"geometry": {"type": "Point", "coordinates": [-73.7548886, 40.9453330569]}, "type": "Feature", "properties": {"collection_times": [{"days": "Mon-Sat", "time": "2:00pm"}, {"days": "Sun", "time": "Closed"}], "id": "1053800009", "name": "USPS COLLECTION BOX - BLUE BOX", "address": {"city": "LARCHMONT", "state": "NY", "street": "59 W BROOKSIDE DR", "postcode": "10538"}}},
{"geometry": {"type": "Point", "coordinates": [-73.7620809905, 40.9375420892]}, "type": "Feature", "properties": {"collection_times": [{"days": "Mon-Sat", "time": "2:00pm"}, {"days": "Sun", "time": "Closed"}], "id": "1053800010", "name": "USPS COLLECTION BOX - BLUE BOX", "address": {"city": "LARCHMONT", "state": "NY", "street": "64 HILLSIDE RD", "postcode": "10538"}}},
{"geometry": {"type": "Point", "coordinates": [-73.7570936355, 40.9302373176]}, "type": "Feature", "properties": {"collection_times": [{"days": "Mon-Sat", "time": "2:30pm"}, {"days": "Sun", "time": "Closed"}], "id": "1053800011", "name": "USPS COLLECTION BOX - BLUE BOX", "address": {"city": "LARCHMONT", "state": "NY", "street": "203 LARCHMONT AVE", "postcode": "10538"}}},
{"geometry": {"type": "Point", "coordinates": [-73.7529497302, 40.9369577075]}, "type": "Feature", "properties": {"collection_times": [{"days": "Mon-Sat", "time": "2:00pm"}, {"days": "Sun", "time": "Closed"}], "id": "1053800014", "name": "USPS COLLECTION BOX - BLUE BOX", "address": {"city": "LARCHMONT", "state": "NY", "street": "3 HAWTHORN RD", "postcode": "10538"}}},
{"geometry": {"type": "Point", "coordinates": [-73.751657939, 40.9281115403]}, "type": "Feature", "properties": {"collection_times": [{"days": "Mon-Sat", "time": "3:00pm"}, {"days": "Sun", "time": "Closed"}], "id": "1053800015", "name": "USPS COLLECTION BOX - BLUE BOX", "address": {"city": "LARCHMONT", "state": "NY", "street": "2112 BOSTON POST RD", "postcode": "10538"}}},
{"geometry": {"type": "Point", "coordinates": [-73.758636214, 40.9332550459]}, "type": "Feature", "properties": {"collection_times": [{"days": "Mon-Sat", "time": "2:30pm"}, {"days": "Sun", "time": "Closed"}], "id": "1053800016", "name": "USPS COLLECTION BOX - BLUE BOX", "address": {"city": "LARCHMONT", "state": "NY", "street": "1890 PALMER AVE", "postcode": "10538"}}},
{"geometry": {"type": "Point", "coordinates": [-73.7568286527, 40.9339600894]}, "type": "Feature", "properties": {"collection_times": [{"days": "Mon-Sat", "time": "2:30pm"}, {"days": "Sun", "time": "Closed"}], "id": "1053800017", "name": "USPS COLLECTION BOX - BLUE BOX", "address": {"city": "LARCHMONT", "state": "NY", "street": "1865 PALMER AVE", "postcode": "10538"}}},
{"geometry": {"type": "Point", "coordinates": [-73.7564205318, 40.9354967531]}, "type": "Feature", "properties": {"collection_times": [{"days": "Mon-Sat", "time": "2:30pm"}, {"days": "Sun", "time": "Closed"}], "id": "1053800018", "name": "USPS COLLECTION BOX - BLUE BOX", "address": {"city": "LARCHMONT", "state": "NY", "street": "7 WOODLAND AVE", "postcode": "10538"}}},
{"geometry": {"type": "Point", "coordinates": [-73.7593922174, 40.9331539251]}, "type": "Feature", "properties": {"collection_times": [{"days": "Mon-Sat", "time": "2:00pm"}, {"days": "Sun", "time": "Closed"}], "id": "1053800019", "name": "USPS COLLECTION BOX - BLUE BOX", "address": {"city": "LARCHMONT", "state": "NY", "street": "1 RAILROAD WAY", "postcode": "10538"}}},
{"geometry": {"type": "Point", "coordinates": [-73.762498575, 40.9324423531]}, "type": "Feature", "properties": {"collection_times": [{"days": "Mon-Sat", "time": "2:00pm"}, {"days": "Sun", "time": "Closed"}], "id": "1053800021", "name": "USPS COLLECTION BOX - BLUE BOX", "address": {"city": "LARCHMONT", "state": "NY", "street": "2 MADISON AVE", "postcode": "10538"}}},
{"geometry": {"type": "Point", "coordinates": [-73.7591058487, 40.9329817824]}, "type": "Feature", "properties": {"collection_times": [{"days": "Mon-Sat", "time": "2:30pm"}, {"days": "Sun", "time": "Closed"}], "id": "1053800023", "name": "USPS COLLECTION BOX - BLUE BOX", "address": {"city": "LARCHMONT", "state": "NY", "street": "124 CHATSWORTH AVE", "postcode": "10538"}}},
{"geometry": {"type": "Point", "coordinates": [-73.7597414983, 40.9318853846]}, "type": "Feature", "properties": {"collection_times": [{"days": "Mon-Sat", "time": "2:30pm"}, {"days": "Sun", "time": "Closed"}], "id": "1053800024", "name": "USPS COLLECTION BOX - BLUE BOX", "address": {"city": "LARCHMONT", "state": "NY", "street": "1939 PALMER AVE", "postcode": "10538"}}},
{"geometry": {"type": "Point", "coordinates": [-73.751434473, 40.92752367]}, "type": "Feature", "properties": {"collection_times": [{"days": "Mon-Sat", "time": "3:00pm"}, {"days": "Sun", "time": "Closed"}], "id": "1053800027", "name": "USPS COLLECTION BOX - BLUE BOX", "address": {"city": "LARCHMONT", "state": "NY", "street": "120 LARCHMONT AVE", "postcode": "10538"}}},
{"geometry": {"type": "Point", "coordinates": [-73.7508357113, 40.9295803654]}, "type": "Feature", "properties": {"collection_times": [{"days": "Mon-Fri", "time": "5:00pm"}, {"days": "Sat", "time": "3:00pm"}, {"days": "Sun", "time": "Closed"}], "id": "1053800030", "name": "USPS COLLECTION BOX - BLUE BOX", "address": {"city": "LARCHMONT", "state": "NY", "street": "1 CHATSWORTH AVE", "postcode": "10538"}}},
{"geometry": {"type": "Point", "coordinates": [-73.7618195566, 40.9304537991]}, "type": "Feature", "properties": {"collection_times": [{"days": "Mon-Sat", "time": "2:30pm"}, {"days": "Sun", "time": "Closed"}], "id": "1053800035", "name": "USPS COLLECTION BOX - BLUE BOX", "address": {"city": "LARCHMONT", "state": "NY", "street": "2005 PALMER AVE", "postcode": "10538"}}},
{"geometry": {"type": "Point", "coordinates": [-73.7488434705, 40.932977932]}, "type": "Feature", "properties": {"collection_times": [{"days": "Mon-Sat", "time": "2:30pm"}, {"days": "Sun", "time": "Closed"}], "id": "1053800039", "name": "USPS COLLECTION BOX - BLUE BOX", "address": {"city": "LARCHMONT", "state": "NY", "street": "1 ALDEN RD", "postcode": "10538"}}},
{"geometry": {"type": "Point", "coordinates": [-73.761317982, 40.9339328814]}, "type": "Feature", "properties": {"collection_times": [{"days": "Mon-Sat", "time": "2:00pm"}, {"days": "Sun", "time": "Closed"}], "id": "1053800040", "name": "USPS COLLECTION BOX - BLUE BOX", "address": {"city": "LARCHMONT", "state": "NY", "street": "17 N CHATSWORTH AVE", "postcode": "10538"}}},
{"geometry": {"type": "Point", "coordinates": [-73.7594056457, 40.9238017791]}, "type": "Feature", "properties": {"collection_times": [{"days": "Mon-Sat", "time": "3:00pm"}, {"days": "Sun", "time": "Closed"}], "id": "1053800041", "name": "USPS COLLECTION BOX - BLUE BOX", "address": {"city": "LARCHMONT", "state": "NY", "street": "2345 BOSTON POST RD", "postcode": "10538"}}},
{"geometry": {"type": "Point", "coordinates": [-73.7590407859, 40.9311233538]}, "type": "Feature", "properties": {"collection_times": [{"days": "Mon-Sat", "time": "2:30pm"}, {"days": "Sun", "time": "Closed"}], "id": "1053800042", "name": "USPS COLLECTION BOX - BLUE BOX", "address": {"city": "LARCHMONT", "state": "NY", "street": "222 LARCHMONT AVE", "postcode": "10538"}}},
{"geometry": {"type": "Point", "coordinates": [-73.7568286527, 40.9339600894]}, "type": "Feature", "properties": {"collection_times": [{"days": "Mon-Sat", "time": "2:30pm"}, {"days": "Sun", "time": "Closed"}], "id": "1053800043", "name": "USPS COLLECTION BOX - BLUE BOX", "address": {"city": "LARCHMONT", "state": "NY", "street": "1865 PALMER AVE", "postcode": "10538"}}},
{"geometry": {"type": "Point", "coordinates": [-73.7635896059, 40.9215084739]}, "type": "Feature", "properties": {"collection_times": [{"days": "Mon-Sat", "time": "3:00pm"}, {"days": "Sun", "time": "Closed"}], "id": "1053800044", "name": "USPS COLLECTION BOX - BLUE BOX", "address": {"city": "LARCHMONT", "state": "NY", "street": "2451 BOSTON POST RD", "postcode": "10538"}}},
{"geometry": {"type": "Point", "coordinates": [-73.7508357113, 40.9295803654]}, "type": "Feature", "properties": {"collection_times": [{"days": "Mon-Fri", "time": "5:00pm"}, {"days": "Sat", "time": "3:00pm"}, {"days": "Sun", "time": "Closed"}], "id": "1053800046", "name": "USPS COLLECTION BOX - APC", "address": {"city": "LARCHMONT", "state": "NY", "street": "1 CHATSWORTH AVE", "postcode": "10538"}}},
{"geometry": {"type": "Point", "coordinates": [-73.7508357113, 40.9295803654]}, "type": "Feature", "properties": {"collection_times": [{"days": "Mon-Fri", "time": "5:00pm"}, {"days": "Sat", "time": "12:00pm"}, {"days": "Sun", "time": "Closed"}], "id": "1053800047", "name": "USPS COLLECTION BOX - PO LOBBY", "address": {"city": "LARCHMONT", "state": "NY", "street": "1 CHATSWORTH AVE LBBY DROP", "postcode": "10538"}}},
{"geometry": {"type": "Point", "coordinates": [-73.7170389155, 41.3184420842]}, "type": "Feature", "properties": {"collection_times": [{"days": "Mon-Fri", "time": "4:15pm"}, {"days": "Sat", "time": "11:15am"}, {"days": "Sun", "time": "Closed"}], "id": "1054000001", "name": "USPS COLLECTION BOX - BLUE BOX", "address": {"city": "LINCOLNDALE", "state": "NY", "street": "152 ROUTE 202", "postcode": "10540"}}},
{"geometry": {"type": "Point", "coordinates": [-73.7170389155, 41.3184420842]}, "type": "Feature", "properties": {"collection_times": [{"days": "Mon-Fri", "time": "4:15pm"}, {"days": "Sat", "time": "11:15am"}, {"days": "Sun", "time": "Closed"}], "id": "1054000002", "name": "USPS COLLECTION BOX - PO LOBBY", "address": {"city": "LINCOLNDALE", "state": "NY", "street": "152 ROUTE 202 LBBY DROP", "postcode": "10540"}}},
{"geometry": {"type": "Point", "coordinates": [-73.7469793363, 41.3574901558]}, "type": "Feature", "properties": {"collection_times": [{"days": "Mon-Fri", "time": "5:00pm"}, {"days": "Sat", "time": "2:30pm"}, {"days": "Sun", "time": "Closed"}], "id": "1054100002", "name": "USPS COLLECTION BOX - BLUE BOX", "address": {"city": "MAHOPAC", "state": "NY", "street": "346 ROUTE 6", "postcode": "10541"}}},
{"geometry": {"type": "Point", "coordinates": [-73.7236117944, 41.3919477594]}, "type": "Feature", "properties": {"collection_times": [{"days": "Mon-Sat", "time": "12:00pm"}, {"days": "Sun", "time": "Closed"}], "id": "1054100005", "name": "USPS COLLECTION BOX - BLUE BOX", "address": {"city": "MAHOPAC", "state": "NY", "street": "975 ROUTE 6", "postcode": "10541"}}},
{"geometry": {"type": "Point", "coordinates": [-73.7360972968, 41.3721730425]}, "type": "Feature", "properties": {"collection_times": [{"days": "Mon-Sat", "time": "12:00pm"}, {"days": "Sun", "time": "Closed"}], "id": "1054100007", "name": "USPS COLLECTION BOX - BLUE BOX", "address": {"city": "MAHOPAC", "state": "NY", "street": "926 S LAKE BLVD", "postcode": "10541"}}},
{"geometry": {"type": "Point", "coordinates": [-73.7469793363, 41.3574901558]}, "type": "Feature", "properties": {"collection_times": [{"days": "Mon-Fri", "time": "5:00pm"}, {"days": "Sat", "time": "2:30pm"}, {"days": "Sun", "time": "Closed"}], "id": "1054100008", "name": "USPS COLLECTION BOX - PO LOBBY", "address": {"city": "MAHOPAC", "state": "NY", "street": "346 ROUTE 6 LBBY DROP", "postcode": "10541"}}},
{"geometry": {"type": "Point", "coordinates": [-73.7615307982, 41.3744139097]}, "type": "Feature", "properties": {"collection_times": [{"days": "Mon-Fri", "time": "4:30pm"}, {"days": "Sat", "time": "12:30pm"}, {"days": "Sun", "time": "Closed"}], "id": "1054200001", "name": "USPS COLLECTION BOX - BLUE BOX", "address": {"city": "MAHOPAC FALLS", "state": "NY", "street": "173 MYRTLE AVE", "postcode": "10542"}}},
{"geometry": {"type": "Point", "coordinates": [-73.7615307982, 41.3744139097]}, "type": "Feature", "properties": {"collection_times": [{"days": "Mon-Fri", "time": "4:30pm"}, {"days": "Sat", "time": "12:30pm"}, {"days": "Sun", "time": "Closed"}], "id": "1054200002", "name": "USPS COLLECTION BOX - PO LOBBY", "address": {"city": "MAHOPAC FALLS", "state": "NY", "street": "173 MYRTLE AVE LBBY DROP", "postcode": "10542"}}},
{"geometry": {"type": "Point", "coordinates": [-73.7387341124, 40.9538290682]}, "type": "Feature", "properties": {"collection_times": [{"days": "Mon-Sat", "time": "9:00am"}, {"days": "Sun", "time": "Closed"}], "id": "1054300006", "name": "USPS COLLECTION BOX - BLUE BOX", "address": {"city": "MAMARONECK", "state": "NY", "street": "584 MAMARONECK AVE", "postcode": "10543"}}},
{"geometry": {"type": "Point", "coordinates": [-73.7359671713, 40.9533984711]}, "type": "Feature", "properties": {"collection_times": [{"days": "Mon-Sat", "time": "9:00am"}, {"days": "Sun", "time": "Closed"}], "id": "1054300007", "name": "USPS COLLECTION BOX - BLUE BOX", "address": {"city": "MAMARONECK", "state": "NY", "street": "437 WARD AVE", "postcode": "10543"}}},
{"geometry": {"type": "Point", "coordinates": [-73.7374931884, 40.9587300672]}, "type": "Feature", "properties": {"collection_times": [{"days": "Mon-Sat", "time": "9:00am"}, {"days": "Sun", "time": "Closed"}], "id": "1054300008", "name": "USPS COLLECTION BOX - BLUE BOX", "address": {"city": "MAMARONECK", "state": "NY", "street": "899 MAMARONECK AVE", "postcode": "10543"}}},
{"geometry": {"type": "Point", "coordinates": [-73.7380441371, 40.942259979]}, "type": "Feature", "properties": {"collection_times": [{"days": "Mon-Sat", "time": "9:00am"}, {"days": "Sun", "time": "Closed"}], "id": "1054300012", "name": "USPS COLLECTION BOX - BLUE BOX", "address": {"city": "MAMARONECK", "state": "NY", "street": "303 ORIENTA AVE", "postcode": "10543"}}},
{"geometry": {"type": "Point", "coordinates": [-73.7272389032, 40.9523183951]}, "type": "Feature", "properties": {"collection_times": [{"days": "Mon-Sat", "time": "9:30am"}, {"days": "Sun", "time": "Closed"}], "id": "1054300015", "name": "USPS COLLECTION BOX - BLUE BOX", "address": {"city": "MAMARONECK", "state": "NY", "street": "640 E BOSTON POST RD", "postcode": "10543"}}},
{"geometry": {"type": "Point", "coordinates": [-73.7450120756, 40.9440944989]}, "type": "Feature", "properties": {"collection_times": [{"days": "Mon-Sat", "time": "9:00am"}, {"days": "Sun", "time": "Closed"}], "id": "1054300016", "name": "USPS COLLECTION BOX - BLUE BOX", "address": {"city": "MAMARONECK", "state": "NY", "street": "845 PALMER AVE", "postcode": "10543"}}},
{"geometry": {"type": "Point", "coordinates": [-73.7369270641, 40.9529593476]}, "type": "Feature", "properties": {"collection_times": [{"days": "Mon-Sat", "time": "9:00am"}, {"days": "Sun", "time": "Closed"}], "id": "1054300020", "name": "USPS COLLECTION BOX - BLUE BOX", "address": {"city": "MAMARONECK", "state": "NY", "street": "348 RICHBELL RD", "postcode": "10543"}}},
{"geometry": {"type": "Point", "coordinates": [-73.7189325133, 40.9587942808]}, "type": "Feature", "properties": {"collection_times": [{"days": "Mon-Sat", "time": "9:00am"}, {"days": "Sun", "time": "Closed"}], "id": "1054300025", "name": "USPS COLLECTION BOX - BLUE BOX", "address": {"city": "MAMARONECK", "state": "NY", "street": "1600 HARRISON AVE", "postcode": "10543"}}},
{"geometry": {"type": "Point", "coordinates": [-73.7307594181, 40.9575370349]}, "type": "Feature", "properties": {"collection_times": [{"days": "Mon-Sat", "time": "9:00am"}, {"days": "Sun", "time": "Closed"}], "id": "1054300033", "name": "USPS COLLECTION BOX - BLUE BOX", "address": {"city": "MAMARONECK", "state": "NY", "street": "650 HALSTEAD AVE", "postcode": "10543"}}},
{"geometry": {"type": "Point", "coordinates": [-73.7308226115, 40.9500108182]}, "type": "Feature", "properties": {"collection_times": [{"days": "Mon-Sat", "time": "9:00am"}, {"days": "Sun", "time": "Closed"}], "id": "1054300037", "name": "USPS COLLECTION BOX - BLUE BOX", "address": {"city": "MAMARONECK", "state": "NY", "street": "320 E BOSTON POST RD", "postcode": "10543"}}},
{"geometry": {"type": "Point", "coordinates": [-73.7333102098, 40.9493383314]}, "type": "Feature", "properties": {"collection_times": [{"days": "Mon-Sat", "time": "9:00am"}, {"days": "Sun", "time": "Closed"}], "id": "1054300040", "name": "USPS COLLECTION BOX - BLUE BOX", "address": {"city": "MAMARONECK", "state": "NY", "street": "152 MAMARONECK AVE", "postcode": "10543"}}},
{"geometry": {"type": "Point", "coordinates": [-73.7364202446, 40.9506185176]}, "type": "Feature", "properties": {"collection_times": [{"days": "Mon-Fri", "time": "5:00pm"}, {"days": "Sat", "time": "3:00pm"}, {"days": "Sun", "time": "Closed"}], "id": "1054300054", "name": "USPS COLLECTION BOX - BLUE BOX", "address": {"city": "MAMARONECK", "state": "NY", "street": "309 MOUNT PLEASANT AVE", "postcode": "10543"}}},
{"geometry": {"type": "Point", "coordinates": [-73.7364202446, 40.9506185176]}, "type": "Feature", "properties": {"collection_times": [{"days": "Mon-Fri", "time": "5:00pm"}, {"days": "Sat", "time": "3:00pm"}, {"days": "Sun", "time": "Closed"}], "id": "1054300057", "name": "USPS COLLECTION BOX - BLUE BOX", "address": {"city": "MAMARONECK", "state": "NY", "street": "309 MOUNT PLEASANT AVE", "postcode": "10543"}}},
{"geometry": {"type": "Point", "coordinates": [-73.734534608, 40.9508397309]}, "type": "Feature", "properties": {"collection_times": [{"days": "Mon-Sat", "time": "9:00am"}, {"days": "Sun", "time": "Closed"}], "id": "1054300064", "name": "USPS COLLECTION BOX - BLUE BOX", "address": {"city": "MAMARONECK", "state": "NY", "street": "272 MAMARONECK AVE", "postcode": "10543"}}},
{"geometry": {"type": "Point", "coordinates": [-73.7364202446, 40.9506185176]}, "type": "Feature", "properties": {"collection_times": [{"days": "Mon-Fri", "time": "5:00pm"}, {"days": "Sat", "time": "3:00pm"}, {"days": "Sun", "time": "Closed"}], "id": "1054300065", "name": "USPS COLLECTION BOX - PO LOBBY", "address": {"city": "MAMARONECK", "state": "NY", "street": "309 MOUNT PLEASANT AVE LBBY DROP", "postcode": "10543"}}},
{"geometry": {"type": "Point", "coordinates": [-73.8314760443, 41.1808077984]}, "type": "Feature", "properties": {"collection_times": [{"days": "Mon-Fri", "time": "4:15pm"}, {"days": "Sat", "time": "9:00am"}, {"days": "Sun", "time": "Closed"}], "id": "1054500002", "name": "USPS COLLECTION BOX - BLUE BOX", "address": {"city": "MARYKNOLL", "state": "NY", "street": "85 RYDER RD", "postcode": "10545"}}},
{"geometry": {"type": "Point", "coordinates": [-73.8314760443, 41.1808077984]}, "type": "Feature", "properties": {"collection_times": [{"days": "Mon-Fri", "time": "4:15pm"}, {"days": "Sat-Sun", "time": "Closed"}], "id": "1054500003", "name": "USPS COLLECTION BOX - PO LOBBY", "address": {"city": "MARYKNOLL", "state": "NY", "street": "85 RYDER RD LBBY DROP", "postcode": "10545"}}},
{"geometry": {"type": "Point", "coordinates": [-73.8036111309, 41.188006442]}, "type": "Feature", "properties": {"collection_times": [{"days": "Mon-Fri", "time": "5:00pm"}, {"days": "Sat", "time": "1:00pm"}, {"days": "Sun", "time": "Closed"}], "id": "1054600002", "name": "USPS COLLECTION BOX - BLUE BOX", "address": {"city": "MILLWOOD", "state": "NY", "street": "230 SAW MILL RIVER RD", "postcode": "10546"}}},
{"geometry": {"type": "Point", "coordinates": [-73.7961868804, 41.1938514422]}, "type": "Feature", "properties": {"collection_times": [{"days": "Mon-Fri", "time": "9:00am"}, {"days": "Sat-Sun", "time": "Closed"}], "id": "1054600003", "name": "USPS COLLECTION BOX - BLUE BOX", "address": {"city": "MILLWOOD", "state": "NY", "street": "358 SAW MILL RIVER RD", "postcode": "10546"}}},
{"geometry": {"type": "Point", "coordinates": [-73.8036111309, 41.188006442]}, "type": "Feature", "properties": {"collection_times": [{"days": "Mon-Fri", "time": "4:45pm"}, {"days": "Sat", "time": "1:00pm"}, {"days": "Sun", "time": "Closed"}], "id": "1054600004", "name": "USPS COLLECTION BOX - PO LOBBY", "address": {"city": "MILLWOOD", "state": "NY", "street": "230 SAW MILL RIVER RD-LOBBY DROP", "postcode": "10546"}}},
{"geometry": {"type": "Point", "coordinates": [-73.8679915176, 41.3129015654]}, "type": "Feature", "properties": {"collection_times": [{"days": "Mon-Fri", "time": "5:00pm"}, {"days": "Sat", "time": "3:00pm"}, {"days": "Sun", "time": "Closed"}], "id": "1054700001", "name": "USPS COLLECTION BOX - BLUE BOX", "address": {"city": "MOHEGAN LAKE", "state": "NY", "street": "3147 E MAIN ST", "postcode": "10547"}}},
{"geometry": {"type": "Point", "coordinates": [-73.8679915176, 41.3129015654]}, "type": "Feature", "properties": {"collection_times": [{"days": "Mon-Fri", "time": "5:00pm"}, {"days": "Sat", "time": "3:00pm"}, {"days": "Sun", "time": "Closed"}], "id": "1054700002", "name": "USPS COLLECTION BOX - PO LOBBY", "address": {"city": "MOHEGAN LAKE", "state": "NY", "street": "3147 E MAIN ST LBBY DROP", "postcode": "10547"}}},
{"geometry": {"type": "Point", "coordinates": [-73.9325938787, 41.25246351]}, "type": "Feature", "properties": {"collection_times": [{"days": "Mon-Fri", "time": "5:00pm"}, {"days": "Sat", "time": "12:00pm"}, {"days": "Sun", "time": "Closed"}], "id": "1054800002", "name": "USPS COLLECTION BOX - BLUE BOX", "address": {"city": "MONTROSE", "state": "NY", "street": "13 KINGS FERRY RD", "postcode": "10548"}}},
{"geometry": {"type": "Point", "coordinates": [-73.9489932388, 41.2510297638]}, "type": "Feature", "properties": {"collection_times": [{"days": "Mon-Sat", "time": "9:30am"}, {"days": "Sun", "time": "Closed"}], "id": "1054800006", "name": "USPS COLLECTION BOX - BLUE BOX", "address": {"city": "MONTROSE", "state": "NY", "street": "201 COACHLIGHT SQ", "postcode": "10548"}}},
{"geometry": {"type": "Point", "coordinates": [-73.9325938787, 41.25246351]}, "type": "Feature", "properties": {"collection_times": [{"days": "Mon-Fri", "time": "5:00pm"}, {"days": "Sat", "time": "12:00pm"}, {"days": "Sun", "time": "Closed"}], "id": "1054800007", "name": "USPS COLLECTION BOX - PO LOBBY", "address": {"city": "MONTROSE", "state": "NY", "street": "13 KINGS FERRY RD LBBY DROP", "postcode": "10548"}}},
{"geometry": {"type": "Point", "coordinates": [-73.7282801072, 41.2085626]}, "type": "Feature", "properties": {"collection_times": [{"days": "Mon-Sat", "time": "9:30am"}, {"days": "Sun", "time": "Closed"}], "id": "1054900008", "name": "USPS COLLECTION BOX - BLUE BOX", "address": {"city": "MOUNT KISCO", "state": "NY", "street": "16 E MAIN ST", "postcode": "10549"}}},
{"geometry": {"type": "Point", "coordinates": [-73.7261651733, 41.1985643507]}, "type": "Feature", "properties": {"collection_times": [{"days": "Mon-Sat", "time": "9:30am"}, {"days": "Sun", "time": "Closed"}], "id": "1054900013", "name": "USPS COLLECTION BOX - BLUE BOX", "address": {"city": "MOUNT KISCO", "state": "NY", "street": "25 MOORE AVE", "postcode": "10549"}}},
{"geometry": {"type": "Point", "coordinates": [-73.7199546388, 41.1971660932]}, "type": "Feature", "properties": {"collection_times": [{"days": "Mon-Fri", "time": "9:30am"}, {"days": "Sat-Sun", "time": "Closed"}], "id": "1054900021", "name": "USPS COLLECTION BOX - BLUE BOX", "address": {"city": "MOUNT KISCO", "state": "NY", "street": "100 S BEDFORD RD", "postcode": "10549"}}},
{"geometry": {"type": "Point", "coordinates": [-73.7264089039, 41.2141163447]}, "type": "Feature", "properties": {"collection_times": [{"days": "Mon-Sat", "time": "9:30am"}, {"days": "Sun", "time": "Closed"}], "id": "1054900024", "name": "USPS COLLECTION BOX - BLUE BOX", "address": {"city": "MOUNT KISCO", "state": "NY", "street": "153 KISCO AVE", "postcode": "10549"}}},
{"geometry": {"type": "Point", "coordinates": [-73.7285890563, 41.2079026288]}, "type": "Feature", "properties": {"collection_times": [{"days": "Mon-Sat", "time": "9:30am"}, {"days": "Sun", "time": "Closed"}], "id": "1054900028", "name": "USPS COLLECTION BOX - BLUE BOX", "address": {"city": "MOUNT KISCO", "state": "NY", "street": "15 S MOGER AVE", "postcode": "10549"}}},
{"geometry": {"type": "Point", "coordinates": [-73.7298276143, 41.2062618647]}, "type": "Feature", "properties": {"collection_times": [{"days": "Mon-Sat", "time": "9:30am"}, {"days": "Sun", "time": "Closed"}], "id": "1054900029", "name": "USPS COLLECTION BOX - BLUE BOX", "address": {"city": "MOUNT KISCO", "state": "NY", "street": "69 S MOGER AVE", "postcode": "10549"}}},
{"geometry": {"type": "Point", "coordinates": [-73.7246971213, 41.1980166407]}, "type": "Feature", "properties": {"collection_times": [{"days": "Mon-Sat", "time": "9:30am"}, {"days": "Sun", "time": "Closed"}], "id": "1054900030", "name": "USPS COLLECTION BOX - BLUE BOX", "address": {"city": "MOUNT KISCO", "state": "NY", "street": "359 E MAIN ST", "postcode": "10549"}}},
{"geometry": {"type": "Point", "coordinates": [-73.7296525364, 41.2001980171]}, "type": "Feature", "properties": {"collection_times": [{"days": "Mon-Sat", "time": "9:30am"}, {"days": "Sun", "time": "Closed"}], "id": "1054900033", "name": "USPS COLLECTION BOX - BLUE BOX", "address": {"city": "MOUNT KISCO", "state": "NY", "street": "91 SMITH AVE", "postcode": "10549"}}},
{"geometry": {"type": "Point", "coordinates": [-73.7168505545, 41.2198682587]}, "type": "Feature", "properties": {"collection_times": [{"days": "Mon-Sat", "time": "9:30am"}, {"days": "Sun", "time": "Closed"}], "id": "1054900038", "name": "USPS COLLECTION BOX - BLUE BOX", "address": {"city": "MOUNT KISCO", "state": "NY", "street": "360 N BEDFORD RD", "postcode": "10549"}}},
{"geometry": {"type": "Point", "coordinates": [-73.7339336649, 41.2091045151]}, "type": "Feature", "properties": {"collection_times": [{"days": "Mon-Sat", "time": "9:30am"}, {"days": "Sun", "time": "Closed"}], "id": "1054900040", "name": "USPS COLLECTION BOX - BLUE BOX", "address": {"city": "MOUNT KISCO", "state": "NY", "street": "120 MAIN ST", "postcode": "10549"}}},
{"geometry": {"type": "Point", "coordinates": [-73.7284269043, 41.2037820799]}, "type": "Feature", "properties": {"collection_times": [{"days": "Mon-Fri", "time": "5:00pm"}, {"days": "Sat", "time": "3:30pm"}, {"days": "Sun", "time": "Closed"}], "id": "1054900050", "name": "USPS COLLECTION BOX - BLUE BOX", "address": {"city": "MOUNT KISCO", "state": "NY", "street": "3 MORGAN DR", "postcode": "10549"}}},
{"geometry": {"type": "Point", "coordinates": [-73.7284269043, 41.2037820799]}, "type": "Feature", "properties": {"collection_times": [{"days": "Mon-Fri", "time": "5:00pm"}, {"days": "Sat", "time": "3:30pm"}, {"days": "Sun", "time": "Closed"}], "id": "1054900051", "name": "USPS COLLECTION BOX - BLUE BOX", "address": {"city": "MOUNT KISCO", "state": "NY", "street": "3 MORGAN DR", "postcode": "10549"}}},
{"geometry": {"type": "Point", "coordinates": [-73.7194081641, 41.1975347347]}, "type": "Feature", "properties": {"collection_times": [{"days": "Mon-Fri", "time": "9:30am"}, {"days": "Sat-Sun", "time": "Closed"}], "id": "1054900052", "name": "USPS COLLECTION BOX - BLUE BOX", "address": {"city": "MOUNT KISCO", "state": "NY", "street": "105 S BEDFORD RD", "postcode": "10549"}}},
{"geometry": {"type": "Point", "coordinates": [-73.7284269043, 41.2037820799]}, "type": "Feature", "properties": {"collection_times": [{"days": "Mon-Fri", "time": "5:00pm"}, {"days": "Sat", "time": "3:30pm"}, {"days": "Sun", "time": "Closed"}], "id": "1054900053", "name": "USPS COLLECTION BOX - PO LOBBY", "address": {"city": "MOUNT KISCO", "state": "NY", "street": "3 MORGAN DR LBBY DROP", "postcode": "10549"}}},
{"geometry": {"type": "Point", "coordinates": [-73.8400035258, 40.9124731677]}, "type": "Feature", "properties": {"collection_times": [{"days": "Mon-Sat", "time": "9:30am"}, {"days": "Sun", "time": "Closed"}], "id": "1055000008", "name": "USPS COLLECTION BOX - BLUE BOX", "address": {"city": "MOUNT VERNON", "state": "NY", "street": "12 N 7TH AVE", "postcode": "10550"}}},
{"geometry": {"type": "Point", "coordinates": [-73.8457079086, 40.9136072804]}, "type": "Feature", "properties": {"collection_times": [{"days": "Mon-Sat", "time": "9:30am"}, {"days": "Sun", "time": "Closed"}], "id": "1055000012", "name": "USPS COLLECTION BOX - BLUE BOX", "address": {"city": "MOUNT VERNON", "state": "NY", "street": "102 N HIGH ST", "postcode": "10550"}}},
{"geometry": {"type": "Point", "coordinates": [-73.8496781662, 40.9132767006]}, "type": "Feature", "properties": {"collection_times": [{"days": "Mon-Sat", "time": "9:30am"}, {"days": "Sun", "time": "Closed"}], "id": "1055000013", "name": "USPS COLLECTION BOX - BLUE BOX", "address": {"city": "MOUNT VERNON", "state": "NY", "street": "156 MOUNT VERNON AVE", "postcode": "10550"}}},
{"geometry": {"type": "Point", "coordinates": [-73.8372878269, 40.9146559237]}, "type": "Feature", "properties": {"collection_times": [{"days": "Mon-Sat", "time": "9:30am"}, {"days": "Sun", "time": "Closed"}], "id": "1055000016", "name": "USPS COLLECTION BOX - BLUE BOX", "address": {"city": "MOUNT VERNON", "state": "NY", "street": "117 GRAMATAN AVE", "postcode": "10550"}}},
{"geometry": {"type": "Point", "coordinates": [-73.8430215251, 40.9152529372]}, "type": "Feature", "properties": {"collection_times": [{"days": "Mon-Sat", "time": "9:30am"}, {"days": "Sun", "time": "Closed"}], "id": "1055000018", "name": "USPS COLLECTION BOX - BLUE BOX", "address": {"city": "MOUNT VERNON", "state": "NY", "street": "154 W LINCOLN AVE", "postcode": "10550"}}},
{"geometry": {"type": "Point", "coordinates": [-73.8493535565, 40.9104599943]}, "type": "Feature", "properties": {"collection_times": [{"days": "Mon-Sat", "time": "9:30am"}, {"days": "Sun", "time": "Closed"}], "id": "1055000022", "name": "USPS COLLECTION BOX - BLUE BOX", "address": {"city": "MOUNT VERNON", "state": "NY", "street": "59 S TERRACE AVE", "postcode": "10550"}}},
{"geometry": {"type": "Point", "coordinates": [-73.843045068, 40.9123935645]}, "type": "Feature", "properties": {"collection_times": [{"days": "Mon-Sat", "time": "9:30am"}, {"days": "Sun", "time": "Closed"}], "id": "1055000024", "name": "USPS COLLECTION BOX - BLUE BOX", "address": {"city": "MOUNT VERNON", "state": "NY", "street": "7 JEFFERSON PL", "postcode": "10550"}}},
{"geometry": {"type": "Point", "coordinates": [-73.839233549, 40.9142362504]}, "type": "Feature", "properties": {"collection_times": [{"days": "Mon-Sat", "time": "9:30am"}, {"days": "Sun", "time": "Closed"}], "id": "1055000025", "name": "USPS COLLECTION BOX - BLUE BOX", "address": {"city": "MOUNT VERNON", "state": "NY", "street": "34 W SIDNEY AVE", "postcode": "10550"}}},
{"geometry": {"type": "Point", "coordinates": [-73.8340427502, 40.9135729746]}, "type": "Feature", "properties": {"collection_times": [{"days": "Mon-Sat", "time": "9:30am"}, {"days": "Sun", "time": "Closed"}], "id": "1055000036", "name": "USPS COLLECTION BOX - BLUE BOX", "address": {"city": "MOUNT VERNON", "state": "NY", "street": "11 PARK AVE", "postcode": "10550"}}},
{"geometry": {"type": "Point", "coordinates": [-73.8369925564, 40.9116578964]}, "type": "Feature", "properties": {"collection_times": [{"days": "Mon-Sat", "time": "9:30am"}, {"days": "Sun", "time": "Closed"}], "id": "1055000049", "name": "USPS COLLECTION BOX - BLUE BOX", "address": {"city": "MOUNT VERNON", "state": "NY", "street": "1 S 4TH AVE", "postcode": "10550"}}},
{"geometry": {"type": "Point", "coordinates": [-73.8365089161, 40.9089430416]}, "type": "Feature", "properties": {"collection_times": [{"days": "Mon-Sat", "time": "9:30am"}, {"days": "Sun", "time": "Closed"}], "id": "1055000054", "name": "USPS COLLECTION BOX - BLUE BOX", "address": {"city": "MOUNT VERNON", "state": "NY", "street": "467 MUNDY LN", "postcode": "10550"}}},
{"geometry": {"type": "Point", "coordinates": [-73.836039585, 40.903587618]}, "type": "Feature", "properties": {"collection_times": [{"days": "Mon-Sat", "time": "9:30am"}, {"days": "Sun", "time": "Closed"}], "id": "1055000057", "name": "USPS COLLECTION BOX - BLUE BOX", "address": {"city": "MOUNT VERNON", "state": "NY", "street": "305 S 6TH AVE", "postcode": "10550"}}},
{"geometry": {"type": "Point", "coordinates": [-73.8380355411, 40.9114409718]}, "type": "Feature", "properties": {"collection_times": [{"days": "Mon-Sat", "time": "9:30am"}, {"days": "Sun", "time": "Closed"}], "id": "1055000065", "name": "USPS COLLECTION BOX - BLUE BOX", "address": {"city": "MOUNT VERNON", "state": "NY", "street": "22 W 1ST ST", "postcode": "10550"}}},
{"geometry": {"type": "Point", "coordinates": [-73.8339142887, 40.9115925025]}, "type": "Feature", "properties": {"collection_times": [{"days": "Mon-Fri", "time": "5:00pm"}, {"days": "Sat", "time": "2:00pm"}, {"days": "Sun", "time": "Closed"}], "id": "1055000069", "name": "USPS COLLECTION BOX - BLUE BOX", "address": {"city": "MOUNT VERNON", "state": "NY", "street": "15 S 1ST AVE", "postcode": "10550"}}},
{"geometry": {"type": "Point", "coordinates": [-73.8339142887, 40.9115925025]}, "type": "Feature", "properties": {"collection_times": [{"days": "Mon-Fri", "time": "5:00pm"}, {"days": "Sat", "time": "2:00pm"}, {"days": "Sun", "time": "Closed"}], "id": "1055000070", "name": "USPS COLLECTION BOX - BLUE BOX", "address": {"city": "MOUNT VERNON", "state": "NY", "street": "15 S 1ST AVE", "postcode": "10550"}}},
{"geometry": {"type": "Point", "coordinates": [-73.8505251038, 40.9111434901]}, "type": "Feature", "properties": {"collection_times": [{"days": "Mon-Sat", "time": "9:30am"}, {"days": "Sun", "time": "Closed"}], "id": "1055000079", "name": "USPS COLLECTION BOX - BLUE BOX", "address": {"city": "MOUNT VERNON", "state": "NY", "street": "60 S MACQUESTEN PKWY", "postcode": "10550"}}},
{"geometry": {"type": "Point", "coordinates": [-73.8392954207, 40.9117716875]}, "type": "Feature", "properties": {"collection_times": [{"days": "Mon-Sat", "time": "9:30am"}, {"days": "Sun", "time": "Closed"}], "id": "1055000081", "name": "USPS COLLECTION BOX - BLUE BOX", "address": {"city": "MOUNT VERNON", "state": "NY", "street": "99 STEVENS AVE", "postcode": "10550"}}},
{"geometry": {"type": "Point", "coordinates": [-73.824640224, 40.8953330495]}, "type": "Feature", "properties": {"collection_times": [{"days": "Mon-Sat", "time": "9:30am"}, {"days": "Sun", "time": "Closed"}], "id": "1055000082", "name": "USPS COLLECTION BOX - BLUE BOX", "address": {"city": "MOUNT VERNON", "state": "NY", "street": "759 S FULTON AVE", "postcode": "10550"}}},
{"geometry": {"type": "Point", "coordinates": [-73.8339142887, 40.9115925025]}, "type": "Feature", "properties": {"collection_times": [{"days": "Mon-Fri", "time": "5:00pm"}, {"days": "Sat", "time": "2:00pm"}, {"days": "Sun", "time": "Closed"}], "id": "1055000083", "name": "USPS COLLECTION BOX - PO LOBBY", "address": {"city": "MOUNT VERNON", "state": "NY", "street": "15 S 1ST AVE LBBY DROP", "postcode": "10550"}}},
{"geometry": {"type": "Point", "coordinates": [-73.8327556909, 40.9268422253]}, "type": "Feature", "properties": {"collection_times": [{"days": "Mon-Sat", "time": "9:30am"}, {"days": "Sun", "time": "Closed"}], "id": "1055200001", "name": "USPS COLLECTION BOX - BLUE BOX", "address": {"city": "MOUNT VERNON", "state": "NY", "street": "470 WESTCHESTER AVE", "postcode": "10552"}}},
{"geometry": {"type": "Point", "coordinates": [-73.8383664653, 40.9265878892]}, "type": "Feature", "properties": {"collection_times": [{"days": "Mon-Sat", "time": "9:30am"}, {"days": "Sun", "time": "Closed"}], "id": "1055200005", "name": "USPS COLLECTION BOX - BLUE BOX", "address": {"city": "MOUNT VERNON", "state": "NY", "street": "60 BROAD ST", "postcode": "10552"}}},
{"geometry": {"type": "Point", "coordinates": [-73.8254192378, 40.924459821]}, "type": "Feature", "properties": {"collection_times": [{"days": "Mon-Sat", "time": "9:30am"}, {"days": "Sun", "time": "Closed"}], "id": "1055200006", "name": "USPS COLLECTION BOX - BLUE BOX", "address": {"city": "MOUNT VERNON", "state": "NY", "street": "77 BERG ST", "postcode": "10552"}}},
{"geometry": {"type": "Point", "coordinates": [-73.828773851, 40.9248572202]}, "type": "Feature", "properties": {"collection_times": [{"days": "Mon-Sat", "time": "9:30am"}, {"days": "Sun", "time": "Closed"}], "id": "1055200007", "name": "USPS COLLECTION BOX - BLUE BOX", "address": {"city": "MOUNT VERNON", "state": "NY", "street": "40 CENTRAL PKWY", "postcode": "10552"}}},
{"geometry": {"type": "Point", "coordinates": [-73.8352103307, 40.9270800001]}, "type": "Feature", "properties": {"collection_times": [{"days": "Mon-Sat", "time": "9:30am"}, {"days": "Sun", "time": "Closed"}], "id": "1055200008", "name": "USPS COLLECTION BOX - BLUE BOX", "address": {"city": "MOUNT VERNON", "state": "NY", "street": "630 GRAMATAN AVE", "postcode": "10552"}}},
{"geometry": {"type": "Point", "coordinates": [-73.8388976138, 40.9225930367]}, "type": "Feature", "properties": {"collection_times": [{"days": "Mon-Sat", "time": "9:30am"}, {"days": "Sun", "time": "Closed"}], "id": "1055200009", "name": "USPS COLLECTION BOX - BLUE BOX", "address": {"city": "MOUNT VERNON", "state": "NY", "street": "33 WILLIAM ST", "postcode": "10552"}}},
{"geometry": {"type": "Point", "coordinates": [-73.824652422, 40.9191920297]}, "type": "Feature", "properties": {"collection_times": [{"days": "Mon-Sat", "time": "9:30am"}, {"days": "Sun", "time": "Closed"}], "id": "1055200013", "name": "USPS COLLECTION BOX - BLUE BOX", "address": {"city": "MOUNT VERNON", "state": "NY", "street": "1 PARK LN", "postcode": "10552"}}},
{"geometry": {"type": "Point", "coordinates": [-73.8380098961, 40.924461235]}, "type": "Feature", "properties": {"collection_times": [{"days": "Mon-Fri", "time": "5:00pm"}, {"days": "Sat", "time": "2:00pm"}, {"days": "Sun", "time": "Closed"}], "id": "1055200017", "name": "USPS COLLECTION BOX - BLUE BOX", "address": {"city": "MOUNT VERNON", "state": "NY", "street": "65 FLEETWOOD AVE", "postcode": "10552"}}},
{"geometry": {"type": "Point", "coordinates": [-73.8380098961, 40.924461235]}, "type": "Feature", "properties": {"collection_times": [{"days": "Mon-Fri", "time": "5:00pm"}, {"days": "Sat", "time": "2:00pm"}, {"days": "Sun", "time": "Closed"}], "id": "1055200018", "name": "USPS COLLECTION BOX - BLUE BOX", "address": {"city": "MOUNT VERNON", "state": "NY", "street": "65 FLEETWOOD AVE", "postcode": "10552"}}},
{"geometry": {"type": "Point", "coordinates": [-73.8353215289, 40.9187354076]}, "type": "Feature", "properties": {"collection_times": [{"days": "Mon-Sat", "time": "9:30am"}, {"days": "Sun", "time": "Closed"}], "id": "1055200021", "name": "USPS COLLECTION BOX - BLUE BOX", "address": {"city": "MOUNT VERNON", "state": "NY", "street": "227 WESTCHESTER AVE", "postcode": "10552"}}},
{"geometry": {"type": "Point", "coordinates": [-73.8345526056, 40.9285657966]}, "type": "Feature", "properties": {"collection_times": [{"days": "Mon-Sat", "time": "9:30am"}, {"days": "Sun", "time": "Closed"}], "id": "1055200023", "name": "USPS COLLECTION BOX - BLUE BOX", "address": {"city": "MOUNT VERNON", "state": "NY", "street": "683 GRAMATAN AVE", "postcode": "10552"}}},
{"geometry": {"type": "Point", "coordinates": [-73.8356797725, 40.9258513644]}, "type": "Feature", "properties": {"collection_times": [{"days": "Mon-Sat", "time": "9:30am"}, {"days": "Sun", "time": "Closed"}], "id": "1055200024", "name": "USPS COLLECTION BOX - BLUE BOX", "address": {"city": "MOUNT VERNON", "state": "NY", "street": "563 GRAMATAN AVE", "postcode": "10552"}}},
{"geometry": {"type": "Point", "coordinates": [-73.8368392652, 40.9235488676]}, "type": "Feature", "properties": {"collection_times": [{"days": "Mon-Sat", "time": "9:30am"}, {"days": "Sun", "time": "Closed"}], "id": "1055200025", "name": "USPS COLLECTION BOX - BLUE BOX", "address": {"city": "MOUNT VERNON", "state": "NY", "street": "472 GRAMATAN AVE", "postcode": "10552"}}},
{"geometry": {"type": "Point", "coordinates": [-73.8230239205, 40.9183252434]}, "type": "Feature", "properties": {"collection_times": [{"days": "Mon-Sat", "time": "9:30am"}, {"days": "Sun", "time": "Closed"}], "id": "1055200034", "name": "USPS COLLECTION BOX - BLUE BOX", "address": {"city": "MOUNT VERNON", "state": "NY", "street": "465 E LINCOLN AVE", "postcode": "10552"}}},
{"geometry": {"type": "Point", "coordinates": [-73.8201264066, 40.9179466238]}, "type": "Feature", "properties": {"collection_times": [{"days": "Mon-Sat", "time": "9:30am"}, {"days": "Sun", "time": "Closed"}], "id": "1055200037", "name": "USPS COLLECTION BOX - BLUE BOX", "address": {"city": "MOUNT VERNON", "state": "NY", "street": "531 E LINCOLN AVE", "postcode": "10552"}}},
{"geometry": {"type": "Point", "coordinates": [-73.8293830749, 40.9181581236]}, "type": "Feature", "properties": {"collection_times": [{"days": "Mon-Sat", "time": "9:30am"}, {"days": "Sun", "time": "Closed"}], "id": "1055200043", "name": "USPS COLLECTION BOX - BLUE BOX", "address": {"city": "MOUNT VERNON", "state": "NY", "street": "234 E LINCOLN AVE", "postcode": "10552"}}},
{"geometry": {"type": "Point", "coordinates": [-73.8380098961, 40.924461235]}, "type": "Feature", "properties": {"collection_times": [{"days": "Mon-Fri", "time": "5:00pm"}, {"days": "Sat", "time": "2:00pm"}, {"days": "Sun", "time": "Closed"}], "id": "1055200044", "name": "USPS COLLECTION BOX - PO LOBBY", "address": {"city": "MOUNT VERNON", "state": "NY", "street": "65 FLEETWOOD AVE LBBY DROP", "postcode": "10552"}}},
{"geometry": {"type": "Point", "coordinates": [-73.8286261618, 40.9104868016]}, "type": "Feature", "properties": {"collection_times": [{"days": "Mon-Sat", "time": "9:15am"}, {"days": "Sun", "time": "Closed"}], "id": "1055300008", "name": "USPS COLLECTION BOX - BLUE BOX", "address": {"city": "MOUNT VERNON", "state": "NY", "street": "105 S FULTON AVE", "postcode": "10553"}}},
{"geometry": {"type": "Point", "coordinates": [-73.8246880406, 40.9163086714]}, "type": "Feature", "properties": {"collection_times": [{"days": "Mon-Sat", "time": "9:30am"}, {"days": "Sun", "time": "Closed"}], "id": "1055300010", "name": "USPS COLLECTION BOX - BLUE BOX", "address": {"city": "MOUNT VERNON", "state": "NY", "street": "165 N COLUMBUS AVE", "postcode": "10553"}}},
{"geometry": {"type": "Point", "coordinates": [-73.819927328, 40.9014877511]}, "type": "Feature", "properties": {"collection_times": [{"days": "Mon-Fri", "time": "5:00pm"}, {"days": "Sat", "time": "2:00pm"}, {"days": "Sun", "time": "Closed"}], "id": "1055300027", "name": "USPS COLLECTION BOX - BLUE BOX", "address": {"city": "MOUNT VERNON", "state": "NY", "street": "440 E SANDFORD BLVD", "postcode": "10553"}}},
{"geometry": {"type": "Point", "coordinates": [-73.819927328, 40.9014877511]}, "type": "Feature", "properties": {"collection_times": [{"days": "Mon-Fri", "time": "5:00pm"}, {"days": "Sat", "time": "2:00pm"}, {"days": "Sun", "time": "Closed"}], "id": "1055300028", "name": "USPS COLLECTION BOX - BLUE BOX", "address": {"city": "MOUNT VERNON", "state": "NY", "street": "440 E SANDFORD BLVD", "postcode": "10553"}}},
{"geometry": {"type": "Point", "coordinates": [-73.819927328, 40.9014877511]}, "type": "Feature", "properties": {"collection_times": [{"days": "Mon-Fri", "time": "5:00pm"}, {"days": "Sat", "time": "2:00pm"}, {"days": "Sun", "time": "Closed"}], "id": "1055300029", "name": "USPS COLLECTION BOX - PO LOBBY", "address": {"city": "MOUNT VERNON", "state": "NY", "street": "440 E SANFORD BLVD LOBBY DROP", "postcode": "10553"}}},
{"geometry": {"type": "Point", "coordinates": [-73.5903390079, 41.3278392894]}, "type": "Feature", "properties": {"collection_times": [{"days": "Mon-Fri", "time": "4:30pm"}, {"days": "Sat", "time": "11:30am"}, {"days": "Sun", "time": "Closed"}], "id": "1056000002", "name": "USPS COLLECTION BOX - BLUE BOX", "address": {"city": "NORTH SALEM", "state": "NY", "street": "60 JUNE RD", "postcode": "10560"}}},
{"geometry": {"type": "Point", "coordinates": [-73.5903390079, 41.3278392894]}, "type": "Feature", "properties": {"collection_times": [{"days": "Mon-Fri", "time": "4:30pm"}, {"days": "Sat", "time": "11:30am"}, {"days": "Sun", "time": "Closed"}], "id": "1056000003", "name": "USPS COLLECTION BOX - PO LOBBY", "address": {"city": "NORTH SALEM", "state": "NY", "street": "60 JUNE RD LBBY DROP", "postcode": "10560"}}},
{"geometry": {"type": "Point", "coordinates": [-73.8643495704, 41.1606974489]}, "type": "Feature", "properties": {"collection_times": [{"days": "Mon-Fri", "time": "4:30pm"}, {"days": "Sat", "time": "9:00am"}, {"days": "Sun", "time": "Closed"}], "id": "1056200002", "name": "USPS COLLECTION BOX - BLUE BOX", "address": {"city": "OSSINING", "state": "NY", "street": "165 MAIN ST", "postcode": "10562"}}},
{"geometry": {"type": "Point", "coordinates": [-73.861120681, 41.1631749503]}, "type": "Feature", "properties": {"collection_times": [{"days": "Mon-Fri", "time": "4:30pm"}, {"days": "Sat", "time": "9:00am"}, {"days": "Sun", "time": "Closed"}], "id": "1056200004", "name": "USPS COLLECTION BOX - BLUE BOX", "address": {"city": "OSSINING", "state": "NY", "street": "16 CROTON AVE", "postcode": "10562"}}},
{"geometry": {"type": "Point", "coordinates": [-73.8643454271, 41.1510342425]}, "type": "Feature", "properties": {"collection_times": [{"days": "Mon-Sat", "time": "9:00am"}, {"days": "Sun", "time": "Closed"}], "id": "1056200007", "name": "USPS COLLECTION BOX - BLUE BOX", "address": {"city": "OSSINING", "state": "NY", "street": "256 SPRING ST", "postcode": "10562"}}},
{"geometry": {"type": "Point", "coordinates": [-73.856968495, 41.1590393258]}, "type": "Feature", "properties": {"collection_times": [{"days": "Mon-Fri", "time": "9:30am"}, {"days": "Sat", "time": "9:00am"}, {"days": "Sun", "time": "Closed"}], "id": "1056200011", "name": "USPS COLLECTION BOX - BLUE BOX", "address": {"city": "OSSINING", "state": "NY", "street": "25 WOLDEN RD", "postcode": "10562"}}},
{"geometry": {"type": "Point", "coordinates": [-73.8424867113, 41.1691713693]}, "type": "Feature", "properties": {"collection_times": [{"days": "Mon-Fri", "time": "9:30am"}, {"days": "Sat", "time": "9:00am"}, {"days": "Sun", "time": "Closed"}], "id": "1056200019", "name": "USPS COLLECTION BOX - BLUE BOX", "address": {"city": "OSSINING", "state": "NY", "street": "25 CAMPWOODS RD", "postcode": "10562"}}},
{"geometry": {"type": "Point", "coordinates": [-73.8386598391, 41.1718140996]}, "type": "Feature", "properties": {"collection_times": [{"days": "Mon-Fri", "time": "9:30am"}, {"days": "Sat", "time": "9:00am"}, {"days": "Sun", "time": "Closed"}], "id": "1056200020", "name": "USPS COLLECTION BOX - BLUE BOX", "address": {"city": "OSSINING", "state": "NY", "street": "2 PARK DR", "postcode": "10562"}}},
{"geometry": {"type": "Point", "coordinates": [-73.8441345732, 41.1741646391]}, "type": "Feature", "properties": {"collection_times": [{"days": "Mon-Fri", "time": "9:30am"}, {"days": "Sat", "time": "9:00am"}, {"days": "Sun", "time": "Closed"}], "id": "1056200021", "name": "USPS COLLECTION BOX - BLUE BOX", "address": {"city": "OSSINING", "state": "NY", "street": "1 LINCOLN AVE", "postcode": "10562"}}},
{"geometry": {"type": "Point", "coordinates": [-73.8573737498, 41.1658036469]}, "type": "Feature", "properties": {"collection_times": [{"days": "Mon-Fri", "time": "9:30am"}, {"days": "Sat", "time": "9:00am"}, {"days": "Sun", "time": "Closed"}], "id": "1056200026", "name": "USPS COLLECTION BOX - BLUE BOX", "address": {"city": "OSSINING", "state": "NY", "street": "2 TODD PL", "postcode": "10562"}}},
{"geometry": {"type": "Point", "coordinates": [-73.8522507481, 41.172794086]}, "type": "Feature", "properties": {"collection_times": [{"days": "Mon-Sat", "time": "9:00am"}, {"days": "Sun", "time": "Closed"}], "id": "1056200028", "name": "USPS COLLECTION BOX - BLUE BOX", "address": {"city": "OSSINING", "state": "NY", "street": "122 DALE AVE", "postcode": "10562"}}},
{"geometry": {"type": "Point", "coordinates": [-73.8493727155, 41.1705589802]}, "type": "Feature", "properties": {"collection_times": [{"days": "Mon-Fri", "time": "10:00am"}, {"days": "Sat", "time": "9:00am"}, {"days": "Sun", "time": "Closed"}], "id": "1056200032", "name": "USPS COLLECTION BOX - BLUE BOX", "address": {"city": "OSSINING", "state": "NY", "street": "11 WARD PL", "postcode": "10562"}}},
{"geometry": {"type": "Point", "coordinates": [-73.8593984018, 41.1479617041]}, "type": "Feature", "properties": {"collection_times": [{"days": "Mon-Sat", "time": "9:00am"}, {"days": "Sun", "time": "Closed"}], "id": "1056200036", "name": "USPS COLLECTION BOX - BLUE BOX", "address": {"city": "OSSINING", "state": "NY", "street": "129 CHARTER CIR", "postcode": "10562"}}},
{"geometry": {"type": "Point", "coordinates": [-73.8598773911, 41.1542613545]}, "type": "Feature", "properties": {"collection_times": [{"days": "Mon-Sat", "time": "9:00am"}, {"days": "Sun", "time": "Closed"}], "id": "1056200037", "name": "USPS COLLECTION BOX - BLUE BOX", "address": {"city": "OSSINING", "state": "NY", "street": "96 S HIGHLAND AVE", "postcode": "10562"}}},
{"geometry": {"type": "Point", "coordinates": [-73.8679617326, 41.1761106066]}, "type": "Feature", "properties": {"collection_times": [{"days": "Mon-Sat", "time": "9:00am"}, {"days": "Sun", "time": "Closed"}], "id": "1056200039", "name": "USPS COLLECTION BOX - BLUE BOX", "address": {"city": "OSSINING", "state": "NY", "street": "246 S HIGHLAND AVE", "postcode": "10562"}}},
{"geometry": {"type": "Point", "coordinates": [-73.8499585132, 41.1826637075]}, "type": "Feature", "properties": {"collection_times": [{"days": "Mon-Fri", "time": "9:30am"}, {"days": "Sat", "time": "9:00am"}, {"days": "Sun", "time": "Closed"}], "id": "1056200043", "name": "USPS COLLECTION BOX - BLUE BOX", "address": {"city": "OSSINING", "state": "NY", "street": "84 HAWKES AVE", "postcode": "10562"}}},
{"geometry": {"type": "Point", "coordinates": [-73.8548214245, 41.1826973221]}, "type": "Feature", "properties": {"collection_times": [{"days": "Mon-Fri", "time": "10:00am"}, {"days": "Sat", "time": "9:00am"}, {"days": "Sun", "time": "Closed"}], "id": "1056200044", "name": "USPS COLLECTION BOX - BLUE BOX", "address": {"city": "OSSINING", "state": "NY", "street": "100 EXECUTIVE BLVD", "postcode": "10562"}}},
{"geometry": {"type": "Point", "coordinates": [-73.8595850286, 41.1515935458]}, "type": "Feature", "properties": {"collection_times": [{"days": "Mon-Sat", "time": "9:00am"}, {"days": "Sun", "time": "Closed"}], "id": "1056200045", "name": "USPS COLLECTION BOX - BLUE BOX", "address": {"city": "OSSINING", "state": "NY", "street": "119 S HIGHLAND AVE", "postcode": "10562"}}},
{"geometry": {"type": "Point", "coordinates": [-73.8595242492, 41.1643895815]}, "type": "Feature", "properties": {"collection_times": [{"days": "Mon-Fri", "time": "4:00pm"}, {"days": "Sat", "time": "9:00am"}, {"days": "Sun", "time": "Closed"}], "id": "1056200046", "name": "USPS COLLECTION BOX - BLUE BOX", "address": {"city": "OSSINING", "state": "NY", "street": "53 CROTON AVE", "postcode": "10562"}}},
{"geometry": {"type": "Point", "coordinates": [-73.8650460652, 41.1601207834]}, "type": "Feature", "properties": {"collection_times": [{"days": "Mon-Fri", "time": "5:00pm"}, {"days": "Sat", "time": "1:00pm"}, {"days": "Sun", "time": "Closed"}], "id": "1056200048", "name": "USPS COLLECTION BOX - BLUE BOX", "address": {"city": "OSSINING", "state": "NY", "street": "100 MAIN ST", "postcode": "10562"}}},
{"geometry": {"type": "Point", "coordinates": [-73.8650460652, 41.1601207834]}, "type": "Feature", "properties": {"collection_times": [{"days": "Mon-Fri", "time": "5:00pm"}, {"days": "Sat", "time": "1:00pm"}, {"days": "Sun", "time": "Closed"}], "id": "1056200049", "name": "USPS COLLECTION BOX - BLUE BOX", "address": {"city": "OSSINING", "state": "NY", "street": "100 MAIN ST", "postcode": "10562"}}},
{"geometry": {"type": "Point", "coordinates": [-73.8649107908, 41.1841882372]}, "type": "Feature", "properties": {"collection_times": [{"days": "Mon-Fri", "time": "9:30am"}, {"days": "Sat", "time": "9:00am"}, {"days": "Sun", "time": "Closed"}], "id": "1056200051", "name": "USPS COLLECTION BOX - BLUE BOX", "address": {"city": "OSSINING", "state": "NY", "street": "9 OGDEN RD", "postcode": "10562"}}},
{"geometry": {"type": "Point", "coordinates": [-73.8691709059, 41.159108552]}, "type": "Feature", "properties": {"collection_times": [{"days": "Mon-Fri", "time": "9:30am"}, {"days": "Sat", "time": "9:00am"}, {"days": "Sun", "time": "Closed"}], "id": "1056200052", "name": "USPS COLLECTION BOX - BLUE BOX", "address": {"city": "OSSINING", "state": "NY", "street": "2 WESTERLY RD", "postcode": "10562"}}},
{"geometry": {"type": "Point", "coordinates": [-73.8650460652, 41.1601207834]}, "type": "Feature", "properties": {"collection_times": [{"days": "Mon-Fri", "time": "5:00pm"}, {"days": "Sat", "time": "1:00pm"}, {"days": "Sun", "time": "Closed"}], "id": "1056200053", "name": "USPS COLLECTION BOX - PO LOBBY", "address": {"city": "OSSINING", "state": "NY", "street": "100 MAIN ST LBBY DROP", "postcode": "10562"}}},
{"geometry": {"type": "Point", "coordinates": [-73.9153930833, 41.2919212139]}, "type": "Feature", "properties": {"collection_times": [{"days": "Mon-Sat", "time": "10:30am"}, {"days": "Sun", "time": "Closed"}], "id": "1056600002", "name": "USPS COLLECTION BOX - BLUE BOX", "address": {"city": "CORTLANDT MANOR", "state": "NY", "street": "100 N BROAD ST", "postcode": "10566"}}},
{"geometry": {"type": "Point", "coordinates": [-73.93121676, 41.2844550564]}, "type": "Feature", "properties": {"collection_times": [{"days": "Mon-Sat", "time": "9:00am"}, {"days": "Sun", "time": "Closed"}], "id": "1056600003", "name": "USPS COLLECTION BOX - BLUE BOX", "address": {"city": "CORTLANDT MANOR", "state": "NY", "street": "300 RAILROAD AVE", "postcode": "10566"}}},
{"geometry": {"type": "Point", "coordinates": [-73.9138782849, 41.3048141761]}, "type": "Feature", "properties": {"collection_times": [{"days": "Mon-Sat", "time": "12:30pm"}, {"days": "Sun", "time": "Closed"}], "id": "1056600006", "name": "USPS COLLECTION BOX - BLUE BOX", "address": {"city": "CORTLANDT MANOR", "state": "NY", "street": "1000 N DIVISION ST", "postcode": "10566"}}},
{"geometry": {"type": "Point", "coordinates": [-73.881122426, 41.3025191336]}, "type": "Feature", "properties": {"collection_times": [{"days": "Mon-Sat", "time": "12:00pm"}, {"days": "Sun", "time": "Closed"}], "id": "1056600008", "name": "USPS COLLECTION BOX - BLUE BOX", "address": {"city": "CORTLANDT MANOR", "state": "NY", "street": "2085 E MAIN ST", "postcode": "10566"}}},
{"geometry": {"type": "Point", "coordinates": [-73.9202875565, 41.2898757703]}, "type": "Feature", "properties": {"collection_times": [{"days": "Mon-Sat", "time": "11:30am"}, {"days": "Sun", "time": "Closed"}], "id": "1056600009", "name": "USPS COLLECTION BOX - BLUE BOX", "address": {"city": "CORTLANDT MANOR", "state": "NY", "street": "104 S DIVISION ST", "postcode": "10566"}}},
{"geometry": {"type": "Point", "coordinates": [-73.918860908, 41.2908114908]}, "type": "Feature", "properties": {"collection_times": [{"days": "Mon-Sat", "time": "11:30am"}, {"days": "Sun", "time": "Closed"}], "id": "1056600015", "name": "USPS COLLECTION BOX - BLUE BOX", "address": {"city": "CORTLANDT MANOR", "state": "NY", "street": "1027 PARK ST", "postcode": "10566"}}},
{"geometry": {"type": "Point", "coordinates": [-73.9199707685, 41.2907902895]}, "type": "Feature", "properties": {"collection_times": [{"days": "Mon-Sat", "time": "12:30pm"}, {"days": "Sun", "time": "Closed"}], "id": "1056600016", "name": "USPS COLLECTION BOX - BLUE BOX", "address": {"city": "CORTLANDT MANOR", "state": "NY", "street": "1004 PARK ST", "postcode": "10566"}}},
{"geometry": {"type": "Point", "coordinates": [-73.9188810183, 41.2918075423]}, "type": "Feature", "properties": {"collection_times": [{"days": "Mon-Sat", "time": "12:30pm"}, {"days": "Sun", "time": "Closed"}], "id": "1056600017", "name": "USPS COLLECTION BOX - BLUE BOX", "address": {"city": "CORTLANDT MANOR", "state": "NY", "street": "1037 MAIN ST", "postcode": "10566"}}},
{"geometry": {"type": "Point", "coordinates": [-73.9182646967, 41.2908103079]}, "type": "Feature", "properties": {"collection_times": [{"days": "Mon-Sat", "time": "12:30pm"}, {"days": "Sun", "time": "Closed"}], "id": "1056600018", "name": "USPS COLLECTION BOX - BLUE BOX", "address": {"city": "CORTLANDT MANOR", "state": "NY", "street": "1045 PARK ST", "postcode": "10566"}}},
{"geometry": {"type": "Point", "coordinates": [-73.9224760306, 41.2914349102]}, "type": "Feature", "properties": {"collection_times": [{"days": "Mon-Sat", "time": "12:30pm"}, {"days": "Sun", "time": "Closed"}], "id": "1056600019", "name": "USPS COLLECTION BOX - BLUE BOX", "address": {"city": "CORTLANDT MANOR", "state": "NY", "street": "840 MAIN ST", "postcode": "10566"}}},
{"geometry": {"type": "Point", "coordinates": [-73.8948668713, 41.2963456983]}, "type": "Feature", "properties": {"collection_times": [{"days": "Mon-Sat", "time": "12:30pm"}, {"days": "Sun", "time": "Closed"}], "id": "1056600021", "name": "USPS COLLECTION BOX - BLUE BOX", "address": {"city": "CORTLANDT MANOR", "state": "NY", "street": "1845 MAIN ST", "postcode": "10566"}}},
{"geometry": {"type": "Point", "coordinates": [-73.8927979561, 41.291439642]}, "type": "Feature", "properties": {"collection_times": [{"days": "Mon-Sat", "time": "12:00pm"}, {"days": "Sun", "time": "Closed"}], "id": "1056600022", "name": "USPS COLLECTION BOX - BLUE BOX", "address": {"city": "CORTLANDT MANOR", "state": "NY", "street": "1980 CROMPOND RD", "postcode": "10566"}}},
{"geometry": {"type": "Point", "coordinates": [-73.8938898272, 41.290086337]}, "type": "Feature", "properties": {"collection_times": [{"days": "Mon-Sat", "time": "9:00am"}, {"days": "Sun", "time": "Closed"}], "id": "1056600023", "name": "USPS COLLECTION BOX - BLUE BOX", "address": {"city": "CORTLANDT MANOR", "state": "NY", "street": "1985 CROMPOND RD", "postcode": "10566"}}},
{"geometry": {"type": "Point", "coordinates": [-73.8805531479, 41.2923576182]}, "type": "Feature", "properties": {"collection_times": [{"days": "Mon-Sat", "time": "12:00pm"}, {"days": "Sun", "time": "Closed"}], "id": "1056600024", "name": "USPS COLLECTION BOX - BLUE BOX", "address": {"city": "CORTLANDT MANOR", "state": "NY", "street": "2117 CROMPOND RD", "postcode": "10566"}}},
{"geometry": {"type": "Point", "coordinates": [-73.9272835759, 41.2775966562]}, "type": "Feature", "properties": {"collection_times": [{"days": "Mon-Sat", "time": "11:00am"}, {"days": "Sun", "time": "Closed"}], "id": "1056600025", "name": "USPS COLLECTION BOX - BLUE BOX", "address": {"city": "CORTLANDT MANOR", "state": "NY", "street": "750 WASHINGTON ST", "postcode": "10566"}}},
{"geometry": {"type": "Point", "coordinates": [-73.9296270176, 41.2727358778]}, "type": "Feature", "properties": {"collection_times": [{"days": "Mon-Sat", "time": "11:00am"}, {"days": "Sun", "time": "Closed"}], "id": "1056600026", "name": "USPS COLLECTION BOX - BLUE BOX", "address": {"city": "CORTLANDT MANOR", "state": "NY", "street": "955 WASHINGTON ST", "postcode": "10566"}}},
{"geometry": {"type": "Point", "coordinates": [-73.9175454577, 41.2899751388]}, "type": "Feature", "properties": {"collection_times": [{"days": "Mon-Sat", "time": "11:30am"}, {"days": "Sun", "time": "Closed"}], "id": "1056600031", "name": "USPS COLLECTION BOX - BLUE BOX", "address": {"city": "CORTLANDT MANOR", "state": "NY", "street": "1200 BROWN ST", "postcode": "10566"}}},
{"geometry": {"type": "Point", "coordinates": [-73.8999109201, 41.2927684564]}, "type": "Feature", "properties": {"collection_times": [{"days": "Mon-Sat", "time": "12:30pm"}, {"days": "Sun", "time": "Closed"}], "id": "1056600033", "name": "USPS COLLECTION BOX - BLUE BOX", "address": {"city": "CORTLANDT MANOR", "state": "NY", "street": "1840 CROMPOND RD", "postcode": "10566"}}},
{"geometry": {"type": "Point", "coordinates": [-73.9220844712, 41.2910350701]}, "type": "Feature", "properties": {"collection_times": [{"days": "Mon-Sat", "time": "12:30pm"}, {"days": "Sun", "time": "Closed"}], "id": "1056600035", "name": "USPS COLLECTION BOX - BLUE BOX", "address": {"city": "CORTLANDT MANOR", "state": "NY", "street": "2 NELSON AVE", "postcode": "10566"}}},
{"geometry": {"type": "Point", "coordinates": [-73.939871764, 41.2747915351]}, "type": "Feature", "properties": {"collection_times": [{"days": "Mon-Sat", "time": "9:30am"}, {"days": "Sun", "time": "Closed"}], "id": "1056600036", "name": "USPS COLLECTION BOX - BLUE BOX", "address": {"city": "CORTLANDT MANOR", "state": "NY", "street": "8 JOHN WALSH BLVD", "postcode": "10566"}}},
{"geometry": {"type": "Point", "coordinates": [-73.8932624935, 41.2973989631]}, "type": "Feature", "properties": {"collection_times": [{"days": "Mon-Sat", "time": "12:00pm"}, {"days": "Sun", "time": "Closed"}], "id": "1056600038", "name": "USPS COLLECTION BOX - BLUE BOX", "address": {"city": "CORTLANDT MANOR", "state": "NY", "street": "2 STOWE RD", "postcode": "10566"}}},
{"geometry": {"type": "Point", "coordinates": [-73.9233478714, 41.2892050325]}, "type": "Feature", "properties": {"collection_times": [{"days": "Mon-Fri", "time": "5:00pm"}, {"days": "Sat", "time": "3:00pm"}, {"days": "Sun", "time": "Closed"}], "id": "1056600039", "name": "USPS COLLECTION BOX - BLUE BOX", "address": {"city": "CORTLANDT MANOR", "state": "NY", "street": "738 SOUTH ST", "postcode": "10566"}}},
{"geometry": {"type": "Point", "coordinates": [-73.9233478714, 41.2892050325]}, "type": "Feature", "properties": {"collection_times": [{"days": "Mon-Fri", "time": "5:00pm"}, {"days": "Sat", "time": "3:00pm"}, {"days": "Sun", "time": "Closed"}], "id": "1056600040", "name": "USPS COLLECTION BOX - BLUE BOX", "address": {"city": "CORTLANDT MANOR", "state": "NY", "street": "738 SOUTH ST", "postcode": "10566"}}},
{"geometry": {"type": "Point", "coordinates": [-73.9109090579, 41.2956048405]}, "type": "Feature", "properties": {"collection_times": [{"days": "Mon-Sat", "time": "10:30am"}, {"days": "Sun", "time": "Closed"}], "id": "1056600048", "name": "USPS COLLECTION BOX - BLUE BOX", "address": {"city": "CORTLANDT MANOR", "state": "NY", "street": "150 OVERLOOK AVE", "postcode": "10566"}}},
{"geometry": {"type": "Point", "coordinates": [-73.9204772396, 41.3013806303]}, "type": "Feature", "properties": {"collection_times": [{"days": "Mon-Sat", "time": "10:00am"}, {"days": "Sun", "time": "Closed"}], "id": "1056600050", "name": "USPS COLLECTION BOX - BLUE BOX", "address": {"city": "CORTLANDT MANOR", "state": "NY", "street": "695 HIGHLAND AVE", "postcode": "10566"}}},
{"geometry": {"type": "Point", "coordinates": [-73.9366372324, 41.2702315537]}, "type": "Feature", "properties": {"collection_times": [{"days": "Mon-Sat", "time": "9:30am"}, {"days": "Sun", "time": "Closed"}], "id": "1056600052", "name": "USPS COLLECTION BOX - BLUE BOX", "address": {"city": "CORTLANDT MANOR", "state": "NY", "street": "20 WELCHER AVE", "postcode": "10566"}}},
{"geometry": {"type": "Point", "coordinates": [-73.9044548338, 41.3103102034]}, "type": "Feature", "properties": {"collection_times": [{"days": "Mon-Sat", "time": "12:30pm"}, {"days": "Sun", "time": "Closed"}], "id": "1056600053", "name": "USPS COLLECTION BOX - BLUE BOX", "address": {"city": "CORTLANDT MANOR", "state": "NY", "street": "1 HEADY ST", "postcode": "10566"}}},
{"geometry": {"type": "Point", "coordinates": [-73.9233478714, 41.2892050325]}, "type": "Feature", "properties": {"collection_times": [{"days": "Mon-Fri", "time": "5:00pm"}, {"days": "Sat", "time": "4:00pm"}, {"days": "Sun", "time": "Closed"}], "id": "1056600169", "name": "USPS COLLECTION BOX - PO LOBBY", "address": {"city": "CORTLANDT MANOR", "state": "NY", "street": "738 SOUTH ST LBBY DROP", "postcode": "10566"}}},
{"geometry": {"type": "Point", "coordinates": [-73.778726322, 41.1404289553]}, "type": "Feature", "properties": {"collection_times": [{"days": "Mon-Fri", "time": "9:30am"}, {"days": "Sat", "time": "11:00am"}, {"days": "Sun", "time": "Closed"}], "id": "1057000005", "name": "USPS COLLECTION BOX - BLUE BOX", "address": {"city": "PLEASANTVILLE", "state": "NY", "street": "152 BEDFORD RD", "postcode": "10570"}}},
{"geometry": {"type": "Point", "coordinates": [-73.7826048456, 41.1470233246]}, "type": "Feature", "properties": {"collection_times": [{"days": "Mon-Fri", "time": "9:30am"}, {"days": "Sat", "time": "11:00am"}, {"days": "Sun", "time": "Closed"}], "id": "1057000006", "name": "USPS COLLECTION BOX - BLUE BOX", "address": {"city": "PLEASANTVILLE", "state": "NY", "street": "25 MANVILLE LN", "postcode": "10570"}}},
{"geometry": {"type": "Point", "coordinates": [-73.7919782718, 41.1348373439]}, "type": "Feature", "properties": {"collection_times": [{"days": "Mon-Fri", "time": "10:30am"}, {"days": "Sat", "time": "11:00am"}, {"days": "Sun", "time": "Closed"}], "id": "1057000010", "name": "USPS COLLECTION BOX - BLUE BOX", "address": {"city": "PLEASANTVILLE", "state": "NY", "street": "11 WHEELER AVE", "postcode": "10570"}}},
{"geometry": {"type": "Point", "coordinates": [-73.7914989621, 41.1341753705]}, "type": "Feature", "properties": {"collection_times": [{"days": "Mon-Fri", "time": "10:30am"}, {"days": "Sat", "time": "11:00am"}, {"days": "Sun", "time": "Closed"}], "id": "1057000011", "name": "USPS COLLECTION BOX - BLUE BOX", "address": {"city": "PLEASANTVILLE", "state": "NY", "street": "73 WHEELER AVE", "postcode": "10570"}}},
{"geometry": {"type": "Point", "coordinates": [-73.784437732, 41.1283427236]}, "type": "Feature", "properties": {"collection_times": [{"days": "Mon-Fri", "time": "9:30am"}, {"days": "Sat", "time": "11:00am"}, {"days": "Sun", "time": "Closed"}], "id": "1057000013", "name": "USPS COLLECTION BOX - BLUE BOX", "address": {"city": "PLEASANTVILLE", "state": "NY", "street": "42 SARATOGA AVE", "postcode": "10570"}}},
{"geometry": {"type": "Point", "coordinates": [-73.7928744275, 41.1340300901]}, "type": "Feature", "properties": {"collection_times": [{"days": "Mon-Fri", "time": "5:00pm"}, {"days": "Sat", "time": "3:30pm"}, {"days": "Sun", "time": "Closed"}], "id": "1057000014", "name": "USPS COLLECTION BOX - BLUE BOX", "address": {"city": "PLEASANTVILLE", "state": "NY", "street": "50 MEMORIAL PLZ", "postcode": "10570"}}},
{"geometry": {"type": "Point", "coordinates": [-73.7914858015, 41.1352878757]}, "type": "Feature", "properties": {"collection_times": [{"days": "Mon-Fri", "time": "9:30am"}, {"days": "Sat", "time": "11:00am"}, {"days": "Sun", "time": "Closed"}], "id": "1057000018", "name": "USPS COLLECTION BOX - BLUE BOX", "address": {"city": "PLEASANTVILLE", "state": "NY", "street": "359 MANVILLE RD", "postcode": "10570"}}},
{"geometry": {"type": "Point", "coordinates": [-73.7897918042, 41.1355824325]}, "type": "Feature", "properties": {"collection_times": [{"days": "Mon-Fri", "time": "9:30am"}, {"days": "Sat", "time": "11:00am"}, {"days": "Sun", "time": "Closed"}], "id": "1057000019", "name": "USPS COLLECTION BOX - BLUE BOX", "address": {"city": "PLEASANTVILLE", "state": "NY", "street": "325 MANVILLE RD", "postcode": "10570"}}},
{"geometry": {"type": "Point", "coordinates": [-73.7928744275, 41.1340300901]}, "type": "Feature", "properties": {"collection_times": [{"days": "Mon-Fri", "time": "5:00pm"}, {"days": "Sat", "time": "4:00pm"}, {"days": "Sun", "time": "Closed"}], "id": "1057000020", "name": "USPS COLLECTION BOX - PO LOBBY", "address": {"city": "PLEASANTVILLE", "state": "NY", "street": "50 MEMORIAL PLZ LBBY DROP", "postcode": "10570"}}},
{"geometry": {"type": "Point", "coordinates": [-73.6725379002, 41.0331608968]}, "type": "Feature", "properties": {"collection_times": [{"days": "Mon-Sat", "time": "1:00pm"}, {"days": "Sun", "time": "Closed"}], "id": "1057300001", "name": "USPS COLLECTION BOX - BLUE BOX", "address": {"city": "RYE BROOK", "state": "NY", "street": "900 KING ST", "postcode": "10573"}}},
{"geometry": {"type": "Point", "coordinates": [-73.6783076558, 41.0046084074]}, "type": "Feature", "properties": {"collection_times": [{"days": "Mon-Sat", "time": "1:30pm"}, {"days": "Sun", "time": "Closed"}], "id": "1057300002", "name": "USPS COLLECTION BOX - BLUE BOX", "address": {"city": "RYE BROOK", "state": "NY", "street": "4 BOWMAN AVE", "postcode": "10573"}}},
{"geometry": {"type": "Point", "coordinates": [-73.6652160345, 40.9932663246]}, "type": "Feature", "properties": {"collection_times": [{"days": "Mon-Sat", "time": "2:00pm"}, {"days": "Sun", "time": "Closed"}], "id": "1057300007", "name": "USPS COLLECTION BOX - BLUE BOX", "address": {"city": "RYE BROOK", "state": "NY", "street": "222 GRACE CHURCH ST", "postcode": "10573"}}},
{"geometry": {"type": "Point", "coordinates": [-73.676476403, 41.0191156394]}, "type": "Feature", "properties": {"collection_times": [{"days": "Mon-Sat", "time": "1:30pm"}, {"days": "Sun", "time": "Closed"}], "id": "1057300009", "name": "USPS COLLECTION BOX - BLUE BOX", "address": {"city": "RYE BROOK", "state": "NY", "street": "75 HAINES BLVD", "postcode": "10573"}}},
{"geometry": {"type": "Point", "coordinates": [-73.6664161765, 41.0115374218]}, "type": "Feature", "properties": {"collection_times": [{"days": "Mon-Sat", "time": "1:00pm"}, {"days": "Sun", "time": "Closed"}], "id": "1057300013", "name": "USPS COLLECTION BOX - BLUE BOX", "address": {"city": "RYE BROOK", "state": "NY", "street": "315 KING ST", "postcode": "10573"}}},
{"geometry": {"type": "Point", "coordinates": [-73.668068663, 41.0029528132]}, "type": "Feature", "properties": {"collection_times": [{"days": "Mon-Fri", "time": "5:00pm"}, {"days": "Sat", "time": "2:00pm"}, {"days": "Sun", "time": "Closed"}], "id": "1057300017", "name": "USPS COLLECTION BOX - BLUE BOX", "address": {"city": "RYE BROOK", "state": "NY", "street": "245 WESTCHESTER AVE", "postcode": "10573"}}},
{"geometry": {"type": "Point", "coordinates": [-73.668068663, 41.0029528132]}, "type": "Feature", "properties": {"collection_times": [{"days": "Mon-Fri", "time": "5:00pm"}, {"days": "Sat", "time": "2:00pm"}, {"days": "Sun", "time": "Closed"}], "id": "1057300018", "name": "USPS COLLECTION BOX - BLUE BOX", "address": {"city": "RYE BROOK", "state": "NY", "street": "245 WESTCHESTER AVE", "postcode": "10573"}}},
{"geometry": {"type": "Point", "coordinates": [-73.6686880525, 41.0041397555]}, "type": "Feature", "properties": {"collection_times": [{"days": "Mon-Fri", "time": "5:00pm"}, {"days": "Sat", "time": "2:00pm"}, {"days": "Sun", "time": "Closed"}], "id": "1057300023", "name": "USPS COLLECTION BOX - BLUE BOX", "address": {"city": "RYE BROOK", "state": "NY", "street": "230 IRVING AVE", "postcode": "10573"}}},
{"geometry": {"type": "Point", "coordinates": [-73.6623528572, 41.0017052495]}, "type": "Feature", "properties": {"collection_times": [{"days": "Mon-Sat", "time": "2:00pm"}, {"days": "Sun", "time": "Closed"}], "id": "1057300026", "name": "USPS COLLECTION BOX - BLUE BOX", "address": {"city": "RYE BROOK", "state": "NY", "street": "101 N MAIN ST", "postcode": "10573"}}},
{"geometry": {"type": "Point", "coordinates": [-73.6582236761, 41.0071865678]}, "type": "Feature", "properties": {"collection_times": [{"days": "Mon-Sat", "time": "2:00pm"}, {"days": "Sun", "time": "Closed"}], "id": "1057300029", "name": "USPS COLLECTION BOX - BLUE BOX", "address": {"city": "RYE BROOK", "state": "NY", "street": "350 N MAIN ST", "postcode": "10573"}}},
{"geometry": {"type": "Point", "coordinates": [-73.665701575, 41.0015038778]}, "type": "Feature", "properties": {"collection_times": [{"days": "Mon-Sat", "time": "2:00pm"}, {"days": "Sun", "time": "Closed"}], "id": "1057300033", "name": "USPS COLLECTION BOX - BLUE BOX", "address": {"city": "RYE BROOK", "state": "NY", "street": "157 WESTCHESTER AVE", "postcode": "10573"}}},
{"geometry": {"type": "Point", "coordinates": [-73.659958604, 41.0129836742]}, "type": "Feature", "properties": {"collection_times": [{"days": "Mon-Sat", "time": "2:00pm"}, {"days": "Sun", "time": "Closed"}], "id": "1057300035", "name": "USPS COLLECTION BOX - BLUE BOX", "address": {"city": "RYE BROOK", "state": "NY", "street": "548 WILLETT AVE", "postcode": "10573"}}},
{"geometry": {"type": "Point", "coordinates": [-73.6809102094, 41.0015679113]}, "type": "Feature", "properties": {"collection_times": [{"days": "Mon-Sat", "time": "1:30pm"}, {"days": "Sun", "time": "Closed"}], "id": "1057300036", "name": "USPS COLLECTION BOX - BLUE BOX", "address": {"city": "RYE BROOK", "state": "NY", "street": "200 S RIDGE ST", "postcode": "10573"}}},
{"geometry": {"type": "Point", "coordinates": [-73.6752532604, 40.99812751]}, "type": "Feature", "properties": {"collection_times": [{"days": "Mon-Sat", "time": "2:00pm"}, {"days": "Sun", "time": "Closed"}], "id": "1057300042", "name": "USPS COLLECTION BOX - BLUE BOX", "address": {"city": "RYE BROOK", "state": "NY", "street": "205 S REGENT ST", "postcode": "10573"}}},
{"geometry": {"type": "Point", "coordinates": [-73.6820535886, 41.0042172956]}, "type": "Feature", "properties": {"collection_times": [{"days": "Mon-Sat", "time": "1:00pm"}, {"days": "Sun", "time": "Closed"}], "id": "1057300052", "name": "USPS COLLECTION BOX - BLUE BOX", "address": {"city": "RYE BROOK", "state": "NY", "street": "90 S RIDGE ST", "postcode": "10573"}}},
{"geometry": {"type": "Point", "coordinates": [-73.6683723366, 40.9933150211]}, "type": "Feature", "properties": {"collection_times": [{"days": "Mon-Sat", "time": "2:00pm"}, {"days": "Sun", "time": "Closed"}], "id": "1057300057", "name": "USPS COLLECTION BOX - BLUE BOX", "address": {"city": "RYE BROOK", "state": "NY", "street": "100 MIDLAND AVE", "postcode": "10573"}}},
{"geometry": {"type": "Point", "coordinates": [-73.6737165783, 41.0345850645]}, "type": "Feature", "properties": {"collection_times": [{"days": "Mon-Sat", "time": "1:00pm"}, {"days": "Sun", "time": "Closed"}], "id": "1057300063", "name": "USPS COLLECTION BOX - BLUE BOX", "address": {"city": "RYE BROOK", "state": "NY", "street": "938 KING ST", "postcode": "10573"}}},
{"geometry": {"type": "Point", "coordinates": [-73.6774118007, 41.0170083359]}, "type": "Feature", "properties": {"collection_times": [{"days": "Mon-Sat", "time": "1:00pm"}, {"days": "Sun", "time": "Closed"}], "id": "1057300066", "name": "USPS COLLECTION BOX - BLUE BOX", "address": {"city": "RYE BROOK", "state": "NY", "street": "228 BELLEFAIR BLVD", "postcode": "10573"}}},
{"geometry": {"type": "Point", "coordinates": [-73.668068663, 41.0029528132]}, "type": "Feature", "properties": {"collection_times": [{"days": "Mon-Fri", "time": "5:00pm"}, {"days": "Sat", "time": "2:00pm"}, {"days": "Sun", "time": "Closed"}], "id": "1057300067", "name": "USPS COLLECTION BOX - PO LOBBY", "address": {"city": "RYE BROOK", "state": "NY", "street": "245 WESTCHESTER AVE LBBY DROP", "postcode": "10573"}}},
{"geometry": {"type": "Point", "coordinates": [-73.5489937403, 41.1894421709]}, "type": "Feature", "properties": {"collection_times": [{"days": "Mon-Fri", "time": "4:30pm"}, {"days": "Sat", "time": "2:00pm"}, {"days": "Sun", "time": "Closed"}], "id": "1057600002", "name": "USPS COLLECTION BOX - BLUE BOX", "address": {"city": "POUND RIDGE", "state": "NY", "street": "57 WESTCHESTER AVE", "postcode": "10576"}}},
{"geometry": {"type": "Point", "coordinates": [-73.5489937403, 41.1894421709]}, "type": "Feature", "properties": {"collection_times": [{"days": "Mon-Fri", "time": "5:00pm"}, {"days": "Sat", "time": "2:00pm"}, {"days": "Sun", "time": "Closed"}], "id": "1057600003", "name": "USPS COLLECTION BOX - PO LOBBY", "address": {"city": "POUND RIDGE", "state": "NY", "street": "57 WESTCHESTER AVE LBBY DROP", "postcode": "10576"}}},
{"geometry": {"type": "Point", "coordinates": [-73.6980668479, 41.0095308512]}, "type": "Feature", "properties": {"collection_times": [{"days": "Mon-Fri", "time": "4:00pm"}, {"days": "Sat-Sun", "time": "Closed"}], "id": "1057700006", "name": "USPS COLLECTION BOX - BLUE BOX", "address": {"city": "PURCHASE", "state": "NY", "street": "3020 WESTCHESTER AVE", "postcode": "10577"}}},
{"geometry": {"type": "Point", "coordinates": [-73.7125804921, 41.0384877637]}, "type": "Feature", "properties": {"collection_times": [{"days": "Mon-Fri", "time": "4:00pm"}, {"days": "Sat-Sun", "time": "Closed"}], "id": "1057700021", "name": "USPS COLLECTION BOX - BLUE BOX", "address": {"city": "PURCHASE", "state": "NY", "street": "287 BOWMAN AVE", "postcode": "10577"}}},
{"geometry": {"type": "Point", "coordinates": [-73.7179384173, 41.0471737604]}, "type": "Feature", "properties": {"collection_times": [{"days": "Mon-Fri", "time": "5:00pm"}, {"days": "Sat", "time": "12:00pm"}, {"days": "Sun", "time": "Closed"}], "id": "1057700024", "name": "USPS COLLECTION BOX - BLUE BOX", "address": {"city": "PURCHASE", "state": "NY", "street": "3003 PURCHASE ST", "postcode": "10577"}}},
{"geometry": {"type": "Point", "coordinates": [-73.6993419095, 41.0106065465]}, "type": "Feature", "properties": {"collection_times": [{"days": "Mon-Fri", "time": "4:30pm"}, {"days": "Sat-Sun", "time": "Closed"}], "id": "1057700030", "name": "USPS COLLECTION BOX - BLUE BOX", "address": {"city": "PURCHASE", "state": "NY", "street": "2900 WESTCHESTER AVE", "postcode": "10577"}}},
{"geometry": {"type": "Point", "coordinates": [-73.6993419095, 41.0106065465]}, "type": "Feature", "properties": {"collection_times": [{"days": "Mon-Fri", "time": "4:30pm"}, {"days": "Sat-Sun", "time": "Closed"}], "id": "1057700033", "name": "USPS COLLECTION BOX - BLUE BOX", "address": {"city": "PURCHASE", "state": "NY", "street": "2900 WESTCHESTER AVE", "postcode": "10577"}}},
{"geometry": {"type": "Point", "coordinates": [-73.6980668479, 41.0095308512]}, "type": "Feature", "properties": {"collection_times": [{"days": "Mon-Fri", "time": "4:00pm"}, {"days": "Sat-Sun", "time": "Closed"}], "id": "1057700034", "name": "USPS COLLECTION BOX - BLUE BOX", "address": {"city": "PURCHASE", "state": "NY", "street": "3020 WESTCHESTER AVE", "postcode": "10577"}}},
{"geometry": {"type": "Point", "coordinates": [-73.7179384173, 41.0471737604]}, "type": "Feature", "properties": {"collection_times": [{"days": "Mon-Fri", "time": "5:00pm"}, {"days": "Sat", "time": "12:00pm"}, {"days": "Sun", "time": "Closed"}], "id": "1057700035", "name": "USPS COLLECTION BOX - PO LOBBY", "address": {"city": "PURCHASE", "state": "NY", "street": "3003 PURCHASE ST LBBY DROP", "postcode": "10577"}}},
{"geometry": {"type": "Point", "coordinates": [-73.6554833752, 41.325889773]}, "type": "Feature", "properties": {"collection_times": [{"days": "Mon-Fri", "time": "4:15pm"}, {"days": "Sat", "time": "11:30am"}, {"days": "Sun", "time": "Closed"}], "id": "1057800001", "name": "USPS COLLECTION BOX - BLUE BOX", "address": {"city": "PURDYS", "state": "NY", "street": "3 MAIN ST", "postcode": "10578"}}},
{"geometry": {"type": "Point", "coordinates": [-73.6554833752, 41.325889773]}, "type": "Feature", "properties": {"collection_times": [{"days": "Mon-Fri", "time": "4:15pm"}, {"days": "Sat", "time": "11:30am"}, {"days": "Sun", "time": "Closed"}], "id": "1057800002", "name": "USPS COLLECTION BOX - PO LOBBY", "address": {"city": "PURDYS", "state": "NY", "street": "3 MAIN ST LBBY DROP", "postcode": "10578"}}},
{"geometry": {"type": "Point", "coordinates": [-73.8739333095, 41.3335068458]}, "type": "Feature", "properties": {"collection_times": [{"days": "Mon-Fri", "time": "5:00pm"}, {"days": "Sat", "time": "1:00pm"}, {"days": "Sun", "time": "Closed"}], "id": "1057900004", "name": "USPS COLLECTION BOX - BLUE BOX", "address": {"city": "PUTNAM VALLEY", "state": "NY", "street": "12 PEEKSKILL HOLLOW RD", "postcode": "10579"}}},
{"geometry": {"type": "Point", "coordinates": [-73.8739333095, 41.3335068458]}, "type": "Feature", "properties": {"collection_times": [{"days": "Mon-Fri", "time": "5:00pm"}, {"days": "Sat", "time": "1:00pm"}, {"days": "Sun", "time": "Closed"}], "id": "1057900005", "name": "USPS COLLECTION BOX - PO LOBBY", "address": {"city": "PUTNAM VALLEY", "state": "NY", "street": "12 PEEKSKILL HOLLOW RD LBBY DROP", "postcode": "10579"}}},
{"geometry": {"type": "Point", "coordinates": [-73.6960508844, 40.9813751128]}, "type": "Feature", "properties": {"collection_times": [{"days": "Mon-Sat", "time": "10:00am"}, {"days": "Sun", "time": "Closed"}], "id": "1058000002", "name": "USPS COLLECTION BOX - BLUE BOX", "address": {"city": "RYE", "state": "NY", "street": "70 MAPLE AVE", "postcode": "10580"}}},
{"geometry": {"type": "Point", "coordinates": [-73.6798779038, 40.9677614134]}, "type": "Feature", "properties": {"collection_times": [{"days": "Mon-Sat", "time": "10:00am"}, {"days": "Sun", "time": "Closed"}], "id": "1058000009", "name": "USPS COLLECTION BOX - BLUE BOX", "address": {"city": "RYE", "state": "NY", "street": "464 FOREST AVE", "postcode": "10580"}}},
{"geometry": {"type": "Point", "coordinates": [-73.6747529, 40.985253921]}, "type": "Feature", "properties": {"collection_times": [{"days": "Mon-Sat", "time": "10:00am"}, {"days": "Sun", "time": "Closed"}], "id": "1058000012", "name": "USPS COLLECTION BOX - BLUE BOX", "address": {"city": "RYE", "state": "NY", "street": "4 PECK AVE", "postcode": "10580"}}},
{"geometry": {"type": "Point", "coordinates": [-73.6840513584, 40.9773926257]}, "type": "Feature", "properties": {"collection_times": [{"days": "Mon-Sat", "time": "10:00am"}, {"days": "Sun", "time": "Closed"}], "id": "1058000015", "name": "USPS COLLECTION BOX - BLUE BOX", "address": {"city": "RYE", "state": "NY", "street": "66 MILTON RD", "postcode": "10580"}}},
{"geometry": {"type": "Point", "coordinates": [-73.6848549851, 40.9834997193]}, "type": "Feature", "properties": {"collection_times": [{"days": "Mon-Sat", "time": "10:00am"}, {"days": "Sun", "time": "Closed"}], "id": "1058000021", "name": "USPS COLLECTION BOX - BLUE BOX", "address": {"city": "RYE", "state": "NY", "street": "100 PURCHASE ST", "postcode": "10580"}}},
{"geometry": {"type": "Point", "coordinates": [-73.6844503841, 40.9829119874]}, "type": "Feature", "properties": {"collection_times": [{"days": "Mon-Sat", "time": "10:00am"}, {"days": "Sun", "time": "Closed"}], "id": "1058000024", "name": "USPS COLLECTION BOX - BLUE BOX", "address": {"city": "RYE", "state": "NY", "street": "73 PURCHASE ST", "postcode": "10580"}}},
{"geometry": {"type": "Point", "coordinates": [-73.6847762884, 40.9834302758]}, "type": "Feature", "properties": {"collection_times": [{"days": "Mon-Sat", "time": "10:00am"}, {"days": "Sun", "time": "Closed"}], "id": "1058000026", "name": "USPS COLLECTION BOX - BLUE BOX", "address": {"city": "RYE", "state": "NY", "street": "1 ELM PL", "postcode": "10580"}}},
{"geometry": {"type": "Point", "coordinates": [-73.6842147302, 40.9824260418]}, "type": "Feature", "properties": {"collection_times": [{"days": "Mon-Sat", "time": "10:00am"}, {"days": "Sun", "time": "Closed"}], "id": "1058000028", "name": "USPS COLLECTION BOX - BLUE BOX", "address": {"city": "RYE", "state": "NY", "street": "31 PURCHASE ST", "postcode": "10580"}}},
{"geometry": {"type": "Point", "coordinates": [-73.6838344743, 40.9807187873]}, "type": "Feature", "properties": {"collection_times": [{"days": "Mon-Sat", "time": "10:00am"}, {"days": "Sun", "time": "Closed"}], "id": "1058000030", "name": "USPS COLLECTION BOX - BLUE BOX", "address": {"city": "RYE", "state": "NY", "street": "1051 BOSTON POST RD", "postcode": "10580"}}},
{"geometry": {"type": "Point", "coordinates": [-73.6836893486, 40.9807144342]}, "type": "Feature", "properties": {"collection_times": [{"days": "Mon-Sat", "time": "10:00am"}, {"days": "Sun", "time": "Closed"}], "id": "1058000031", "name": "USPS COLLECTION BOX - BLUE BOX", "address": {"city": "RYE", "state": "NY", "street": "1040 BOSTON POST RD", "postcode": "10580"}}},
{"geometry": {"type": "Point", "coordinates": [-73.6843943676, 40.9827942385]}, "type": "Feature", "properties": {"collection_times": [{"days": "Mon-Sat", "time": "10:00am"}, {"days": "Sun", "time": "Closed"}], "id": "1058000033", "name": "USPS COLLECTION BOX - BLUE BOX", "address": {"city": "RYE", "state": "NY", "street": "67 PURCHASE ST", "postcode": "10580"}}},
{"geometry": {"type": "Point", "coordinates": [-73.6835289604, 40.9845967315]}, "type": "Feature", "properties": {"collection_times": [{"days": "Mon-Fri", "time": "5:00pm"}, {"days": "Sat", "time": "3:00pm"}, {"days": "Sun", "time": "Closed"}], "id": "1058000035", "name": "USPS COLLECTION BOX - BLUE BOX", "address": {"city": "RYE", "state": "NY", "street": "41 PURDY AVE", "postcode": "10580"}}},
{"geometry": {"type": "Point", "coordinates": [-73.6835289604, 40.9845967315]}, "type": "Feature", "properties": {"collection_times": [{"days": "Mon-Fri", "time": "5:00pm"}, {"days": "Sat", "time": "3:00pm"}, {"days": "Sun", "time": "Closed"}], "id": "1058000039", "name": "USPS COLLECTION BOX - APC", "address": {"city": "RYE", "state": "NY", "street": "41 PURDY AVE", "postcode": "10580"}}},
{"geometry": {"type": "Point", "coordinates": [-73.6835289604, 40.9845967315]}, "type": "Feature", "properties": {"collection_times": [{"days": "Mon-Fri", "time": "5:00pm"}, {"days": "Sat", "time": "3:00pm"}, {"days": "Sun", "time": "Closed"}], "id": "1058000040", "name": "USPS COLLECTION BOX - PO LOBBY", "address": {"city": "RYE", "state": "NY", "street": "41 PURDY AVE LBBY DROP", "postcode": "10580"}}},
{"geometry": {"type": "Point", "coordinates": [-73.8061496735, 40.9898699147]}, "type": "Feature", "properties": {"collection_times": [{"days": "Mon-Fri", "time": "5:00pm"}, {"days": "Sat", "time": "3:00pm"}, {"days": "Sun", "time": "Closed"}], "id": "1058300002", "name": "USPS COLLECTION BOX - BLUE BOX", "address": {"city": "SCARSDALE", "state": "NY", "street": "29 CHASE RD", "postcode": "10583"}}},
{"geometry": {"type": "Point", "coordinates": [-73.8061496735, 40.9898699147]}, "type": "Feature", "properties": {"collection_times": [{"days": "Mon-Fri", "time": "5:00pm"}, {"days": "Sat", "time": "3:00pm"}, {"days": "Sun", "time": "Closed"}], "id": "1058300003", "name": "USPS COLLECTION BOX - BLUE BOX", "address": {"city": "SCARSDALE", "state": "NY", "street": "29 CHASE RD", "postcode": "10583"}}},
{"geometry": {"type": "Point", "coordinates": [-73.8056059048, 40.9901636531]}, "type": "Feature", "properties": {"collection_times": [{"days": "Mon-Fri", "time": "4:30pm"}, {"days": "Sat", "time": "1:00pm"}, {"days": "Sun", "time": "Closed"}], "id": "1058300004", "name": "USPS COLLECTION BOX - BLUE BOX", "address": {"city": "SCARSDALE", "state": "NY", "street": "5 WOODLAND PL", "postcode": "10583"}}},
{"geometry": {"type": "Point", "coordinates": [-73.7970179957, 40.9877659701]}, "type": "Feature", "properties": {"collection_times": [{"days": "Mon-Fri", "time": "4:00pm"}, {"days": "Sat", "time": "1:00pm"}, {"days": "Sun", "time": "Closed"}], "id": "1058300008", "name": "USPS COLLECTION BOX - BLUE BOX", "address": {"city": "SCARSDALE", "state": "NY", "street": "1001 POST RD", "postcode": "10583"}}},
{"geometry": {"type": "Point", "coordinates": [-73.7916452393, 40.9947197044]}, "type": "Feature", "properties": {"collection_times": [{"days": "Mon-Fri", "time": "10:00am"}, {"days": "Sat", "time": "1:00pm"}, {"days": "Sun", "time": "Closed"}], "id": "1058300009", "name": "USPS COLLECTION BOX - BLUE BOX", "address": {"city": "SCARSDALE", "state": "NY", "street": "1057 WHITE PLAINS RD", "postcode": "10583"}}},
{"geometry": {"type": "Point", "coordinates": [-73.8096767968, 40.9888514252]}, "type": "Feature", "properties": {"collection_times": [{"days": "Mon-Fri", "time": "9:30am"}, {"days": "Sat", "time": "1:00pm"}, {"days": "Sun", "time": "Closed"}], "id": "1058300016", "name": "USPS COLLECTION BOX - BLUE BOX", "address": {"city": "SCARSDALE", "state": "NY", "street": "6 DEPOT PL", "postcode": "10583"}}},
{"geometry": {"type": "Point", "coordinates": [-73.8098869067, 40.9880160539]}, "type": "Feature", "properties": {"collection_times": [{"days": "Mon-Fri", "time": "9:30am"}, {"days": "Sat", "time": "1:00pm"}, {"days": "Sun", "time": "Closed"}], "id": "1058300017", "name": "USPS COLLECTION BOX - BLUE BOX", "address": {"city": "SCARSDALE", "state": "NY", "street": "30 GARTH RD", "postcode": "10583"}}},
{"geometry": {"type": "Point", "coordinates": [-73.8102490004, 40.9861385277]}, "type": "Feature", "properties": {"collection_times": [{"days": "Mon-Fri", "time": "9:30am"}, {"days": "Sat", "time": "1:00pm"}, {"days": "Sun", "time": "Closed"}], "id": "1058300018", "name": "USPS COLLECTION BOX - BLUE BOX", "address": {"city": "SCARSDALE", "state": "NY", "street": "90 GARTH RD", "postcode": "10583"}}},
{"geometry": {"type": "Point", "coordinates": [-73.811472626, 40.9837424412]}, "type": "Feature", "properties": {"collection_times": [{"days": "Mon-Fri", "time": "9:30am"}, {"days": "Sat", "time": "1:00pm"}, {"days": "Sun", "time": "Closed"}], "id": "1058300019", "name": "USPS COLLECTION BOX - BLUE BOX", "address": {"city": "SCARSDALE", "state": "NY", "street": "182 GARTH RD", "postcode": "10583"}}},
{"geometry": {"type": "Point", "coordinates": [-73.8123378192, 40.9822733165]}, "type": "Feature", "properties": {"collection_times": [{"days": "Mon-Fri", "time": "9:30am"}, {"days": "Sat", "time": "1:00pm"}, {"days": "Sun", "time": "Closed"}], "id": "1058300020", "name": "USPS COLLECTION BOX - BLUE BOX", "address": {"city": "SCARSDALE", "state": "NY", "street": "235 GARTH RD", "postcode": "10583"}}},
{"geometry": {"type": "Point", "coordinates": [-73.8127187319, 40.9808821568]}, "type": "Feature", "properties": {"collection_times": [{"days": "Mon-Fri", "time": "9:30am"}, {"days": "Sat", "time": "1:00pm"}, {"days": "Sun", "time": "Closed"}], "id": "1058300021", "name": "USPS COLLECTION BOX - BLUE BOX", "address": {"city": "SCARSDALE", "state": "NY", "street": "281 GARTH RD", "postcode": "10583"}}},
{"geometry": {"type": "Point", "coordinates": [-73.8089048722, 40.9765454292]}, "type": "Feature", "properties": {"collection_times": [{"days": "Mon-Fri", "time": "9:30am"}, {"days": "Sat", "time": "1:00pm"}, {"days": "Sun", "time": "Closed"}], "id": "1058300022", "name": "USPS COLLECTION BOX - BLUE BOX", "address": {"city": "SCARSDALE", "state": "NY", "street": "24 WARWICK AVE", "postcode": "10583"}}},
{"geometry": {"type": "Point", "coordinates": [-73.8058919535, 40.971050687]}, "type": "Feature", "properties": {"collection_times": [{"days": "Mon-Fri", "time": "4:00pm"}, {"days": "Sat", "time": "1:00pm"}, {"days": "Sun", "time": "Closed"}], "id": "1058300024", "name": "USPS COLLECTION BOX - BLUE BOX", "address": {"city": "SCARSDALE", "state": "NY", "street": "715 POST RD", "postcode": "10583"}}},
{"geometry": {"type": "Point", "coordinates": [-73.806682498, 40.9700933963]}, "type": "Feature", "properties": {"collection_times": [{"days": "Mon-Fri", "time": "4:00pm"}, {"days": "Sat", "time": "1:00pm"}, {"days": "Sun", "time": "Closed"}], "id": "1058300025", "name": "USPS COLLECTION BOX - BLUE BOX", "address": {"city": "SCARSDALE", "state": "NY", "street": "678 POST RD", "postcode": "10583"}}},
{"geometry": {"type": "Point", "coordinates": [-73.806682498, 40.9700933963]}, "type": "Feature", "properties": {"collection_times": [{"days": "Mon-Fri", "time": "4:00pm"}, {"days": "Sat", "time": "1:00pm"}, {"days": "Sun", "time": "Closed"}], "id": "1058300026", "name": "USPS COLLECTION BOX - BLUE BOX", "address": {"city": "SCARSDALE", "state": "NY", "street": "678 POST RD", "postcode": "10583"}}},
{"geometry": {"type": "Point", "coordinates": [-73.806380695, 40.9703910075]}, "type": "Feature", "properties": {"collection_times": [{"days": "Mon-Fri", "time": "4:00pm"}, {"days": "Sat", "time": "1:00pm"}, {"days": "Sun", "time": "Closed"}], "id": "1058300027", "name": "USPS COLLECTION BOX - BLUE BOX", "address": {"city": "SCARSDALE", "state": "NY", "street": "686 POST RD", "postcode": "10583"}}},
{"geometry": {"type": "Point", "coordinates": [-73.8052597465, 40.9714914675]}, "type": "Feature", "properties": {"collection_times": [{"days": "Mon-Fri", "time": "4:00pm"}, {"days": "Sat", "time": "1:00pm"}, {"days": "Sun", "time": "Closed"}], "id": "1058300028", "name": "USPS COLLECTION BOX - BLUE BOX", "address": {"city": "SCARSDALE", "state": "NY", "street": "720 POST RD", "postcode": "10583"}}},
{"geometry": {"type": "Point", "coordinates": [-73.8065886386, 40.9779271253]}, "type": "Feature", "properties": {"collection_times": [{"days": "Mon-Fri", "time": "4:00pm"}, {"days": "Sat", "time": "1:00pm"}, {"days": "Sun", "time": "Closed"}], "id": "1058300031", "name": "USPS COLLECTION BOX - BLUE BOX", "address": {"city": "SCARSDALE", "state": "NY", "street": "111 BROOK ST", "postcode": "10583"}}},
{"geometry": {"type": "Point", "coordinates": [-73.8135657306, 40.9860173816]}, "type": "Feature", "properties": {"collection_times": [{"days": "Mon-Fri", "time": "9:30am"}, {"days": "Sat", "time": "1:00pm"}, {"days": "Sun", "time": "Closed"}], "id": "1058300033", "name": "USPS COLLECTION BOX - BLUE BOX", "address": {"city": "SCARSDALE", "state": "NY", "street": "848 SCARSDALE AVE", "postcode": "10583"}}},
{"geometry": {"type": "Point", "coordinates": [-73.8079132294, 40.9895510334]}, "type": "Feature", "properties": {"collection_times": [{"days": "Mon-Fri", "time": "4:30pm"}, {"days": "Sat", "time": "1:00pm"}, {"days": "Sun", "time": "Closed"}], "id": "1058300034", "name": "USPS COLLECTION BOX - BLUE BOX", "address": {"city": "SCARSDALE", "state": "NY", "street": "26 E PARKWAY", "postcode": "10583"}}},
{"geometry": {"type": "Point", "coordinates": [-73.790130054, 40.998519923]}, "type": "Feature", "properties": {"collection_times": [{"days": "Mon-Fri", "time": "10:00am"}, {"days": "Sat", "time": "1:00pm"}, {"days": "Sun", "time": "Closed"}], "id": "1058300035", "name": "USPS COLLECTION BOX - BLUE BOX", "address": {"city": "SCARSDALE", "state": "NY", "street": "54 OLMSTED RD", "postcode": "10583"}}},
{"geometry": {"type": "Point", "coordinates": [-73.8168760605, 40.979808335]}, "type": "Feature", "properties": {"collection_times": [{"days": "Mon-Fri", "time": "10:00am"}, {"days": "Sat", "time": "1:00pm"}, {"days": "Sun", "time": "Closed"}], "id": "1058300036", "name": "USPS COLLECTION BOX - BLUE BOX", "address": {"city": "SCARSDALE", "state": "NY", "street": "5 STRATHMORE RD", "postcode": "10583"}}},
{"geometry": {"type": "Point", "coordinates": [-73.8209864317, 40.9929784703]}, "type": "Feature", "properties": {"collection_times": [{"days": "Mon-Fri", "time": "4:00pm"}, {"days": "Sat", "time": "1:00pm"}, {"days": "Sun", "time": "Closed"}], "id": "1058300038", "name": "USPS COLLECTION BOX - BLUE BOX", "address": {"city": "SCARSDALE", "state": "NY", "street": "955 CENTRAL PARK AVE", "postcode": "10583"}}},
{"geometry": {"type": "Point", "coordinates": [-73.8115193418, 41.0057941331]}, "type": "Feature", "properties": {"collection_times": [{"days": "Mon-Fri", "time": "4:00pm"}, {"days": "Sat", "time": "1:00pm"}, {"days": "Sun", "time": "Closed"}], "id": "1058300047", "name": "USPS COLLECTION BOX - BLUE BOX", "address": {"city": "SCARSDALE", "state": "NY", "street": "455 CENTRAL PARK AVE", "postcode": "10583"}}},
{"geometry": {"type": "Point", "coordinates": [-73.8123798806, 41.0047403051]}, "type": "Feature", "properties": {"collection_times": [{"days": "Mon-Fri", "time": "4:00pm"}, {"days": "Sat", "time": "1:00pm"}, {"days": "Sun", "time": "Closed"}], "id": "1058300050", "name": "USPS COLLECTION BOX - BLUE BOX", "address": {"city": "SCARSDALE", "state": "NY", "street": "531 CENTRAL PARK AVE", "postcode": "10583"}}},
{"geometry": {"type": "Point", "coordinates": [-73.8228215669, 40.9991511273]}, "type": "Feature", "properties": {"collection_times": [{"days": "Mon-Fri", "time": "10:00am"}, {"days": "Sat", "time": "1:00pm"}, {"days": "Sun", "time": "Closed"}], "id": "1058300052", "name": "USPS COLLECTION BOX - BLUE BOX", "address": {"city": "SCARSDALE", "state": "NY", "street": "50 LONGVIEW DR", "postcode": "10583"}}},
{"geometry": {"type": "Point", "coordinates": [-73.7871050994, 41.0059342545]}, "type": "Feature", "properties": {"collection_times": [{"days": "Mon-Fri", "time": "10:00am"}, {"days": "Sat", "time": "1:00pm"}, {"days": "Sun", "time": "Closed"}], "id": "1058300053", "name": "USPS COLLECTION BOX - BLUE BOX", "address": {"city": "SCARSDALE", "state": "NY", "street": "41 FENIMORE RD", "postcode": "10583"}}},
{"geometry": {"type": "Point", "coordinates": [-73.7912065154, 41.0124031982]}, "type": "Feature", "properties": {"collection_times": [{"days": "Mon-Fri", "time": "10:00am"}, {"days": "Sat", "time": "1:00pm"}, {"days": "Sun", "time": "Closed"}], "id": "1058300054", "name": "USPS COLLECTION BOX - BLUE BOX", "address": {"city": "SCARSDALE", "state": "NY", "street": "34 WALWORTH AVE", "postcode": "10583"}}},
{"geometry": {"type": "Point", "coordinates": [-73.7860304965, 41.0109524223]}, "type": "Feature", "properties": {"collection_times": [{"days": "Mon-Fri", "time": "10:00am"}, {"days": "Sat", "time": "1:00pm"}, {"days": "Sun", "time": "Closed"}], "id": "1058300055", "name": "USPS COLLECTION BOX - BLUE BOX", "address": {"city": "SCARSDALE", "state": "NY", "street": "140 BREWSTER RD", "postcode": "10583"}}},
{"geometry": {"type": "Point", "coordinates": [-73.7749001229, 40.9845243844]}, "type": "Feature", "properties": {"collection_times": [{"days": "Mon-Fri", "time": "11:00am"}, {"days": "Sat", "time": "1:00pm"}, {"days": "Sun", "time": "Closed"}], "id": "1058300056", "name": "USPS COLLECTION BOX - BLUE BOX", "address": {"city": "SCARSDALE", "state": "NY", "street": "6 PALMER AVE", "postcode": "10583"}}},
{"geometry": {"type": "Point", "coordinates": [-73.7979944417, 40.974534399]}, "type": "Feature", "properties": {"collection_times": [{"days": "Mon-Fri", "time": "9:30am"}, {"days": "Sat", "time": "1:00pm"}, {"days": "Sun", "time": "Closed"}], "id": "1058300057", "name": "USPS COLLECTION BOX - BLUE BOX", "address": {"city": "SCARSDALE", "state": "NY", "street": "81 BRADLEY RD", "postcode": "10583"}}},
{"geometry": {"type": "Point", "coordinates": [-73.7964118592, 40.9799287938]}, "type": "Feature", "properties": {"collection_times": [{"days": "Mon-Fri", "time": "9:30am"}, {"days": "Sat", "time": "1:00pm"}, {"days": "Sun", "time": "Closed"}], "id": "1058300058", "name": "USPS COLLECTION BOX - BLUE BOX", "address": {"city": "SCARSDALE", "state": "NY", "street": "243 GRAND BLVD", "postcode": "10583"}}},
{"geometry": {"type": "Point", "coordinates": [-73.798810673, 40.9807756287]}, "type": "Feature", "properties": {"collection_times": [{"days": "Mon-Fri", "time": "9:30am"}, {"days": "Sat", "time": "1:00pm"}, {"days": "Sun", "time": "Closed"}], "id": "1058300059", "name": "USPS COLLECTION BOX - BLUE BOX", "address": {"city": "SCARSDALE", "state": "NY", "street": "215 GRAND BLVD", "postcode": "10583"}}},
{"geometry": {"type": "Point", "coordinates": [-73.7812851463, 40.9762272133]}, "type": "Feature", "properties": {"collection_times": [{"days": "Mon-Fri", "time": "10:30am"}, {"days": "Sat", "time": "1:00pm"}, {"days": "Sun", "time": "Closed"}], "id": "1058300061", "name": "USPS COLLECTION BOX - BLUE BOX", "address": {"city": "SCARSDALE", "state": "NY", "street": "125 WAVERLY RD", "postcode": "10583"}}},
{"geometry": {"type": "Point", "coordinates": [-73.7748597206, 40.9734714374]}, "type": "Feature", "properties": {"collection_times": [{"days": "Mon-Fri", "time": "10:30am"}, {"days": "Sat", "time": "1:00pm"}, {"days": "Sun", "time": "Closed"}], "id": "1058300069", "name": "USPS COLLECTION BOX - BLUE BOX", "address": {"city": "SCARSDALE", "state": "NY", "street": "2 STRATTON RD", "postcode": "10583"}}},
{"geometry": {"type": "Point", "coordinates": [-73.7762149842, 40.981365987]}, "type": "Feature", "properties": {"collection_times": [{"days": "Mon-Fri", "time": "10:30am"}, {"days": "Sat", "time": "1:00pm"}, {"days": "Sun", "time": "Closed"}], "id": "1058300074", "name": "USPS COLLECTION BOX - BLUE BOX", "address": {"city": "SCARSDALE", "state": "NY", "street": "1483 WEAVER ST", "postcode": "10583"}}},
{"geometry": {"type": "Point", "coordinates": [-73.777619745, 40.9837036817]}, "type": "Feature", "properties": {"collection_times": [{"days": "Mon-Fri", "time": "5:00pm"}, {"days": "Sat", "time": "1:00pm"}, {"days": "Sun", "time": "Closed"}], "id": "1058300076", "name": "USPS COLLECTION BOX - BLUE BOX", "address": {"city": "SCARSDALE", "state": "NY", "street": "1112 WILMOT RD", "postcode": "10583"}}},
{"geometry": {"type": "Point", "coordinates": [-73.8061496735, 40.9898699147]}, "type": "Feature", "properties": {"collection_times": [{"days": "Mon-Fri", "time": "5:00pm"}, {"days": "Sat", "time": "3:00pm"}, {"days": "Sun", "time": "Closed"}], "id": "1058300077", "name": "USPS COLLECTION BOX - PO LOBBY", "address": {"city": "SCARSDALE", "state": "NY", "street": "29 CHASE RD LBBY DROP", "postcode": "10583"}}},
{"geometry": {"type": "Point", "coordinates": [-73.777619745, 40.9837036817]}, "type": "Feature", "properties": {"collection_times": [{"days": "Mon-Fri", "time": "4:30pm"}, {"days": "Sat", "time": "1:00pm"}, {"days": "Sun", "time": "Closed"}], "id": "1058300078", "name": "USPS COLLECTION BOX - PO LOBBY", "address": {"city": "SCARSDALE", "state": "NY", "street": "1112 WILMOT RD LBBY DROP", "postcode": "10583"}}},
{"geometry": {"type": "Point", "coordinates": [-73.7365693213, 41.3341984587]}, "type": "Feature", "properties": {"collection_times": [{"days": "Mon-Fri", "time": "5:00pm"}, {"days": "Sat", "time": "11:00am"}, {"days": "Sun", "time": "Closed"}], "id": "1058700001", "name": "USPS COLLECTION BOX - BLUE BOX", "address": {"city": "SHENOROCK", "state": "NY", "street": "18 TIGHE RD", "postcode": "10587"}}},
{"geometry": {"type": "Point", "coordinates": [-73.7365693213, 41.3341984587]}, "type": "Feature", "properties": {"collection_times": [{"days": "Mon-Fri", "time": "5:00pm"}, {"days": "Sat", "time": "11:00am"}, {"days": "Sun", "time": "Closed"}], "id": "1058700002", "name": "USPS COLLECTION BOX - PO LOBBY", "address": {"city": "SHENOROCK", "state": "NY", "street": "18 TIGHE RD LBBY DROP", "postcode": "10587"}}},
{"geometry": {"type": "Point", "coordinates": [-73.8400106023, 41.3278082966]}, "type": "Feature", "properties": {"collection_times": [{"days": "Mon-Fri", "time": "4:30pm"}, {"days": "Sat", "time": "12:00pm"}, {"days": "Sun", "time": "Closed"}], "id": "1058800002", "name": "USPS COLLECTION BOX - BLUE BOX", "address": {"city": "SHRUB OAK", "state": "NY", "street": "1350 E MAIN ST", "postcode": "10588"}}},
{"geometry": {"type": "Point", "coordinates": [-73.8228685726, 41.3303296794]}, "type": "Feature", "properties": {"collection_times": [{"days": "Mon-Sat", "time": "11:00am"}, {"days": "Sun", "time": "Closed"}], "id": "1058800003", "name": "USPS COLLECTION BOX - BLUE BOX", "address": {"city": "SHRUB OAK", "state": "NY", "street": "950 E MAIN ST", "postcode": "10588"}}},
{"geometry": {"type": "Point", "coordinates": [-73.8400106023, 41.3278082966]}, "type": "Feature", "properties": {"collection_times": [{"days": "Mon-Fri", "time": "4:30pm"}, {"days": "Sat", "time": "12:00pm"}, {"days": "Sun", "time": "Closed"}], "id": "1058800004", "name": "USPS COLLECTION BOX - PO LOBBY", "address": {"city": "SHRUB OAK", "state": "NY", "street": "1350 E MAIN ST LBBY DROP", "postcode": "10588"}}},
{"geometry": {"type": "Point", "coordinates": [-73.6935576016, 41.3281503082]}, "type": "Feature", "properties": {"collection_times": [{"days": "Mon-Fri", "time": "5:00pm"}, {"days": "Sat", "time": "12:00pm"}, {"days": "Sun", "time": "Closed"}], "id": "1058900003", "name": "USPS COLLECTION BOX - BLUE BOX", "address": {"city": "SOMERS", "state": "NY", "street": "110 MARKET PLZ", "postcode": "10589"}}},
{"geometry": {"type": "Point", "coordinates": [-73.6935576016, 41.3281503082]}, "type": "Feature", "properties": {"collection_times": [{"days": "Mon-Fri", "time": "5:00pm"}, {"days": "Sat", "time": "12:00pm"}, {"days": "Sun", "time": "Closed"}], "id": "1058900005", "name": "USPS COLLECTION BOX - PO LOBBY", "address": {"city": "SOMERS", "state": "NY", "street": "110 MARKET PLZ LBBY DROP", "postcode": "10589"}}},
{"geometry": {"type": "Point", "coordinates": [-73.5561511088, 41.275834858]}, "type": "Feature", "properties": {"collection_times": [{"days": "Mon-Fri", "time": "4:45pm"}, {"days": "Sat", "time": "11:45am"}, {"days": "Sun", "time": "Closed"}], "id": "1059000001", "name": "USPS COLLECTION BOX - BLUE BOX", "address": {"city": "SOUTH SALEM", "state": "NY", "street": "17 MAIN ST", "postcode": "10590"}}},
{"geometry": {"type": "Point", "coordinates": [-73.5219515846, 41.2142077646]}, "type": "Feature", "properties": {"collection_times": [{"days": "Mon-Fri", "time": "11:00am"}, {"days": "Sat", "time": "8:00am"}, {"days": "Sun", "time": "Closed"}], "id": "1059000003", "name": "USPS COLLECTION BOX - BLUE BOX", "address": {"city": "SOUTH SALEM", "state": "NY", "street": "210 OAKRIDGE CMNS", "postcode": "10590"}}},
{"geometry": {"type": "Point", "coordinates": [-73.5561511088, 41.275834858]}, "type": "Feature", "properties": {"collection_times": [{"days": "Mon-Fri", "time": "4:45pm"}, {"days": "Sat", "time": "11:45am"}, {"days": "Sun", "time": "Closed"}], "id": "1059000004", "name": "USPS COLLECTION BOX - PO LOBBY", "address": {"city": "SOUTH SALEM", "state": "NY", "street": "17 MAIN ST LBBY DROP", "postcode": "10590"}}},
{"geometry": {"type": "Point", "coordinates": [-73.5219515846, 41.2142077646]}, "type": "Feature", "properties": {"collection_times": [{"days": "Mon-Fri", "time": "11:00am"}, {"days": "Sat", "time": "8:00am"}, {"days": "Sun", "time": "Closed"}], "id": "1059000005", "name": "USPS COLLECTION BOX - PO LOBBY", "address": {"city": "SOUTH SALEM", "state": "NY", "street": "210 OAKRIDGE CMNS-LOBBY DROP SLOT", "postcode": "10590"}}},
{"geometry": {"type": "Point", "coordinates": [-73.8577713532, 41.0792163674]}, "type": "Feature", "properties": {"collection_times": [{"days": "Mon-Sat", "time": "9:30am"}, {"days": "Sun", "time": "Closed"}], "id": "1059100001", "name": "USPS COLLECTION BOX - BLUE BOX", "address": {"city": "SLEEPY HOLLOW", "state": "NY", "street": "35 N BROADWAY", "postcode": "10591"}}},
{"geometry": {"type": "Point", "coordinates": [-73.8577496132, 41.0788818123]}, "type": "Feature", "properties": {"collection_times": [{"days": "Mon-Sat", "time": "9:30am"}, {"days": "Sun", "time": "Closed"}], "id": "1059100002", "name": "USPS COLLECTION BOX - BLUE BOX", "address": {"city": "SLEEPY HOLLOW", "state": "NY", "street": "1 N BROADWAY", "postcode": "10591"}}},
{"geometry": {"type": "Point", "coordinates": [-73.8587903962, 41.0801270738]}, "type": "Feature", "properties": {"collection_times": [{"days": "Mon-Sat", "time": "9:30am"}, {"days": "Sun", "time": "Closed"}], "id": "1059100003", "name": "USPS COLLECTION BOX - BLUE BOX", "address": {"city": "SLEEPY HOLLOW", "state": "NY", "street": "21 WILDEY ST", "postcode": "10591"}}},
{"geometry": {"type": "Point", "coordinates": [-73.8576384965, 41.0794129591]}, "type": "Feature", "properties": {"collection_times": [{"days": "Mon-Fri", "time": "5:00pm"}, {"days": "Sat", "time": "1:00pm"}, {"days": "Sun", "time": "Closed"}], "id": "1059100005", "name": "USPS COLLECTION BOX - BLUE BOX", "address": {"city": "SLEEPY HOLLOW", "state": "NY", "street": "50 N BROADWAY", "postcode": "10591"}}},
{"geometry": {"type": "Point", "coordinates": [-73.8374454276, 41.0626402547]}, "type": "Feature", "properties": {"collection_times": [{"days": "Mon-Fri", "time": "4:00pm"}, {"days": "Sat-Sun", "time": "Closed"}], "id": "1059100006", "name": "USPS COLLECTION BOX - BLUE BOX", "address": {"city": "SLEEPY HOLLOW", "state": "NY", "street": "555 WHITE PLAINS RD", "postcode": "10591"}}},
{"geometry": {"type": "Point", "coordinates": [-73.8596913208, 41.1075976431]}, "type": "Feature", "properties": {"collection_times": [{"days": "Mon-Fri", "time": "4:00pm"}, {"days": "Sat", "time": "9:30am"}, {"days": "Sun", "time": "Closed"}], "id": "1059100009", "name": "USPS COLLECTION BOX - BLUE BOX", "address": {"city": "SLEEPY HOLLOW", "state": "NY", "street": "701 N BROADWAY", "postcode": "10591"}}},
{"geometry": {"type": "Point", "coordinates": [-73.8324949828, 41.0844760906]}, "type": "Feature", "properties": {"collection_times": [{"days": "Mon-Fri", "time": "4:00pm"}, {"days": "Sat-Sun", "time": "Closed"}], "id": "1059100010", "name": "USPS COLLECTION BOX - BLUE BOX", "address": {"city": "SLEEPY HOLLOW", "state": "NY", "street": "765 OLD SAW MILL RIVER RD", "postcode": "10591"}}},
{"geometry": {"type": "Point", "coordinates": [-73.8603610811, 41.0767728707]}, "type": "Feature", "properties": {"collection_times": [{"days": "Mon-Sat", "time": "9:30am"}, {"days": "Sun", "time": "Closed"}], "id": "1059100012", "name": "USPS COLLECTION BOX - BLUE BOX", "address": {"city": "SLEEPY HOLLOW", "state": "NY", "street": "45 MAIN ST", "postcode": "10591"}}},
{"geometry": {"type": "Point", "coordinates": [-73.8634845715, 41.0776561982]}, "type": "Feature", "properties": {"collection_times": [{"days": "Mon-Sat", "time": "9:30am"}, {"days": "Sun", "time": "Closed"}], "id": "1059100014", "name": "USPS COLLECTION BOX - BLUE BOX", "address": {"city": "SLEEPY HOLLOW", "state": "NY", "street": "1 RIVER PLZ", "postcode": "10591"}}},
{"geometry": {"type": "Point", "coordinates": [-73.8627163031, 41.0784231057]}, "type": "Feature", "properties": {"collection_times": [{"days": "Mon-Sat", "time": "9:30am"}, {"days": "Sun", "time": "Closed"}], "id": "1059100017", "name": "USPS COLLECTION BOX - BLUE BOX", "address": {"city": "SLEEPY HOLLOW", "state": "NY", "street": "54 COTTAGE PL", "postcode": "10591"}}},
{"geometry": {"type": "Point", "coordinates": [-73.8601864093, 41.0718744103]}, "type": "Feature", "properties": {"collection_times": [{"days": "Mon-Sat", "time": "9:30am"}, {"days": "Sun", "time": "Closed"}], "id": "1059100020", "name": "USPS COLLECTION BOX - BLUE BOX", "address": {"city": "SLEEPY HOLLOW", "state": "NY", "street": "103 S BROADWAY", "postcode": "10591"}}},
{"geometry": {"type": "Point", "coordinates": [-73.8610713665, 41.0701013229]}, "type": "Feature", "properties": {"collection_times": [{"days": "Mon-Fri", "time": "4:00pm"}, {"days": "Sat", "time": "9:30am"}, {"days": "Sun", "time": "Closed"}], "id": "1059100021", "name": "USPS COLLECTION BOX - BLUE BOX", "address": {"city": "SLEEPY HOLLOW", "state": "NY", "street": "200 S BROADWAY", "postcode": "10591"}}},
{"geometry": {"type": "Point", "coordinates": [-73.8619309429, 41.0685491321]}, "type": "Feature", "properties": {"collection_times": [{"days": "Mon-Sat", "time": "9:30am"}, {"days": "Sun", "time": "Closed"}], "id": "1059100023", "name": "USPS COLLECTION BOX - BLUE BOX", "address": {"city": "SLEEPY HOLLOW", "state": "NY", "street": "2 TAPPAN LANDING RD", "postcode": "10591"}}},
{"geometry": {"type": "Point", "coordinates": [-73.8644791015, 41.0963235733]}, "type": "Feature", "properties": {"collection_times": [{"days": "Mon-Sat", "time": "9:30am"}, {"days": "Sun", "time": "Closed"}], "id": "1059100028", "name": "USPS COLLECTION BOX - BLUE BOX", "address": {"city": "SLEEPY HOLLOW", "state": "NY", "street": "533 BELLWOOD AVE", "postcode": "10591"}}},
{"geometry": {"type": "Point", "coordinates": [-73.8623520225, 41.0822343983]}, "type": "Feature", "properties": {"collection_times": [{"days": "Mon-Sat", "time": "8:30am"}, {"days": "Sun", "time": "Closed"}], "id": "1059100032", "name": "USPS COLLECTION BOX - BLUE BOX", "address": {"city": "SLEEPY HOLLOW", "state": "NY", "street": "126 VALLEY ST", "postcode": "10591"}}},
{"geometry": {"type": "Point", "coordinates": [-73.8395046008, 41.0634710924]}, "type": "Feature", "properties": {"collection_times": [{"days": "Mon-Fri", "time": "4:00pm"}, {"days": "Sat", "time": "9:30am"}, {"days": "Sun", "time": "Closed"}], "id": "1059100037", "name": "USPS COLLECTION BOX - BLUE BOX", "address": {"city": "SLEEPY HOLLOW", "state": "NY", "street": "505 WHITE PLAINS RD", "postcode": "10591"}}},
{"geometry": {"type": "Point", "coordinates": [-73.8621792216, 41.0630557176]}, "type": "Feature", "properties": {"collection_times": [{"days": "Mon-Sat", "time": "9:30am"}, {"days": "Sun", "time": "Closed"}], "id": "1059100040", "name": "USPS COLLECTION BOX - BLUE BOX", "address": {"city": "SLEEPY HOLLOW", "state": "NY", "street": "350 S BROADWAY", "postcode": "10591"}}},
{"geometry": {"type": "Point", "coordinates": [-73.8548619974, 41.0642105102]}, "type": "Feature", "properties": {"collection_times": [{"days": "Mon-Fri", "time": "4:00pm"}, {"days": "Sat-Sun", "time": "Closed"}], "id": "1059100043", "name": "USPS COLLECTION BOX - BLUE BOX", "address": {"city": "SLEEPY HOLLOW", "state": "NY", "street": "155 WHITE PLAINS RD", "postcode": "10591"}}},
{"geometry": {"type": "Point", "coordinates": [-73.8605221759, 41.0849152791]}, "type": "Feature", "properties": {"collection_times": [{"days": "Mon-Fri", "time": "5:00pm"}, {"days": "Sat", "time": "1:00pm"}, {"days": "Sun", "time": "Closed"}], "id": "1059100049", "name": "USPS COLLECTION BOX - BLUE BOX", "address": {"city": "SLEEPY HOLLOW", "state": "NY", "street": "45 BEEKMAN AVE", "postcode": "10591"}}},
{"geometry": {"type": "Point", "coordinates": [-73.8576384965, 41.0794129591]}, "type": "Feature", "properties": {"collection_times": [{"days": "Mon-Fri", "time": "5:00pm"}, {"days": "Sat", "time": "1:00pm"}, {"days": "Sun", "time": "Closed"}], "id": "1059100050", "name": "USPS COLLECTION BOX - PO LOBBY", "address": {"city": "SLEEPY HOLLOW", "state": "NY", "street": "50 N BROADWAY - LOBBY DROP SLOT", "postcode": "10591"}}},
{"geometry": {"type": "Point", "coordinates": [-73.8605221759, 41.0849152791]}, "type": "Feature", "properties": {"collection_times": [{"days": "Mon-Fri", "time": "5:00pm"}, {"days": "Sat", "time": "1:00pm"}, {"days": "Sun", "time": "Closed"}], "id": "1059100051", "name": "USPS COLLECTION BOX - PO LOBBY", "address": {"city": "SLEEPY HOLLOW", "state": "NY", "street": "45 BEEKMAN AVE LBBY DROP", "postcode": "10591"}}},
{"geometry": {"type": "Point", "coordinates": [-73.7802334958, 41.1237871489]}, "type": "Feature", "properties": {"collection_times": [{"days": "Mon-Sat", "time": "2:00pm"}, {"days": "Sun", "time": "Closed"}], "id": "1059400003", "name": "USPS COLLECTION BOX - BLUE BOX", "address": {"city": "THORNWOOD", "state": "NY", "street": "35 KENSICO RD", "postcode": "10594"}}},
{"geometry": {"type": "Point", "coordinates": [-73.7715884798, 41.1142000231]}, "type": "Feature", "properties": {"collection_times": [{"days": "Mon-Sat", "time": "2:00pm"}, {"days": "Sun", "time": "Closed"}], "id": "1059400004", "name": "USPS COLLECTION BOX - BLUE BOX", "address": {"city": "THORNWOOD", "state": "NY", "street": "634 COLUMBUS AVE", "postcode": "10594"}}},
{"geometry": {"type": "Point", "coordinates": [-73.7820706311, 41.121268629]}, "type": "Feature", "properties": {"collection_times": [{"days": "Mon-Fri", "time": "5:00pm"}, {"days": "Sat", "time": "2:00pm"}, {"days": "Sun", "time": "Closed"}], "id": "1059400006", "name": "USPS COLLECTION BOX - BLUE BOX", "address": {"city": "THORNWOOD", "state": "NY", "street": "822 COMMERCE ST", "postcode": "10594"}}},
{"geometry": {"type": "Point", "coordinates": [-73.7820706311, 41.121268629]}, "type": "Feature", "properties": {"collection_times": [{"days": "Mon-Fri", "time": "4:30pm"}, {"days": "Sat", "time": "2:00pm"}, {"days": "Sun", "time": "Closed"}], "id": "1059400007", "name": "USPS COLLECTION BOX - PO LOBBY", "address": {"city": "THORNWOOD", "state": "NY", "street": "822 COMMERCE ST LBBY DROP", "postcode": "10594"}}},
{"geometry": {"type": "Point", "coordinates": [-73.7721325928, 41.0737751925]}, "type": "Feature", "properties": {"collection_times": [{"days": "Mon-Fri", "time": "5:00pm"}, {"days": "Sat", "time": "1:30pm"}, {"days": "Sun", "time": "Closed"}], "id": "1059500002", "name": "USPS COLLECTION BOX - BLUE BOX", "address": {"city": "VALHALLA", "state": "NY", "street": "10 CLEVELAND ST", "postcode": "10595"}}},
{"geometry": {"type": "Point", "coordinates": [-73.772171116, 41.0977990902]}, "type": "Feature", "properties": {"collection_times": [{"days": "Mon-Fri", "time": "1:00pm"}, {"days": "Sat-Sun", "time": "Closed"}], "id": "1059500007", "name": "USPS COLLECTION BOX - BLUE BOX", "address": {"city": "VALHALLA", "state": "NY", "street": "117 E STEVENS AVE", "postcode": "10595"}}},
{"geometry": {"type": "Point", "coordinates": [-73.7773080383, 41.0953641936]}, "type": "Feature", "properties": {"collection_times": [{"days": "Mon-Fri", "time": "1:00pm"}, {"days": "Sat-Sun", "time": "Closed"}], "id": "1059500011", "name": "USPS COLLECTION BOX - BLUE BOX", "address": {"city": "VALHALLA", "state": "NY", "street": "1 TOWN HALL PLZ", "postcode": "10595"}}},
{"geometry": {"type": "Point", "coordinates": [-73.7721325928, 41.0737751925]}, "type": "Feature", "properties": {"collection_times": [{"days": "Mon-Fri", "time": "5:00pm"}, {"days": "Sat", "time": "1:30pm"}, {"days": "Sun", "time": "Closed"}], "id": "1059500014", "name": "USPS COLLECTION BOX - PO LOBBY", "address": {"city": "VALHALLA", "state": "NY", "street": "10 CLEVELAND ST LBBY DROP", "postcode": "10595"}}},
{"geometry": {"type": "Point", "coordinates": [-73.9598386066, 41.2525829889]}, "type": "Feature", "properties": {"collection_times": [{"days": "Mon-Fri", "time": "5:00pm"}, {"days": "Sat", "time": "12:00pm"}, {"days": "Sun", "time": "Closed"}], "id": "1059600001", "name": "USPS COLLECTION BOX - BLUE BOX", "address": {"city": "VERPLANCK", "state": "NY", "street": "174 6TH ST", "postcode": "10596"}}},
{"geometry": {"type": "Point", "coordinates": [-73.9598386066, 41.2525829889]}, "type": "Feature", "properties": {"collection_times": [{"days": "Mon-Fri", "time": "5:00pm"}, {"days": "Sat", "time": "12:00pm"}, {"days": "Sun", "time": "Closed"}], "id": "1059600002", "name": "USPS COLLECTION BOX - PO LOBBY", "address": {"city": "VERPLANCK", "state": "NY", "street": "174 6TH ST LBBY DROP", "postcode": "10596"}}},
{"geometry": {"type": "Point", "coordinates": [-73.5955707447, 41.2908507129]}, "type": "Feature", "properties": {"collection_times": [{"days": "Mon-Fri", "time": "4:45pm"}, {"days": "Sat", "time": "12:00pm"}, {"days": "Sun", "time": "Closed"}], "id": "1059700001", "name": "USPS COLLECTION BOX - BLUE BOX", "address": {"city": "WACCABUC", "state": "NY", "street": "2 POST OFFICE RD", "postcode": "10597"}}},
{"geometry": {"type": "Point", "coordinates": [-73.5955707447, 41.2908507129]}, "type": "Feature", "properties": {"collection_times": [{"days": "Mon-Fri", "time": "4:45pm"}, {"days": "Sat", "time": "12:00pm"}, {"days": "Sun", "time": "Closed"}], "id": "1059700003", "name": "USPS COLLECTION BOX - PO LOBBY", "address": {"city": "WACCABUC", "state": "NY", "street": "2 POST OFFICE RD LBBY DROP", "postcode": "10597"}}},
{"geometry": {"type": "Point", "coordinates": [-73.7804509558, 41.2745307637]}, "type": "Feature", "properties": {"collection_times": [{"days": "Mon-Fri", "time": "12:30pm"}, {"days": "Sat", "time": "12:00pm"}, {"days": "Sun", "time": "Closed"}], "id": "1059800001", "name": "USPS COLLECTION BOX - BLUE BOX", "address": {"city": "YORKTOWN HTS", "state": "NY", "street": "1974 COMMERCE ST", "postcode": "10598"}}},
{"geometry": {"type": "Point", "coordinates": [-73.7826758455, 41.2687482999]}, "type": "Feature", "properties": {"collection_times": [{"days": "Mon-Sat", "time": "12:00pm"}, {"days": "Sun", "time": "Closed"}], "id": "1059800011", "name": "USPS COLLECTION BOX - BLUE BOX", "address": {"city": "YORKTOWN HTS", "state": "NY", "street": "363 UNDERHILL AVE", "postcode": "10598"}}},
{"geometry": {"type": "Point", "coordinates": [-73.7799959822, 41.2738264837]}, "type": "Feature", "properties": {"collection_times": [{"days": "Mon-Fri", "time": "12:30pm"}, {"days": "Sat", "time": "12:00pm"}, {"days": "Sun", "time": "Closed"}], "id": "1059800012", "name": "USPS COLLECTION BOX - BLUE BOX", "address": {"city": "YORKTOWN HTS", "state": "NY", "street": "1940 COMMERCE ST", "postcode": "10598"}}},
{"geometry": {"type": "Point", "coordinates": [-73.8013518661, 41.3268970018]}, "type": "Feature", "properties": {"collection_times": [{"days": "Mon-Sat", "time": "12:00pm"}, {"days": "Sun", "time": "Closed"}], "id": "1059800020", "name": "USPS COLLECTION BOX - BLUE BOX", "address": {"city": "YORKTOWN HTS", "state": "NY", "street": "3505 HILL BLVD", "postcode": "10598"}}},
{"geometry": {"type": "Point", "coordinates": [-73.7784943326, 41.2789092906]}, "type": "Feature", "properties": {"collection_times": [{"days": "Mon-Fri", "time": "5:00pm"}, {"days": "Sat", "time": "3:00pm"}, {"days": "Sun", "time": "Closed"}], "id": "1059800022", "name": "USPS COLLECTION BOX - BLUE BOX", "address": {"city": "YORKTOWN HTS", "state": "NY", "street": "2020 MAPLE HILL ST", "postcode": "10598"}}},
{"geometry": {"type": "Point", "coordinates": [-73.8018179418, 41.3260757822]}, "type": "Feature", "properties": {"collection_times": [{"days": "Mon-Sat", "time": "12:00pm"}, {"days": "Sun", "time": "Closed"}], "id": "1059800025", "name": "USPS COLLECTION BOX - BLUE BOX", "address": {"city": "YORKTOWN HTS", "state": "NY", "street": "3480 HILL BLVD", "postcode": "10598"}}},
{"geometry": {"type": "Point", "coordinates": [-73.7784943326, 41.2789092906]}, "type": "Feature", "properties": {"collection_times": [{"days": "Mon-Fri", "time": "5:00pm"}, {"days": "Sat", "time": "3:00pm"}, {"days": "Sun", "time": "Closed"}], "id": "1059800026", "name": "USPS COLLECTION BOX - APC", "address": {"city": "YORKTOWN HTS", "state": "NY", "street": "2020 MAPLE HILL ST", "postcode": "10598"}}},
{"geometry": {"type": "Point", "coordinates": [-73.7964806887, 41.2839397409]}, "type": "Feature", "properties": {"collection_times": [{"days": "Mon-Fri", "time": "5:00pm"}, {"days": "Sat", "time": "3:00pm"}, {"days": "Sun", "time": "Closed"}], "id": "1059800027", "name": "USPS COLLECTION BOX - PO LOBBY", "address": {"city": "YORKTOWN HTS", "state": "NY", "street": "2020 MAPLE ST LOBBY DROP", "postcode": "10598"}}}
]}
