{"type": "FeatureCollection", "features": [
{"geometry": {"type": "Point", "coordinates": [-73.7667501295, 41.0359772876]}, "type": "Feature", "properties": {"collection_times": [{"days": "Mon-Sat", "time": "9:30am"}, {"days": "Sun", "time": "Closed"}], "id": "1060100001", "name": "USPS COLLECTION BOX - BLUE BOX", "address": {"city": "WHITE PLAINS", "state": "NY", "street": "41 BARKER AVE", "postcode": "10601"}}},
{"geometry": {"type": "Point", "coordinates": [-73.7674989425, 41.0344323432]}, "type": "Feature", "properties": {"collection_times": [{"days": "Mon-Fri", "time": "5:00pm"}, {"days": "Sat", "time": "9:30am"}, {"days": "Sun", "time": "Closed"}], "id": "1060100007", "name": "USPS COLLECTION BOX - BLUE BOX", "address": {"city": "WHITE PLAINS", "state": "NY", "street": "95 CHURCH ST", "postcode": "10601"}}},
{"geometry": {"type": "Point", "coordinates": [-73.7651875236, 41.0291187819]}, "type": "Feature", "properties": {"collection_times": [{"days": "Mon-Sat", "time": "9:30am"}, {"days": "Sun", "time": "Closed"}], "id": "1060100012", "name": "USPS COLLECTION BOX - BLUE BOX", "address": {"city": "WHITE PLAINS", "state": "NY", "street": "151 E POST RD", "postcode": "10601"}}},
{"geometry": {"type": "Point", "coordinates": [-73.7655174863, 41.0299311843]}, "type": "Feature", "properties": {"collection_times": [{"days": "Mon-Sat", "time": "9:30am"}, {"days": "Sun", "time": "Closed"}], "id": "1060100013", "name": "USPS COLLECTION BOX - BLUE BOX", "address": {"city": "WHITE PLAINS", "state": "NY", "street": "131 MAMARONECK AVE", "postcode": "10601"}}},
{"geometry": {"type": "Point", "coordinates": [-73.7626310664, 41.030315646]}, "type": "Feature", "properties": {"collection_times": [{"days": "Mon-Sat", "time": "9:30am"}, {"days": "Sun", "time": "Closed"}], "id": "1060100014", "name": "USPS COLLECTION BOX - BLUE BOX", "address": {"city": "WHITE PLAINS", "state": "NY", "street": "223 E POST RD", "postcode": "10601"}}},
{"geometry": {"type": "Point", "coordinates": [-73.7677024115, 41.0290143911]}, "type": "Feature", "properties": {"collection_times": [{"days": "Mon-Fri", "time": "5:00pm"}, {"days": "Sat", "time": "9:30am"}, {"days": "Sun", "time": "Closed"}], "id": "1060100015", "name": "USPS COLLECTION BOX - BLUE BOX", "address": {"city": "WHITE PLAINS", "state": "NY", "street": "150 GRAND ST", "postcode": "10601"}}},
{"geometry": {"type": "Point", "coordinates": [-73.7689936034, 41.029640148]}, "type": "Feature", "properties": {"collection_times": [{"days": "Mon-Fri", "time": "5:00pm"}, {"days": "Sat", "time": "9:30am"}, {"days": "Sun", "time": "Closed"}], "id": "1060100017", "name": "USPS COLLECTION BOX - BLUE BOX", "address": {"city": "WHITE PLAINS", "state": "NY", "street": "111 GROVE ST", "postcode": "10601"}}},
{"geometry": {"type": "Point", "coordinates": [-73.7691645488, 41.0335096352]}, "type": "Feature", "properties": {"collection_times": [{"days": "Mon-Sat", "time": "9:30am"}, {"days": "Sun", "time": "Closed"}], "id": "1060100022", "name": "USPS COLLECTION BOX - BLUE BOX", "address": {"city": "WHITE PLAINS", "state": "NY", "street": "200 HAMILTON AVE", "postcode": "10601"}}},
{"geometry": {"type": "Point", "coordinates": [-73.7644812142, 41.0274694467]}, "type": "Feature", "properties": {"collection_times": [{"days": "Mon-Sat", "time": "9:30am"}, {"days": "Sun", "time": "Closed"}], "id": "1060100027", "name": "USPS COLLECTION BOX - BLUE BOX", "address": {"city": "WHITE PLAINS", "state": "NY", "street": "214 MAMARONECK AVE", "postcode": "10601"}}},
{"geometry": {"type": "Point", "coordinates": [-73.765900545, 41.032936974]}, "type": "Feature", "properties": {"collection_times": [{"days": "Mon-Fri", "time": "5:00pm"}, {"days": "Sat", "time": "9:30am"}, {"days": "Sun", "time": "Closed"}], "id": "1060100030", "name": "USPS COLLECTION BOX - BLUE BOX", "address": {"city": "WHITE PLAINS", "state": "NY", "street": "235 MAIN ST", "postcode": "10601"}}},
{"geometry": {"type": "Point", "coordinates": [-73.7630581146, 41.0335593195]}, "type": "Feature", "properties": {"collection_times": [{"days": "Mon-Sat", "time": "9:30am"}, {"days": "Sun", "time": "Closed"}], "id": "1060100034", "name": "USPS COLLECTION BOX - BLUE BOX", "address": {"city": "WHITE PLAINS", "state": "NY", "street": "1 S BROADWAY", "postcode": "10601"}}},
{"geometry": {"type": "Point", "coordinates": [-73.7693700659, 41.0249470515]}, "type": "Feature", "properties": {"collection_times": [{"days": "Mon-Fri", "time": "5:00pm"}, {"days": "Sat", "time": "9:30am"}, {"days": "Sun", "time": "Closed"}], "id": "1060100037", "name": "USPS COLLECTION BOX - BLUE BOX", "address": {"city": "WHITE PLAINS", "state": "NY", "street": "170 MAPLE AVE", "postcode": "10601"}}},
{"geometry": {"type": "Point", "coordinates": [-73.7741306105, 41.0331003314]}, "type": "Feature", "properties": {"collection_times": [{"days": "Mon-Sat", "time": "9:30am"}, {"days": "Sun", "time": "Closed"}], "id": "1060100048", "name": "USPS COLLECTION BOX - BLUE BOX", "address": {"city": "WHITE PLAINS", "state": "NY", "street": "10 FERRIS AVE", "postcode": "10601"}}},
{"geometry": {"type": "Point", "coordinates": [-73.7627730215, 41.0340857362]}, "type": "Feature", "properties": {"collection_times": [{"days": "Mon-Sat", "time": "9:30am"}, {"days": "Sun", "time": "Closed"}], "id": "1060100062", "name": "USPS COLLECTION BOX - BLUE BOX", "address": {"city": "WHITE PLAINS", "state": "NY", "street": "2 WESTCHESTER AVE", "postcode": "10601"}}},
{"geometry": {"type": "Point", "coordinates": [-73.76970538, 41.026296374]}, "type": "Feature", "properties": {"collection_times": [{"days": "Mon-Fri", "time": "5:00pm"}, {"days": "Sat", "time": "9:30am"}, {"days": "Sun", "time": "Closed"}], "id": "1060100068", "name": "USPS COLLECTION BOX - BLUE BOX", "address": {"city": "WHITE PLAINS", "state": "NY", "street": "41 E POST RD", "postcode": "10601"}}},
{"geometry": {"type": "Point", "coordinates": [-73.7681140812, 41.0323030171]}, "type": "Feature", "properties": {"collection_times": [{"days": "Mon-Fri", "time": "5:00pm"}, {"days": "Sat", "time": "9:30am"}, {"days": "Sun", "time": "Closed"}], "id": "1060100070", "name": "USPS COLLECTION BOX - BLUE BOX", "address": {"city": "WHITE PLAINS", "state": "NY", "street": "175 MAIN ST", "postcode": "10601"}}},
{"geometry": {"type": "Point", "coordinates": [-73.7680123467, 41.0274221284]}, "type": "Feature", "properties": {"collection_times": [{"days": "Mon-Sat", "time": "9:30am"}, {"days": "Sun", "time": "Closed"}], "id": "1060100074", "name": "USPS COLLECTION BOX - BLUE BOX", "address": {"city": "WHITE PLAINS", "state": "NY", "street": "79 E POST RD", "postcode": "10601"}}},
{"geometry": {"type": "Point", "coordinates": [-73.7620608802, 41.0312241585]}, "type": "Feature", "properties": {"collection_times": [{"days": "Mon-Sat", "time": "9:30am"}, {"days": "Sun", "time": "Closed"}], "id": "1060100075", "name": "USPS COLLECTION BOX - BLUE BOX", "address": {"city": "WHITE PLAINS", "state": "NY", "street": "35 S BROADWAY", "postcode": "10601"}}},
{"geometry": {"type": "Point", "coordinates": [-73.767746181, 41.0311046796]}, "type": "Feature", "properties": {"collection_times": [{"days": "Mon-Sat", "time": "9:30am"}, {"days": "Sun", "time": "Closed"}], "id": "1060100081", "name": "USPS COLLECTION BOX - BLUE BOX", "address": {"city": "WHITE PLAINS", "state": "NY", "street": "148 MARTINE AVE", "postcode": "10601"}}},
{"geometry": {"type": "Point", "coordinates": [-73.7677414491, 41.0291362359]}, "type": "Feature", "properties": {"collection_times": [{"days": "Mon-Fri", "time": "5:00pm"}, {"days": "Sat", "time": "9:30am"}, {"days": "Sun", "time": "Closed"}], "id": "1060100085", "name": "USPS COLLECTION BOX - BLUE BOX", "address": {"city": "WHITE PLAINS", "state": "NY", "street": "140 GRAND ST", "postcode": "10601"}}},
{"geometry": {"type": "Point", "coordinates": [-73.7655494262, 41.0329950481]}, "type": "Feature", "properties": {"collection_times": [{"days": "Mon-Fri", "time": "5:00pm"}, {"days": "Sat", "time": "9:30am"}, {"days": "Sun", "time": "Closed"}], "id": "1060100087", "name": "USPS COLLECTION BOX - BLUE BOX", "address": {"city": "WHITE PLAINS", "state": "NY", "street": "255 MAIN ST", "postcode": "10601"}}},
{"geometry": {"type": "Point", "coordinates": [-73.7603254794, 41.0341638115]}, "type": "Feature", "properties": {"collection_times": [{"days": "Mon-Sat", "time": "9:30am"}, {"days": "Sun", "time": "Closed"}], "id": "1060100103", "name": "USPS COLLECTION BOX - BLUE BOX", "address": {"city": "WHITE PLAINS", "state": "NY", "street": "40 WINDSOR TER", "postcode": "10601"}}},
{"geometry": {"type": "Point", "coordinates": [-73.7669230253, 41.0311776356]}, "type": "Feature", "properties": {"collection_times": [{"days": "Mon-Fri", "time": "5:00pm"}, {"days": "Sat", "time": "1:00pm"}, {"days": "Sun", "time": "Closed"}], "id": "1060100109", "name": "USPS COLLECTION BOX - PO LOBBY", "address": {"city": "WHITE PLAINS", "state": "NY", "street": "170 MARTINE AVE ( LOBBY DROP SLOT )", "postcode": "10601"}}},
{"geometry": {"type": "Point", "coordinates": [-73.7743222822, 41.027548847]}, "type": "Feature", "properties": {"collection_times": [{"days": "Mon-Fri", "time": "5:00pm"}, {"days": "Sat", "time": "4:00pm"}, {"days": "Sun", "time": "Closed"}], "id": "1060200002", "name": "USPS COLLECTION BOX - BLUE BOX", "address": {"city": "WHITE PLAINS", "state": "NY", "street": "100 FISHER AVE", "postcode": "10602"}}},
{"geometry": {"type": "Point", "coordinates": [-73.7743222822, 41.027548847]}, "type": "Feature", "properties": {"collection_times": [{"days": "Mon-Fri", "time": "5:00pm"}, {"days": "Sat", "time": "4:00pm"}, {"days": "Sun", "time": "Closed"}], "id": "1060200006", "name": "USPS COLLECTION BOX - APC", "address": {"city": "WHITE PLAINS", "state": "NY", "street": "100 FISHER AVE", "postcode": "10602"}}},
{"geometry": {"type": "Point", "coordinates": [-73.7743222822, 41.027548847]}, "type": "Feature", "properties": {"collection_times": [{"days": "Mon-Fri", "time": "5:00pm"}, {"days": "Sat", "time": "4:00pm"}, {"days": "Sun", "time": "Closed"}], "id": "1060200007", "name": "USPS COLLECTION BOX - BLUE BOX", "address": {"city": "WHITE PLAINS", "state": "NY", "street": "100 FISHER AVE", "postcode": "10602"}}},
{"geometry": {"type": "Point", "coordinates": [-73.7743222822, 41.027548847]}, "type": "Feature", "properties": {"collection_times": [{"days": "Mon-Fri", "time": "5:00pm"}, {"days": "Sat", "time": "4:00pm"}, {"days": "Sun", "time": "Closed"}], "id": "1060200008", "name": "USPS COLLECTION BOX - PO LOBBY", "address": {"city": "WHITE PLAINS", "state": "NY", "street": "100 FISHER AVE ( LOBBY DROP SLOT )", "postcode": "10602"}}},
{"geometry": {"type": "Point", "coordinates": [-73.799488466, 41.0715022895]}, "type": "Feature", "properties": {"collection_times": [{"days": "Mon-Sat", "time": "9:30am"}, {"days": "Sun", "time": "Closed"}], "id": "1060300001", "name": "USPS COLLECTION BOX - BLUE BOX", "address": {"city": "WHITE PLAINS", "state": "NY", "street": "8 MAYFAIR WAY", "postcode": "10603"}}},
{"geometry": {"type": "Point", "coordinates": [-73.7713473799, 41.0439346428]}, "type": "Feature", "properties": {"collection_times": [{"days": "Mon-Sat", "time": "9:30am"}, {"days": "Sun", "time": "Closed"}], "id": "1060300003", "name": "USPS COLLECTION BOX - BLUE BOX", "address": {"city": "WHITE PLAINS", "state": "NY", "street": "379 CHURCH ST", "postcode": "10603"}}},
{"geometry": {"type": "Point", "coordinates": [-73.773655061, 41.0430620289]}, "type": "Feature", "properties": {"collection_times": [{"days": "Mon-Sat", "time": "9:30am"}, {"days": "Sun", "time": "Closed"}], "id": "1060300006", "name": "USPS COLLECTION BOX - BLUE BOX", "address": {"city": "WHITE PLAINS", "state": "NY", "street": "29 WARDMAN ST", "postcode": "10603"}}},
{"geometry": {"type": "Point", "coordinates": [-73.7721219462, 41.0495706691]}, "type": "Feature", "properties": {"collection_times": [{"days": "Mon-Sat", "time": "9:30am"}, {"days": "Sun", "time": "Closed"}], "id": "1060300011", "name": "USPS COLLECTION BOX - BLUE BOX", "address": {"city": "WHITE PLAINS", "state": "NY", "street": "2 HOLLAND AVE", "postcode": "10603"}}},
{"geometry": {"type": "Point", "coordinates": [-73.7660414832, 41.0592850381]}, "type": "Feature", "properties": {"collection_times": [{"days": "Mon-Fri", "time": "5:00pm"}, {"days": "Sat", "time": "9:30am"}, {"days": "Sun", "time": "Closed"}], "id": "1060300013", "name": "USPS COLLECTION BOX - BLUE BOX", "address": {"city": "WHITE PLAINS", "state": "NY", "street": "901 N BROADWAY", "postcode": "10603"}}},
{"geometry": {"type": "Point", "coordinates": [-73.7596607581, 41.0380701666]}, "type": "Feature", "properties": {"collection_times": [{"days": "Mon-Sat", "time": "9:30am"}, {"days": "Sun", "time": "Closed"}], "id": "1060300015", "name": "USPS COLLECTION BOX - BLUE BOX", "address": {"city": "WHITE PLAINS", "state": "NY", "street": "1 S KENSICO AVE", "postcode": "10603"}}},
{"geometry": {"type": "Point", "coordinates": [-73.7610967686, 41.0373932895]}, "type": "Feature", "properties": {"collection_times": [{"days": "Mon-Sat", "time": "9:30am"}, {"days": "Sun", "time": "Closed"}], "id": "1060300016", "name": "USPS COLLECTION BOX - BLUE BOX", "address": {"city": "WHITE PLAINS", "state": "NY", "street": "30 LAKE ST", "postcode": "10603"}}},
{"geometry": {"type": "Point", "coordinates": [-73.7696259028, 41.0532898921]}, "type": "Feature", "properties": {"collection_times": [{"days": "Mon-Fri", "time": "5:00pm"}, {"days": "Sat", "time": "9:30am"}, {"days": "Sun", "time": "Closed"}], "id": "1060300018", "name": "USPS COLLECTION BOX - BLUE BOX", "address": {"city": "WHITE PLAINS", "state": "NY", "street": "585 N BROADWAY", "postcode": "10603"}}},
{"geometry": {"type": "Point", "coordinates": [-73.7754801679, 41.0633444735]}, "type": "Feature", "properties": {"collection_times": [{"days": "Mon-Sat", "time": "9:30am"}, {"days": "Sun", "time": "Closed"}], "id": "1060300021", "name": "USPS COLLECTION BOX - BLUE BOX", "address": {"city": "WHITE PLAINS", "state": "NY", "street": "70 VIRGINIA RD", "postcode": "10603"}}},
{"geometry": {"type": "Point", "coordinates": [-73.7889786566, 41.053368173]}, "type": "Feature", "properties": {"collection_times": [{"days": "Mon-Sat", "time": "9:30am"}, {"days": "Sun", "time": "Closed"}], "id": "1060300024", "name": "USPS COLLECTION BOX - BLUE BOX", "address": {"city": "WHITE PLAINS", "state": "NY", "street": "298 HILLSIDE AVE", "postcode": "10603"}}},
{"geometry": {"type": "Point", "coordinates": [-73.7797467462, 41.0621094954]}, "type": "Feature", "properties": {"collection_times": [{"days": "Mon-Sat", "time": "9:30am"}, {"days": "Sun", "time": "Closed"}], "id": "1060300025", "name": "USPS COLLECTION BOX - BLUE BOX", "address": {"city": "WHITE PLAINS", "state": "NY", "street": "80 LAWRENCE DR", "postcode": "10603"}}},
{"geometry": {"type": "Point", "coordinates": [-73.7679141611, 41.0413810442]}, "type": "Feature", "properties": {"collection_times": [{"days": "Mon-Sat", "time": "9:30am"}, {"days": "Sun", "time": "Closed"}], "id": "1060300029", "name": "USPS COLLECTION BOX - BLUE BOX", "address": {"city": "WHITE PLAINS", "state": "NY", "street": "101 N BROADWAY", "postcode": "10603"}}},
{"geometry": {"type": "Point", "coordinates": [-73.767052967, 41.0397402801]}, "type": "Feature", "properties": {"collection_times": [{"days": "Mon-Fri", "time": "9:30am"}, {"days": "Sat-Sun", "time": "Closed"}], "id": "1060300036", "name": "USPS COLLECTION BOX - BLUE BOX", "address": {"city": "WHITE PLAINS", "state": "NY", "street": "78 N BROADWAY", "postcode": "10603"}}},
{"geometry": {"type": "Point", "coordinates": [-73.7696259028, 41.0532898921]}, "type": "Feature", "properties": {"collection_times": [{"days": "Mon-Fri", "time": "5:00pm"}, {"days": "Sat", "time": "4:00pm"}, {"days": "Sun", "time": "Closed"}], "id": "1060300037", "name": "USPS COLLECTION BOX - PO LOBBY", "address": {"city": "WHITE PLAINS", "state": "NY", "street": "585 N BROADWAY LBBY SLOT", "postcode": "10603"}}},
{"geometry": {"type": "Point", "coordinates": [-73.7641771938, 41.0470911871]}, "type": "Feature", "properties": {"collection_times": [{"days": "Mon-Sat", "time": "9:30am"}, {"days": "Sun", "time": "Closed"}], "id": "1060400004", "name": "USPS COLLECTION BOX - BLUE BOX", "address": {"city": "WHITE PLAINS", "state": "NY", "street": "68 BEECH ST W", "postcode": "10604"}}},
{"geometry": {"type": "Point", "coordinates": [-73.7613440783, 41.0430356119]}, "type": "Feature", "properties": {"collection_times": [{"days": "Mon-Sat", "time": "9:30am"}, {"days": "Sun", "time": "Closed"}], "id": "1060400013", "name": "USPS COLLECTION BOX - BLUE BOX", "address": {"city": "WHITE PLAINS", "state": "NY", "street": "149 N KENSICO AVE", "postcode": "10604"}}},
{"geometry": {"type": "Point", "coordinates": [-73.7443756605, 41.0389492884]}, "type": "Feature", "properties": {"collection_times": [{"days": "Mon-Sat", "time": "9:30am"}, {"days": "Sun", "time": "Closed"}], "id": "1060400018", "name": "USPS COLLECTION BOX - BLUE BOX", "address": {"city": "WHITE PLAINS", "state": "NY", "street": "80 WOODSIDE AVE", "postcode": "10604"}}},
{"geometry": {"type": "Point", "coordinates": [-73.7132362251, 41.0808058685]}, "type": "Feature", "properties": {"collection_times": [{"days": "Mon-Fri", "time": "4:30pm"}, {"days": "Sat-Sun", "time": "Closed"}], "id": "1060400019", "name": "USPS COLLECTION BOX - BLUE BOX", "address": {"city": "WHITE PLAINS", "state": "NY", "street": "4 NEW KING ST", "postcode": "10604"}}},
{"geometry": {"type": "Point", "coordinates": [-73.7133510775, 41.0810492462]}, "type": "Feature", "properties": {"collection_times": [{"days": "Mon-Fri", "time": "4:30pm"}, {"days": "Sat-Sun", "time": "Closed"}], "id": "1060400020", "name": "USPS COLLECTION BOX - BLUE BOX", "address": {"city": "WHITE PLAINS", "state": "NY", "street": "10 NEW KING ST", "postcode": "10604"}}},
{"geometry": {"type": "Point", "coordinates": [-73.7493751158, 41.041596257]}, "type": "Feature", "properties": {"collection_times": [{"days": "Mon-Sat", "time": "9:30am"}, {"days": "Sun", "time": "Closed"}], "id": "1060400021", "name": "USPS COLLECTION BOX - BLUE BOX", "address": {"city": "WHITE PLAINS", "state": "NY", "street": "2 MADISON ST", "postcode": "10604"}}},
{"geometry": {"type": "Point", "coordinates": [-73.755172836, 41.0329030678]}, "type": "Feature", "properties": {"collection_times": [{"days": "Mon-Fri", "time": "5:00pm"}, {"days": "Sat", "time": "9:30am"}, {"days": "Sun", "time": "Closed"}], "id": "1060400030", "name": "USPS COLLECTION BOX - BLUE BOX", "address": {"city": "WHITE PLAINS", "state": "NY", "street": "222 WESTCHESTER AVE", "postcode": "10604"}}},
{"geometry": {"type": "Point", "coordinates": [-73.7492769483, 41.0371114834]}, "type": "Feature", "properties": {"collection_times": [{"days": "Mon-Sat", "time": "9:30am"}, {"days": "Sun", "time": "Closed"}], "id": "1060400048", "name": "USPS COLLECTION BOX - BLUE BOX", "address": {"city": "WHITE PLAINS", "state": "NY", "street": "160 COLUMBUS AVE", "postcode": "10604"}}},
{"geometry": {"type": "Point", "coordinates": [-73.7474216871, 41.039380171]}, "type": "Feature", "properties": {"collection_times": [{"days": "Mon-Sat", "time": "9:30am"}, {"days": "Sun", "time": "Closed"}], "id": "1060400049", "name": "USPS COLLECTION BOX - BLUE BOX", "address": {"city": "WHITE PLAINS", "state": "NY", "street": "109 GAINSBORG AVE E", "postcode": "10604"}}},
{"geometry": {"type": "Point", "coordinates": [-73.7552565002, 41.0447134396]}, "type": "Feature", "properties": {"collection_times": [{"days": "Mon-Sat", "time": "9:30am"}, {"days": "Sun", "time": "Closed"}], "id": "1060400058", "name": "USPS COLLECTION BOX - BLUE BOX", "address": {"city": "WHITE PLAINS", "state": "NY", "street": "94 WOODCREST AVE", "postcode": "10604"}}},
{"geometry": {"type": "Point", "coordinates": [-73.7532324574, 41.0468226554]}, "type": "Feature", "properties": {"collection_times": [{"days": "Mon-Sat", "time": "9:30am"}, {"days": "Sun", "time": "Closed"}], "id": "1060400059", "name": "USPS COLLECTION BOX - BLUE BOX", "address": {"city": "WHITE PLAINS", "state": "NY", "street": "36 SUNSET DR", "postcode": "10604"}}},
{"geometry": {"type": "Point", "coordinates": [-73.7600415692, 41.0067132487]}, "type": "Feature", "properties": {"collection_times": [{"days": "Mon-Sat", "time": "9:30am"}, {"days": "Sun", "time": "Closed"}], "id": "1060500002", "name": "USPS COLLECTION BOX - BLUE BOX", "address": {"city": "WHITE PLAINS", "state": "NY", "street": "184 BEVERLY RD", "postcode": "10605"}}},
{"geometry": {"type": "Point", "coordinates": [-73.75696351, 41.0162573617]}, "type": "Feature", "properties": {"collection_times": [{"days": "Mon-Sat", "time": "9:30am"}, {"days": "Sun", "time": "Closed"}], "id": "1060500010", "name": "USPS COLLECTION BOX - BLUE BOX", "address": {"city": "WHITE PLAINS", "state": "NY", "street": "1 GEDNEY ESPLANADE", "postcode": "10605"}}},
{"geometry": {"type": "Point", "coordinates": [-73.7535696007, 41.0093370517]}, "type": "Feature", "properties": {"collection_times": [{"days": "Mon-Sat", "time": "9:30am"}, {"days": "Sun", "time": "Closed"}], "id": "1060500013", "name": "USPS COLLECTION BOX - BLUE BOX", "address": {"city": "WHITE PLAINS", "state": "NY", "street": "46 GEDNEY WAY", "postcode": "10605"}}},
{"geometry": {"type": "Point", "coordinates": [-73.7650466629, 41.0245878332]}, "type": "Feature", "properties": {"collection_times": [{"days": "Mon-Sat", "time": "9:30am"}, {"days": "Sun", "time": "Closed"}], "id": "1060500015", "name": "USPS COLLECTION BOX - BLUE BOX", "address": {"city": "WHITE PLAINS", "state": "NY", "street": "30 GREENRIDGE AVE", "postcode": "10605"}}},
{"geometry": {"type": "Point", "coordinates": [-73.7319698951, 41.0077722211]}, "type": "Feature", "properties": {"collection_times": [{"days": "Mon-Sat", "time": "9:30am"}, {"days": "Sun", "time": "Closed"}], "id": "1060500021", "name": "USPS COLLECTION BOX - BLUE BOX", "address": {"city": "WHITE PLAINS", "state": "NY", "street": "905 NORTH ST", "postcode": "10605"}}},
{"geometry": {"type": "Point", "coordinates": [-73.7355235617, 41.0149904126]}, "type": "Feature", "properties": {"collection_times": [{"days": "Mon-Sat", "time": "9:30am"}, {"days": "Sun", "time": "Closed"}], "id": "1060500022", "name": "USPS COLLECTION BOX - BLUE BOX", "address": {"city": "WHITE PLAINS", "state": "NY", "street": "515 RIDGEWAY", "postcode": "10605"}}},
{"geometry": {"type": "Point", "coordinates": [-73.7460779216, 40.9927070146]}, "type": "Feature", "properties": {"collection_times": [{"days": "Mon-Sat", "time": "9:30am"}, {"days": "Sun", "time": "Closed"}], "id": "1060500025", "name": "USPS COLLECTION BOX - BLUE BOX", "address": {"city": "WHITE PLAINS", "state": "NY", "street": "1211 MAMARONECK AVE", "postcode": "10605"}}},
{"geometry": {"type": "Point", "coordinates": [-73.7479481797, 41.0010646197]}, "type": "Feature", "properties": {"collection_times": [{"days": "Mon-Sat", "time": "9:30am"}, {"days": "Sun", "time": "Closed"}], "id": "1060500026", "name": "USPS COLLECTION BOX - BLUE BOX", "address": {"city": "WHITE PLAINS", "state": "NY", "street": "10 MEADOW WAY", "postcode": "10605"}}},
{"geometry": {"type": "Point", "coordinates": [-73.7601184616, 41.0231197066]}, "type": "Feature", "properties": {"collection_times": [{"days": "Mon-Fri", "time": "5:00pm"}, {"days": "Sat", "time": "9:30am"}, {"days": "Sun", "time": "Closed"}], "id": "1060500033", "name": "USPS COLLECTION BOX - BLUE BOX", "address": {"city": "WHITE PLAINS", "state": "NY", "street": "180 S BROADWAY", "postcode": "10605"}}},
{"geometry": {"type": "Point", "coordinates": [-73.7630206595, 41.0239015971]}, "type": "Feature", "properties": {"collection_times": [{"days": "Mon-Sat", "time": "9:30am"}, {"days": "Sun", "time": "Closed"}], "id": "1060500034", "name": "USPS COLLECTION BOX - BLUE BOX", "address": {"city": "WHITE PLAINS", "state": "NY", "street": "382 MAMARONECK AVE", "postcode": "10605"}}},
{"geometry": {"type": "Point", "coordinates": [-73.7632828768, 41.0247699344]}, "type": "Feature", "properties": {"collection_times": [{"days": "Mon-Sat", "time": "9:30am"}, {"days": "Sun", "time": "Closed"}], "id": "1060500035", "name": "USPS COLLECTION BOX - BLUE BOX", "address": {"city": "WHITE PLAINS", "state": "NY", "street": "333 MAMARONECK AVE", "postcode": "10605"}}},
{"geometry": {"type": "Point", "coordinates": [-73.7573471409, 41.0197227544]}, "type": "Feature", "properties": {"collection_times": [{"days": "Mon-Fri", "time": "5:00pm"}, {"days": "Sat", "time": "2:00pm"}, {"days": "Sun", "time": "Closed"}], "id": "1060500042", "name": "USPS COLLECTION BOX - BLUE BOX", "address": {"city": "WHITE PLAINS", "state": "NY", "street": "620 MAMARONECK AVE", "postcode": "10605"}}},
{"geometry": {"type": "Point", "coordinates": [-73.7573471409, 41.0197227544]}, "type": "Feature", "properties": {"collection_times": [{"days": "Mon-Fri", "time": "5:00pm"}, {"days": "Sat", "time": "12:00pm"}, {"days": "Sun", "time": "Closed"}], "id": "1060500045", "name": "USPS COLLECTION BOX - PO LOBBY", "address": {"city": "WHITE PLAINS", "state": "NY", "street": "620 MAMARONECK AVE LBBY SLOT", "postcode": "10605"}}},
{"geometry": {"type": "Point", "coordinates": [-73.7743045055, 41.0219710535]}, "type": "Feature", "properties": {"collection_times": [{"days": "Mon-Sat", "time": "9:30am"}, {"days": "Sun", "time": "Closed"}], "id": "1060600016", "name": "USPS COLLECTION BOX - BLUE BOX", "address": {"city": "WHITE PLAINS", "state": "NY", "street": "1 SUMMIT AVE", "postcode": "10606"}}},
{"geometry": {"type": "Point", "coordinates": [-73.7713471081, 41.0152163578]}, "type": "Feature", "properties": {"collection_times": [{"days": "Mon-Sat", "time": "9:30am"}, {"days": "Sun", "time": "Closed"}], "id": "1060600024", "name": "USPS COLLECTION BOX - BLUE BOX", "address": {"city": "WHITE PLAINS", "state": "NY", "street": "90 SOUNDVIEW AVE", "postcode": "10606"}}},
{"geometry": {"type": "Point", "coordinates": [-73.769130243, 41.0091868159]}, "type": "Feature", "properties": {"collection_times": [{"days": "Mon-Sat", "time": "9:30am"}, {"days": "Sun", "time": "Closed"}], "id": "1060600026", "name": "USPS COLLECTION BOX - BLUE BOX", "address": {"city": "WHITE PLAINS", "state": "NY", "street": "174 HARTSDALE AVE", "postcode": "10606"}}},
{"geometry": {"type": "Point", "coordinates": [-73.7658652762, 41.0073496807]}, "type": "Feature", "properties": {"collection_times": [{"days": "Mon-Sat", "time": "9:30am"}, {"days": "Sun", "time": "Closed"}], "id": "1060600027", "name": "USPS COLLECTION BOX - BLUE BOX", "address": {"city": "WHITE PLAINS", "state": "NY", "street": "85 MIDCHESTER AVE", "postcode": "10606"}}},
{"geometry": {"type": "Point", "coordinates": [-73.7805410651, 41.0202806051]}, "type": "Feature", "properties": {"collection_times": [{"days": "Mon-Sat", "time": "9:30am"}, {"days": "Sun", "time": "Closed"}], "id": "1060600032", "name": "USPS COLLECTION BOX - BLUE BOX", "address": {"city": "WHITE PLAINS", "state": "NY", "street": "88 QUINBY AVE", "postcode": "10606"}}},
{"geometry": {"type": "Point", "coordinates": [-73.7796247199, 41.0374125253]}, "type": "Feature", "properties": {"collection_times": [{"days": "Mon-Sat", "time": "9:30am"}, {"days": "Sun", "time": "Closed"}], "id": "1060700002", "name": "USPS COLLECTION BOX - BLUE BOX", "address": {"city": "WHITE PLAINS", "state": "NY", "street": "10 COUNTY CENTER RD", "postcode": "10607"}}},
{"geometry": {"type": "Point", "coordinates": [-73.7874938875, 41.0370614747]}, "type": "Feature", "properties": {"collection_times": [{"days": "Mon-Sat", "time": "9:30am"}, {"days": "Sun", "time": "Closed"}], "id": "1060700007", "name": "USPS COLLECTION BOX - BLUE BOX", "address": {"city": "WHITE PLAINS", "state": "NY", "street": "3 SOUTHWOOD PL", "postcode": "10607"}}},
{"geometry": {"type": "Point", "coordinates": [-73.7990546706, 41.0430535046]}, "type": "Feature", "properties": {"collection_times": [{"days": "Mon-Sat", "time": "9:30am"}, {"days": "Sun", "time": "Closed"}], "id": "1060700009", "name": "USPS COLLECTION BOX - BLUE BOX", "address": {"city": "WHITE PLAINS", "state": "NY", "street": "405 TARRYTOWN RD", "postcode": "10607"}}},
{"geometry": {"type": "Point", "coordinates": [-73.8105623922, 41.0390533521]}, "type": "Feature", "properties": {"collection_times": [{"days": "Mon-Fri", "time": "5:00pm"}, {"days": "Sat-Sun", "time": "Closed"}], "id": "1060700012", "name": "USPS COLLECTION BOX - BLUE BOX", "address": {"city": "WHITE PLAINS", "state": "NY", "street": "595 W HARTSDALE RD", "postcode": "10607"}}},
{"geometry": {"type": "Point", "coordinates": [-73.80507467, 41.044515101]}, "type": "Feature", "properties": {"collection_times": [{"days": "Mon-Fri", "time": "5:00pm"}, {"days": "Sat-Sun", "time": "Closed"}], "id": "1060700014", "name": "USPS COLLECTION BOX - BLUE BOX", "address": {"city": "WHITE PLAINS", "state": "NY", "street": "297 KNOLLWOOD RD", "postcode": "10607"}}}
]}
