{"type": "FeatureCollection", "features": [
{"geometry": {"type": "Point", "coordinates": [-73.8907937613, 40.939541372]}, "type": "Feature", "properties": {"collection_times": [{"days": "Mon-Sat", "time": "10:00am"}, {"days": "Sun", "time": "Closed"}], "id": "1070100004", "name": "USPS COLLECTION BOX - BLUE BOX", "address": {"city": "YONKERS", "state": "NY", "street": "141 ASHBURTON AVE", "postcode": "10701"}}},
{"geometry": {"type": "Point", "coordinates": [-73.8978992159, 40.9405460732]}, "type": "Feature", "properties": {"collection_times": [{"days": "Mon-Sat", "time": "10:30am"}, {"days": "Sun", "time": "Closed"}], "id": "1070100005", "name": "USPS COLLECTION BOX - BLUE BOX", "address": {"city": "YONKERS", "state": "NY", "street": "160 WARBURTON AVE", "postcode": "10701"}}},
{"geometry": {"type": "Point", "coordinates": [-73.8880854524, 40.9721177649]}, "type": "Feature", "properties": {"collection_times": [{"days": "Mon-Sat", "time": "10:30am"}, {"days": "Sun", "time": "Closed"}], "id": "1070100011", "name": "USPS COLLECTION BOX - BLUE BOX", "address": {"city": "YONKERS", "state": "NY", "street": "1080 WARBURTON AVE", "postcode": "10701"}}},
{"geometry": {"type": "Point", "coordinates": [-73.8957019728, 40.9526665833]}, "type": "Feature", "properties": {"collection_times": [{"days": "Mon-Sat", "time": "1:00pm"}, {"days": "Sun", "time": "Closed"}], "id": "1070100015", "name": "USPS COLLECTION BOX - BLUE BOX", "address": {"city": "YONKERS", "state": "NY", "street": "1 SHONNARD TER", "postcode": "10701"}}},
{"geometry": {"type": "Point", "coordinates": [-73.8935653871, 40.9319623826]}, "type": "Feature", "properties": {"collection_times": [{"days": "Mon-Sat", "time": "12:00pm"}, {"days": "Sun", "time": "Closed"}], "id": "1070100016", "name": "USPS COLLECTION BOX - BLUE BOX", "address": {"city": "YONKERS", "state": "NY", "street": "111 WAVERLY ST", "postcode": "10701"}}},
{"geometry": {"type": "Point", "coordinates": [-73.9012826057, 40.9357445502]}, "type": "Feature", "properties": {"collection_times": [{"days": "Mon-Sat", "time": "11:00am"}, {"days": "Sun", "time": "Closed"}], "id": "1070100019", "name": "USPS COLLECTION BOX - BLUE BOX", "address": {"city": "YONKERS", "state": "NY", "street": "2 DOCK ST", "postcode": "10701"}}},
{"geometry": {"type": "Point", "coordinates": [-73.882642825, 40.935392861]}, "type": "Feature", "properties": {"collection_times": [{"days": "Mon-Sat", "time": "12:00pm"}, {"days": "Sun", "time": "Closed"}], "id": "1070100022", "name": "USPS COLLECTION BOX - BLUE BOX", "address": {"city": "YONKERS", "state": "NY", "street": "166 YONKERS AVE", "postcode": "10701"}}},
{"geometry": {"type": "Point", "coordinates": [-73.8854004085, 40.9354070974]}, "type": "Feature", "properties": {"collection_times": [{"days": "Mon-Sat", "time": "12:00pm"}, {"days": "Sun", "time": "Closed"}], "id": "1070100023", "name": "USPS COLLECTION BOX - BLUE BOX", "address": {"city": "YONKERS", "state": "NY", "street": "99 YONKERS AVE", "postcode": "10701"}}},
{"geometry": {"type": "Point", "coordinates": [-73.8782799348, 40.9702909808]}, "type": "Feature", "properties": {"collection_times": [{"days": "Mon-Sat", "time": "8:00am"}, {"days": "Sun", "time": "Closed"}], "id": "1070100024", "name": "USPS COLLECTION BOX - BLUE BOX", "address": {"city": "YONKERS", "state": "NY", "street": "100 CORPORATE DR", "postcode": "10701"}}},
{"geometry": {"type": "Point", "coordinates": [-73.8782799348, 40.9702909808]}, "type": "Feature", "properties": {"collection_times": [{"days": "Mon-Sat", "time": "8:00am"}, {"days": "Sun", "time": "Closed"}], "id": "1070100025", "name": "USPS COLLECTION BOX - BLUE BOX", "address": {"city": "YONKERS", "state": "NY", "street": "100 CORPORATE DR", "postcode": "10701"}}},
{"geometry": {"type": "Point", "coordinates": [-73.8822080491, 40.9731367234]}, "type": "Feature", "properties": {"collection_times": [{"days": "Mon-Sat", "time": "8:00am"}, {"days": "Sun", "time": "Closed"}], "id": "1070100029", "name": "USPS COLLECTION BOX - BLUE BOX", "address": {"city": "YONKERS", "state": "NY", "street": "1 EXECUTIVE BLVD", "postcode": "10701"}}},
{"geometry": {"type": "Point", "coordinates": [-73.9013942782, 40.9347578797]}, "type": "Feature", "properties": {"collection_times": [{"days": "Mon-Fri", "time": "5:00pm"}, {"days": "Sat", "time": "4:00pm"}, {"days": "Sun", "time": "Closed"}], "id": "1070100030", "name": "USPS COLLECTION BOX - BLUE BOX", "address": {"city": "YONKERS", "state": "NY", "street": "79-81 MAIN ST", "postcode": "10701"}}},
{"geometry": {"type": "Point", "coordinates": [-73.9013942782, 40.9347578797]}, "type": "Feature", "properties": {"collection_times": [{"days": "Mon-Fri", "time": "5:00pm"}, {"days": "Sat", "time": "4:00pm"}, {"days": "Sun", "time": "Closed"}], "id": "1070100031", "name": "USPS COLLECTION BOX - BLUE BOX", "address": {"city": "YONKERS", "state": "NY", "street": "79-81 MAIN ST", "postcode": "10701"}}},
{"geometry": {"type": "Point", "coordinates": [-73.8986744424, 40.9331478579]}, "type": "Feature", "properties": {"collection_times": [{"days": "Mon-Sat", "time": "11:00am"}, {"days": "Sun", "time": "Closed"}], "id": "1070100032", "name": "USPS COLLECTION BOX - BLUE BOX", "address": {"city": "YONKERS", "state": "NY", "street": "2 HUDSON ST", "postcode": "10701"}}},
{"geometry": {"type": "Point", "coordinates": [-73.8685196315, 40.9466111223]}, "type": "Feature", "properties": {"collection_times": [{"days": "Mon-Sat", "time": "1:00pm"}, {"days": "Sun", "time": "Closed"}], "id": "1070100033", "name": "USPS COLLECTION BOX - BLUE BOX", "address": {"city": "YONKERS", "state": "NY", "street": "247 JESSAMINE AVE", "postcode": "10701"}}},
{"geometry": {"type": "Point", "coordinates": [-73.8756442899, 40.9475312334]}, "type": "Feature", "properties": {"collection_times": [{"days": "Mon-Sat", "time": "1:30pm"}, {"days": "Sun", "time": "Closed"}], "id": "1070100037", "name": "USPS COLLECTION BOX - BLUE BOX", "address": {"city": "YONKERS", "state": "NY", "street": "16 LOCKWOOD AVE", "postcode": "10701"}}},
{"geometry": {"type": "Point", "coordinates": [-73.8671731019, 40.9483495226]}, "type": "Feature", "properties": {"collection_times": [{"days": "Mon-Sat", "time": "1:00pm"}, {"days": "Sun", "time": "Closed"}], "id": "1070100040", "name": "USPS COLLECTION BOX - BLUE BOX", "address": {"city": "YONKERS", "state": "NY", "street": "164 LOCKWOOD AVE", "postcode": "10701"}}},
{"geometry": {"type": "Point", "coordinates": [-73.8958533439, 40.9361577144]}, "type": "Feature", "properties": {"collection_times": [{"days": "Mon-Sat", "time": "11:30am"}, {"days": "Sun", "time": "Closed"}], "id": "1070100041", "name": "USPS COLLECTION BOX - BLUE BOX", "address": {"city": "YONKERS", "state": "NY", "street": "40 LOCUST HILL AVE", "postcode": "10701"}}},
{"geometry": {"type": "Point", "coordinates": [-73.8983688604, 40.9341638373]}, "type": "Feature", "properties": {"collection_times": [{"days": "Mon-Sat", "time": "11:30am"}, {"days": "Sun", "time": "Closed"}], "id": "1070100042", "name": "USPS COLLECTION BOX - BLUE BOX", "address": {"city": "YONKERS", "state": "NY", "street": "7 MAIN ST", "postcode": "10701"}}},
{"geometry": {"type": "Point", "coordinates": [-73.8982950306, 40.9354315471]}, "type": "Feature", "properties": {"collection_times": [{"days": "Mon-Sat", "time": "11:30am"}, {"days": "Sun", "time": "Closed"}], "id": "1070100043", "name": "USPS COLLECTION BOX - BLUE BOX", "address": {"city": "YONKERS", "state": "NY", "street": "1 MANOR HOUSE SQ", "postcode": "10701"}}},
{"geometry": {"type": "Point", "coordinates": [-73.8678947169, 40.95163156]}, "type": "Feature", "properties": {"collection_times": [{"days": "Mon-Sat", "time": "1:30pm"}, {"days": "Sun", "time": "Closed"}], "id": "1070100044", "name": "USPS COLLECTION BOX - BLUE BOX", "address": {"city": "YONKERS", "state": "NY", "street": "412 MARLBOROUGH RD", "postcode": "10701"}}},
{"geometry": {"type": "Point", "coordinates": [-73.8574529355, 40.9454566448]}, "type": "Feature", "properties": {"collection_times": [{"days": "Mon-Sat", "time": "1:00pm"}, {"days": "Sun", "time": "Closed"}], "id": "1070100045", "name": "USPS COLLECTION BOX - BLUE BOX", "address": {"city": "YONKERS", "state": "NY", "street": "1 MARTIN RD", "postcode": "10701"}}},
{"geometry": {"type": "Point", "coordinates": [-73.8628879659, 40.9419268041]}, "type": "Feature", "properties": {"collection_times": [{"days": "Mon-Sat", "time": "12:30pm"}, {"days": "Sun", "time": "Closed"}], "id": "1070100046", "name": "USPS COLLECTION BOX - BLUE BOX", "address": {"city": "YONKERS", "state": "NY", "street": "26 HOMEWOOD AVE", "postcode": "10701"}}},
{"geometry": {"type": "Point", "coordinates": [-73.8853612502, 40.9407565398]}, "type": "Feature", "properties": {"collection_times": [{"days": "Mon-Sat", "time": "11:30am"}, {"days": "Sun", "time": "Closed"}], "id": "1070100052", "name": "USPS COLLECTION BOX - BLUE BOX", "address": {"city": "YONKERS", "state": "NY", "street": "440 NEPPERHAN AVE", "postcode": "10701"}}},
{"geometry": {"type": "Point", "coordinates": [-73.8831578899, 40.9445494264]}, "type": "Feature", "properties": {"collection_times": [{"days": "Mon-Sat", "time": "12:30pm"}, {"days": "Sun", "time": "Closed"}], "id": "1070100053", "name": "USPS COLLECTION BOX - BLUE BOX", "address": {"city": "YONKERS", "state": "NY", "street": "540 NEPPERHAN AVE", "postcode": "10701"}}},
{"geometry": {"type": "Point", "coordinates": [-73.8913884611, 40.9510215262]}, "type": "Feature", "properties": {"collection_times": [{"days": "Mon-Sat", "time": "10:00am"}, {"days": "Sun", "time": "Closed"}], "id": "1070100056", "name": "USPS COLLECTION BOX - BLUE BOX", "address": {"city": "YONKERS", "state": "NY", "street": "470 N BROADWAY", "postcode": "10701"}}},
{"geometry": {"type": "Point", "coordinates": [-73.8894574753, 40.9547386095]}, "type": "Feature", "properties": {"collection_times": [{"days": "Mon-Sat", "time": "10:30am"}, {"days": "Sun", "time": "Closed"}], "id": "1070100059", "name": "USPS COLLECTION BOX - BLUE BOX", "address": {"city": "YONKERS", "state": "NY", "street": "584 N BROADWAY", "postcode": "10701"}}},
{"geometry": {"type": "Point", "coordinates": [-73.8942538467, 40.9439811921]}, "type": "Feature", "properties": {"collection_times": [{"days": "Mon-Sat", "time": "11:30am"}, {"days": "Sun", "time": "Closed"}], "id": "1070100060", "name": "USPS COLLECTION BOX - BLUE BOX", "address": {"city": "YONKERS", "state": "NY", "street": "270 N BROADWAY", "postcode": "10701"}}},
{"geometry": {"type": "Point", "coordinates": [-73.8721837103, 40.9429089632]}, "type": "Feature", "properties": {"collection_times": [{"days": "Mon-Sat", "time": "12:30pm"}, {"days": "Sun", "time": "Closed"}], "id": "1070100070", "name": "USPS COLLECTION BOX - BLUE BOX", "address": {"city": "YONKERS", "state": "NY", "street": "145 PALMER RD", "postcode": "10701"}}},
{"geometry": {"type": "Point", "coordinates": [-73.8609170324, 40.9440745717]}, "type": "Feature", "properties": {"collection_times": [{"days": "Mon-Sat", "time": "12:30pm"}, {"days": "Sun", "time": "Closed"}], "id": "1070100071", "name": "USPS COLLECTION BOX - BLUE BOX", "address": {"city": "YONKERS", "state": "NY", "street": "472 PALMER RD", "postcode": "10701"}}},
{"geometry": {"type": "Point", "coordinates": [-73.8746652155, 40.9441636731]}, "type": "Feature", "properties": {"collection_times": [{"days": "Mon-Sat", "time": "2:00pm"}, {"days": "Sun", "time": "Closed"}], "id": "1070100073", "name": "USPS COLLECTION BOX - BLUE BOX", "address": {"city": "YONKERS", "state": "NY", "street": "80 PALMER RD", "postcode": "10701"}}},
{"geometry": {"type": "Point", "coordinates": [-73.89228475, 40.9256237941]}, "type": "Feature", "properties": {"collection_times": [{"days": "Mon-Sat", "time": "11:00am"}, {"days": "Sun", "time": "Closed"}], "id": "1070100074", "name": "USPS COLLECTION BOX - BLUE BOX", "address": {"city": "YONKERS", "state": "NY", "street": "150 PARK HILL AVE", "postcode": "10701"}}},
{"geometry": {"type": "Point", "coordinates": [-73.8912347508, 40.9291200742]}, "type": "Feature", "properties": {"collection_times": [{"days": "Mon-Sat", "time": "12:00pm"}, {"days": "Sun", "time": "Closed"}], "id": "1070100075", "name": "USPS COLLECTION BOX - BLUE BOX", "address": {"city": "YONKERS", "state": "NY", "street": "70 MOUNT CARMEL PL", "postcode": "10701"}}},
{"geometry": {"type": "Point", "coordinates": [-73.8944893159, 40.9291395834]}, "type": "Feature", "properties": {"collection_times": [{"days": "Mon-Sat", "time": "10:00am"}, {"days": "Sun", "time": "Closed"}], "id": "1070100076", "name": "USPS COLLECTION BOX - BLUE BOX", "address": {"city": "YONKERS", "state": "NY", "street": "30 PARK HILL AVE", "postcode": "10701"}}},
{"geometry": {"type": "Point", "coordinates": [-73.900322542, 40.9305850982]}, "type": "Feature", "properties": {"collection_times": [{"days": "Mon-Sat", "time": "11:00am"}, {"days": "Sun", "time": "Closed"}], "id": "1070100082", "name": "USPS COLLECTION BOX - BLUE BOX", "address": {"city": "YONKERS", "state": "NY", "street": "80 RIVERDALE AVE", "postcode": "10701"}}},
{"geometry": {"type": "Point", "coordinates": [-73.8659946764, 40.9514717811]}, "type": "Feature", "properties": {"collection_times": [{"days": "Mon-Sat", "time": "1:00pm"}, {"days": "Sun", "time": "Closed"}], "id": "1070100083", "name": "USPS COLLECTION BOX - BLUE BOX", "address": {"city": "YONKERS", "state": "NY", "street": "155 ROCKNE RD", "postcode": "10701"}}},
{"geometry": {"type": "Point", "coordinates": [-73.8769429993, 40.9470755431]}, "type": "Feature", "properties": {"collection_times": [{"days": "Mon-Sat", "time": "12:30pm"}, {"days": "Sun", "time": "Closed"}], "id": "1070100084", "name": "USPS COLLECTION BOX - BLUE BOX", "address": {"city": "YONKERS", "state": "NY", "street": "303 SAW MILL RIVER RD", "postcode": "10701"}}},
{"geometry": {"type": "Point", "coordinates": [-73.875191826, 40.9521189847]}, "type": "Feature", "properties": {"collection_times": [{"days": "Mon-Sat", "time": "1:30pm"}, {"days": "Sun", "time": "Closed"}], "id": "1070100087", "name": "USPS COLLECTION BOX - BLUE BOX", "address": {"city": "YONKERS", "state": "NY", "street": "452 SAW MILL RIVER RD", "postcode": "10701"}}},
{"geometry": {"type": "Point", "coordinates": [-73.8742137603, 40.9531830536]}, "type": "Feature", "properties": {"collection_times": [{"days": "Mon-Sat", "time": "1:30pm"}, {"days": "Sun", "time": "Closed"}], "id": "1070100090", "name": "USPS COLLECTION BOX - BLUE BOX", "address": {"city": "YONKERS", "state": "NY", "street": "494 SAW MILL RIVER RD", "postcode": "10701"}}},
{"geometry": {"type": "Point", "coordinates": [-73.87750705, 40.9463054015]}, "type": "Feature", "properties": {"collection_times": [{"days": "Mon-Sat", "time": "12:30pm"}, {"days": "Sun", "time": "Closed"}], "id": "1070100091", "name": "USPS COLLECTION BOX - BLUE BOX", "address": {"city": "YONKERS", "state": "NY", "street": "270 SAW MILL RIVER RD", "postcode": "10701"}}},
{"geometry": {"type": "Point", "coordinates": [-73.8984171605, 40.9332848324]}, "type": "Feature", "properties": {"collection_times": [{"days": "Mon-Sat", "time": "11:00am"}, {"days": "Sun", "time": "Closed"}], "id": "1070100092", "name": "USPS COLLECTION BOX - BLUE BOX", "address": {"city": "YONKERS", "state": "NY", "street": "20 S BROADWAY", "postcode": "10701"}}},
{"geometry": {"type": "Point", "coordinates": [-73.8822080491, 40.9731367234]}, "type": "Feature", "properties": {"collection_times": [{"days": "Mon-Sat", "time": "8:00am"}, {"days": "Sun", "time": "Closed"}], "id": "1070100093", "name": "USPS COLLECTION BOX - BLUE BOX", "address": {"city": "YONKERS", "state": "NY", "street": "1 EXECUTIVE BLVD", "postcode": "10701"}}},
{"geometry": {"type": "Point", "coordinates": [-73.8955605721, 40.9261186059]}, "type": "Feature", "properties": {"collection_times": [{"days": "Mon-Sat", "time": "12:00pm"}, {"days": "Sun", "time": "Closed"}], "id": "1070100101", "name": "USPS COLLECTION BOX - BLUE BOX", "address": {"city": "YONKERS", "state": "NY", "street": "176 S BROADWAY", "postcode": "10701"}}},
{"geometry": {"type": "Point", "coordinates": [-73.8842163827, 40.9277030707]}, "type": "Feature", "properties": {"collection_times": [{"days": "Mon-Sat", "time": "11:30am"}, {"days": "Sun", "time": "Closed"}], "id": "1070100103", "name": "USPS COLLECTION BOX - BLUE BOX", "address": {"city": "YONKERS", "state": "NY", "street": "106 SPRUCE ST", "postcode": "10701"}}},
{"geometry": {"type": "Point", "coordinates": [-73.8822080491, 40.9731367234]}, "type": "Feature", "properties": {"collection_times": [{"days": "Mon-Sat", "time": "8:00am"}, {"days": "Sun", "time": "Closed"}], "id": "1070100126", "name": "USPS COLLECTION BOX - BLUE BOX", "address": {"city": "YONKERS", "state": "NY", "street": "1 EXECUTIVE BLVD", "postcode": "10701"}}},
{"geometry": {"type": "Point", "coordinates": [-73.8689795416, 40.9695151312]}, "type": "Feature", "properties": {"collection_times": [{"days": "Mon-Sat", "time": "1:30pm"}, {"days": "Sun", "time": "Closed"}], "id": "1070100140", "name": "USPS COLLECTION BOX - BLUE BOX", "address": {"city": "YONKERS", "state": "NY", "street": "999 SAW MILL RIVER RD", "postcode": "10701"}}},
{"geometry": {"type": "Point", "coordinates": [-73.8990235441, 40.9323549448]}, "type": "Feature", "properties": {"collection_times": [{"days": "Mon-Sat", "time": "11:00am"}, {"days": "Sun", "time": "Closed"}], "id": "1070100142", "name": "USPS COLLECTION BOX - BLUE BOX", "address": {"city": "YONKERS", "state": "NY", "street": "45 S BROADWAY", "postcode": "10701"}}},
{"geometry": {"type": "Point", "coordinates": [-73.8782799348, 40.9702909808]}, "type": "Feature", "properties": {"collection_times": [{"days": "Mon-Sat", "time": "8:00am"}, {"days": "Sun", "time": "Closed"}], "id": "1070100143", "name": "USPS COLLECTION BOX - BLUE BOX", "address": {"city": "YONKERS", "state": "NY", "street": "100 CORPORATE DR", "postcode": "10701"}}},
{"geometry": {"type": "Point", "coordinates": [-73.8655687145, 40.945468784]}, "type": "Feature", "properties": {"collection_times": [{"days": "Mon-Sat", "time": "1:00pm"}, {"days": "Sun", "time": "Closed"}], "id": "1070100144", "name": "USPS COLLECTION BOX - BLUE BOX", "address": {"city": "YONKERS", "state": "NY", "street": "93 HALLADAY AVE", "postcode": "10701"}}},
{"geometry": {"type": "Point", "coordinates": [-73.8893500932, 40.9364039253]}, "type": "Feature", "properties": {"collection_times": [{"days": "Mon-Sat", "time": "11:30am"}, {"days": "Sun", "time": "Closed"}], "id": "1070100145", "name": "USPS COLLECTION BOX - BLUE BOX", "address": {"city": "YONKERS", "state": "NY", "street": "289 NEPPERHAN AVE", "postcode": "10701"}}},
{"geometry": {"type": "Point", "coordinates": [-73.8892754098, 40.9380240342]}, "type": "Feature", "properties": {"collection_times": [{"days": "Mon-Sat", "time": "11:30am"}, {"days": "Sun", "time": "Closed"}], "id": "1070100148", "name": "USPS COLLECTION BOX - BLUE BOX", "address": {"city": "YONKERS", "state": "NY", "street": "77 WALSH RD", "postcode": "10701"}}},
{"geometry": {"type": "Point", "coordinates": [-73.9013942782, 40.9347578797]}, "type": "Feature", "properties": {"collection_times": [{"days": "Mon-Fri", "time": "5:00pm"}, {"days": "Sat", "time": "1:00pm"}, {"days": "Sun", "time": "Closed"}], "id": "1070100149", "name": "USPS COLLECTION BOX - PO LOBBY", "address": {"city": "YONKERS", "state": "NY", "street": "79-81 MAIN ST LBBY DROP", "postcode": "10701"}}},
{"geometry": {"type": "Point", "coordinates": [-73.8776961735, 40.9603562489]}, "type": "Feature", "properties": {"collection_times": [{"days": "Mon-Sat", "time": "9:00am"}, {"days": "Sun", "time": "Closed"}], "id": "1070300002", "name": "USPS COLLECTION BOX - BLUE BOX", "address": {"city": "YONKERS", "state": "NY", "street": "637 VALLEY AVE", "postcode": "10703"}}},
{"geometry": {"type": "Point", "coordinates": [-73.8794508466, 40.9623194152]}, "type": "Feature", "properties": {"collection_times": [{"days": "Mon-Sat", "time": "11:00am"}, {"days": "Sun", "time": "Closed"}], "id": "1070300003", "name": "USPS COLLECTION BOX - BLUE BOX", "address": {"city": "YONKERS", "state": "NY", "street": "474 BELLEVUE AVE", "postcode": "10703"}}},
{"geometry": {"type": "Point", "coordinates": [-73.8806506684, 40.9598301683]}, "type": "Feature", "properties": {"collection_times": [{"days": "Mon-Sat", "time": "9:00am"}, {"days": "Sun", "time": "Closed"}], "id": "1070300004", "name": "USPS COLLECTION BOX - BLUE BOX", "address": {"city": "YONKERS", "state": "NY", "street": "396 BELLEVUE AVE", "postcode": "10703"}}},
{"geometry": {"type": "Point", "coordinates": [-73.8814580578, 40.9647416178]}, "type": "Feature", "properties": {"collection_times": [{"days": "Mon-Sat", "time": "9:30am"}, {"days": "Sun", "time": "Closed"}], "id": "1070300006", "name": "USPS COLLECTION BOX - BLUE BOX", "address": {"city": "YONKERS", "state": "NY", "street": "76 DEHAVEN DR", "postcode": "10703"}}},
{"geometry": {"type": "Point", "coordinates": [-73.8806962995, 40.9587646751]}, "type": "Feature", "properties": {"collection_times": [{"days": "Mon-Sat", "time": "10:00am"}, {"days": "Sun", "time": "Closed"}], "id": "1070300009", "name": "USPS COLLECTION BOX - BLUE BOX", "address": {"city": "YONKERS", "state": "NY", "street": "1 FR FINIAN SLLVN DR", "postcode": "10703"}}},
{"geometry": {"type": "Point", "coordinates": [-73.8853550511, 40.9661212932]}, "type": "Feature", "properties": {"collection_times": [{"days": "Mon-Sat", "time": "10:30am"}, {"days": "Sun", "time": "Closed"}], "id": "1070300011", "name": "USPS COLLECTION BOX - BLUE BOX", "address": {"city": "YONKERS", "state": "NY", "street": "900 N BROADWAY", "postcode": "10703"}}},
{"geometry": {"type": "Point", "coordinates": [-73.8873940116, 40.9471028033]}, "type": "Feature", "properties": {"collection_times": [{"days": "Mon-Sat", "time": "9:30am"}, {"days": "Sun", "time": "Closed"}], "id": "1070300014", "name": "USPS COLLECTION BOX - BLUE BOX", "address": {"city": "YONKERS", "state": "NY", "street": "116 LAKE AVE", "postcode": "10703"}}},
{"geometry": {"type": "Point", "coordinates": [-73.875486939, 40.9606112766]}, "type": "Feature", "properties": {"collection_times": [{"days": "Mon-Sat", "time": "1:30pm"}, {"days": "Sun", "time": "Closed"}], "id": "1070300016", "name": "USPS COLLECTION BOX - BLUE BOX", "address": {"city": "YONKERS", "state": "NY", "street": "397 UPLAND AVE", "postcode": "10703"}}},
{"geometry": {"type": "Point", "coordinates": [-73.8813984149, 40.953731507]}, "type": "Feature", "properties": {"collection_times": [{"days": "Mon-Sat", "time": "10:00am"}, {"days": "Sun", "time": "Closed"}], "id": "1070300018", "name": "USPS COLLECTION BOX - BLUE BOX", "address": {"city": "YONKERS", "state": "NY", "street": "273 MORSEMERE AVE", "postcode": "10703"}}},
{"geometry": {"type": "Point", "coordinates": [-73.8725898729, 40.9601612759]}, "type": "Feature", "properties": {"collection_times": [{"days": "Mon-Sat", "time": "10:30am"}, {"days": "Sun", "time": "Closed"}], "id": "1070300019", "name": "USPS COLLECTION BOX - BLUE BOX", "address": {"city": "YONKERS", "state": "NY", "street": "1061 NEPPERHAN AVE", "postcode": "10703"}}},
{"geometry": {"type": "Point", "coordinates": [-73.8803291721, 40.9491886691]}, "type": "Feature", "properties": {"collection_times": [{"days": "Mon-Sat", "time": "11:00am"}, {"days": "Sun", "time": "Closed"}], "id": "1070300020", "name": "USPS COLLECTION BOX - BLUE BOX", "address": {"city": "YONKERS", "state": "NY", "street": "700 NEPPERHAN AVE", "postcode": "10703"}}},
{"geometry": {"type": "Point", "coordinates": [-73.8731392233, 40.958099929]}, "type": "Feature", "properties": {"collection_times": [{"days": "Mon-Sat", "time": "9:00am"}, {"days": "Sun", "time": "Closed"}], "id": "1070300021", "name": "USPS COLLECTION BOX - BLUE BOX", "address": {"city": "YONKERS", "state": "NY", "street": "999 NEPPERHAN AVE", "postcode": "10703"}}},
{"geometry": {"type": "Point", "coordinates": [-73.872504996, 40.9631799254]}, "type": "Feature", "properties": {"collection_times": [{"days": "Mon-Sat", "time": "9:00am"}, {"days": "Sun", "time": "Closed"}], "id": "1070300022", "name": "USPS COLLECTION BOX - BLUE BOX", "address": {"city": "YONKERS", "state": "NY", "street": "1 CROSS HILL AVE", "postcode": "10703"}}},
{"geometry": {"type": "Point", "coordinates": [-73.8708508581, 40.9746586009]}, "type": "Feature", "properties": {"collection_times": [{"days": "Mon-Sat", "time": "9:00am"}, {"days": "Sun", "time": "Closed"}], "id": "1070300024", "name": "USPS COLLECTION BOX - BLUE BOX", "address": {"city": "YONKERS", "state": "NY", "street": "1462 NEPPERHAN AVE", "postcode": "10703"}}},
{"geometry": {"type": "Point", "coordinates": [-73.871640262, 40.9665377505]}, "type": "Feature", "properties": {"collection_times": [{"days": "Mon-Sat", "time": "9:00am"}, {"days": "Sun", "time": "Closed"}], "id": "1070300026", "name": "USPS COLLECTION BOX - BLUE BOX", "address": {"city": "YONKERS", "state": "NY", "street": "495 ODELL AVE", "postcode": "10703"}}},
{"geometry": {"type": "Point", "coordinates": [-73.8747495684, 40.9562208895]}, "type": "Feature", "properties": {"collection_times": [{"days": "Mon-Sat", "time": "1:30pm"}, {"days": "Sun", "time": "Closed"}], "id": "1070300027", "name": "USPS COLLECTION BOX - BLUE BOX", "address": {"city": "YONKERS", "state": "NY", "street": "926 NEPPERHAN AVE", "postcode": "10703"}}},
{"geometry": {"type": "Point", "coordinates": [-73.8832513835, 40.9641275478]}, "type": "Feature", "properties": {"collection_times": [{"days": "Mon-Sat", "time": "9:30am"}, {"days": "Sun", "time": "Closed"}], "id": "1070300033", "name": "USPS COLLECTION BOX - BLUE BOX", "address": {"city": "YONKERS", "state": "NY", "street": "16 DEHAVEN DR", "postcode": "10703"}}},
{"geometry": {"type": "Point", "coordinates": [-73.8848458869, 40.9598837251]}, "type": "Feature", "properties": {"collection_times": [{"days": "Mon-Sat", "time": "9:30am"}, {"days": "Sun", "time": "Closed"}], "id": "1070300034", "name": "USPS COLLECTION BOX - BLUE BOX", "address": {"city": "YONKERS", "state": "NY", "street": "33 DOUGLAS AVE", "postcode": "10703"}}},
{"geometry": {"type": "Point", "coordinates": [-73.8934022082, 40.9467913334]}, "type": "Feature", "properties": {"collection_times": [{"days": "Mon-Sat", "time": "10:00am"}, {"days": "Sun", "time": "Closed"}], "id": "1070300035", "name": "USPS COLLECTION BOX - BLUE BOX", "address": {"city": "YONKERS", "state": "NY", "street": "130 GLENWOOD AVE", "postcode": "10703"}}},
{"geometry": {"type": "Point", "coordinates": [-73.8929163629, 40.9432610915]}, "type": "Feature", "properties": {"collection_times": [{"days": "Mon-Sat", "time": "2:00pm"}, {"days": "Sun", "time": "Closed"}], "id": "1070300036", "name": "USPS COLLECTION BOX - BLUE BOX", "address": {"city": "YONKERS", "state": "NY", "street": "263 PALISADE AVE", "postcode": "10703"}}},
{"geometry": {"type": "Point", "coordinates": [-73.8911360204, 40.9484438474]}, "type": "Feature", "properties": {"collection_times": [{"days": "Mon-Sat", "time": "9:30am"}, {"days": "Sun", "time": "Closed"}], "id": "1070300037", "name": "USPS COLLECTION BOX - BLUE BOX", "address": {"city": "YONKERS", "state": "NY", "street": "425 PALISADE AVE", "postcode": "10703"}}},
{"geometry": {"type": "Point", "coordinates": [-73.8861205806, 40.9581333425]}, "type": "Feature", "properties": {"collection_times": [{"days": "Mon-Sat", "time": "9:30am"}, {"days": "Sun", "time": "Closed"}], "id": "1070300038", "name": "USPS COLLECTION BOX - BLUE BOX", "address": {"city": "YONKERS", "state": "NY", "street": "732 PALISADE AVE", "postcode": "10703"}}},
{"geometry": {"type": "Point", "coordinates": [-73.890989474, 40.9446018002]}, "type": "Feature", "properties": {"collection_times": [{"days": "Mon-Sat", "time": "10:00am"}, {"days": "Sun", "time": "Closed"}], "id": "1070300040", "name": "USPS COLLECTION BOX - BLUE BOX", "address": {"city": "YONKERS", "state": "NY", "street": "131 PARK AVE", "postcode": "10703"}}},
{"geometry": {"type": "Point", "coordinates": [-73.8918633728, 40.9411681596]}, "type": "Feature", "properties": {"collection_times": [{"days": "Mon-Sat", "time": "10:00am"}, {"days": "Sun", "time": "Closed"}], "id": "1070300042", "name": "USPS COLLECTION BOX - BLUE BOX", "address": {"city": "YONKERS", "state": "NY", "street": "44 PARK AVE", "postcode": "10703"}}},
{"geometry": {"type": "Point", "coordinates": [-73.8858600665, 40.9506267508]}, "type": "Feature", "properties": {"collection_times": [{"days": "Mon-Sat", "time": "10:00am"}, {"days": "Sun", "time": "Closed"}], "id": "1070300046", "name": "USPS COLLECTION BOX - BLUE BOX", "address": {"city": "YONKERS", "state": "NY", "street": "110 SHONNARD PL", "postcode": "10703"}}},
{"geometry": {"type": "Point", "coordinates": [-73.8808306448, 40.9694477193]}, "type": "Feature", "properties": {"collection_times": [{"days": "Mon-Fri", "time": "5:00pm"}, {"days": "Sat", "time": "4:00pm"}, {"days": "Sun", "time": "Closed"}], "id": "1070300050", "name": "USPS COLLECTION BOX - BLUE BOX", "address": {"city": "YONKERS", "state": "NY", "street": "7 ODELL PLZ", "postcode": "10703"}}},
{"geometry": {"type": "Point", "coordinates": [-73.8805575768, 40.9697013614]}, "type": "Feature", "properties": {"collection_times": [{"days": "Mon-Sat", "time": "8:00am"}, {"days": "Sun", "time": "Closed"}], "id": "1070300052", "name": "USPS COLLECTION BOX - BLUE BOX", "address": {"city": "YONKERS", "state": "NY", "street": "1 ODELL PLZ", "postcode": "10703"}}},
{"geometry": {"type": "Point", "coordinates": [-73.8808306448, 40.9694477193]}, "type": "Feature", "properties": {"collection_times": [{"days": "Mon-Fri", "time": "5:00pm"}, {"days": "Sat", "time": "1:00pm"}, {"days": "Sun", "time": "Closed"}], "id": "1070300053", "name": "USPS COLLECTION BOX - PO LOBBY", "address": {"city": "YONKERS", "state": "NY", "street": "7 ODELL PLZ", "postcode": "10703"}}},
{"geometry": {"type": "Point", "coordinates": [-73.8658827606, 40.906987985]}, "type": "Feature", "properties": {"collection_times": [{"days": "Mon-Sat", "time": "11:30am"}, {"days": "Sun", "time": "Closed"}], "id": "1070400002", "name": "USPS COLLECTION BOX - BLUE BOX", "address": {"city": "YONKERS", "state": "NY", "street": "87 ALEXANDER AVE", "postcode": "10704"}}},
{"geometry": {"type": "Point", "coordinates": [-73.8707438605, 40.9073900246]}, "type": "Feature", "properties": {"collection_times": [{"days": "Mon-Sat", "time": "11:30am"}, {"days": "Sun", "time": "Closed"}], "id": "1070400003", "name": "USPS COLLECTION BOX - BLUE BOX", "address": {"city": "YONKERS", "state": "NY", "street": "92 KING AVE", "postcode": "10704"}}},
{"geometry": {"type": "Point", "coordinates": [-73.8610873593, 40.9143897803]}, "type": "Feature", "properties": {"collection_times": [{"days": "Mon-Sat", "time": "11:30am"}, {"days": "Sun", "time": "Closed"}], "id": "1070400004", "name": "USPS COLLECTION BOX - BLUE BOX", "address": {"city": "YONKERS", "state": "NY", "street": "3 BAINTON ST", "postcode": "10704"}}},
{"geometry": {"type": "Point", "coordinates": [-73.8657006679, 40.922123531]}, "type": "Feature", "properties": {"collection_times": [{"days": "Mon-Sat", "time": "9:30am"}, {"days": "Sun", "time": "Closed"}], "id": "1070400005", "name": "USPS COLLECTION BOX - BLUE BOX", "address": {"city": "YONKERS", "state": "NY", "street": "40 BELMONT AVE", "postcode": "10704"}}},
{"geometry": {"type": "Point", "coordinates": [-73.8594249942, 40.9036828902]}, "type": "Feature", "properties": {"collection_times": [{"days": "Mon-Sat", "time": "11:00am"}, {"days": "Sun", "time": "Closed"}], "id": "1070400007", "name": "USPS COLLECTION BOX - BLUE BOX", "address": {"city": "YONKERS", "state": "NY", "street": "85 BRONX RIVER RD", "postcode": "10704"}}},
{"geometry": {"type": "Point", "coordinates": [-73.8562591768, 40.9080502685]}, "type": "Feature", "properties": {"collection_times": [{"days": "Mon-Fri", "time": "11:00am"}, {"days": "Sat", "time": "8:00am"}, {"days": "Sun", "time": "Closed"}], "id": "1070400008", "name": "USPS COLLECTION BOX - BLUE BOX", "address": {"city": "YONKERS", "state": "NY", "street": "219 BRONX RIVER RD", "postcode": "10704"}}},
{"geometry": {"type": "Point", "coordinates": [-73.8523761612, 40.9120578263]}, "type": "Feature", "properties": {"collection_times": [{"days": "Mon-Sat", "time": "11:00am"}, {"days": "Sun", "time": "Closed"}], "id": "1070400009", "name": "USPS COLLECTION BOX - BLUE BOX", "address": {"city": "YONKERS", "state": "NY", "street": "365 BRONX RIVER RD", "postcode": "10704"}}},
{"geometry": {"type": "Point", "coordinates": [-73.8496604452, 40.9154963349]}, "type": "Feature", "properties": {"collection_times": [{"days": "Mon-Sat", "time": "10:00am"}, {"days": "Sun", "time": "Closed"}], "id": "1070400010", "name": "USPS COLLECTION BOX - BLUE BOX", "address": {"city": "YONKERS", "state": "NY", "street": "475 BRONX RIVER RD", "postcode": "10704"}}},
{"geometry": {"type": "Point", "coordinates": [-73.8616869584, 40.9216116019]}, "type": "Feature", "properties": {"collection_times": [{"days": "Mon-Sat", "time": "10:00am"}, {"days": "Sun", "time": "Closed"}], "id": "1070400014", "name": "USPS COLLECTION BOX - BLUE BOX", "address": {"city": "YONKERS", "state": "NY", "street": "10 HUBER PL", "postcode": "10704"}}},
{"geometry": {"type": "Point", "coordinates": [-73.8632649546, 40.9221207156]}, "type": "Feature", "properties": {"collection_times": [{"days": "Mon-Sat", "time": "8:30am"}, {"days": "Sun", "time": "Closed"}], "id": "1070400015", "name": "USPS COLLECTION BOX - BLUE BOX", "address": {"city": "YONKERS", "state": "NY", "street": "801 YONKERS AVE", "postcode": "10704"}}},
{"geometry": {"type": "Point", "coordinates": [-73.8503334331, 40.9169394626]}, "type": "Feature", "properties": {"collection_times": [{"days": "Mon-Sat", "time": "10:00am"}, {"days": "Sun", "time": "Closed"}], "id": "1070400017", "name": "USPS COLLECTION BOX - BLUE BOX", "address": {"city": "YONKERS", "state": "NY", "street": "49 CRESCENT PL", "postcode": "10704"}}},
{"geometry": {"type": "Point", "coordinates": [-73.8563507279, 40.9283111187]}, "type": "Feature", "properties": {"collection_times": [{"days": "Mon-Sat", "time": "10:00am"}, {"days": "Sun", "time": "Closed"}], "id": "1070400018", "name": "USPS COLLECTION BOX - BLUE BOX", "address": {"city": "YONKERS", "state": "NY", "street": "6 MALL WALK", "postcode": "10704"}}},
{"geometry": {"type": "Point", "coordinates": [-73.8563507279, 40.9283111187]}, "type": "Feature", "properties": {"collection_times": [{"days": "Mon-Sat", "time": "10:00am"}, {"days": "Sun", "time": "Closed"}], "id": "1070400019", "name": "USPS COLLECTION BOX - BLUE BOX", "address": {"city": "YONKERS", "state": "NY", "street": "6 MALL WALK", "postcode": "10704"}}},
{"geometry": {"type": "Point", "coordinates": [-73.8569024946, 40.9281786161]}, "type": "Feature", "properties": {"collection_times": [{"days": "Mon-Sat", "time": "10:00am"}, {"days": "Sun", "time": "Closed"}], "id": "1070400020", "name": "USPS COLLECTION BOX - BLUE BOX", "address": {"city": "YONKERS", "state": "NY", "street": "6 MALL WALK", "postcode": "10704"}}},
{"geometry": {"type": "Point", "coordinates": [-73.8686224118, 40.9318178479]}, "type": "Feature", "properties": {"collection_times": [{"days": "Mon-Sat", "time": "9:30am"}, {"days": "Sun", "time": "Closed"}], "id": "1070400021", "name": "USPS COLLECTION BOX - BLUE BOX", "address": {"city": "YONKERS", "state": "NY", "street": "223 DUNWOODIE ST", "postcode": "10704"}}},
{"geometry": {"type": "Point", "coordinates": [-73.8654021149, 40.9277358669]}, "type": "Feature", "properties": {"collection_times": [{"days": "Mon-Sat", "time": "9:00am"}, {"days": "Sun", "time": "Closed"}], "id": "1070400022", "name": "USPS COLLECTION BOX - BLUE BOX", "address": {"city": "YONKERS", "state": "NY", "street": "21 DURST PL", "postcode": "10704"}}},
{"geometry": {"type": "Point", "coordinates": [-73.8628170972, 40.9109157275]}, "type": "Feature", "properties": {"collection_times": [{"days": "Mon-Sat", "time": "11:30am"}, {"days": "Sun", "time": "Closed"}], "id": "1070400029", "name": "USPS COLLECTION BOX - BLUE BOX", "address": {"city": "YONKERS", "state": "NY", "street": "3 HALSTEAD AVE", "postcode": "10704"}}},
{"geometry": {"type": "Point", "coordinates": [-73.8640137878, 40.9253986925]}, "type": "Feature", "properties": {"collection_times": [{"days": "Mon-Sat", "time": "9:00am"}, {"days": "Sun", "time": "Closed"}], "id": "1070400030", "name": "USPS COLLECTION BOX - BLUE BOX", "address": {"city": "YONKERS", "state": "NY", "street": "248 HAYWARD ST", "postcode": "10704"}}},
{"geometry": {"type": "Point", "coordinates": [-73.8691340185, 40.9190048743]}, "type": "Feature", "properties": {"collection_times": [{"days": "Mon-Sat", "time": "9:30am"}, {"days": "Sun", "time": "Closed"}], "id": "1070400031", "name": "USPS COLLECTION BOX - BLUE BOX", "address": {"city": "YONKERS", "state": "NY", "street": "1 HOLLY ST", "postcode": "10704"}}},
{"geometry": {"type": "Point", "coordinates": [-73.8596750775, 40.9104403502]}, "type": "Feature", "properties": {"collection_times": [{"days": "Mon-Sat", "time": "11:30am"}, {"days": "Sun", "time": "Closed"}], "id": "1070400032", "name": "USPS COLLECTION BOX - BLUE BOX", "address": {"city": "YONKERS", "state": "NY", "street": "223 HYATT AVE", "postcode": "10704"}}},
{"geometry": {"type": "Point", "coordinates": [-73.8490882091, 40.9282718274]}, "type": "Feature", "properties": {"collection_times": [{"days": "Mon-Sat", "time": "10:30am"}, {"days": "Sun", "time": "Closed"}], "id": "1070400033", "name": "USPS COLLECTION BOX - BLUE BOX", "address": {"city": "YONKERS", "state": "NY", "street": "830 KIMBALL AVE", "postcode": "10704"}}},
{"geometry": {"type": "Point", "coordinates": [-73.8550937799, 40.9181532656]}, "type": "Feature", "properties": {"collection_times": [{"days": "Mon-Sat", "time": "10:00am"}, {"days": "Sun", "time": "Closed"}], "id": "1070400034", "name": "USPS COLLECTION BOX - BLUE BOX", "address": {"city": "YONKERS", "state": "NY", "street": "500 KIMBALL AVE", "postcode": "10704"}}},
{"geometry": {"type": "Point", "coordinates": [-73.8536396388, 40.9207157604]}, "type": "Feature", "properties": {"collection_times": [{"days": "Mon-Sat", "time": "10:30am"}, {"days": "Sun", "time": "Closed"}], "id": "1070400035", "name": "USPS COLLECTION BOX - BLUE BOX", "address": {"city": "YONKERS", "state": "NY", "street": "570 KIMBALL AVE", "postcode": "10704"}}},
{"geometry": {"type": "Point", "coordinates": [-73.8473408669, 40.924937538]}, "type": "Feature", "properties": {"collection_times": [{"days": "Mon-Sat", "time": "10:00am"}, {"days": "Sun", "time": "Closed"}], "id": "1070400037", "name": "USPS COLLECTION BOX - BLUE BOX", "address": {"city": "YONKERS", "state": "NY", "street": "54 SPRINGER AVE", "postcode": "10704"}}},
{"geometry": {"type": "Point", "coordinates": [-73.871441843, 40.9065750166]}, "type": "Feature", "properties": {"collection_times": [{"days": "Mon-Sat", "time": "12:00pm"}, {"days": "Sun", "time": "Closed"}], "id": "1070400041", "name": "USPS COLLECTION BOX - BLUE BOX", "address": {"city": "YONKERS", "state": "NY", "street": "821 MCLEAN AVE", "postcode": "10704"}}},
{"geometry": {"type": "Point", "coordinates": [-73.862782904, 40.90160876]}, "type": "Feature", "properties": {"collection_times": [{"days": "Mon-Sat", "time": "11:00am"}, {"days": "Sun", "time": "Closed"}], "id": "1070400042", "name": "USPS COLLECTION BOX - BLUE BOX", "address": {"city": "YONKERS", "state": "NY", "street": "1044 MCLEAN AVE", "postcode": "10704"}}},
{"geometry": {"type": "Point", "coordinates": [-73.8673211494, 40.9039308503]}, "type": "Feature", "properties": {"collection_times": [{"days": "Mon-Sat", "time": "11:30am"}, {"days": "Sun", "time": "Closed"}], "id": "1070400043", "name": "USPS COLLECTION BOX - BLUE BOX", "address": {"city": "YONKERS", "state": "NY", "street": "928 MCLEAN AVE", "postcode": "10704"}}},
{"geometry": {"type": "Point", "coordinates": [-73.8657828862, 40.9030465242]}, "type": "Feature", "properties": {"collection_times": [{"days": "Mon-Sat", "time": "11:30am"}, {"days": "Sun", "time": "Closed"}], "id": "1070400044", "name": "USPS COLLECTION BOX - BLUE BOX", "address": {"city": "YONKERS", "state": "NY", "street": "969 MCLEAN AVE", "postcode": "10704"}}},
{"geometry": {"type": "Point", "coordinates": [-73.8584052178, 40.9342889442]}, "type": "Feature", "properties": {"collection_times": [{"days": "Mon-Sat", "time": "9:00am"}, {"days": "Sun", "time": "Closed"}], "id": "1070400047", "name": "USPS COLLECTION BOX - BLUE BOX", "address": {"city": "YONKERS", "state": "NY", "street": "225 MURRAY AVE", "postcode": "10704"}}},
{"geometry": {"type": "Point", "coordinates": [-73.8590683229, 40.9269430988]}, "type": "Feature", "properties": {"collection_times": [{"days": "Mon-Sat", "time": "9:00am"}, {"days": "Sun", "time": "Closed"}], "id": "1070400049", "name": "USPS COLLECTION BOX - BLUE BOX", "address": {"city": "YONKERS", "state": "NY", "street": "830 MILE SQUARE RD", "postcode": "10704"}}},
{"geometry": {"type": "Point", "coordinates": [-73.8481101807, 40.9180198571]}, "type": "Feature", "properties": {"collection_times": [{"days": "Mon-Sat", "time": "10:00am"}, {"days": "Sun", "time": "Closed"}], "id": "1070400050", "name": "USPS COLLECTION BOX - BLUE BOX", "address": {"city": "YONKERS", "state": "NY", "street": "541 BRONX RIVER RD", "postcode": "10704"}}},
{"geometry": {"type": "Point", "coordinates": [-73.8626841787, 40.9252752793]}, "type": "Feature", "properties": {"collection_times": [{"days": "Mon-Sat", "time": "9:00am"}, {"days": "Sun", "time": "Closed"}], "id": "1070400051", "name": "USPS COLLECTION BOX - BLUE BOX", "address": {"city": "YONKERS", "state": "NY", "street": "94 PAGE AVE", "postcode": "10704"}}},
{"geometry": {"type": "Point", "coordinates": [-73.8717431412, 40.9041838]}, "type": "Feature", "properties": {"collection_times": [{"days": "Mon-Sat", "time": "12:00pm"}, {"days": "Sun", "time": "Closed"}], "id": "1070400052", "name": "USPS COLLECTION BOX - BLUE BOX", "address": {"city": "YONKERS", "state": "NY", "street": "150 PARKWAY N", "postcode": "10704"}}},
{"geometry": {"type": "Point", "coordinates": [-73.8635124052, 40.9049287055]}, "type": "Feature", "properties": {"collection_times": [{"days": "Mon-Sat", "time": "11:30am"}, {"days": "Sun", "time": "Closed"}], "id": "1070400053", "name": "USPS COLLECTION BOX - BLUE BOX", "address": {"city": "YONKERS", "state": "NY", "street": "62 WOODLAWN AVE", "postcode": "10704"}}},
{"geometry": {"type": "Point", "coordinates": [-73.864263705, 40.9288951303]}, "type": "Feature", "properties": {"collection_times": [{"days": "Mon-Sat", "time": "9:00am"}, {"days": "Sun", "time": "Closed"}], "id": "1070400054", "name": "USPS COLLECTION BOX - BLUE BOX", "address": {"city": "YONKERS", "state": "NY", "street": "2 VALENTINE ST", "postcode": "10704"}}},
{"geometry": {"type": "Point", "coordinates": [-73.8743581466, 40.9168319272]}, "type": "Feature", "properties": {"collection_times": [{"days": "Mon-Sat", "time": "9:30am"}, {"days": "Sun", "time": "Closed"}], "id": "1070400055", "name": "USPS COLLECTION BOX - BLUE BOX", "address": {"city": "YONKERS", "state": "NY", "street": "117 SAINT JOHNS AVE", "postcode": "10704"}}},
{"geometry": {"type": "Point", "coordinates": [-73.8743957572, 40.9158259872]}, "type": "Feature", "properties": {"collection_times": [{"days": "Mon-Sat", "time": "9:30am"}, {"days": "Sun", "time": "Closed"}], "id": "1070400056", "name": "USPS COLLECTION BOX - BLUE BOX", "address": {"city": "YONKERS", "state": "NY", "street": "79 SAINT JOHNS AVE", "postcode": "10704"}}},
{"geometry": {"type": "Point", "coordinates": [-73.8657508101, 40.9236764567]}, "type": "Feature", "properties": {"collection_times": [{"days": "Mon-Sat", "time": "8:30am"}, {"days": "Sun", "time": "Closed"}], "id": "1070400058", "name": "USPS COLLECTION BOX - BLUE BOX", "address": {"city": "YONKERS", "state": "NY", "street": "733 YONKERS AVE", "postcode": "10704"}}},
{"geometry": {"type": "Point", "coordinates": [-73.8657508101, 40.9236764567]}, "type": "Feature", "properties": {"collection_times": [{"days": "Mon-Sat", "time": "8:30am"}, {"days": "Sun", "time": "Closed"}], "id": "1070400059", "name": "USPS COLLECTION BOX - BLUE BOX", "address": {"city": "YONKERS", "state": "NY", "street": "733 YONKERS AVE", "postcode": "10704"}}},
{"geometry": {"type": "Point", "coordinates": [-73.8593687712, 40.9170790064]}, "type": "Feature", "properties": {"collection_times": [{"days": "Mon-Sat", "time": "8:30am"}, {"days": "Sun", "time": "Closed"}], "id": "1070400060", "name": "USPS COLLECTION BOX - BLUE BOX", "address": {"city": "YONKERS", "state": "NY", "street": "955 YONKERS AVE", "postcode": "10704"}}},
{"geometry": {"type": "Point", "coordinates": [-73.8569428055, 40.9135611631]}, "type": "Feature", "properties": {"collection_times": [{"days": "Mon-Sat", "time": "10:00am"}, {"days": "Sun", "time": "Closed"}], "id": "1070400061", "name": "USPS COLLECTION BOX - BLUE BOX", "address": {"city": "YONKERS", "state": "NY", "street": "1071 YONKERS AVE", "postcode": "10704"}}},
{"geometry": {"type": "Point", "coordinates": [-73.8692905789, 40.9267470797]}, "type": "Feature", "properties": {"collection_times": [{"days": "Mon-Sat", "time": "9:30am"}, {"days": "Sun", "time": "Closed"}], "id": "1070400063", "name": "USPS COLLECTION BOX - BLUE BOX", "address": {"city": "YONKERS", "state": "NY", "street": "614 YONKERS AVE", "postcode": "10704"}}},
{"geometry": {"type": "Point", "coordinates": [-73.8526375029, 40.9143975524]}, "type": "Feature", "properties": {"collection_times": [{"days": "Mon-Sat", "time": "11:00am"}, {"days": "Sun", "time": "Closed"}], "id": "1070400064", "name": "USPS COLLECTION BOX - BLUE BOX", "address": {"city": "YONKERS", "state": "NY", "street": "1178 YONKERS AVE", "postcode": "10704"}}},
{"geometry": {"type": "Point", "coordinates": [-73.8558046928, 40.9134545873]}, "type": "Feature", "properties": {"collection_times": [{"days": "Mon-Sat", "time": "11:00am"}, {"days": "Sun", "time": "Closed"}], "id": "1070400065", "name": "USPS COLLECTION BOX - BLUE BOX", "address": {"city": "YONKERS", "state": "NY", "street": "1098 YONKERS AVE", "postcode": "10704"}}},
{"geometry": {"type": "Point", "coordinates": [-73.8677531615, 40.9252005146]}, "type": "Feature", "properties": {"collection_times": [{"days": "Mon-Sat", "time": "8:30am"}, {"days": "Sun", "time": "Closed"}], "id": "1070400066", "name": "USPS COLLECTION BOX - BLUE BOX", "address": {"city": "YONKERS", "state": "NY", "street": "675 YONKERS AVE", "postcode": "10704"}}},
{"geometry": {"type": "Point", "coordinates": [-73.8682479235, 40.9255599188]}, "type": "Feature", "properties": {"collection_times": [{"days": "Mon-Sat", "time": "9:30am"}, {"days": "Sun", "time": "Closed"}], "id": "1070400067", "name": "USPS COLLECTION BOX - BLUE BOX", "address": {"city": "YONKERS", "state": "NY", "street": "656 YONKERS AVE", "postcode": "10704"}}},
{"geometry": {"type": "Point", "coordinates": [-73.870746336, 40.9284784559]}, "type": "Feature", "properties": {"collection_times": [{"days": "Mon-Sat", "time": "9:30am"}, {"days": "Sun", "time": "Closed"}], "id": "1070400068", "name": "USPS COLLECTION BOX - BLUE BOX", "address": {"city": "YONKERS", "state": "NY", "street": "560 YONKERS AVE", "postcode": "10704"}}},
{"geometry": {"type": "Point", "coordinates": [-73.8600576031, 40.9187263625]}, "type": "Feature", "properties": {"collection_times": [{"days": "Mon-Fri", "time": "5:00pm"}, {"days": "Sat", "time": "4:00pm"}, {"days": "Sun", "time": "Closed"}], "id": "1070400072", "name": "USPS COLLECTION BOX - BLUE BOX", "address": {"city": "YONKERS", "state": "NY", "street": "915 YONKERS AVE", "postcode": "10704"}}},
{"geometry": {"type": "Point", "coordinates": [-73.8600576031, 40.9187263625]}, "type": "Feature", "properties": {"collection_times": [{"days": "Mon-Fri", "time": "5:00pm"}, {"days": "Sat", "time": "1:00pm"}, {"days": "Sun", "time": "Closed"}], "id": "1070400073", "name": "USPS COLLECTION BOX - APC", "address": {"city": "YONKERS", "state": "NY", "street": "915 YONKERS AVE", "postcode": "10704"}}},
{"geometry": {"type": "Point", "coordinates": [-73.8600576031, 40.9187263625]}, "type": "Feature", "properties": {"collection_times": [{"days": "Mon-Fri", "time": "5:00pm"}, {"days": "Sat", "time": "1:00pm"}, {"days": "Sun", "time": "Closed"}], "id": "1070400074", "name": "USPS COLLECTION BOX - PO LOBBY", "address": {"city": "YONKERS", "state": "NY", "street": "915 YONKERS AVE LBBY DROP", "postcode": "10704"}}},
{"geometry": {"type": "Point", "coordinates": [-73.8929278166, 40.9230605606]}, "type": "Feature", "properties": {"collection_times": [{"days": "Mon-Sat", "time": "12:30pm"}, {"days": "Sun", "time": "Closed"}], "id": "1070500003", "name": "USPS COLLECTION BOX - BLUE BOX", "address": {"city": "YONKERS", "state": "NY", "street": "114 ALTA AVE", "postcode": "10705"}}},
{"geometry": {"type": "Point", "coordinates": [-73.9064019772, 40.9200792154]}, "type": "Feature", "properties": {"collection_times": [{"days": "Mon-Sat", "time": "1:00pm"}, {"days": "Sun", "time": "Closed"}], "id": "1070500004", "name": "USPS COLLECTION BOX - BLUE BOX", "address": {"city": "YONKERS", "state": "NY", "street": "63 ASHTON RD", "postcode": "10705"}}},
{"geometry": {"type": "Point", "coordinates": [-73.9024961063, 40.9175995475]}, "type": "Feature", "properties": {"collection_times": [{"days": "Mon-Sat", "time": "1:00pm"}, {"days": "Sun", "time": "Closed"}], "id": "1070500005", "name": "USPS COLLECTION BOX - BLUE BOX", "address": {"city": "YONKERS", "state": "NY", "street": "32 BAYLEY AVE", "postcode": "10705"}}},
{"geometry": {"type": "Point", "coordinates": [-73.9031343616, 40.9204687131]}, "type": "Feature", "properties": {"collection_times": [{"days": "Mon-Sat", "time": "1:00pm"}, {"days": "Sun", "time": "Closed"}], "id": "1070500007", "name": "USPS COLLECTION BOX - BLUE BOX", "address": {"city": "YONKERS", "state": "NY", "street": "343 HAWTHORNE AVE", "postcode": "10705"}}},
{"geometry": {"type": "Point", "coordinates": [-73.9041644465, 40.9241015307]}, "type": "Feature", "properties": {"collection_times": [{"days": "Mon-Sat", "time": "1:00pm"}, {"days": "Sun", "time": "Closed"}], "id": "1070500008", "name": "USPS COLLECTION BOX - BLUE BOX", "address": {"city": "YONKERS", "state": "NY", "street": "166 LUDLOW ST", "postcode": "10705"}}},
{"geometry": {"type": "Point", "coordinates": [-73.8977181097, 40.9176362437]}, "type": "Feature", "properties": {"collection_times": [{"days": "Mon-Sat", "time": "1:30pm"}, {"days": "Sun", "time": "Closed"}], "id": "1070500015", "name": "USPS COLLECTION BOX - BLUE BOX", "address": {"city": "YONKERS", "state": "NY", "street": "105 RADFORD ST", "postcode": "10705"}}},
{"geometry": {"type": "Point", "coordinates": [-73.9027748847, 40.924864332]}, "type": "Feature", "properties": {"collection_times": [{"days": "Mon-Sat", "time": "1:00pm"}, {"days": "Sun", "time": "Closed"}], "id": "1070500019", "name": "USPS COLLECTION BOX - BLUE BOX", "address": {"city": "YONKERS", "state": "NY", "street": "231 HAWTHORNE AVE", "postcode": "10705"}}},
{"geometry": {"type": "Point", "coordinates": [-73.8882329698, 40.9242622367]}, "type": "Feature", "properties": {"collection_times": [{"days": "Mon-Sat", "time": "12:30pm"}, {"days": "Sun", "time": "Closed"}], "id": "1070500022", "name": "USPS COLLECTION BOX - BLUE BOX", "address": {"city": "YONKERS", "state": "NY", "street": "88 HILLCREST AVE", "postcode": "10705"}}},
{"geometry": {"type": "Point", "coordinates": [-73.8941684413, 40.914391368]}, "type": "Feature", "properties": {"collection_times": [{"days": "Mon-Sat", "time": "1:30pm"}, {"days": "Sun", "time": "Closed"}], "id": "1070500025", "name": "USPS COLLECTION BOX - BLUE BOX", "address": {"city": "YONKERS", "state": "NY", "street": "36 LANDSCAPE AVE", "postcode": "10705"}}},
{"geometry": {"type": "Point", "coordinates": [-73.8855937357, 40.9199560998]}, "type": "Feature", "properties": {"collection_times": [{"days": "Mon-Sat", "time": "12:30pm"}, {"days": "Sun", "time": "Closed"}], "id": "1070500026", "name": "USPS COLLECTION BOX - BLUE BOX", "address": {"city": "YONKERS", "state": "NY", "street": "45 LEFFERTS RD", "postcode": "10705"}}},
{"geometry": {"type": "Point", "coordinates": [-73.8860887347, 40.9108119975]}, "type": "Feature", "properties": {"collection_times": [{"days": "Mon-Sat", "time": "2:00pm"}, {"days": "Sun", "time": "Closed"}], "id": "1070500032", "name": "USPS COLLECTION BOX - BLUE BOX", "address": {"city": "YONKERS", "state": "NY", "street": "385 MCLEAN AVE", "postcode": "10705"}}},
{"geometry": {"type": "Point", "coordinates": [-73.8928624816, 40.9186260777]}, "type": "Feature", "properties": {"collection_times": [{"days": "Mon-Sat", "time": "2:00pm"}, {"days": "Sun", "time": "Closed"}], "id": "1070500033", "name": "USPS COLLECTION BOX - BLUE BOX", "address": {"city": "YONKERS", "state": "NY", "street": "586 VAN CORTLANDT PARK AVE", "postcode": "10705"}}},
{"geometry": {"type": "Point", "coordinates": [-73.8889786466, 40.9096016996]}, "type": "Feature", "properties": {"collection_times": [{"days": "Mon-Sat", "time": "2:00pm"}, {"days": "Sun", "time": "Closed"}], "id": "1070500035", "name": "USPS COLLECTION BOX - BLUE BOX", "address": {"city": "YONKERS", "state": "NY", "street": "321 MCLEAN AVE", "postcode": "10705"}}},
{"geometry": {"type": "Point", "coordinates": [-73.8796445599, 40.9093597239]}, "type": "Feature", "properties": {"collection_times": [{"days": "Mon-Sat", "time": "2:00pm"}, {"days": "Sun", "time": "Closed"}], "id": "1070500037", "name": "USPS COLLECTION BOX - BLUE BOX", "address": {"city": "YONKERS", "state": "NY", "street": "623 MCLEAN AVE", "postcode": "10705"}}},
{"geometry": {"type": "Point", "coordinates": [-73.8897203715, 40.9146607195]}, "type": "Feature", "properties": {"collection_times": [{"days": "Mon-Sat", "time": "2:00pm"}, {"days": "Sun", "time": "Closed"}], "id": "1070500038", "name": "USPS COLLECTION BOX - BLUE BOX", "address": {"city": "YONKERS", "state": "NY", "street": "177 MCLEAN AVE", "postcode": "10705"}}},
{"geometry": {"type": "Point", "coordinates": [-73.88306203, 40.9107512243]}, "type": "Feature", "properties": {"collection_times": [{"days": "Mon-Sat", "time": "2:00pm"}, {"days": "Sun", "time": "Closed"}], "id": "1070500040", "name": "USPS COLLECTION BOX - BLUE BOX", "address": {"city": "YONKERS", "state": "NY", "street": "459 MCLEAN AVE", "postcode": "10705"}}},
{"geometry": {"type": "Point", "coordinates": [-73.8852400471, 40.9226705225]}, "type": "Feature", "properties": {"collection_times": [{"days": "Mon-Sat", "time": "12:30pm"}, {"days": "Sun", "time": "Closed"}], "id": "1070500042", "name": "USPS COLLECTION BOX - BLUE BOX", "address": {"city": "YONKERS", "state": "NY", "street": "146 RUMSEY RD", "postcode": "10705"}}},
{"geometry": {"type": "Point", "coordinates": [-73.9010253587, 40.9211015349]}, "type": "Feature", "properties": {"collection_times": [{"days": "Mon-Sat", "time": "1:30pm"}, {"days": "Sun", "time": "Closed"}], "id": "1070500045", "name": "USPS COLLECTION BOX - BLUE BOX", "address": {"city": "YONKERS", "state": "NY", "street": "334 RIVERDALE AVE", "postcode": "10705"}}},
{"geometry": {"type": "Point", "coordinates": [-73.9014622907, 40.9144198526]}, "type": "Feature", "properties": {"collection_times": [{"days": "Mon-Sat", "time": "1:00pm"}, {"days": "Sun", "time": "Closed"}], "id": "1070500046", "name": "USPS COLLECTION BOX - BLUE BOX", "address": {"city": "YONKERS", "state": "NY", "street": "43 AMBERSON AVE", "postcode": "10705"}}},
{"geometry": {"type": "Point", "coordinates": [-73.9008428885, 40.9255799236]}, "type": "Feature", "properties": {"collection_times": [{"days": "Mon-Sat", "time": "1:00pm"}, {"days": "Sun", "time": "Closed"}], "id": "1070500047", "name": "USPS COLLECTION BOX - BLUE BOX", "address": {"city": "YONKERS", "state": "NY", "street": "209 RIVERDALE AVE", "postcode": "10705"}}},
{"geometry": {"type": "Point", "coordinates": [-73.9014091768, 40.9179683735]}, "type": "Feature", "properties": {"collection_times": [{"days": "Mon-Sat", "time": "1:30pm"}, {"days": "Sun", "time": "Closed"}], "id": "1070500050", "name": "USPS COLLECTION BOX - BLUE BOX", "address": {"city": "YONKERS", "state": "NY", "street": "414 RIVERDALE AVE", "postcode": "10705"}}},
{"geometry": {"type": "Point", "coordinates": [-73.9017249974, 40.9160927217]}, "type": "Feature", "properties": {"collection_times": [{"days": "Mon-Sat", "time": "1:30pm"}, {"days": "Sun", "time": "Closed"}], "id": "1070500051", "name": "USPS COLLECTION BOX - BLUE BOX", "address": {"city": "YONKERS", "state": "NY", "street": "466 RIVERDALE AVE", "postcode": "10705"}}},
{"geometry": {"type": "Point", "coordinates": [-73.8956423089, 40.9230030736]}, "type": "Feature", "properties": {"collection_times": [{"days": "Mon-Sat", "time": "12:30pm"}, {"days": "Sun", "time": "Closed"}], "id": "1070500054", "name": "USPS COLLECTION BOX - BLUE BOX", "address": {"city": "YONKERS", "state": "NY", "street": "272 S BROADWAY", "postcode": "10705"}}},
{"geometry": {"type": "Point", "coordinates": [-73.8960649324, 40.9212868803]}, "type": "Feature", "properties": {"collection_times": [{"days": "Mon-Fri", "time": "5:00pm"}, {"days": "Sat", "time": "4:00pm"}, {"days": "Sun", "time": "Closed"}], "id": "1070500057", "name": "USPS COLLECTION BOX - BLUE BOX", "address": {"city": "YONKERS", "state": "NY", "street": "335 S BROADWAY", "postcode": "10705"}}},
{"geometry": {"type": "Point", "coordinates": [-73.9042235593, 40.9234507666]}, "type": "Feature", "properties": {"collection_times": [{"days": "Mon-Sat", "time": "1:00pm"}, {"days": "Sun", "time": "Closed"}], "id": "1070500059", "name": "USPS COLLECTION BOX - BLUE BOX", "address": {"city": "YONKERS", "state": "NY", "street": "2 SUNNYSIDE DR", "postcode": "10705"}}},
{"geometry": {"type": "Point", "coordinates": [-73.8966848827, 40.9133869544]}, "type": "Feature", "properties": {"collection_times": [{"days": "Mon-Sat", "time": "1:30pm"}, {"days": "Sun", "time": "Closed"}], "id": "1070500061", "name": "USPS COLLECTION BOX - BLUE BOX", "address": {"city": "YONKERS", "state": "NY", "street": "628 S BROADWAY", "postcode": "10705"}}},
{"geometry": {"type": "Point", "coordinates": [-73.8955372161, 40.9236463333]}, "type": "Feature", "properties": {"collection_times": [{"days": "Mon-Sat", "time": "12:30pm"}, {"days": "Sun", "time": "Closed"}], "id": "1070500062", "name": "USPS COLLECTION BOX - BLUE BOX", "address": {"city": "YONKERS", "state": "NY", "street": "248 S BROADWAY", "postcode": "10705"}}},
{"geometry": {"type": "Point", "coordinates": [-73.8966791692, 40.9170043609]}, "type": "Feature", "properties": {"collection_times": [{"days": "Mon-Sat", "time": "2:00pm"}, {"days": "Sun", "time": "Closed"}], "id": "1070500063", "name": "USPS COLLECTION BOX - BLUE BOX", "address": {"city": "YONKERS", "state": "NY", "street": "492 S BROADWAY", "postcode": "10705"}}},
{"geometry": {"type": "Point", "coordinates": [-73.8962610713, 40.919277771]}, "type": "Feature", "properties": {"collection_times": [{"days": "Mon-Sat", "time": "2:00pm"}, {"days": "Sun", "time": "Closed"}], "id": "1070500064", "name": "USPS COLLECTION BOX - BLUE BOX", "address": {"city": "YONKERS", "state": "NY", "street": "410 S BROADWAY", "postcode": "10705"}}},
{"geometry": {"type": "Point", "coordinates": [-73.8969232931, 40.9154346139]}, "type": "Feature", "properties": {"collection_times": [{"days": "Mon-Sat", "time": "1:30pm"}, {"days": "Sun", "time": "Closed"}], "id": "1070500065", "name": "USPS COLLECTION BOX - BLUE BOX", "address": {"city": "YONKERS", "state": "NY", "street": "513 S BROADWAY", "postcode": "10705"}}},
{"geometry": {"type": "Point", "coordinates": [-73.8928624816, 40.9186260777]}, "type": "Feature", "properties": {"collection_times": [{"days": "Mon-Sat", "time": "2:00pm"}, {"days": "Sun", "time": "Closed"}], "id": "1070500070", "name": "USPS COLLECTION BOX - BLUE BOX", "address": {"city": "YONKERS", "state": "NY", "street": "508 VAN CORTLANDT PARK AVE", "postcode": "10705"}}},
{"geometry": {"type": "Point", "coordinates": [-73.8960649324, 40.9212868803]}, "type": "Feature", "properties": {"collection_times": [{"days": "Mon-Fri", "time": "5:00pm"}, {"days": "Sat", "time": "1:00pm"}, {"days": "Sun", "time": "Closed"}], "id": "1070500071", "name": "USPS COLLECTION BOX - PO LOBBY", "address": {"city": "YONKERS", "state": "NY", "street": "335 S BROADWAY LBBY DROP", "postcode": "10705"}}},
{"geometry": {"type": "Point", "coordinates": [-73.8782580715, 40.9935677863]}, "type": "Feature", "properties": {"collection_times": [{"days": "Mon-Sat", "time": "8:30am"}, {"days": "Sun", "time": "Closed"}], "id": "1070600002", "name": "USPS COLLECTION BOX - BLUE BOX", "address": {"city": "HASTINGS HDSN", "state": "NY", "street": "465 BROADWAY", "postcode": "10706"}}},
{"geometry": {"type": "Point", "coordinates": [-73.8807550167, 41.002719313]}, "type": "Feature", "properties": {"collection_times": [{"days": "Mon-Sat", "time": "8:30am"}, {"days": "Sun", "time": "Closed"}], "id": "1070600004", "name": "USPS COLLECTION BOX - BLUE BOX", "address": {"city": "HASTINGS HDSN", "state": "NY", "street": "765 N BROADWAY", "postcode": "10706"}}},
{"geometry": {"type": "Point", "coordinates": [-73.8724756945, 40.9871303096]}, "type": "Feature", "properties": {"collection_times": [{"days": "Mon-Sat", "time": "8:30am"}, {"days": "Sun", "time": "Closed"}], "id": "1070600014", "name": "USPS COLLECTION BOX - BLUE BOX", "address": {"city": "HASTINGS HDSN", "state": "NY", "street": "290 FARRAGUT AVE", "postcode": "10706"}}},
{"geometry": {"type": "Point", "coordinates": [-73.8820001279, 40.9969003995]}, "type": "Feature", "properties": {"collection_times": [{"days": "Mon-Fri", "time": "5:00pm"}, {"days": "Sat", "time": "1:00pm"}, {"days": "Sun", "time": "Closed"}], "id": "1070600018", "name": "USPS COLLECTION BOX - BLUE BOX", "address": {"city": "HASTINGS HDSN", "state": "NY", "street": "591 WARBURTON AVE", "postcode": "10706"}}},
{"geometry": {"type": "Point", "coordinates": [-73.8731931433, 40.9796363653]}, "type": "Feature", "properties": {"collection_times": [{"days": "Mon-Sat", "time": "8:00am"}, {"days": "Sun", "time": "Closed"}], "id": "1070600021", "name": "USPS COLLECTION BOX - BLUE BOX", "address": {"city": "HASTINGS HDSN", "state": "NY", "street": "89 TOMPKINS AVE", "postcode": "10706"}}},
{"geometry": {"type": "Point", "coordinates": [-73.8824208286, 40.9824618805]}, "type": "Feature", "properties": {"collection_times": [{"days": "Mon-Sat", "time": "12:00pm"}, {"days": "Sun", "time": "Closed"}], "id": "1070600023", "name": "USPS COLLECTION BOX - BLUE BOX", "address": {"city": "HASTINGS HDSN", "state": "NY", "street": "150 PINECREST DR", "postcode": "10706"}}},
{"geometry": {"type": "Point", "coordinates": [-73.883923504, 40.9946109624]}, "type": "Feature", "properties": {"collection_times": [{"days": "Mon-Sat", "time": "8:30am"}, {"days": "Sun", "time": "Closed"}], "id": "1070600025", "name": "USPS COLLECTION BOX - BLUE BOX", "address": {"city": "HASTINGS HDSN", "state": "NY", "street": "159 SOUTHSIDE AVE", "postcode": "10706"}}},
{"geometry": {"type": "Point", "coordinates": [-73.8821124747, 40.9956267298]}, "type": "Feature", "properties": {"collection_times": [{"days": "Mon-Sat", "time": "8:30am"}, {"days": "Sun", "time": "Closed"}], "id": "1070600027", "name": "USPS COLLECTION BOX - BLUE BOX", "address": {"city": "HASTINGS HDSN", "state": "NY", "street": "534 WARBURTON AVE", "postcode": "10706"}}},
{"geometry": {"type": "Point", "coordinates": [-73.8821445453, 40.9961855559]}, "type": "Feature", "properties": {"collection_times": [{"days": "Mon-Sat", "time": "8:30am"}, {"days": "Sun", "time": "Closed"}], "id": "1070600028", "name": "USPS COLLECTION BOX - BLUE BOX", "address": {"city": "HASTINGS HDSN", "state": "NY", "street": "555 WARBURTON AVE", "postcode": "10706"}}},
{"geometry": {"type": "Point", "coordinates": [-73.8824178089, 40.9948530053]}, "type": "Feature", "properties": {"collection_times": [{"days": "Mon-Sat", "time": "11:00am"}, {"days": "Sun", "time": "Closed"}], "id": "1070600029", "name": "USPS COLLECTION BOX - BLUE BOX", "address": {"city": "HASTINGS HDSN", "state": "NY", "street": "477 WARBURTON AVE", "postcode": "10706"}}},
{"geometry": {"type": "Point", "coordinates": [-73.8820001279, 40.9969003995]}, "type": "Feature", "properties": {"collection_times": [{"days": "Mon-Fri", "time": "5:00pm"}, {"days": "Sat", "time": "1:00pm"}, {"days": "Sun", "time": "Closed"}], "id": "1070600030", "name": "USPS COLLECTION BOX - PO LOBBY", "address": {"city": "HASTINGS HDSN", "state": "NY", "street": "591 WARBURTON AVE LBBY DROP", "postcode": "10706"}}},
{"geometry": {"type": "Point", "coordinates": [-73.8111938978, 40.9528531271]}, "type": "Feature", "properties": {"collection_times": [{"days": "Mon-Sat", "time": "1:00pm"}, {"days": "Sun", "time": "Closed"}], "id": "1070700001", "name": "USPS COLLECTION BOX - BLUE BOX", "address": {"city": "EASTCHESTER", "state": "NY", "street": "5 HUNTLEY RD", "postcode": "10707"}}},
{"geometry": {"type": "Point", "coordinates": [-73.8070346141, 40.9538148727]}, "type": "Feature", "properties": {"collection_times": [{"days": "Mon-Sat", "time": "1:00pm"}, {"days": "Sun", "time": "Closed"}], "id": "1070700003", "name": "USPS COLLECTION BOX - BLUE BOX", "address": {"city": "EASTCHESTER", "state": "NY", "street": "2 BRUCE LN", "postcode": "10707"}}},
{"geometry": {"type": "Point", "coordinates": [-73.8055866723, 40.9605494581]}, "type": "Feature", "properties": {"collection_times": [{"days": "Mon-Sat", "time": "12:30pm"}, {"days": "Sun", "time": "Closed"}], "id": "1070700004", "name": "USPS COLLECTION BOX - BLUE BOX", "address": {"city": "EASTCHESTER", "state": "NY", "street": "1261 CALIFORNIA RD", "postcode": "10707"}}},
{"geometry": {"type": "Point", "coordinates": [-73.8042061592, 40.9564315779]}, "type": "Feature", "properties": {"collection_times": [{"days": "Mon-Sat", "time": "12:30pm"}, {"days": "Sun", "time": "Closed"}], "id": "1070700005", "name": "USPS COLLECTION BOX - BLUE BOX", "address": {"city": "EASTCHESTER", "state": "NY", "street": "1 MANCHESTER RD", "postcode": "10707"}}},
{"geometry": {"type": "Point", "coordinates": [-73.8258223976, 40.9501962177]}, "type": "Feature", "properties": {"collection_times": [{"days": "Mon-Sat", "time": "12:00pm"}, {"days": "Sun", "time": "Closed"}], "id": "1070700007", "name": "USPS COLLECTION BOX - BLUE BOX", "address": {"city": "EASTCHESTER", "state": "NY", "street": "6 CAMERON PL", "postcode": "10707"}}},
{"geometry": {"type": "Point", "coordinates": [-73.8220591815, 40.9638098881]}, "type": "Feature", "properties": {"collection_times": [{"days": "Mon-Sat", "time": "11:30am"}, {"days": "Sun", "time": "Closed"}], "id": "1070700008", "name": "USPS COLLECTION BOX - BLUE BOX", "address": {"city": "EASTCHESTER", "state": "NY", "street": "57 CHITTENDEN AVE", "postcode": "10707"}}},
{"geometry": {"type": "Point", "coordinates": [-73.8269673232, 40.9510869966]}, "type": "Feature", "properties": {"collection_times": [{"days": "Mon-Sat", "time": "1:00pm"}, {"days": "Sun", "time": "Closed"}], "id": "1070700009", "name": "USPS COLLECTION BOX - BLUE BOX", "address": {"city": "EASTCHESTER", "state": "NY", "street": "16 COLUMBUS AVE", "postcode": "10707"}}},
{"geometry": {"type": "Point", "coordinates": [-73.8219663547, 40.9575446401]}, "type": "Feature", "properties": {"collection_times": [{"days": "Mon-Sat", "time": "12:30pm"}, {"days": "Sun", "time": "Closed"}], "id": "1070700010", "name": "USPS COLLECTION BOX - BLUE BOX", "address": {"city": "EASTCHESTER", "state": "NY", "street": "273 COLUMBUS AVE", "postcode": "10707"}}},
{"geometry": {"type": "Point", "coordinates": [-73.8248760012, 40.953546341]}, "type": "Feature", "properties": {"collection_times": [{"days": "Mon-Sat", "time": "12:30pm"}, {"days": "Sun", "time": "Closed"}], "id": "1070700011", "name": "USPS COLLECTION BOX - BLUE BOX", "address": {"city": "EASTCHESTER", "state": "NY", "street": "100 COLUMBUS AVE", "postcode": "10707"}}},
{"geometry": {"type": "Point", "coordinates": [-73.8246306095, 40.9620007316]}, "type": "Feature", "properties": {"collection_times": [{"days": "Mon-Sat", "time": "11:30am"}, {"days": "Sun", "time": "Closed"}], "id": "1070700013", "name": "USPS COLLECTION BOX - BLUE BOX", "address": {"city": "EASTCHESTER", "state": "NY", "street": "100 CRESTWOOD AVE", "postcode": "10707"}}},
{"geometry": {"type": "Point", "coordinates": [-73.8276839141, 40.950467648]}, "type": "Feature", "properties": {"collection_times": [{"days": "Mon-Sat", "time": "12:00pm"}, {"days": "Sun", "time": "Closed"}], "id": "1070700014", "name": "USPS COLLECTION BOX - BLUE BOX", "address": {"city": "EASTCHESTER", "state": "NY", "street": "18 DEPOT SQ", "postcode": "10707"}}},
{"geometry": {"type": "Point", "coordinates": [-73.8144008588, 40.9560318033]}, "type": "Feature", "properties": {"collection_times": [{"days": "Mon-Fri", "time": "5:00pm"}, {"days": "Sat", "time": "1:00pm"}, {"days": "Sun", "time": "Closed"}], "id": "1070700015", "name": "USPS COLLECTION BOX - BLUE BOX", "address": {"city": "EASTCHESTER", "state": "NY", "street": "155 FISHER AVE", "postcode": "10707"}}},
{"geometry": {"type": "Point", "coordinates": [-73.8310770721, 40.9515991906]}, "type": "Feature", "properties": {"collection_times": [{"days": "Mon-Sat", "time": "12:00pm"}, {"days": "Sun", "time": "Closed"}], "id": "1070700017", "name": "USPS COLLECTION BOX - BLUE BOX", "address": {"city": "EASTCHESTER", "state": "NY", "street": "1 ELM ST", "postcode": "10707"}}},
{"geometry": {"type": "Point", "coordinates": [-73.8168567224, 40.9525751317]}, "type": "Feature", "properties": {"collection_times": [{"days": "Mon-Sat", "time": "1:30pm"}, {"days": "Sun", "time": "Closed"}], "id": "1070700018", "name": "USPS COLLECTION BOX - BLUE BOX", "address": {"city": "EASTCHESTER", "state": "NY", "street": "52 HALL AVE", "postcode": "10707"}}},
{"geometry": {"type": "Point", "coordinates": [-73.809344933, 40.9595238327]}, "type": "Feature", "properties": {"collection_times": [{"days": "Mon-Sat", "time": "1:00pm"}, {"days": "Sun", "time": "Closed"}], "id": "1070700019", "name": "USPS COLLECTION BOX - BLUE BOX", "address": {"city": "EASTCHESTER", "state": "NY", "street": "188 LINCOLN AVE", "postcode": "10707"}}},
{"geometry": {"type": "Point", "coordinates": [-73.8090491932, 40.9477368295]}, "type": "Feature", "properties": {"collection_times": [{"days": "Mon-Sat", "time": "1:30pm"}, {"days": "Sun", "time": "Closed"}], "id": "1070700020", "name": "USPS COLLECTION BOX - BLUE BOX", "address": {"city": "EASTCHESTER", "state": "NY", "street": "118 HIGHLAND AVE", "postcode": "10707"}}},
{"geometry": {"type": "Point", "coordinates": [-73.8185589402, 40.9502183643]}, "type": "Feature", "properties": {"collection_times": [{"days": "Mon-Sat", "time": "1:30pm"}, {"days": "Sun", "time": "Closed"}], "id": "1070700021", "name": "USPS COLLECTION BOX - BLUE BOX", "address": {"city": "EASTCHESTER", "state": "NY", "street": "230 MAIN ST", "postcode": "10707"}}},
{"geometry": {"type": "Point", "coordinates": [-73.8279126569, 40.9521965848]}, "type": "Feature", "properties": {"collection_times": [{"days": "Mon-Sat", "time": "12:00pm"}, {"days": "Sun", "time": "Closed"}], "id": "1070700023", "name": "USPS COLLECTION BOX - BLUE BOX", "address": {"city": "EASTCHESTER", "state": "NY", "street": "111 LAKE AVE", "postcode": "10707"}}},
{"geometry": {"type": "Point", "coordinates": [-73.8192507271, 40.9588244156]}, "type": "Feature", "properties": {"collection_times": [{"days": "Mon-Sat", "time": "12:30pm"}, {"days": "Sun", "time": "Closed"}], "id": "1070700025", "name": "USPS COLLECTION BOX - BLUE BOX", "address": {"city": "EASTCHESTER", "state": "NY", "street": "26 OAKLAND AVE", "postcode": "10707"}}},
{"geometry": {"type": "Point", "coordinates": [-73.8211579612, 40.9513200122]}, "type": "Feature", "properties": {"collection_times": [{"days": "Mon-Sat", "time": "2:00pm"}, {"days": "Sun", "time": "Closed"}], "id": "1070700029", "name": "USPS COLLECTION BOX - BLUE BOX", "address": {"city": "EASTCHESTER", "state": "NY", "street": "65 MARBLEDALE RD", "postcode": "10707"}}},
{"geometry": {"type": "Point", "coordinates": [-73.8135885801, 40.9559527099]}, "type": "Feature", "properties": {"collection_times": [{"days": "Mon-Sat", "time": "1:00pm"}, {"days": "Sun", "time": "Closed"}], "id": "1070700031", "name": "USPS COLLECTION BOX - BLUE BOX", "address": {"city": "EASTCHESTER", "state": "NY", "street": "4 MILL RD", "postcode": "10707"}}},
{"geometry": {"type": "Point", "coordinates": [-73.8110957122, 40.9563038184]}, "type": "Feature", "properties": {"collection_times": [{"days": "Mon-Sat", "time": "1:00pm"}, {"days": "Sun", "time": "Closed"}], "id": "1070700032", "name": "USPS COLLECTION BOX - BLUE BOX", "address": {"city": "EASTCHESTER", "state": "NY", "street": "40 MILL RD", "postcode": "10707"}}},
{"geometry": {"type": "Point", "coordinates": [-73.8295119815, 40.9574821871]}, "type": "Feature", "properties": {"collection_times": [{"days": "Mon-Sat", "time": "11:30am"}, {"days": "Sun", "time": "Closed"}], "id": "1070700034", "name": "USPS COLLECTION BOX - BLUE BOX", "address": {"city": "EASTCHESTER", "state": "NY", "street": "10 PENNSYLVANIA AVE", "postcode": "10707"}}},
{"geometry": {"type": "Point", "coordinates": [-73.8159351974, 40.9463433039]}, "type": "Feature", "properties": {"collection_times": [{"days": "Mon-Sat", "time": "1:30pm"}, {"days": "Sun", "time": "Closed"}], "id": "1070700037", "name": "USPS COLLECTION BOX - BLUE BOX", "address": {"city": "EASTCHESTER", "state": "NY", "street": "45 RIDGE ST", "postcode": "10707"}}},
{"geometry": {"type": "Point", "coordinates": [-73.8221366348, 40.968775987]}, "type": "Feature", "properties": {"collection_times": [{"days": "Mon-Sat", "time": "11:30am"}, {"days": "Sun", "time": "Closed"}], "id": "1070700039", "name": "USPS COLLECTION BOX - BLUE BOX", "address": {"city": "EASTCHESTER", "state": "NY", "street": "15 KENNEDY PL", "postcode": "10707"}}},
{"geometry": {"type": "Point", "coordinates": [-73.8274200726, 40.9508382201]}, "type": "Feature", "properties": {"collection_times": [{"days": "Mon-Fri", "time": "5:00pm"}, {"days": "Sat", "time": "4:00pm"}, {"days": "Sun", "time": "Closed"}], "id": "1070700042", "name": "USPS COLLECTION BOX - BLUE BOX", "address": {"city": "EASTCHESTER", "state": "NY", "street": "7 COLUMBUS AVE", "postcode": "10707"}}},
{"geometry": {"type": "Point", "coordinates": [-73.8186867599, 40.948445422]}, "type": "Feature", "properties": {"collection_times": [{"days": "Mon-Sat", "time": "1:30pm"}, {"days": "Sun", "time": "Closed"}], "id": "1070700045", "name": "USPS COLLECTION BOX - BLUE BOX", "address": {"city": "EASTCHESTER", "state": "NY", "street": "274 WHITE PLAINS RD", "postcode": "10707"}}},
{"geometry": {"type": "Point", "coordinates": [-73.8162404008, 40.9519812863]}, "type": "Feature", "properties": {"collection_times": [{"days": "Mon-Sat", "time": "1:30pm"}, {"days": "Sun", "time": "Closed"}], "id": "1070700046", "name": "USPS COLLECTION BOX - BLUE BOX", "address": {"city": "EASTCHESTER", "state": "NY", "street": "344 WHITE PLAINS RD", "postcode": "10707"}}},
{"geometry": {"type": "Point", "coordinates": [-73.8135326077, 40.9566551572]}, "type": "Feature", "properties": {"collection_times": [{"days": "Mon-Sat", "time": "1:00pm"}, {"days": "Sun", "time": "Closed"}], "id": "1070700048", "name": "USPS COLLECTION BOX - BLUE BOX", "address": {"city": "EASTCHESTER", "state": "NY", "street": "475 WHITE PLAINS RD", "postcode": "10707"}}},
{"geometry": {"type": "Point", "coordinates": [-73.8124537491, 40.9562470363]}, "type": "Feature", "properties": {"collection_times": [{"days": "Mon-Sat", "time": "1:00pm"}, {"days": "Sun", "time": "Closed"}], "id": "1070700049", "name": "USPS COLLECTION BOX - BLUE BOX", "address": {"city": "EASTCHESTER", "state": "NY", "street": "11 MILL RD", "postcode": "10707"}}},
{"geometry": {"type": "Point", "coordinates": [-73.8274200726, 40.9508382201]}, "type": "Feature", "properties": {"collection_times": [{"days": "Mon-Fri", "time": "5:00pm"}, {"days": "Sat", "time": "1:00pm"}, {"days": "Sun", "time": "Closed"}], "id": "1070700050", "name": "USPS COLLECTION BOX - PO LOBBY", "address": {"city": "EASTCHESTER", "state": "NY", "street": "7 COLUMBUS AVE LBBY DROP", "postcode": "10707"}}},
{"geometry": {"type": "Point", "coordinates": [-73.8144008588, 40.9560318033]}, "type": "Feature", "properties": {"collection_times": [{"days": "Mon-Fri", "time": "5:00pm"}, {"days": "Sat", "time": "1:00pm"}, {"days": "Sun", "time": "Closed"}], "id": "1070700051", "name": "USPS COLLECTION BOX - PO LOBBY", "address": {"city": "EASTCHESTER", "state": "NY", "street": "155 FISHER AVE LOBBY DROP", "postcode": "10707"}}},
{"geometry": {"type": "Point", "coordinates": [-73.8431588197, 40.9271246249]}, "type": "Feature", "properties": {"collection_times": [{"days": "Mon-Sat", "time": "8:00am"}, {"days": "Sun", "time": "Closed"}], "id": "1070800003", "name": "USPS COLLECTION BOX - BLUE BOX", "address": {"city": "YONKERS", "state": "NY", "street": "850 BRONX RIVER RD", "postcode": "10708"}}},
{"geometry": {"type": "Point", "coordinates": [-73.845716777, 40.9239894679]}, "type": "Feature", "properties": {"collection_times": [{"days": "Mon-Sat", "time": "8:00am"}, {"days": "Sun", "time": "Closed"}], "id": "1070800004", "name": "USPS COLLECTION BOX - BLUE BOX", "address": {"city": "YONKERS", "state": "NY", "street": "705 BRONX RIVER RD", "postcode": "10708"}}},
{"geometry": {"type": "Point", "coordinates": [-73.8443856797, 40.9255036835]}, "type": "Feature", "properties": {"collection_times": [{"days": "Mon-Sat", "time": "8:00am"}, {"days": "Sun", "time": "Closed"}], "id": "1070800005", "name": "USPS COLLECTION BOX - BLUE BOX", "address": {"city": "YONKERS", "state": "NY", "street": "780 BRONX RIVER RD", "postcode": "10708"}}},
{"geometry": {"type": "Point", "coordinates": [-73.8325049036, 40.9386765468]}, "type": "Feature", "properties": {"collection_times": [{"days": "Mon-Fri", "time": "5:00pm"}, {"days": "Sat", "time": "4:00pm"}, {"days": "Sun", "time": "Closed"}], "id": "1070800007", "name": "USPS COLLECTION BOX - BLUE BOX", "address": {"city": "YONKERS", "state": "NY", "street": "119 PONDFIELD RD", "postcode": "10708"}}},
{"geometry": {"type": "Point", "coordinates": [-73.8385637219, 40.9328260568]}, "type": "Feature", "properties": {"collection_times": [{"days": "Mon-Sat", "time": "2:30pm"}, {"days": "Sun", "time": "Closed"}], "id": "1070800009", "name": "USPS COLLECTION BOX - BLUE BOX", "address": {"city": "YONKERS", "state": "NY", "street": "43 BRONXVILLE RD", "postcode": "10708"}}},
{"geometry": {"type": "Point", "coordinates": [-73.8339753216, 40.9386540706]}, "type": "Feature", "properties": {"collection_times": [{"days": "Mon-Sat", "time": "2:00pm"}, {"days": "Sun", "time": "Closed"}], "id": "1070800012", "name": "USPS COLLECTION BOX - BLUE BOX", "address": {"city": "YONKERS", "state": "NY", "street": "15 CEDAR ST", "postcode": "10708"}}},
{"geometry": {"type": "Point", "coordinates": [-73.8207215448, 40.9422705561]}, "type": "Feature", "properties": {"collection_times": [{"days": "Mon-Sat", "time": "1:30pm"}, {"days": "Sun", "time": "Closed"}], "id": "1070800013", "name": "USPS COLLECTION BOX - BLUE BOX", "address": {"city": "YONKERS", "state": "NY", "street": "171 WHITE PLAINS RD", "postcode": "10708"}}},
{"geometry": {"type": "Point", "coordinates": [-73.8435450691, 40.9343736793]}, "type": "Feature", "properties": {"collection_times": [{"days": "Mon-Sat", "time": "3:00pm"}, {"days": "Sun", "time": "Closed"}], "id": "1070800015", "name": "USPS COLLECTION BOX - BLUE BOX", "address": {"city": "YONKERS", "state": "NY", "street": "1 MEAD WAY", "postcode": "10708"}}},
{"geometry": {"type": "Point", "coordinates": [-73.8331448844, 40.9354588984]}, "type": "Feature", "properties": {"collection_times": [{"days": "Mon-Sat", "time": "2:00pm"}, {"days": "Sun", "time": "Closed"}], "id": "1070800021", "name": "USPS COLLECTION BOX - BLUE BOX", "address": {"city": "YONKERS", "state": "NY", "street": "1 ALDEN PL", "postcode": "10708"}}},
{"geometry": {"type": "Point", "coordinates": [-73.8361740855, 40.9417203221]}, "type": "Feature", "properties": {"collection_times": [{"days": "Mon-Sat", "time": "2:30pm"}, {"days": "Sun", "time": "Closed"}], "id": "1070800022", "name": "USPS COLLECTION BOX - BLUE BOX", "address": {"city": "YONKERS", "state": "NY", "street": "55 PALMER AVE", "postcode": "10708"}}},
{"geometry": {"type": "Point", "coordinates": [-73.8467634104, 40.9290381224]}, "type": "Feature", "properties": {"collection_times": [{"days": "Mon-Sat", "time": "8:00am"}, {"days": "Sun", "time": "Closed"}], "id": "1070800027", "name": "USPS COLLECTION BOX - BLUE BOX", "address": {"city": "YONKERS", "state": "NY", "street": "1328 MIDLAND AVE", "postcode": "10708"}}},
{"geometry": {"type": "Point", "coordinates": [-73.840164291, 40.9306164621]}, "type": "Feature", "properties": {"collection_times": [{"days": "Mon-Sat", "time": "2:30pm"}, {"days": "Sun", "time": "Closed"}], "id": "1070800028", "name": "USPS COLLECTION BOX - BLUE BOX", "address": {"city": "YONKERS", "state": "NY", "street": "1465 MIDLAND AVE", "postcode": "10708"}}},
{"geometry": {"type": "Point", "coordinates": [-73.8262947241, 40.9422255757]}, "type": "Feature", "properties": {"collection_times": [{"days": "Mon-Sat", "time": "2:00pm"}, {"days": "Sun", "time": "Closed"}], "id": "1070800029", "name": "USPS COLLECTION BOX - BLUE BOX", "address": {"city": "YONKERS", "state": "NY", "street": "135 MIDLAND AVE", "postcode": "10708"}}},
{"geometry": {"type": "Point", "coordinates": [-73.8486233582, 40.9307187776]}, "type": "Feature", "properties": {"collection_times": [{"days": "Mon-Sat", "time": "8:00am"}, {"days": "Sun", "time": "Closed"}], "id": "1070800030", "name": "USPS COLLECTION BOX - BLUE BOX", "address": {"city": "YONKERS", "state": "NY", "street": "1215 MIDLAND AVE", "postcode": "10708"}}},
{"geometry": {"type": "Point", "coordinates": [-73.8452923487, 40.9442447573]}, "type": "Feature", "properties": {"collection_times": [{"days": "Mon-Sat", "time": "2:30pm"}, {"days": "Sun", "time": "Closed"}], "id": "1070800032", "name": "USPS COLLECTION BOX - BLUE BOX", "address": {"city": "YONKERS", "state": "NY", "street": "142 MILLARD AVE", "postcode": "10708"}}},
{"geometry": {"type": "Point", "coordinates": [-73.809056291, 40.9289017569]}, "type": "Feature", "properties": {"collection_times": [{"days": "Mon-Sat", "time": "1:30pm"}, {"days": "Sun", "time": "Closed"}], "id": "1070800034", "name": "USPS COLLECTION BOX - BLUE BOX", "address": {"city": "YONKERS", "state": "NY", "street": "491 NEW ROCHELLE RD", "postcode": "10708"}}},
{"geometry": {"type": "Point", "coordinates": [-73.8410344434, 40.9410432962]}, "type": "Feature", "properties": {"collection_times": [{"days": "Mon-Sat", "time": "2:30pm"}, {"days": "Sun", "time": "Closed"}], "id": "1070800037", "name": "USPS COLLECTION BOX - BLUE BOX", "address": {"city": "YONKERS", "state": "NY", "street": "949 PALMER RD", "postcode": "10708"}}},
{"geometry": {"type": "Point", "coordinates": [-73.8392315105, 40.9411594453]}, "type": "Feature", "properties": {"collection_times": [{"days": "Mon-Sat", "time": "2:30pm"}, {"days": "Sun", "time": "Closed"}], "id": "1070800038", "name": "USPS COLLECTION BOX - BLUE BOX", "address": {"city": "YONKERS", "state": "NY", "street": "1 BROOKLANDS", "postcode": "10708"}}},
{"geometry": {"type": "Point", "coordinates": [-73.8331744584, 40.9400097416]}, "type": "Feature", "properties": {"collection_times": [{"days": "Mon-Sat", "time": "2:00pm"}, {"days": "Sun", "time": "Closed"}], "id": "1070800040", "name": "USPS COLLECTION BOX - BLUE BOX", "address": {"city": "YONKERS", "state": "NY", "street": "86 PONDFIELD RD", "postcode": "10708"}}},
{"geometry": {"type": "Point", "coordinates": [-73.8348708215, 40.9416895433]}, "type": "Feature", "properties": {"collection_times": [{"days": "Mon-Sat", "time": "2:30pm"}, {"days": "Sun", "time": "Closed"}], "id": "1070800042", "name": "USPS COLLECTION BOX - BLUE BOX", "address": {"city": "YONKERS", "state": "NY", "street": "1 PONDFIELD RD", "postcode": "10708"}}},
{"geometry": {"type": "Point", "coordinates": [-73.8339307613, 40.9411987075]}, "type": "Feature", "properties": {"collection_times": [{"days": "Mon-Sat", "time": "2:30pm"}, {"days": "Sun", "time": "Closed"}], "id": "1070800043", "name": "USPS COLLECTION BOX - BLUE BOX", "address": {"city": "YONKERS", "state": "NY", "street": "42 PONDFIELD RD", "postcode": "10708"}}},
{"geometry": {"type": "Point", "coordinates": [-73.8337704096, 40.9412436846]}, "type": "Feature", "properties": {"collection_times": [{"days": "Mon-Sat", "time": "2:30pm"}, {"days": "Sun", "time": "Closed"}], "id": "1070800044", "name": "USPS COLLECTION BOX - BLUE BOX", "address": {"city": "YONKERS", "state": "NY", "street": "49 PONDFIELD RD", "postcode": "10708"}}},
{"geometry": {"type": "Point", "coordinates": [-73.8348708215, 40.9416895433]}, "type": "Feature", "properties": {"collection_times": [{"days": "Mon-Sat", "time": "2:30pm"}, {"days": "Sun", "time": "Closed"}], "id": "1070800045", "name": "USPS COLLECTION BOX - BLUE BOX", "address": {"city": "YONKERS", "state": "NY", "street": "1 PONDFIELD RD W", "postcode": "10708"}}},
{"geometry": {"type": "Point", "coordinates": [-73.8395353192, 40.9440096096]}, "type": "Feature", "properties": {"collection_times": [{"days": "Mon-Sat", "time": "2:30pm"}, {"days": "Sun", "time": "Closed"}], "id": "1070800046", "name": "USPS COLLECTION BOX - BLUE BOX", "address": {"city": "YONKERS", "state": "NY", "street": "52 PONDFIELD RD W", "postcode": "10708"}}},
{"geometry": {"type": "Point", "coordinates": [-73.8192250062, 40.9347337446]}, "type": "Feature", "properties": {"collection_times": [{"days": "Mon-Sat", "time": "1:30pm"}, {"days": "Sun", "time": "Closed"}], "id": "1070800047", "name": "USPS COLLECTION BOX - BLUE BOX", "address": {"city": "YONKERS", "state": "NY", "street": "328 PONDFIELD RD", "postcode": "10708"}}},
{"geometry": {"type": "Point", "coordinates": [-73.8361667297, 40.9387847994]}, "type": "Feature", "properties": {"collection_times": [{"days": "Mon-Sat", "time": "2:30pm"}, {"days": "Sun", "time": "Closed"}], "id": "1070800050", "name": "USPS COLLECTION BOX - BLUE BOX", "address": {"city": "YONKERS", "state": "NY", "street": "62 DEWITT AVE", "postcode": "10708"}}},
{"geometry": {"type": "Point", "coordinates": [-73.8351605496, 40.9417986583]}, "type": "Feature", "properties": {"collection_times": [{"days": "Mon-Sat", "time": "2:30pm"}, {"days": "Sun", "time": "Closed"}], "id": "1070800053", "name": "USPS COLLECTION BOX - BLUE BOX", "address": {"city": "YONKERS", "state": "NY", "street": "1 STUDIO ARC", "postcode": "10708"}}},
{"geometry": {"type": "Point", "coordinates": [-73.809056291, 40.9289017569]}, "type": "Feature", "properties": {"collection_times": [{"days": "Mon-Sat", "time": "1:30pm"}, {"days": "Sun", "time": "Closed"}], "id": "1070800056", "name": "USPS COLLECTION BOX - BLUE BOX", "address": {"city": "YONKERS", "state": "NY", "street": "491 NEW ROCHELLE RD", "postcode": "10708"}}},
{"geometry": {"type": "Point", "coordinates": [-73.8331744584, 40.9400097416]}, "type": "Feature", "properties": {"collection_times": [{"days": "Mon-Sat", "time": "2:00pm"}, {"days": "Sun", "time": "Closed"}], "id": "1070800057", "name": "USPS COLLECTION BOX - BLUE BOX", "address": {"city": "YONKERS", "state": "NY", "street": "86 PONDFIELD RD", "postcode": "10708"}}},
{"geometry": {"type": "Point", "coordinates": [-73.8357155732, 40.9409160587]}, "type": "Feature", "properties": {"collection_times": [{"days": "Mon-Sat", "time": "2:30pm"}, {"days": "Sun", "time": "Closed"}], "id": "1070800058", "name": "USPS COLLECTION BOX - BLUE BOX", "address": {"city": "YONKERS", "state": "NY", "street": "4 STATION PLZ", "postcode": "10708"}}},
{"geometry": {"type": "Point", "coordinates": [-73.8355199474, 40.9481179732]}, "type": "Feature", "properties": {"collection_times": [{"days": "Mon-Sat", "time": "12:00pm"}, {"days": "Sun", "time": "Closed"}], "id": "1070800059", "name": "USPS COLLECTION BOX - BLUE BOX", "address": {"city": "YONKERS", "state": "NY", "street": "245 PARKVIEW AVE", "postcode": "10708"}}},
{"geometry": {"type": "Point", "coordinates": [-73.8325049036, 40.9386765468]}, "type": "Feature", "properties": {"collection_times": [{"days": "Mon-Fri", "time": "5:00pm"}, {"days": "Sat", "time": "1:00pm"}, {"days": "Sun", "time": "Closed"}], "id": "1070800060", "name": "USPS COLLECTION BOX - PO LOBBY", "address": {"city": "YONKERS", "state": "NY", "street": "119 PONDFIELD RD LBBY DROP", "postcode": "10708"}}},
{"geometry": {"type": "Point", "coordinates": [-73.8394476688, 40.9542217656]}, "type": "Feature", "properties": {"collection_times": [{"days": "Mon-Sat", "time": "10:30am"}, {"days": "Sun", "time": "Closed"}], "id": "1071000001", "name": "USPS COLLECTION BOX - BLUE BOX", "address": {"city": "YONKERS", "state": "NY", "street": "47 SENECA AVE", "postcode": "10710"}}},
{"geometry": {"type": "Point", "coordinates": [-73.8362317, 40.9773994514]}, "type": "Feature", "properties": {"collection_times": [{"days": "Mon-Sat", "time": "9:00am"}, {"days": "Sun", "time": "Closed"}], "id": "1071000002", "name": "USPS COLLECTION BOX - BLUE BOX", "address": {"city": "YONKERS", "state": "NY", "street": "5 ALLENDALE RD", "postcode": "10710"}}},
{"geometry": {"type": "Point", "coordinates": [-73.8297737877, 40.9661705727]}, "type": "Feature", "properties": {"collection_times": [{"days": "Mon-Sat", "time": "11:00am"}, {"days": "Sun", "time": "Closed"}], "id": "1071000003", "name": "USPS COLLECTION BOX - BLUE BOX", "address": {"city": "YONKERS", "state": "NY", "street": "3 ALPINE RD", "postcode": "10710"}}},
{"geometry": {"type": "Point", "coordinates": [-73.8452613495, 40.9742955063]}, "type": "Feature", "properties": {"collection_times": [{"days": "Mon-Sat", "time": "9:00am"}, {"days": "Sun", "time": "Closed"}], "id": "1071000004", "name": "USPS COLLECTION BOX - BLUE BOX", "address": {"city": "YONKERS", "state": "NY", "street": "1 AMHERST DR", "postcode": "10710"}}},
{"geometry": {"type": "Point", "coordinates": [-73.8498093963, 40.9500280137]}, "type": "Feature", "properties": {"collection_times": [{"days": "Mon-Sat", "time": "8:30am"}, {"days": "Sun", "time": "Closed"}], "id": "1071000005", "name": "USPS COLLECTION BOX - BLUE BOX", "address": {"city": "YONKERS", "state": "NY", "street": "31 WINCHESTER AVE", "postcode": "10710"}}},
{"geometry": {"type": "Point", "coordinates": [-73.8420247256, 40.9585296992]}, "type": "Feature", "properties": {"collection_times": [{"days": "Mon-Sat", "time": "10:00am"}, {"days": "Sun", "time": "Closed"}], "id": "1071000006", "name": "USPS COLLECTION BOX - BLUE BOX", "address": {"city": "YONKERS", "state": "NY", "street": "7 BALINT DR", "postcode": "10710"}}},
{"geometry": {"type": "Point", "coordinates": [-73.8326680871, 40.9735276122]}, "type": "Feature", "properties": {"collection_times": [{"days": "Mon-Sat", "time": "9:30am"}, {"days": "Sun", "time": "Closed"}], "id": "1071000007", "name": "USPS COLLECTION BOX - BLUE BOX", "address": {"city": "YONKERS", "state": "NY", "street": "10 ROXBURY DR E", "postcode": "10710"}}},
{"geometry": {"type": "Point", "coordinates": [-73.8466727659, 40.9500981718]}, "type": "Feature", "properties": {"collection_times": [{"days": "Mon-Sat", "time": "3:00pm"}, {"days": "Sun", "time": "Closed"}], "id": "1071000010", "name": "USPS COLLECTION BOX - BLUE BOX", "address": {"city": "YONKERS", "state": "NY", "street": "1500 CENTRAL PARK AVE", "postcode": "10710"}}},
{"geometry": {"type": "Point", "coordinates": [-73.8415361983, 40.9561230651]}, "type": "Feature", "properties": {"collection_times": [{"days": "Mon-Sat", "time": "10:30am"}, {"days": "Sun", "time": "Closed"}], "id": "1071000012", "name": "USPS COLLECTION BOX - BLUE BOX", "address": {"city": "YONKERS", "state": "NY", "street": "1730 CENTRAL PARK AVE", "postcode": "10710"}}},
{"geometry": {"type": "Point", "coordinates": [-73.8419333574, 40.9565710514]}, "type": "Feature", "properties": {"collection_times": [{"days": "Mon-Sat", "time": "10:00am"}, {"days": "Sun", "time": "Closed"}], "id": "1071000013", "name": "USPS COLLECTION BOX - BLUE BOX", "address": {"city": "YONKERS", "state": "NY", "street": "1759 CENTRAL PARK AVE", "postcode": "10710"}}},
{"geometry": {"type": "Point", "coordinates": [-73.8417844319, 40.9595226963]}, "type": "Feature", "properties": {"collection_times": [{"days": "Mon-Sat", "time": "10:00am"}, {"days": "Sun", "time": "Closed"}], "id": "1071000014", "name": "USPS COLLECTION BOX - BLUE BOX", "address": {"city": "YONKERS", "state": "NY", "street": "1853 CENTRAL PARK AVE", "postcode": "10710"}}},
{"geometry": {"type": "Point", "coordinates": [-73.8405875412, 40.9616729546]}, "type": "Feature", "properties": {"collection_times": [{"days": "Mon-Sat", "time": "10:00am"}, {"days": "Sun", "time": "Closed"}], "id": "1071000015", "name": "USPS COLLECTION BOX - BLUE BOX", "address": {"city": "YONKERS", "state": "NY", "street": "1925 CENTRAL PARK AVE", "postcode": "10710"}}},
{"geometry": {"type": "Point", "coordinates": [-73.8277816449, 40.9830545977]}, "type": "Feature", "properties": {"collection_times": [{"days": "Mon-Sat", "time": "9:30am"}, {"days": "Sun", "time": "Closed"}], "id": "1071000018", "name": "USPS COLLECTION BOX - BLUE BOX", "address": {"city": "YONKERS", "state": "NY", "street": "2590 CENTRAL PARK AVE", "postcode": "10710"}}},
{"geometry": {"type": "Point", "coordinates": [-73.8347433646, 40.97226636]}, "type": "Feature", "properties": {"collection_times": [{"days": "Mon-Sat", "time": "9:30am"}, {"days": "Sun", "time": "Closed"}], "id": "1071000019", "name": "USPS COLLECTION BOX - BLUE BOX", "address": {"city": "YONKERS", "state": "NY", "street": "2290 CENTRAL PARK AVE", "postcode": "10710"}}},
{"geometry": {"type": "Point", "coordinates": [-73.8415842957, 40.9585483826]}, "type": "Feature", "properties": {"collection_times": [{"days": "Mon-Sat", "time": "11:00am"}, {"days": "Sun", "time": "Closed"}], "id": "1071000020", "name": "USPS COLLECTION BOX - BLUE BOX", "address": {"city": "YONKERS", "state": "NY", "street": "1870 CENTRAL PARK AVE", "postcode": "10710"}}},
{"geometry": {"type": "Point", "coordinates": [-73.8352671073, 40.9722434153]}, "type": "Feature", "properties": {"collection_times": [{"days": "Mon-Sat", "time": "9:30am"}, {"days": "Sun", "time": "Closed"}], "id": "1071000021", "name": "USPS COLLECTION BOX - BLUE BOX", "address": {"city": "YONKERS", "state": "NY", "street": "2195 CENTRAL PARK AVE", "postcode": "10710"}}},
{"geometry": {"type": "Point", "coordinates": [-73.8467882711, 40.9508033503]}, "type": "Feature", "properties": {"collection_times": [{"days": "Mon-Sat", "time": "8:30am"}, {"days": "Sun", "time": "Closed"}], "id": "1071000022", "name": "USPS COLLECTION BOX - BLUE BOX", "address": {"city": "YONKERS", "state": "NY", "street": "1 STOKES RD", "postcode": "10710"}}},
{"geometry": {"type": "Point", "coordinates": [-73.8388924233, 40.9643154933]}, "type": "Feature", "properties": {"collection_times": [{"days": "Mon-Sat", "time": "11:00am"}, {"days": "Sun", "time": "Closed"}], "id": "1071000023", "name": "USPS COLLECTION BOX - BLUE BOX", "address": {"city": "YONKERS", "state": "NY", "street": "2020 CENTRAL PARK AVE", "postcode": "10710"}}},
{"geometry": {"type": "Point", "coordinates": [-73.8480463271, 40.9211951311]}, "type": "Feature", "properties": {"collection_times": [{"days": "Mon-Sat", "time": "8:30am"}, {"days": "Sun", "time": "Closed"}], "id": "1071000026", "name": "USPS COLLECTION BOX - BLUE BOX", "address": {"city": "YONKERS", "state": "NY", "street": "2 CHARLES CURRAN CT", "postcode": "10710"}}},
{"geometry": {"type": "Point", "coordinates": [-73.8370139015, 40.9681070018]}, "type": "Feature", "properties": {"collection_times": [{"days": "Mon-Sat", "time": "11:00am"}, {"days": "Sun", "time": "Closed"}], "id": "1071000030", "name": "USPS COLLECTION BOX - BLUE BOX", "address": {"city": "YONKERS", "state": "NY", "street": "2150 CENTRAL PARK AVE", "postcode": "10710"}}},
{"geometry": {"type": "Point", "coordinates": [-73.8690874794, 40.9639769804]}, "type": "Feature", "properties": {"collection_times": [{"days": "Mon-Sat", "time": "10:30am"}, {"days": "Sun", "time": "Closed"}], "id": "1071000034", "name": "USPS COLLECTION BOX - BLUE BOX", "address": {"city": "YONKERS", "state": "NY", "street": "20 DOVER LN", "postcode": "10710"}}},
{"geometry": {"type": "Point", "coordinates": [-73.8497436805, 40.9587313885]}, "type": "Feature", "properties": {"collection_times": [{"days": "Mon-Sat", "time": "8:30am"}, {"days": "Sun", "time": "Closed"}], "id": "1071000038", "name": "USPS COLLECTION BOX - BLUE BOX", "address": {"city": "YONKERS", "state": "NY", "street": "158 GAILMORE DR", "postcode": "10710"}}},
{"geometry": {"type": "Point", "coordinates": [-73.8331259288, 40.9661871521]}, "type": "Feature", "properties": {"collection_times": [{"days": "Mon-Sat", "time": "11:00am"}, {"days": "Sun", "time": "Closed"}], "id": "1071000039", "name": "USPS COLLECTION BOX - BLUE BOX", "address": {"city": "YONKERS", "state": "NY", "street": "236 GRANDVIEW BLVD", "postcode": "10710"}}},
{"geometry": {"type": "Point", "coordinates": [-73.8366015818, 40.9587594124]}, "type": "Feature", "properties": {"collection_times": [{"days": "Mon-Sat", "time": "11:00am"}, {"days": "Sun", "time": "Closed"}], "id": "1071000040", "name": "USPS COLLECTION BOX - BLUE BOX", "address": {"city": "YONKERS", "state": "NY", "street": "2 GRANDVIEW BLVD", "postcode": "10710"}}},
{"geometry": {"type": "Point", "coordinates": [-73.8417111045, 40.9675281834]}, "type": "Feature", "properties": {"collection_times": [{"days": "Mon-Sat", "time": "9:00am"}, {"days": "Sun", "time": "Closed"}], "id": "1071000042", "name": "USPS COLLECTION BOX - BLUE BOX", "address": {"city": "YONKERS", "state": "NY", "street": "92 HEIGHTS DR", "postcode": "10710"}}},
{"geometry": {"type": "Point", "coordinates": [-73.8464279532, 40.9578006793]}, "type": "Feature", "properties": {"collection_times": [{"days": "Mon-Sat", "time": "8:30am"}, {"days": "Sun", "time": "Closed"}], "id": "1071000044", "name": "USPS COLLECTION BOX - BLUE BOX", "address": {"city": "YONKERS", "state": "NY", "street": "126 MOUNTAINDALE RD", "postcode": "10710"}}},
{"geometry": {"type": "Point", "coordinates": [-73.8414085892, 40.9715677404]}, "type": "Feature", "properties": {"collection_times": [{"days": "Mon-Sat", "time": "9:00am"}, {"days": "Sun", "time": "Closed"}], "id": "1071000045", "name": "USPS COLLECTION BOX - BLUE BOX", "address": {"city": "YONKERS", "state": "NY", "street": "193 JENNIFER LN", "postcode": "10710"}}},
{"geometry": {"type": "Point", "coordinates": [-73.8275020053, 40.9746369881]}, "type": "Feature", "properties": {"collection_times": [{"days": "Mon-Sat", "time": "9:30am"}, {"days": "Sun", "time": "Closed"}], "id": "1071000049", "name": "USPS COLLECTION BOX - BLUE BOX", "address": {"city": "YONKERS", "state": "NY", "street": "32 NASSAU RD", "postcode": "10710"}}},
{"geometry": {"type": "Point", "coordinates": [-73.8358145126, 40.9814873487]}, "type": "Feature", "properties": {"collection_times": [{"days": "Mon-Sat", "time": "9:00am"}, {"days": "Sun", "time": "Closed"}], "id": "1071000052", "name": "USPS COLLECTION BOX - BLUE BOX", "address": {"city": "YONKERS", "state": "NY", "street": "1 REMSEN CIR", "postcode": "10710"}}},
{"geometry": {"type": "Point", "coordinates": [-73.8419422633, 40.9563496755]}, "type": "Feature", "properties": {"collection_times": [{"days": "Mon-Sat", "time": "10:00am"}, {"days": "Sun", "time": "Closed"}], "id": "1071000054", "name": "USPS COLLECTION BOX - BLUE BOX", "address": {"city": "YONKERS", "state": "NY", "street": "1 SADORE LN", "postcode": "10710"}}},
{"geometry": {"type": "Point", "coordinates": [-73.8420633537, 40.9563558457]}, "type": "Feature", "properties": {"collection_times": [{"days": "Mon-Sat", "time": "10:00am"}, {"days": "Sun", "time": "Closed"}], "id": "1071000055", "name": "USPS COLLECTION BOX - BLUE BOX", "address": {"city": "YONKERS", "state": "NY", "street": "5 SADORE LN", "postcode": "10710"}}},
{"geometry": {"type": "Point", "coordinates": [-73.8695687805, 40.9659542978]}, "type": "Feature", "properties": {"collection_times": [{"days": "Mon-Sat", "time": "10:30am"}, {"days": "Sun", "time": "Closed"}], "id": "1071000057", "name": "USPS COLLECTION BOX - BLUE BOX", "address": {"city": "YONKERS", "state": "NY", "street": "938 SAW MILL RIVER RD", "postcode": "10710"}}},
{"geometry": {"type": "Point", "coordinates": [-73.8510350351, 40.9527224123]}, "type": "Feature", "properties": {"collection_times": [{"days": "Mon-Sat", "time": "10:00am"}, {"days": "Sun", "time": "Closed"}], "id": "1071000058", "name": "USPS COLLECTION BOX - BLUE BOX", "address": {"city": "YONKERS", "state": "NY", "street": "475 TUCKAHOE RD", "postcode": "10710"}}},
{"geometry": {"type": "Point", "coordinates": [-73.8462179594, 40.9535935795]}, "type": "Feature", "properties": {"collection_times": [{"days": "Mon-Sat", "time": "10:30am"}, {"days": "Sun", "time": "Closed"}], "id": "1071000060", "name": "USPS COLLECTION BOX - BLUE BOX", "address": {"city": "YONKERS", "state": "NY", "street": "598 TUCKAHOE RD", "postcode": "10710"}}},
{"geometry": {"type": "Point", "coordinates": [-73.8691759707, 40.9558197913]}, "type": "Feature", "properties": {"collection_times": [{"days": "Mon-Sat", "time": "10:30am"}, {"days": "Sun", "time": "Closed"}], "id": "1071000061", "name": "USPS COLLECTION BOX - BLUE BOX", "address": {"city": "YONKERS", "state": "NY", "street": "34 TUCKAHOE RD", "postcode": "10710"}}},
{"geometry": {"type": "Point", "coordinates": [-73.8302097754, 40.981899259]}, "type": "Feature", "properties": {"collection_times": [{"days": "Mon-Sat", "time": "9:30am"}, {"days": "Sun", "time": "Closed"}], "id": "1071000064", "name": "USPS COLLECTION BOX - BLUE BOX", "address": {"city": "YONKERS", "state": "NY", "street": "6 YOUNG AVE", "postcode": "10710"}}},
{"geometry": {"type": "Point", "coordinates": [-73.8406430332, 40.9791217943]}, "type": "Feature", "properties": {"collection_times": [{"days": "Mon-Sat", "time": "9:00am"}, {"days": "Sun", "time": "Closed"}], "id": "1071000067", "name": "USPS COLLECTION BOX - BLUE BOX", "address": {"city": "YONKERS", "state": "NY", "street": "612 E GRASSY SPRAIN RD", "postcode": "10710"}}},
{"geometry": {"type": "Point", "coordinates": [-73.8452176199, 40.9517423729]}, "type": "Feature", "properties": {"collection_times": [{"days": "Mon-Fri", "time": "5:00pm"}, {"days": "Sat", "time": "4:00pm"}, {"days": "Sun", "time": "Closed"}], "id": "1071000068", "name": "USPS COLLECTION BOX - BLUE BOX", "address": {"city": "YONKERS", "state": "NY", "street": "1585 CENTRAL PARK AVE", "postcode": "10710"}}},
{"geometry": {"type": "Point", "coordinates": [-73.8452176199, 40.9517423729]}, "type": "Feature", "properties": {"collection_times": [{"days": "Mon-Fri", "time": "5:00pm"}, {"days": "Sat", "time": "1:00pm"}, {"days": "Sun", "time": "Closed"}], "id": "1071000070", "name": "USPS COLLECTION BOX - PO LOBBY", "address": {"city": "YONKERS", "state": "NY", "street": "1585 CENTRAL PARK AVE LBBY DROP", "postcode": "10710"}}}
]}
