{"type": "FeatureCollection", "features": [
{"geometry": {"type": "Point", "coordinates": [-73.7868533342, 40.9198816948]}, "type": "Feature", "properties": {"collection_times": [{"days": "Mon-Fri", "time": "12:30pm"}, {"days": "Sat-Sun", "time": "Closed"}], "id": "1080100004", "name": "USPS COLLECTION BOX - BLUE BOX", "address": {"city": "NEW ROCHELLE", "state": "NY", "street": "515 NORTH AVE", "postcode": "10801"}}},
{"geometry": {"type": "Point", "coordinates": [-73.7943627577, 40.9059393404]}, "type": "Feature", "properties": {"collection_times": [{"days": "Mon-Fri", "time": "1:00pm"}, {"days": "Sat-Sun", "time": "Closed"}], "id": "1080100005", "name": "USPS COLLECTION BOX - BLUE BOX", "address": {"city": "NEW ROCHELLE", "state": "NY", "street": "125 BEECHWOOD AVE", "postcode": "10801"}}},
{"geometry": {"type": "Point", "coordinates": [-73.7809420882, 40.9076084955]}, "type": "Feature", "properties": {"collection_times": [{"days": "Mon-Fri", "time": "9:30am"}, {"days": "Sat-Sun", "time": "Closed"}], "id": "1080100007", "name": "USPS COLLECTION BOX - BLUE BOX", "address": {"city": "NEW ROCHELLE", "state": "NY", "street": "36 CHURCH ST", "postcode": "10801"}}},
{"geometry": {"type": "Point", "coordinates": [-73.7792102363, 40.9088269433]}, "type": "Feature", "properties": {"collection_times": [{"days": "Mon-Sat", "time": "9:30am"}, {"days": "Sun", "time": "Closed"}], "id": "1080100011", "name": "USPS COLLECTION BOX - BLUE BOX", "address": {"city": "NEW ROCHELLE", "state": "NY", "street": "2 CLINTON PL", "postcode": "10801"}}},
{"geometry": {"type": "Point", "coordinates": [-73.7871213551, 40.9208278094]}, "type": "Feature", "properties": {"collection_times": [{"days": "Mon-Fri", "time": "11:30am"}, {"days": "Sat-Sun", "time": "Closed"}], "id": "1080100017", "name": "USPS COLLECTION BOX - BLUE BOX", "address": {"city": "NEW ROCHELLE", "state": "NY", "street": "2 HAMILTON AVE", "postcode": "10801"}}},
{"geometry": {"type": "Point", "coordinates": [-73.7793143367, 40.9128182468]}, "type": "Feature", "properties": {"collection_times": [{"days": "Mon-Fri", "time": "9:30am"}, {"days": "Sat-Sun", "time": "Closed"}], "id": "1080100020", "name": "USPS COLLECTION BOX - BLUE BOX", "address": {"city": "NEW ROCHELLE", "state": "NY", "street": "56 HARRISON ST", "postcode": "10801"}}},
{"geometry": {"type": "Point", "coordinates": [-73.7794468281, 40.9131944278]}, "type": "Feature", "properties": {"collection_times": [{"days": "Mon-Fri", "time": "3:30pm"}, {"days": "Sat", "time": "12:30pm"}, {"days": "Sun", "time": "Closed"}], "id": "1080100024", "name": "USPS COLLECTION BOX - BLUE BOX", "address": {"city": "NEW ROCHELLE", "state": "NY", "street": "145 HUGUENOT ST", "postcode": "10801"}}},
{"geometry": {"type": "Point", "coordinates": [-73.7865824366, 40.9059452552]}, "type": "Feature", "properties": {"collection_times": [{"days": "Mon-Fri", "time": "10:30am"}, {"days": "Sat-Sun", "time": "Closed"}], "id": "1080100025", "name": "USPS COLLECTION BOX - BLUE BOX", "address": {"city": "NEW ROCHELLE", "state": "NY", "street": "415 HUGUENOT ST", "postcode": "10801"}}},
{"geometry": {"type": "Point", "coordinates": [-73.7713293637, 40.9151995432]}, "type": "Feature", "properties": {"collection_times": [{"days": "Mon-Sat", "time": "10:30am"}, {"days": "Sun", "time": "Closed"}], "id": "1080100026", "name": "USPS COLLECTION BOX - BLUE BOX", "address": {"city": "NEW ROCHELLE", "state": "NY", "street": "211 MAIN ST", "postcode": "10801"}}},
{"geometry": {"type": "Point", "coordinates": [-73.7899621503, 40.9170922776]}, "type": "Feature", "properties": {"collection_times": [{"days": "Mon-Sat", "time": "11:30am"}, {"days": "Sun", "time": "Closed"}], "id": "1080100031", "name": "USPS COLLECTION BOX - BLUE BOX", "address": {"city": "NEW ROCHELLE", "state": "NY", "street": "95 LINCOLN AVE", "postcode": "10801"}}},
{"geometry": {"type": "Point", "coordinates": [-73.78700357, 40.912985044]}, "type": "Feature", "properties": {"collection_times": [{"days": "Mon-Sat", "time": "11:30am"}, {"days": "Sun", "time": "Closed"}], "id": "1080100033", "name": "USPS COLLECTION BOX - BLUE BOX", "address": {"city": "NEW ROCHELLE", "state": "NY", "street": "16 GUION PL", "postcode": "10801"}}},
{"geometry": {"type": "Point", "coordinates": [-73.7897291074, 40.9135504984]}, "type": "Feature", "properties": {"collection_times": [{"days": "Mon-Sat", "time": "11:30am"}, {"days": "Sun", "time": "Closed"}], "id": "1080100034", "name": "USPS COLLECTION BOX - BLUE BOX", "address": {"city": "NEW ROCHELLE", "state": "NY", "street": "111 LOCKWOOD AVE", "postcode": "10801"}}},
{"geometry": {"type": "Point", "coordinates": [-73.7907026826, 40.9133635909]}, "type": "Feature", "properties": {"collection_times": [{"days": "Mon-Fri", "time": "11:30am"}, {"days": "Sat-Sun", "time": "Closed"}], "id": "1080100035", "name": "USPS COLLECTION BOX - BLUE BOX", "address": {"city": "NEW ROCHELLE", "state": "NY", "street": "140 LOCKWOOD AVE", "postcode": "10801"}}},
{"geometry": {"type": "Point", "coordinates": [-73.7864747873, 40.9142117725]}, "type": "Feature", "properties": {"collection_times": [{"days": "Mon-Sat", "time": "11:30am"}, {"days": "Sun", "time": "Closed"}], "id": "1080100036", "name": "USPS COLLECTION BOX - BLUE BOX", "address": {"city": "NEW ROCHELLE", "state": "NY", "street": "41 LOCKWOOD AVE", "postcode": "10801"}}},
{"geometry": {"type": "Point", "coordinates": [-73.7825118748, 40.908259123]}, "type": "Feature", "properties": {"collection_times": [{"days": "Mon-Sat", "time": "10:00am"}, {"days": "Sun", "time": "Closed"}], "id": "1080100040", "name": "USPS COLLECTION BOX - BLUE BOX", "address": {"city": "NEW ROCHELLE", "state": "NY", "street": "530 MAIN ST", "postcode": "10801"}}},
{"geometry": {"type": "Point", "coordinates": [-73.7789682602, 40.9106138633]}, "type": "Feature", "properties": {"collection_times": [{"days": "Mon-Sat", "time": "9:30am"}, {"days": "Sun", "time": "Closed"}], "id": "1080100043", "name": "USPS COLLECTION BOX - BLUE BOX", "address": {"city": "NEW ROCHELLE", "state": "NY", "street": "425 MAIN ST", "postcode": "10801"}}},
{"geometry": {"type": "Point", "coordinates": [-73.7865812536, 40.9056104778]}, "type": "Feature", "properties": {"collection_times": [{"days": "Mon-Sat", "time": "10:00am"}, {"days": "Sun", "time": "Closed"}], "id": "1080100046", "name": "USPS COLLECTION BOX - BLUE BOX", "address": {"city": "NEW ROCHELLE", "state": "NY", "street": "650 MAIN ST", "postcode": "10801"}}},
{"geometry": {"type": "Point", "coordinates": [-73.7821510723, 40.9113643902]}, "type": "Feature", "properties": {"collection_times": [{"days": "Mon-Fri", "time": "5:00pm"}, {"days": "Sat", "time": "2:00pm"}, {"days": "Sun", "time": "Closed"}], "id": "1080100052", "name": "USPS COLLECTION BOX - BLUE BOX", "address": {"city": "NEW ROCHELLE", "state": "NY", "street": "255 NORTH AVE", "postcode": "10801"}}},
{"geometry": {"type": "Point", "coordinates": [-73.7821510723, 40.9113643902]}, "type": "Feature", "properties": {"collection_times": [{"days": "Mon-Fri", "time": "5:00pm"}, {"days": "Sat", "time": "2:00pm"}, {"days": "Sun", "time": "Closed"}], "id": "1080100053", "name": "USPS COLLECTION BOX - BLUE BOX", "address": {"city": "NEW ROCHELLE", "state": "NY", "street": "255 NORTH AVE", "postcode": "10801"}}},
{"geometry": {"type": "Point", "coordinates": [-73.785274084, 40.9168000867]}, "type": "Feature", "properties": {"collection_times": [{"days": "Mon-Fri", "time": "12:30pm"}, {"days": "Sat-Sun", "time": "Closed"}], "id": "1080100057", "name": "USPS COLLECTION BOX - BLUE BOX", "address": {"city": "NEW ROCHELLE", "state": "NY", "street": "420 NORTH AVE", "postcode": "10801"}}},
{"geometry": {"type": "Point", "coordinates": [-73.7880327328, 40.9246110879]}, "type": "Feature", "properties": {"collection_times": [{"days": "Mon-Sat", "time": "11:00am"}, {"days": "Sun", "time": "Closed"}], "id": "1080100059", "name": "USPS COLLECTION BOX - BLUE BOX", "address": {"city": "NEW ROCHELLE", "state": "NY", "street": "673 NORTH AVE", "postcode": "10801"}}},
{"geometry": {"type": "Point", "coordinates": [-73.7802051048, 40.9097744934]}, "type": "Feature", "properties": {"collection_times": [{"days": "Mon-Sat", "time": "9:30am"}, {"days": "Sun", "time": "Closed"}], "id": "1080100061", "name": "USPS COLLECTION BOX - BLUE BOX", "address": {"city": "NEW ROCHELLE", "state": "NY", "street": "466 MAIN ST", "postcode": "10801"}}},
{"geometry": {"type": "Point", "coordinates": [-73.7691763784, 40.9179901434]}, "type": "Feature", "properties": {"collection_times": [{"days": "Mon-Sat", "time": "10:30am"}, {"days": "Sun", "time": "Closed"}], "id": "1080100064", "name": "USPS COLLECTION BOX - BLUE BOX", "address": {"city": "NEW ROCHELLE", "state": "NY", "street": "2 STONELEA PL", "postcode": "10801"}}},
{"geometry": {"type": "Point", "coordinates": [-73.7683240168, 40.9256154447]}, "type": "Feature", "properties": {"collection_times": [{"days": "Mon-Sat", "time": "10:30am"}, {"days": "Sun", "time": "Closed"}], "id": "1080100066", "name": "USPS COLLECTION BOX - BLUE BOX", "address": {"city": "NEW ROCHELLE", "state": "NY", "street": "2250 PALMER AVE", "postcode": "10801"}}},
{"geometry": {"type": "Point", "coordinates": [-73.8047908963, 40.925843365]}, "type": "Feature", "properties": {"collection_times": [{"days": "Mon-Sat", "time": "11:30am"}, {"days": "Sun", "time": "Closed"}], "id": "1080100070", "name": "USPS COLLECTION BOX - BLUE BOX", "address": {"city": "NEW ROCHELLE", "state": "NY", "street": "838 PELHAMDALE AVE", "postcode": "10801"}}},
{"geometry": {"type": "Point", "coordinates": [-73.7996718775, 40.9222239535]}, "type": "Feature", "properties": {"collection_times": [{"days": "Mon-Sat", "time": "11:30am"}, {"days": "Sun", "time": "Closed"}], "id": "1080100071", "name": "USPS COLLECTION BOX - BLUE BOX", "address": {"city": "NEW ROCHELLE", "state": "NY", "street": "277 MAYFLOWER AVE", "postcode": "10801"}}},
{"geometry": {"type": "Point", "coordinates": [-73.7781940745, 40.9143963141]}, "type": "Feature", "properties": {"collection_times": [{"days": "Mon-Sat", "time": "9:30am"}, {"days": "Sun", "time": "Closed"}], "id": "1080100073", "name": "USPS COLLECTION BOX - BLUE BOX", "address": {"city": "NEW ROCHELLE", "state": "NY", "street": "1 RAMADA PLZ", "postcode": "10801"}}},
{"geometry": {"type": "Point", "coordinates": [-73.7856071766, 40.9149217692]}, "type": "Feature", "properties": {"collection_times": [{"days": "Mon-Sat", "time": "10:30am"}, {"days": "Sun", "time": "Closed"}], "id": "1080100074", "name": "USPS COLLECTION BOX - BLUE BOX", "address": {"city": "NEW ROCHELLE", "state": "NY", "street": "22 SUN HAVEN DR", "postcode": "10801"}}},
{"geometry": {"type": "Point", "coordinates": [-73.7965809248, 40.9102847559]}, "type": "Feature", "properties": {"collection_times": [{"days": "Mon-Sat", "time": "11:30am"}, {"days": "Sun", "time": "Closed"}], "id": "1080100079", "name": "USPS COLLECTION BOX - BLUE BOX", "address": {"city": "NEW ROCHELLE", "state": "NY", "street": "88 4TH ST", "postcode": "10801"}}},
{"geometry": {"type": "Point", "coordinates": [-73.7866510482, 40.9132926134]}, "type": "Feature", "properties": {"collection_times": [{"days": "Mon-Fri", "time": "10:30am"}, {"days": "Sat-Sun", "time": "Closed"}], "id": "1080100085", "name": "USPS COLLECTION BOX - BLUE BOX", "address": {"city": "NEW ROCHELLE", "state": "NY", "street": "175 MEMORIAL HWY", "postcode": "10801"}}},
{"geometry": {"type": "Point", "coordinates": [-73.7927350061, 40.9076439843]}, "type": "Feature", "properties": {"collection_times": [{"days": "Mon-Fri", "time": "1:00pm"}, {"days": "Sat-Sun", "time": "Closed"}], "id": "1080100088", "name": "USPS COLLECTION BOX - BLUE BOX", "address": {"city": "NEW ROCHELLE", "state": "NY", "street": "20 JONES ST", "postcode": "10801"}}},
{"geometry": {"type": "Point", "coordinates": [-73.7835814115, 40.9114405651]}, "type": "Feature", "properties": {"collection_times": [{"days": "Mon-Sat", "time": "10:30am"}, {"days": "Sun", "time": "Closed"}], "id": "1080100089", "name": "USPS COLLECTION BOX - BLUE BOX", "address": {"city": "NEW ROCHELLE", "state": "NY", "street": "1 RAILROAD PLZ", "postcode": "10801"}}},
{"geometry": {"type": "Point", "coordinates": [-73.7809006847, 40.9093178712]}, "type": "Feature", "properties": {"collection_times": [{"days": "Mon-Sat", "time": "10:00am"}, {"days": "Sun", "time": "Closed"}], "id": "1080100090", "name": "USPS COLLECTION BOX - BLUE BOX", "address": {"city": "NEW ROCHELLE", "state": "NY", "street": "481 MAIN ST", "postcode": "10801"}}},
{"geometry": {"type": "Point", "coordinates": [-73.7821510723, 40.9113643902]}, "type": "Feature", "properties": {"collection_times": [{"days": "Mon-Fri", "time": "5:00pm"}, {"days": "Sat", "time": "2:00pm"}, {"days": "Sun", "time": "Closed"}], "id": "1080100091", "name": "USPS COLLECTION BOX - APC", "address": {"city": "NEW ROCHELLE", "state": "NY", "street": "255 NORTH AVE", "postcode": "10801"}}},
{"geometry": {"type": "Point", "coordinates": [-73.7821510723, 40.9113643902]}, "type": "Feature", "properties": {"collection_times": [{"days": "Mon-Fri", "time": "5:00pm"}, {"days": "Sat", "time": "2:00pm"}, {"days": "Sun", "time": "Closed"}], "id": "1080100092", "name": "USPS COLLECTION BOX - PO LOBBY", "address": {"city": "NEW ROCHELLE", "state": "NY", "street": "255 NORTH AVE ( LOBBY DROP SLOT )", "postcode": "10801"}}},
{"geometry": {"type": "Point", "coordinates": [-73.8016657922, 40.8974494406]}, "type": "Feature", "properties": {"collection_times": [{"days": "Mon-Fri", "time": "1:00pm"}, {"days": "Sat-Sun", "time": "Closed"}], "id": "1080300003", "name": "USPS COLLECTION BOX - BLUE BOX", "address": {"city": "PELHAM", "state": "NY", "street": "4773 BOSTON POST RD", "postcode": "10803"}}},
{"geometry": {"type": "Point", "coordinates": [-73.805650301, 40.8960693584]}, "type": "Feature", "properties": {"collection_times": [{"days": "Mon-Sat", "time": "1:30pm"}, {"days": "Sun", "time": "Closed"}], "id": "1080300010", "name": "USPS COLLECTION BOX - BLUE BOX", "address": {"city": "PELHAM", "state": "NY", "street": "900 PELHAMDALE AVE", "postcode": "10803"}}},
{"geometry": {"type": "Point", "coordinates": [-73.8040740268, 40.890068185]}, "type": "Feature", "properties": {"collection_times": [{"days": "Mon-Fri", "time": "1:30pm"}, {"days": "Sat-Sun", "time": "Closed"}], "id": "1080300014", "name": "USPS COLLECTION BOX - BLUE BOX", "address": {"city": "PELHAM", "state": "NY", "street": "6 PENFIELD PL", "postcode": "10803"}}},
{"geometry": {"type": "Point", "coordinates": [-73.8122279207, 40.8977110763]}, "type": "Feature", "properties": {"collection_times": [{"days": "Mon-Sat", "time": "1:00pm"}, {"days": "Sun", "time": "Closed"}], "id": "1080300020", "name": "USPS COLLECTION BOX - BLUE BOX", "address": {"city": "PELHAM", "state": "NY", "street": "591 WOLFS LN", "postcode": "10803"}}},
{"geometry": {"type": "Point", "coordinates": [-73.8095680705, 40.9113673379]}, "type": "Feature", "properties": {"collection_times": [{"days": "Mon-Sat", "time": "1:00pm"}, {"days": "Sun", "time": "Closed"}], "id": "1080300025", "name": "USPS COLLECTION BOX - BLUE BOX", "address": {"city": "PELHAM", "state": "NY", "street": "50 FIFTH AVE", "postcode": "10803"}}},
{"geometry": {"type": "Point", "coordinates": [-73.8076178129, 40.9154467816]}, "type": "Feature", "properties": {"collection_times": [{"days": "Mon-Sat", "time": "1:00pm"}, {"days": "Sun", "time": "Closed"}], "id": "1080300030", "name": "USPS COLLECTION BOX - BLUE BOX", "address": {"city": "PELHAM", "state": "NY", "street": "300 FIFTH AVE", "postcode": "10803"}}},
{"geometry": {"type": "Point", "coordinates": [-73.8047100997, 40.9038265757]}, "type": "Feature", "properties": {"collection_times": [{"days": "Mon-Sat", "time": "1:00pm"}, {"days": "Sun", "time": "Closed"}], "id": "1080300031", "name": "USPS COLLECTION BOX - BLUE BOX", "address": {"city": "PELHAM", "state": "NY", "street": "267 MONTEREY AVE", "postcode": "10803"}}},
{"geometry": {"type": "Point", "coordinates": [-73.8111503951, 40.9109685394]}, "type": "Feature", "properties": {"collection_times": [{"days": "Mon-Fri", "time": "5:00pm"}, {"days": "Sat", "time": "1:00pm"}, {"days": "Sun", "time": "Closed"}], "id": "1080300032", "name": "USPS COLLECTION BOX - BLUE BOX", "address": {"city": "PELHAM", "state": "NY", "street": "26 1ST ST", "postcode": "10803"}}},
{"geometry": {"type": "Point", "coordinates": [-73.8087771127, 40.9105102939]}, "type": "Feature", "properties": {"collection_times": [{"days": "Mon-Sat", "time": "1:00pm"}, {"days": "Sun", "time": "Closed"}], "id": "1080300035", "name": "USPS COLLECTION BOX - BLUE BOX", "address": {"city": "PELHAM", "state": "NY", "street": "2 HARMON PL", "postcode": "10803"}}},
{"geometry": {"type": "Point", "coordinates": [-73.8087771127, 40.9105102939]}, "type": "Feature", "properties": {"collection_times": [{"days": "Mon-Sat", "time": "1:00pm"}, {"days": "Sun", "time": "Closed"}], "id": "1080300036", "name": "USPS COLLECTION BOX - BLUE BOX", "address": {"city": "PELHAM", "state": "NY", "street": "2 HARMON PL", "postcode": "10803"}}},
{"geometry": {"type": "Point", "coordinates": [-73.8089498247, 40.909094292]}, "type": "Feature", "properties": {"collection_times": [{"days": "Mon-Sat", "time": "1:00pm"}, {"days": "Sun", "time": "Closed"}], "id": "1080300037", "name": "USPS COLLECTION BOX - BLUE BOX", "address": {"city": "PELHAM", "state": "NY", "street": "105 CORLIES AVE", "postcode": "10803"}}},
{"geometry": {"type": "Point", "coordinates": [-73.8116753621, 40.9131636708]}, "type": "Feature", "properties": {"collection_times": [{"days": "Mon-Sat", "time": "1:00pm"}, {"days": "Sun", "time": "Closed"}], "id": "1080300038", "name": "USPS COLLECTION BOX - BLUE BOX", "address": {"city": "PELHAM", "state": "NY", "street": "107 SECOND AVE", "postcode": "10803"}}},
{"geometry": {"type": "Point", "coordinates": [-73.8056363566, 40.9187614327]}, "type": "Feature", "properties": {"collection_times": [{"days": "Mon-Sat", "time": "1:00pm"}, {"days": "Sun", "time": "Closed"}], "id": "1080300039", "name": "USPS COLLECTION BOX - BLUE BOX", "address": {"city": "PELHAM", "state": "NY", "street": "503 FIFTH AVE", "postcode": "10803"}}},
{"geometry": {"type": "Point", "coordinates": [-73.8087517361, 40.9132901813]}, "type": "Feature", "properties": {"collection_times": [{"days": "Mon-Sat", "time": "1:00pm"}, {"days": "Sun", "time": "Closed"}], "id": "1080300040", "name": "USPS COLLECTION BOX - BLUE BOX", "address": {"city": "PELHAM", "state": "NY", "street": "155 FIFTH AVE", "postcode": "10803"}}},
{"geometry": {"type": "Point", "coordinates": [-73.8075764093, 40.9213367343]}, "type": "Feature", "properties": {"collection_times": [{"days": "Mon-Sat", "time": "1:00pm"}, {"days": "Sun", "time": "Closed"}], "id": "1080300043", "name": "USPS COLLECTION BOX - BLUE BOX", "address": {"city": "PELHAM", "state": "NY", "street": "553 SECOND AVE", "postcode": "10803"}}},
{"geometry": {"type": "Point", "coordinates": [-73.8117184521, 40.90614965]}, "type": "Feature", "properties": {"collection_times": [{"days": "Mon-Sat", "time": "1:00pm"}, {"days": "Sun", "time": "Closed"}], "id": "1080300044", "name": "USPS COLLECTION BOX - BLUE BOX", "address": {"city": "PELHAM", "state": "NY", "street": "259 WOLFS LN", "postcode": "10803"}}},
{"geometry": {"type": "Point", "coordinates": [-73.8050590726, 40.9195835891]}, "type": "Feature", "properties": {"collection_times": [{"days": "Mon-Sat", "time": "1:00pm"}, {"days": "Sun", "time": "Closed"}], "id": "1080300046", "name": "USPS COLLECTION BOX - BLUE BOX", "address": {"city": "PELHAM", "state": "NY", "street": "531 FIFTH AVE", "postcode": "10803"}}},
{"geometry": {"type": "Point", "coordinates": [-73.8042014274, 40.9208067687]}, "type": "Feature", "properties": {"collection_times": [{"days": "Mon-Fri", "time": "1:00pm"}, {"days": "Sat-Sun", "time": "Closed"}], "id": "1080300047", "name": "USPS COLLECTION BOX - BLUE BOX", "address": {"city": "PELHAM", "state": "NY", "street": "629 FIFTH AVE", "postcode": "10803"}}},
{"geometry": {"type": "Point", "coordinates": [-73.8042014274, 40.9208067687]}, "type": "Feature", "properties": {"collection_times": [{"days": "Mon-Fri", "time": "1:00pm"}, {"days": "Sat-Sun", "time": "Closed"}], "id": "1080300048", "name": "USPS COLLECTION BOX - BLUE BOX", "address": {"city": "PELHAM", "state": "NY", "street": "629 FIFTH AVE", "postcode": "10803"}}},
{"geometry": {"type": "Point", "coordinates": [-73.8064872775, 40.8999100768]}, "type": "Feature", "properties": {"collection_times": [{"days": "Mon-Fri", "time": "5:00pm"}, {"days": "Sat", "time": "2:30pm"}, {"days": "Sun", "time": "Closed"}], "id": "1080300049", "name": "USPS COLLECTION BOX - PO LOBBY", "address": {"city": "PELHAM", "state": "NY", "street": "26 1 ST  ST ( LOBBY DROP SLOT )", "postcode": "10803"}}},
{"geometry": {"type": "Point", "coordinates": [-73.7953599921, 40.9319561569]}, "type": "Feature", "properties": {"collection_times": [{"days": "Mon-Sat", "time": "11:00am"}, {"days": "Sun", "time": "Closed"}], "id": "1080400001", "name": "USPS COLLECTION BOX - BLUE BOX", "address": {"city": "NEW ROCHELLE", "state": "NY", "street": "36 CALTON RD", "postcode": "10804"}}},
{"geometry": {"type": "Point", "coordinates": [-73.7938020351, 40.939710453]}, "type": "Feature", "properties": {"collection_times": [{"days": "Mon-Sat", "time": "11:00am"}, {"days": "Sun", "time": "Closed"}], "id": "1080400011", "name": "USPS COLLECTION BOX - BLUE BOX", "address": {"city": "NEW ROCHELLE", "state": "NY", "street": "1107 NORTH AVE", "postcode": "10804"}}},
{"geometry": {"type": "Point", "coordinates": [-73.795497316, 40.9461508005]}, "type": "Feature", "properties": {"collection_times": [{"days": "Mon-Fri", "time": "11:00am"}, {"days": "Sat-Sun", "time": "Closed"}], "id": "1080400012", "name": "USPS COLLECTION BOX - BLUE BOX", "address": {"city": "NEW ROCHELLE", "state": "NY", "street": "1292 NORTH AVE", "postcode": "10804"}}},
{"geometry": {"type": "Point", "coordinates": [-73.7939868086, 40.9483008744]}, "type": "Feature", "properties": {"collection_times": [{"days": "Mon-Sat", "time": "11:00am"}, {"days": "Sun", "time": "Closed"}], "id": "1080400017", "name": "USPS COLLECTION BOX - BLUE BOX", "address": {"city": "NEW ROCHELLE", "state": "NY", "street": "77 QUAKER RIDGE RD", "postcode": "10804"}}},
{"geometry": {"type": "Point", "coordinates": [-73.7981707026, 40.938816136]}, "type": "Feature", "properties": {"collection_times": [{"days": "Mon-Sat", "time": "11:00am"}, {"days": "Sun", "time": "Closed"}], "id": "1080400020", "name": "USPS COLLECTION BOX - BLUE BOX", "address": {"city": "NEW ROCHELLE", "state": "NY", "street": "98 BON AIR AVE", "postcode": "10804"}}},
{"geometry": {"type": "Point", "coordinates": [-73.7949459564, 40.947954494]}, "type": "Feature", "properties": {"collection_times": [{"days": "Mon-Fri", "time": "5:00pm"}, {"days": "Sat", "time": "1:00pm"}, {"days": "Sun", "time": "Closed"}], "id": "1080400021", "name": "USPS COLLECTION BOX - BLUE BOX", "address": {"city": "NEW ROCHELLE", "state": "NY", "street": "3 QUAKER RIDGE RD", "postcode": "10804"}}},
{"geometry": {"type": "Point", "coordinates": [-73.7949459564, 40.947954494]}, "type": "Feature", "properties": {"collection_times": [{"days": "Mon-Fri", "time": "5:00pm"}, {"days": "Sat", "time": "1:00pm"}, {"days": "Sun", "time": "Closed"}], "id": "1080400022", "name": "USPS COLLECTION BOX - BLUE BOX", "address": {"city": "NEW ROCHELLE", "state": "NY", "street": "3 QUAKER RIDGE RD", "postcode": "10804"}}},
{"geometry": {"type": "Point", "coordinates": [-73.7860066616, 40.9493306626]}, "type": "Feature", "properties": {"collection_times": [{"days": "Mon-Fri", "time": "5:00pm"}, {"days": "Sat", "time": "11:00am"}, {"days": "Sun", "time": "Closed"}], "id": "1080400023", "name": "USPS COLLECTION BOX - PO LOBBY", "address": {"city": "NEW ROCHELLE", "state": "NY", "street": "3 QUAKER RD ( LOBBY DROP SLOT )", "postcode": "10804"}}},
{"geometry": {"type": "Point", "coordinates": [-73.7805363333, 40.9036798888]}, "type": "Feature", "properties": {"collection_times": [{"days": "Mon-Sat", "time": "10:00am"}, {"days": "Sun", "time": "Closed"}], "id": "1080500002", "name": "USPS COLLECTION BOX - BLUE BOX", "address": {"city": "NEW ROCHELLE", "state": "NY", "street": "219 CENTRE AVE", "postcode": "10805"}}},
{"geometry": {"type": "Point", "coordinates": [-73.7824225559, 40.9058192842]}, "type": "Feature", "properties": {"collection_times": [{"days": "Mon-Sat", "time": "10:00am"}, {"days": "Sun", "time": "Closed"}], "id": "1080500003", "name": "USPS COLLECTION BOX - BLUE BOX", "address": {"city": "NEW ROCHELLE", "state": "NY", "street": "138 CENTRE AVE", "postcode": "10805"}}},
{"geometry": {"type": "Point", "coordinates": [-73.7724105882, 40.9002303805]}, "type": "Feature", "properties": {"collection_times": [{"days": "Mon-Sat", "time": "9:30am"}, {"days": "Sun", "time": "Closed"}], "id": "1080500005", "name": "USPS COLLECTION BOX - BLUE BOX", "address": {"city": "NEW ROCHELLE", "state": "NY", "street": "223 DAVENPORT AVE", "postcode": "10805"}}},
{"geometry": {"type": "Point", "coordinates": [-73.7866167424, 40.8998885053]}, "type": "Feature", "properties": {"collection_times": [{"days": "Mon-Sat", "time": "10:00am"}, {"days": "Sun", "time": "Closed"}], "id": "1080500006", "name": "USPS COLLECTION BOX - BLUE BOX", "address": {"city": "NEW ROCHELLE", "state": "NY", "street": "170 ELM ST", "postcode": "10805"}}},
{"geometry": {"type": "Point", "coordinates": [-73.7740986706, 40.9055785379]}, "type": "Feature", "properties": {"collection_times": [{"days": "Mon-Sat", "time": "9:30am"}, {"days": "Sun", "time": "Closed"}], "id": "1080500009", "name": "USPS COLLECTION BOX - BLUE BOX", "address": {"city": "NEW ROCHELLE", "state": "NY", "street": "100 PELHAM RD", "postcode": "10805"}}},
{"geometry": {"type": "Point", "coordinates": [-73.7761193947, 40.9021999897]}, "type": "Feature", "properties": {"collection_times": [{"days": "Mon-Sat", "time": "10:30am"}, {"days": "Sun", "time": "Closed"}], "id": "1080500010", "name": "USPS COLLECTION BOX - BLUE BOX", "address": {"city": "NEW ROCHELLE", "state": "NY", "street": "220 PELHAM RD", "postcode": "10805"}}},
{"geometry": {"type": "Point", "coordinates": [-73.7780852423, 40.8978585477]}, "type": "Feature", "properties": {"collection_times": [{"days": "Mon-Sat", "time": "10:30am"}, {"days": "Sun", "time": "Closed"}], "id": "1080500011", "name": "USPS COLLECTION BOX - BLUE BOX", "address": {"city": "NEW ROCHELLE", "state": "NY", "street": "366 PELHAM RD", "postcode": "10805"}}},
{"geometry": {"type": "Point", "coordinates": [-73.7884396821, 40.8895246018]}, "type": "Feature", "properties": {"collection_times": [{"days": "Mon-Sat", "time": "10:30am"}, {"days": "Sun", "time": "Closed"}], "id": "1080500014", "name": "USPS COLLECTION BOX - BLUE BOX", "address": {"city": "NEW ROCHELLE", "state": "NY", "street": "720 PELHAM RD", "postcode": "10805"}}},
{"geometry": {"type": "Point", "coordinates": [-73.7907878557, 40.8989492359]}, "type": "Feature", "properties": {"collection_times": [{"days": "Mon-Fri", "time": "10:30am"}, {"days": "Sat-Sun", "time": "Closed"}], "id": "1080500015", "name": "USPS COLLECTION BOX - BLUE BOX", "address": {"city": "NEW ROCHELLE", "state": "NY", "street": "85 WEYMAN AVE", "postcode": "10805"}}},
{"geometry": {"type": "Point", "coordinates": [-73.7902243045, 40.8880288193]}, "type": "Feature", "properties": {"collection_times": [{"days": "Mon-Sat", "time": "10:30am"}, {"days": "Sun", "time": "Closed"}], "id": "1080500016", "name": "USPS COLLECTION BOX - BLUE BOX", "address": {"city": "NEW ROCHELLE", "state": "NY", "street": "781 PELHAM RD", "postcode": "10805"}}}
]}
