{"type": "FeatureCollection", "features": [
{"geometry": {"type": "Point", "coordinates": [-74.1521214886, 41.1163226776]}, "type": "Feature", "properties": {"collection_times": [{"days": "Mon-Fri", "time": "5:00pm"}, {"days": "Sat", "time": "4:00pm"}, {"days": "Sun", "time": "Closed"}], "id": "1090100002", "name": "USPS COLLECTION BOX - BLUE BOX", "address": {"city": "SUFFERN", "state": "NY", "street": "15 CHESTNUT ST", "postcode": "10901"}}},
{"geometry": {"type": "Point", "coordinates": [-74.1120073501, 41.1121267221]}, "type": "Feature", "properties": {"collection_times": [{"days": "Mon-Fri", "time": "3:45pm"}, {"days": "Sat", "time": "9:00am"}, {"days": "Sun", "time": "Closed"}], "id": "1090100024", "name": "USPS COLLECTION BOX - BLUE BOX", "address": {"city": "SUFFERN", "state": "NY", "street": "222 ROUTE 59", "postcode": "10901"}}},
{"geometry": {"type": "Point", "coordinates": [-74.1150428228, 41.1187785004]}, "type": "Feature", "properties": {"collection_times": [{"days": "Mon-Fri", "time": "3:45pm"}, {"days": "Sat", "time": "9:00am"}, {"days": "Sun", "time": "Closed"}], "id": "1090100031", "name": "USPS COLLECTION BOX - BLUE BOX", "address": {"city": "SUFFERN", "state": "NY", "street": "3 EXECUTIVE BLVD", "postcode": "10901"}}},
{"geometry": {"type": "Point", "coordinates": [-74.1266277129, 41.1100667531]}, "type": "Feature", "properties": {"collection_times": [{"days": "Mon-Sat", "time": "9:00am"}, {"days": "Sun", "time": "Closed"}], "id": "1090100046", "name": "USPS COLLECTION BOX - BLUE BOX", "address": {"city": "SUFFERN", "state": "NY", "street": "1 BON AIRE CIR", "postcode": "10901"}}},
{"geometry": {"type": "Point", "coordinates": [-74.1070720453, 41.1116949421]}, "type": "Feature", "properties": {"collection_times": [{"days": "Mon-Sat", "time": "9:00am"}, {"days": "Sun", "time": "Closed"}], "id": "1090100049", "name": "USPS COLLECTION BOX - BLUE BOX", "address": {"city": "SUFFERN", "state": "NY", "street": "250 ROUTE 59", "postcode": "10901"}}},
{"geometry": {"type": "Point", "coordinates": [-74.1160566186, 41.1188636734]}, "type": "Feature", "properties": {"collection_times": [{"days": "Mon-Fri", "time": "3:45pm"}, {"days": "Sat", "time": "9:00am"}, {"days": "Sun", "time": "Closed"}], "id": "1090100051", "name": "USPS COLLECTION BOX - BLUE BOX", "address": {"city": "SUFFERN", "state": "NY", "street": "2 EXECUTIVE BLVD", "postcode": "10901"}}},
{"geometry": {"type": "Point", "coordinates": [-74.1521214886, 41.1163226776]}, "type": "Feature", "properties": {"collection_times": [{"days": "Mon-Fri", "time": "5:00pm"}, {"days": "Sat", "time": "4:00pm"}, {"days": "Sun", "time": "Closed"}], "id": "1090100052", "name": "USPS COLLECTION BOX - PO LOBBY", "address": {"city": "SUFFERN", "state": "NY", "street": "15 CHESTNUT ST LBBY DROP", "postcode": "10901"}}},
{"geometry": {"type": "Point", "coordinates": [-73.9992835414, 41.3032553132]}, "type": "Feature", "properties": {"collection_times": [{"days": "Mon-Fri", "time": "10:00am"}, {"days": "Sat-Sun", "time": "Closed"}], "id": "1091100001", "name": "USPS COLLECTION BOX - BLUE BOX", "address": {"city": "BEAR MOUNTAIN", "state": "NY", "street": "30 SERVICE RD", "postcode": "10911"}}},
{"geometry": {"type": "Point", "coordinates": [-73.9992835414, 41.3032553132]}, "type": "Feature", "properties": {"collection_times": [{"days": "Mon-Fri", "time": "10:00am"}, {"days": "Sat-Sun", "time": "Closed"}], "id": "1091100002", "name": "USPS COLLECTION BOX - PO LOBBY", "address": {"city": "BEAR MOUNTAIN", "state": "NY", "street": "30 SERVICE RD LBBY DROP", "postcode": "10911"}}},
{"geometry": {"type": "Point", "coordinates": [-73.9525645919, 41.0756359869]}, "type": "Feature", "properties": {"collection_times": [{"days": "Mon-Fri", "time": "3:30pm"}, {"days": "Sat", "time": "12:00pm"}, {"days": "Sun", "time": "Closed"}], "id": "1091300009", "name": "USPS COLLECTION BOX - BLUE BOX", "address": {"city": "BLAUVELT", "state": "NY", "street": "560 BRADLEY HILL RD", "postcode": "10913"}}},
{"geometry": {"type": "Point", "coordinates": [-73.9572747801, 41.060341629]}, "type": "Feature", "properties": {"collection_times": [{"days": "Mon-Fri", "time": "5:00pm"}, {"days": "Sat", "time": "1:00pm"}, {"days": "Sun", "time": "Closed"}], "id": "1091300011", "name": "USPS COLLECTION BOX - BLUE BOX", "address": {"city": "BLAUVELT", "state": "NY", "street": "545 WESTERN HWY", "postcode": "10913"}}},
{"geometry": {"type": "Point", "coordinates": [-73.9572747801, 41.060341629]}, "type": "Feature", "properties": {"collection_times": [{"days": "Mon-Fri", "time": "5:00pm"}, {"days": "Sat", "time": "1:00pm"}, {"days": "Sun", "time": "Closed"}], "id": "1091300012", "name": "USPS COLLECTION BOX - PO LOBBY", "address": {"city": "BLAUVELT", "state": "NY", "street": "545 WESTERN HWY LBBY DROP", "postcode": "10913"}}},
{"geometry": {"type": "Point", "coordinates": [-74.193449442, 41.4071331678]}, "type": "Feature", "properties": {"collection_times": [{"days": "Mon-Fri", "time": "4:45pm"}, {"days": "Sat", "time": "11:45am"}, {"days": "Sun", "time": "Closed"}], "id": "1091400001", "name": "USPS COLLECTION BOX - BLUE BOX", "address": {"city": "BLOOMING GROVE", "state": "NY", "street": "2876 ROUTE 94", "postcode": "10914"}}},
{"geometry": {"type": "Point", "coordinates": [-74.193449442, 41.4071331678]}, "type": "Feature", "properties": {"collection_times": [{"days": "Mon-Fri", "time": "4:45pm"}, {"days": "Sat", "time": "11:45am"}, {"days": "Sun", "time": "Closed"}], "id": "1091400002", "name": "USPS COLLECTION BOX - PO LOBBY", "address": {"city": "BLOOMING GROVE", "state": "NY", "street": "2876 ROUTE 94 LBBY DROP", "postcode": "10914"}}},
{"geometry": {"type": "Point", "coordinates": [-74.3572645331, 41.5415493755]}, "type": "Feature", "properties": {"collection_times": [{"days": "Mon-Fri", "time": "5:00pm"}, {"days": "Sat", "time": "11:30am"}, {"days": "Sun", "time": "Closed"}], "id": "1091500001", "name": "USPS COLLECTION BOX - BLUE BOX", "address": {"city": "BULLVILLE", "state": "NY", "street": "652 LYBOLT RD", "postcode": "10915"}}},
{"geometry": {"type": "Point", "coordinates": [-74.3572645331, 41.5415493755]}, "type": "Feature", "properties": {"collection_times": [{"days": "Mon-Fri", "time": "5:00pm"}, {"days": "Sat", "time": "11:30am"}, {"days": "Sun", "time": "Closed"}], "id": "1091500002", "name": "USPS COLLECTION BOX - PO LOBBY", "address": {"city": "BULLVILLE", "state": "NY", "street": "652 LYBOLT RD LBBY DROP", "postcode": "10915"}}},
{"geometry": {"type": "Point", "coordinates": [-74.2585368959, 41.4549144261]}, "type": "Feature", "properties": {"collection_times": [{"days": "Mon-Fri", "time": "5:00pm"}, {"days": "Sat", "time": "12:30pm"}, {"days": "Sun", "time": "Closed"}], "id": "1091600001", "name": "USPS COLLECTION BOX - BLUE BOX", "address": {"city": "CAMPBELL HALL", "state": "NY", "street": "10 MAYBROOK RD", "postcode": "10916"}}},
{"geometry": {"type": "Point", "coordinates": [-74.2585368959, 41.4549144261]}, "type": "Feature", "properties": {"collection_times": [{"days": "Mon-Fri", "time": "5:00pm"}, {"days": "Sat", "time": "12:30pm"}, {"days": "Sun", "time": "Closed"}], "id": "1091600002", "name": "USPS COLLECTION BOX - PO LOBBY", "address": {"city": "CAMPBELL HALL", "state": "NY", "street": "10 MAYBROOK RD LBBY DROP", "postcode": "10916"}}},
{"geometry": {"type": "Point", "coordinates": [-74.1196652133, 41.3330030863]}, "type": "Feature", "properties": {"collection_times": [{"days": "Mon-Fri", "time": "5:00pm"}, {"days": "Sat", "time": "11:30am"}, {"days": "Sun", "time": "Closed"}], "id": "1091700002", "name": "USPS COLLECTION BOX - BLUE BOX", "address": {"city": "CENTRAL VALLEY", "state": "NY", "street": "28 SMITH CLOVE RD", "postcode": "10917"}}},
{"geometry": {"type": "Point", "coordinates": [-74.1196652133, 41.3330030863]}, "type": "Feature", "properties": {"collection_times": [{"days": "Mon-Fri", "time": "5:00pm"}, {"days": "Sat", "time": "11:30am"}, {"days": "Sun", "time": "Closed"}], "id": "1091700003", "name": "USPS COLLECTION BOX - PO LOBBY", "address": {"city": "CENTRAL VALLEY", "state": "NY", "street": "28 SMITH CLOVE RD LBBY DROP", "postcode": "10917"}}},
{"geometry": {"type": "Point", "coordinates": [-74.2884935216, 41.3591199298]}, "type": "Feature", "properties": {"collection_times": [{"days": "Mon-Sat", "time": "10:30am"}, {"days": "Sun", "time": "Closed"}], "id": "1091800005", "name": "USPS COLLECTION BOX - BLUE BOX", "address": {"city": "CHESTER", "state": "NY", "street": "113 KNOLLCREST LN", "postcode": "10918"}}},
{"geometry": {"type": "Point", "coordinates": [-74.2808321558, 41.3549361474]}, "type": "Feature", "properties": {"collection_times": [{"days": "Mon-Sat", "time": "11:00am"}, {"days": "Sun", "time": "Closed"}], "id": "1091800006", "name": "USPS COLLECTION BOX - BLUE BOX", "address": {"city": "CHESTER", "state": "NY", "street": "69 BROOKSIDE AVE", "postcode": "10918"}}},
{"geometry": {"type": "Point", "coordinates": [-74.2851109184, 41.3589641227]}, "type": "Feature", "properties": {"collection_times": [{"days": "Mon-Sat", "time": "10:00am"}, {"days": "Sun", "time": "Closed"}], "id": "1091800007", "name": "USPS COLLECTION BOX - BLUE BOX", "address": {"city": "CHESTER", "state": "NY", "street": "78 BROOKSIDE AVE", "postcode": "10918"}}},
{"geometry": {"type": "Point", "coordinates": [-74.284313604, 41.3573789577]}, "type": "Feature", "properties": {"collection_times": [{"days": "Mon-Fri", "time": "5:00pm"}, {"days": "Sat", "time": "4:00pm"}, {"days": "Sun", "time": "Closed"}], "id": "1091800010", "name": "USPS COLLECTION BOX - BLUE BOX", "address": {"city": "CHESTER", "state": "NY", "street": "76 BROOKSIDE AVE", "postcode": "10918"}}},
{"geometry": {"type": "Point", "coordinates": [-74.284313604, 41.3573789577]}, "type": "Feature", "properties": {"collection_times": [{"days": "Mon-Fri", "time": "5:00pm"}, {"days": "Sat", "time": "4:00pm"}, {"days": "Sun", "time": "Closed"}], "id": "1091800011", "name": "USPS COLLECTION BOX - PO LOBBY", "address": {"city": "CHESTER", "state": "NY", "street": "76 BROOKSIDE AVE LBBY DROP", "postcode": "10918"}}},
{"geometry": {"type": "Point", "coordinates": [-74.3872475954, 41.5147562695]}, "type": "Feature", "properties": {"collection_times": [{"days": "Mon-Fri", "time": "5:00pm"}, {"days": "Sat", "time": "12:00pm"}, {"days": "Sun", "time": "Closed"}], "id": "1091900002", "name": "USPS COLLECTION BOX - BLUE BOX", "address": {"city": "CIRCLEVILLE", "state": "NY", "street": "2079 ROUTE 302", "postcode": "10919"}}},
{"geometry": {"type": "Point", "coordinates": [-74.3872475954, 41.5147562695]}, "type": "Feature", "properties": {"collection_times": [{"days": "Mon-Fri", "time": "5:00pm"}, {"days": "Sat", "time": "12:00pm"}, {"days": "Sun", "time": "Closed"}], "id": "1091900003", "name": "USPS COLLECTION BOX - PO LOBBY", "address": {"city": "CIRCLEVILLE", "state": "NY", "street": "2079 ROUTE 302 LBBY DROP", "postcode": "10919"}}},
{"geometry": {"type": "Point", "coordinates": [-73.9453920804, 41.1515067919]}, "type": "Feature", "properties": {"collection_times": [{"days": "Mon-Fri", "time": "5:00pm"}, {"days": "Sat", "time": "1:00pm"}, {"days": "Sun", "time": "Closed"}], "id": "1092000002", "name": "USPS COLLECTION BOX - BLUE BOX", "address": {"city": "CONGERS", "state": "NY", "street": "14 OLD HAVERSTRAW RD", "postcode": "10920"}}},
{"geometry": {"type": "Point", "coordinates": [-73.9423461924, 41.1537810732]}, "type": "Feature", "properties": {"collection_times": [{"days": "Mon-Fri", "time": "3:30pm"}, {"days": "Sat", "time": "12:00pm"}, {"days": "Sun", "time": "Closed"}], "id": "1092000008", "name": "USPS COLLECTION BOX - BLUE BOX", "address": {"city": "CONGERS", "state": "NY", "street": "50 N HARRISON AVE", "postcode": "10920"}}},
{"geometry": {"type": "Point", "coordinates": [-73.9453920804, 41.1515067919]}, "type": "Feature", "properties": {"collection_times": [{"days": "Mon-Fri", "time": "5:00pm"}, {"days": "Sat", "time": "1:00pm"}, {"days": "Sun", "time": "Closed"}], "id": "1092000009", "name": "USPS COLLECTION BOX - PO LOBBY", "address": {"city": "CONGERS", "state": "NY", "street": "14 OLD HAVERSTRAW RD LBBY DROP", "postcode": "10920"}}},
{"geometry": {"type": "Point", "coordinates": [-74.3575302395, 41.3407597727]}, "type": "Feature", "properties": {"collection_times": [{"days": "Mon-Fri", "time": "5:00pm"}, {"days": "Sat", "time": "1:00pm"}, {"days": "Sun", "time": "Closed"}], "id": "1092100002", "name": "USPS COLLECTION BOX - BLUE BOX", "address": {"city": "FLORIDA", "state": "NY", "street": "15 EDWARD J LEMPKA DR", "postcode": "10921"}}},
{"geometry": {"type": "Point", "coordinates": [-74.3570373146, 41.3324978307]}, "type": "Feature", "properties": {"collection_times": [{"days": "Mon-Sat", "time": "10:15am"}, {"days": "Sun", "time": "Closed"}], "id": "1092100007", "name": "USPS COLLECTION BOX - BLUE BOX", "address": {"city": "FLORIDA", "state": "NY", "street": "20 N MAIN ST", "postcode": "10921"}}},
{"geometry": {"type": "Point", "coordinates": [-74.3575302395, 41.3407597727]}, "type": "Feature", "properties": {"collection_times": [{"days": "Mon-Fri", "time": "5:00pm"}, {"days": "Sat", "time": "1:00pm"}, {"days": "Sun", "time": "Closed"}], "id": "1092100008", "name": "USPS COLLECTION BOX - PO LOBBY", "address": {"city": "FLORIDA", "state": "NY", "street": "15 EDWARD J LEMPKA DR LBBY DROP", "postcode": "10921"}}},
{"geometry": {"type": "Point", "coordinates": [-73.9817494149, 41.3352836713]}, "type": "Feature", "properties": {"collection_times": [{"days": "Mon-Fri", "time": "5:00pm"}, {"days": "Sat", "time": "12:00pm"}, {"days": "Sun", "time": "Closed"}], "id": "1092200001", "name": "USPS COLLECTION BOX - BLUE BOX", "address": {"city": "FORT MONTGOMERY", "state": "NY", "street": "130 FIREFIGHTERS MEMORIAL DR", "postcode": "10922"}}},
{"geometry": {"type": "Point", "coordinates": [-73.9872892743, 41.3309279429]}, "type": "Feature", "properties": {"collection_times": [{"days": "Mon-Fri", "time": "5:00pm"}, {"days": "Sat", "time": "12:00pm"}, {"days": "Sun", "time": "Closed"}], "id": "1092200002", "name": "USPS COLLECTION BOX - PO LOBBY", "address": {"city": "FORT MONTGOMERY", "state": "NY", "street": "130 FIRE FIGHTERS DR LOBBY DROP", "postcode": "10922"}}},
{"geometry": {"type": "Point", "coordinates": [-74.0111272775, 41.1933893658]}, "type": "Feature", "properties": {"collection_times": [{"days": "Mon-Sat", "time": "12:00pm"}, {"days": "Sun", "time": "Closed"}], "id": "1092300003", "name": "USPS COLLECTION BOX - BLUE BOX", "address": {"city": "GARNERVILLE", "state": "NY", "street": "5 FOREST DR", "postcode": "10923"}}},
{"geometry": {"type": "Point", "coordinates": [-73.9919179394, 41.2030089837]}, "type": "Feature", "properties": {"collection_times": [{"days": "Mon-Sat", "time": "10:00am"}, {"days": "Sun", "time": "Closed"}], "id": "1092300004", "name": "USPS COLLECTION BOX - BLUE BOX", "address": {"city": "GARNERVILLE", "state": "NY", "street": "119 BRIDGE ST", "postcode": "10923"}}},
{"geometry": {"type": "Point", "coordinates": [-73.9989247537, 41.2009610256]}, "type": "Feature", "properties": {"collection_times": [{"days": "Mon-Fri", "time": "5:00pm"}, {"days": "Sat", "time": "1:00pm"}, {"days": "Sun", "time": "Closed"}], "id": "1092300009", "name": "USPS COLLECTION BOX - BLUE BOX", "address": {"city": "GARNERVILLE", "state": "NY", "street": "55 RAMAPO RD", "postcode": "10923"}}},
{"geometry": {"type": "Point", "coordinates": [-73.9989247537, 41.2009610256]}, "type": "Feature", "properties": {"collection_times": [{"days": "Mon-Fri", "time": "5:00pm"}, {"days": "Sat", "time": "1:00pm"}, {"days": "Sun", "time": "Closed"}], "id": "1092300010", "name": "USPS COLLECTION BOX - PO LOBBY", "address": {"city": "GARNERVILLE", "state": "NY", "street": "55 RAMAPO RD LBBY DROP", "postcode": "10923"}}},
{"geometry": {"type": "Point", "coordinates": [-74.3263299406, 41.4022332128]}, "type": "Feature", "properties": {"collection_times": [{"days": "Mon-Fri", "time": "5:00pm"}, {"days": "Sat", "time": "4:00pm"}, {"days": "Sun", "time": "Closed"}], "id": "1092400002", "name": "USPS COLLECTION BOX - BLUE BOX", "address": {"city": "GOSHEN", "state": "NY", "street": "20 GRAND ST", "postcode": "10924"}}},
{"geometry": {"type": "Point", "coordinates": [-74.3189009583, 41.4046819378]}, "type": "Feature", "properties": {"collection_times": [{"days": "Mon-Sat", "time": "12:00pm"}, {"days": "Sun", "time": "Closed"}], "id": "1092400004", "name": "USPS COLLECTION BOX - BLUE BOX", "address": {"city": "GOSHEN", "state": "NY", "street": "252 MAIN ST", "postcode": "10924"}}},
{"geometry": {"type": "Point", "coordinates": [-74.3214585934, 41.4027438196]}, "type": "Feature", "properties": {"collection_times": [{"days": "Mon-Sat", "time": "12:00pm"}, {"days": "Sun", "time": "Closed"}], "id": "1092400007", "name": "USPS COLLECTION BOX - BLUE BOX", "address": {"city": "GOSHEN", "state": "NY", "street": "101 MAIN ST", "postcode": "10924"}}},
{"geometry": {"type": "Point", "coordinates": [-74.3225586674, 41.4032292642]}, "type": "Feature", "properties": {"collection_times": [{"days": "Mon-Sat", "time": "12:00pm"}, {"days": "Sun", "time": "Closed"}], "id": "1092400008", "name": "USPS COLLECTION BOX - BLUE BOX", "address": {"city": "GOSHEN", "state": "NY", "street": "75 WEBSTER AVE", "postcode": "10924"}}},
{"geometry": {"type": "Point", "coordinates": [-74.3250937485, 41.402775008]}, "type": "Feature", "properties": {"collection_times": [{"days": "Mon-Sat", "time": "12:00pm"}, {"days": "Sun", "time": "Closed"}], "id": "1092400009", "name": "USPS COLLECTION BOX - BLUE BOX", "address": {"city": "GOSHEN", "state": "NY", "street": "50 N CHURCH ST", "postcode": "10924"}}},
{"geometry": {"type": "Point", "coordinates": [-74.3263299406, 41.4022332128]}, "type": "Feature", "properties": {"collection_times": [{"days": "Mon-Fri", "time": "5:00pm"}, {"days": "Sat", "time": "4:00pm"}, {"days": "Sun", "time": "Closed"}], "id": "1092400011", "name": "USPS COLLECTION BOX - BLUE BOX", "address": {"city": "GOSHEN", "state": "NY", "street": "20 GRAND ST", "postcode": "10924"}}},
{"geometry": {"type": "Point", "coordinates": [-74.3263299406, 41.4022332128]}, "type": "Feature", "properties": {"collection_times": [{"days": "Mon-Fri", "time": "5:00pm"}, {"days": "Sat", "time": "4:00pm"}, {"days": "Sun", "time": "Closed"}], "id": "1092400015", "name": "USPS COLLECTION BOX - BLUE BOX", "address": {"city": "GOSHEN", "state": "NY", "street": "20 GRAND ST", "postcode": "10924"}}},
{"geometry": {"type": "Point", "coordinates": [-74.336723418, 41.3976681741]}, "type": "Feature", "properties": {"collection_times": [{"days": "Mon-Sat", "time": "12:00pm"}, {"days": "Sun", "time": "Closed"}], "id": "1092400021", "name": "USPS COLLECTION BOX - BLUE BOX", "address": {"city": "GOSHEN", "state": "NY", "street": "30 MATTHEWS ST", "postcode": "10924"}}},
{"geometry": {"type": "Point", "coordinates": [-74.3263299406, 41.4022332128]}, "type": "Feature", "properties": {"collection_times": [{"days": "Mon-Fri", "time": "5:00pm"}, {"days": "Sat", "time": "4:00pm"}, {"days": "Sun", "time": "Closed"}], "id": "1092400032", "name": "USPS COLLECTION BOX - BLUE BOX", "address": {"city": "GOSHEN", "state": "NY", "street": "20 GRAND ST", "postcode": "10924"}}},
{"geometry": {"type": "Point", "coordinates": [-74.3370498614, 41.3929516754]}, "type": "Feature", "properties": {"collection_times": [{"days": "Mon-Sat", "time": "12:00pm"}, {"days": "Sun", "time": "Closed"}], "id": "1092400033", "name": "USPS COLLECTION BOX - BLUE BOX", "address": {"city": "GOSHEN", "state": "NY", "street": "5 HATFIELD LN", "postcode": "10924"}}},
{"geometry": {"type": "Point", "coordinates": [-74.3373184464, 41.389887853]}, "type": "Feature", "properties": {"collection_times": [{"days": "Mon-Sat", "time": "12:00pm"}, {"days": "Sun", "time": "Closed"}], "id": "1092400034", "name": "USPS COLLECTION BOX - BLUE BOX", "address": {"city": "GOSHEN", "state": "NY", "street": "3 COATES DR", "postcode": "10924"}}},
{"geometry": {"type": "Point", "coordinates": [-74.3263299406, 41.4022332128]}, "type": "Feature", "properties": {"collection_times": [{"days": "Mon-Fri", "time": "5:00pm"}, {"days": "Sat", "time": "4:00pm"}, {"days": "Sun", "time": "Closed"}], "id": "1092400035", "name": "USPS COLLECTION BOX - PO LOBBY", "address": {"city": "GOSHEN", "state": "NY", "street": "20 GRAND ST LBBY DROP", "postcode": "10924"}}},
{"geometry": {"type": "Point", "coordinates": [-74.2913695019, 41.2256765793]}, "type": "Feature", "properties": {"collection_times": [{"days": "Mon-Fri", "time": "5:00pm"}, {"days": "Sat", "time": "1:00pm"}, {"days": "Sun", "time": "Closed"}], "id": "1092500002", "name": "USPS COLLECTION BOX - BLUE BOX", "address": {"city": "GREENWOOD LAKE", "state": "NY", "street": "123 WINDERMERE AVE", "postcode": "10925"}}},
{"geometry": {"type": "Point", "coordinates": [-74.2913695019, 41.2256765793]}, "type": "Feature", "properties": {"collection_times": [{"days": "Mon-Fri", "time": "5:00pm"}, {"days": "Sat", "time": "1:00pm"}, {"days": "Sun", "time": "Closed"}], "id": "1092500003", "name": "USPS COLLECTION BOX - BLUE BOX", "address": {"city": "GREENWOOD LAKE", "state": "NY", "street": "123 WINDERMERE AVE", "postcode": "10925"}}},
{"geometry": {"type": "Point", "coordinates": [-74.2913695019, 41.2256765793]}, "type": "Feature", "properties": {"collection_times": [{"days": "Mon-Fri", "time": "5:00pm"}, {"days": "Sat", "time": "1:00pm"}, {"days": "Sun", "time": "Closed"}], "id": "1092500004", "name": "USPS COLLECTION BOX - PO LOBBY", "address": {"city": "GREENWOOD LAKE", "state": "NY", "street": "123 WINDERMERE AVE LBBY DROP", "postcode": "10925"}}},
{"geometry": {"type": "Point", "coordinates": [-74.1531447481, 41.3076225207]}, "type": "Feature", "properties": {"collection_times": [{"days": "Mon-Fri", "time": "5:00pm"}, {"days": "Sat", "time": "1:00pm"}, {"days": "Sun", "time": "Closed"}], "id": "1092600002", "name": "USPS COLLECTION BOX - BLUE BOX", "address": {"city": "HARRIMAN", "state": "NY", "street": "88 ROUTE 17M", "postcode": "10926"}}},
{"geometry": {"type": "Point", "coordinates": [-74.1531447481, 41.3076225207]}, "type": "Feature", "properties": {"collection_times": [{"days": "Mon-Fri", "time": "5:00pm"}, {"days": "Sat", "time": "1:00pm"}, {"days": "Sun", "time": "Closed"}], "id": "1092600003", "name": "USPS COLLECTION BOX - PO LOBBY", "address": {"city": "HARRIMAN", "state": "NY", "street": "88 ROUTE 17M LBBY DROP", "postcode": "10926"}}},
{"geometry": {"type": "Point", "coordinates": [-73.9644793546, 41.1966018218]}, "type": "Feature", "properties": {"collection_times": [{"days": "Mon-Sat", "time": "10:00am"}, {"days": "Sun", "time": "Closed"}], "id": "1092700001", "name": "USPS COLLECTION BOX - BLUE BOX", "address": {"city": "HAVERSTRAW", "state": "NY", "street": "1 NEW MAIN ST", "postcode": "10927"}}},
{"geometry": {"type": "Point", "coordinates": [-73.9666812499, 41.1963964965]}, "type": "Feature", "properties": {"collection_times": [{"days": "Mon-Sat", "time": "10:00am"}, {"days": "Sun", "time": "Closed"}], "id": "1092700002", "name": "USPS COLLECTION BOX - BLUE BOX", "address": {"city": "HAVERSTRAW", "state": "NY", "street": "38 NEW MAIN ST", "postcode": "10927"}}},
{"geometry": {"type": "Point", "coordinates": [-73.9607400213, 41.1964267439]}, "type": "Feature", "properties": {"collection_times": [{"days": "Mon-Fri", "time": "5:00pm"}, {"days": "Sat", "time": "1:00pm"}, {"days": "Sun", "time": "Closed"}], "id": "1092700003", "name": "USPS COLLECTION BOX - BLUE BOX", "address": {"city": "HAVERSTRAW", "state": "NY", "street": "86 MAIN ST", "postcode": "10927"}}},
{"geometry": {"type": "Point", "coordinates": [-73.9753140758, 41.1999886333]}, "type": "Feature", "properties": {"collection_times": [{"days": "Mon-Sat", "time": "10:15am"}, {"days": "Sun", "time": "Closed"}], "id": "1092700008", "name": "USPS COLLECTION BOX - BLUE BOX", "address": {"city": "HAVERSTRAW", "state": "NY", "street": "40 GURNEE AVE", "postcode": "10927"}}},
{"geometry": {"type": "Point", "coordinates": [-73.9751958862, 41.2016806892]}, "type": "Feature", "properties": {"collection_times": [{"days": "Mon-Sat", "time": "10:15am"}, {"days": "Sun", "time": "Closed"}], "id": "1092700009", "name": "USPS COLLECTION BOX - BLUE BOX", "address": {"city": "HAVERSTRAW", "state": "NY", "street": "19 RELA AVE", "postcode": "10927"}}},
{"geometry": {"type": "Point", "coordinates": [-73.9521759935, 41.1936900562]}, "type": "Feature", "properties": {"collection_times": [{"days": "Mon-Sat", "time": "10:15am"}, {"days": "Sun", "time": "Closed"}], "id": "1092700015", "name": "USPS COLLECTION BOX - BLUE BOX", "address": {"city": "HAVERSTRAW", "state": "NY", "street": "101 WARREN KNLS", "postcode": "10927"}}},
{"geometry": {"type": "Point", "coordinates": [-73.9607400213, 41.1964267439]}, "type": "Feature", "properties": {"collection_times": [{"days": "Mon-Fri", "time": "5:00pm"}, {"days": "Sat", "time": "1:00pm"}, {"days": "Sun", "time": "Closed"}], "id": "1092700018", "name": "USPS COLLECTION BOX - PO LOBBY", "address": {"city": "HAVERSTRAW", "state": "NY", "street": "86 MAIN ST LBBY DROP", "postcode": "10927"}}},
{"geometry": {"type": "Point", "coordinates": [-73.9632313329, 41.3752605654]}, "type": "Feature", "properties": {"collection_times": [{"days": "Mon-Sat", "time": "11:00am"}, {"days": "Sun", "time": "Closed"}], "id": "1092800002", "name": "USPS COLLECTION BOX - BLUE BOX", "address": {"city": "HIGHLAND FALLS", "state": "NY", "street": "481 MAIN ST", "postcode": "10928"}}},
{"geometry": {"type": "Point", "coordinates": [-73.9658433063, 41.3696580718]}, "type": "Feature", "properties": {"collection_times": [{"days": "Mon-Fri", "time": "5:00pm"}, {"days": "Sat", "time": "1:00pm"}, {"days": "Sun", "time": "Closed"}], "id": "1092800010", "name": "USPS COLLECTION BOX - BLUE BOX", "address": {"city": "HIGHLAND FALLS", "state": "NY", "street": "259 MAIN ST", "postcode": "10928"}}},
{"geometry": {"type": "Point", "coordinates": [-73.9658433063, 41.3696580718]}, "type": "Feature", "properties": {"collection_times": [{"days": "Mon-Fri", "time": "5:00pm"}, {"days": "Sat", "time": "1:00pm"}, {"days": "Sun", "time": "Closed"}], "id": "1092800012", "name": "USPS COLLECTION BOX - PO LOBBY", "address": {"city": "HIGHLAND FALLS", "state": "NY", "street": "259 MAIN ST LBBY DROP", "postcode": "10928"}}},
{"geometry": {"type": "Point", "coordinates": [-74.1249133405, 41.3494600974]}, "type": "Feature", "properties": {"collection_times": [{"days": "Mon-Fri", "time": "5:00pm"}, {"days": "Sat", "time": "11:30am"}, {"days": "Sun", "time": "Closed"}], "id": "1093000002", "name": "USPS COLLECTION BOX - BLUE BOX", "address": {"city": "HIGHLAND MILLS", "state": "NY", "street": "547 STATE ROUTE 32", "postcode": "10930"}}},
{"geometry": {"type": "Point", "coordinates": [-74.1249133405, 41.3494600974]}, "type": "Feature", "properties": {"collection_times": [{"days": "Mon-Fri", "time": "5:00pm"}, {"days": "Sat", "time": "11:30am"}, {"days": "Sun", "time": "Closed"}], "id": "1093000003", "name": "USPS COLLECTION BOX - PO LOBBY", "address": {"city": "HIGHLAND MILLS", "state": "NY", "street": "547 STATE ROUTE 32 LBBY DROP", "postcode": "10930"}}},
{"geometry": {"type": "Point", "coordinates": [-74.1681848884, 41.1236724016]}, "type": "Feature", "properties": {"collection_times": [{"days": "Mon-Fri", "time": "5:00pm"}, {"days": "Sat", "time": "11:30am"}, {"days": "Sun", "time": "Closed"}], "id": "1093100001", "name": "USPS COLLECTION BOX - BLUE BOX", "address": {"city": "HILLBURN", "state": "NY", "street": "27 ROCKLAND AVE", "postcode": "10931"}}},
{"geometry": {"type": "Point", "coordinates": [-74.1681848884, 41.1236724016]}, "type": "Feature", "properties": {"collection_times": [{"days": "Mon-Fri", "time": "5:00pm"}, {"days": "Sat", "time": "11:30am"}, {"days": "Sun", "time": "Closed"}], "id": "1093100002", "name": "USPS COLLECTION BOX - PO LOBBY", "address": {"city": "HILLBURN", "state": "NY", "street": "27 ROCKLAND AVE LBBY DROP", "postcode": "10931"}}},
{"geometry": {"type": "Point", "coordinates": [-74.4679381503, 41.4804720301]}, "type": "Feature", "properties": {"collection_times": [{"days": "Mon-Fri", "time": "5:00pm"}, {"days": "Sat", "time": "11:30am"}, {"days": "Sun", "time": "Closed"}], "id": "1093200001", "name": "USPS COLLECTION BOX - BLUE BOX", "address": {"city": "HOWELLS", "state": "NY", "street": "126 NEW VERNON RD STE 1", "postcode": "10932"}}},
{"geometry": {"type": "Point", "coordinates": [-74.4667303352, 41.4771054089]}, "type": "Feature", "properties": {"collection_times": [{"days": "Mon-Fri", "time": "5:00pm"}, {"days": "Sat", "time": "11:30am"}, {"days": "Sun", "time": "Closed"}], "id": "1093200002", "name": "USPS COLLECTION BOX - PO LOBBY", "address": {"city": "HOWELLS", "state": "NY", "street": "126 NEW VERNON RD STE DROP", "postcode": "10932"}}},
{"geometry": {"type": "Point", "coordinates": [-74.5162372315, 41.3607410585]}, "type": "Feature", "properties": {"collection_times": [{"days": "Mon-Fri", "time": "5:00pm"}, {"days": "Sat", "time": "12:00pm"}, {"days": "Sun", "time": "Closed"}], "id": "1093300003", "name": "USPS COLLECTION BOX - BLUE BOX", "address": {"city": "JOHNSON", "state": "NY", "street": "83 COUNTY HIGHWAY 22", "postcode": "10933"}}},
{"geometry": {"type": "Point", "coordinates": [-74.5162372315, 41.3607410585]}, "type": "Feature", "properties": {"collection_times": [{"days": "Mon-Fri", "time": "5:00pm"}, {"days": "Sat", "time": "12:00pm"}, {"days": "Sun", "time": "Closed"}], "id": "1093300004", "name": "USPS COLLECTION BOX - PO LOBBY", "address": {"city": "JOHNSON", "state": "NY", "street": "83 COUNTY HIGHWAY 22 LBBY DROP", "postcode": "10933"}}},
{"geometry": {"type": "Point", "coordinates": [-74.42539167, 41.4385671069]}, "type": "Feature", "properties": {"collection_times": [{"days": "Mon-Sat", "time": "10:00am"}, {"days": "Sun", "time": "Closed"}], "id": "1094000001", "name": "USPS COLLECTION BOX - BLUE BOX", "address": {"city": "MIDDLETOWN", "state": "NY", "street": "115 SOUTH ST", "postcode": "10940"}}},
{"geometry": {"type": "Point", "coordinates": [-74.3575423129, 41.466194621]}, "type": "Feature", "properties": {"collection_times": [{"days": "Mon-Fri", "time": "5:00pm"}, {"days": "Sat", "time": "4:00pm"}, {"days": "Sun", "time": "Closed"}], "id": "1094000003", "name": "USPS COLLECTION BOX - BLUE BOX", "address": {"city": "MIDDLETOWN", "state": "NY", "street": "731 ROUTE 211 W", "postcode": "10940"}}},
{"geometry": {"type": "Point", "coordinates": [-74.4000689512, 41.4608239001]}, "type": "Feature", "properties": {"collection_times": [{"days": "Mon-Sat", "time": "10:15am"}, {"days": "Sun", "time": "Closed"}], "id": "1094000005", "name": "USPS COLLECTION BOX - BLUE BOX", "address": {"city": "MIDDLETOWN", "state": "NY", "street": "88 SENIORS WAY", "postcode": "10940"}}},
{"geometry": {"type": "Point", "coordinates": [-74.4150625096, 41.447487308]}, "type": "Feature", "properties": {"collection_times": [{"days": "Mon-Sat", "time": "10:00am"}, {"days": "Sun", "time": "Closed"}], "id": "1094000010", "name": "USPS COLLECTION BOX - BLUE BOX", "address": {"city": "MIDDLETOWN", "state": "NY", "street": "39 RAILROAD AVE", "postcode": "10940"}}},
{"geometry": {"type": "Point", "coordinates": [-74.3817799591, 41.4496627695]}, "type": "Feature", "properties": {"collection_times": [{"days": "Mon-Fri", "time": "10:15am"}, {"days": "Sat", "time": "10:30am"}, {"days": "Sun", "time": "Closed"}], "id": "1094000011", "name": "USPS COLLECTION BOX - BLUE BOX", "address": {"city": "MIDDLETOWN", "state": "NY", "street": "511 SHUTT RD EXT", "postcode": "10940"}}},
{"geometry": {"type": "Point", "coordinates": [-74.4030951046, 41.4528757108]}, "type": "Feature", "properties": {"collection_times": [{"days": "Mon-Sat", "time": "10:15am"}, {"days": "Sun", "time": "Closed"}], "id": "1094000013", "name": "USPS COLLECTION BOX - BLUE BOX", "address": {"city": "MIDDLETOWN", "state": "NY", "street": "13 FAIRLAWN AVE", "postcode": "10940"}}},
{"geometry": {"type": "Point", "coordinates": [-74.4187476081, 41.4485683229]}, "type": "Feature", "properties": {"collection_times": [{"days": "Mon-Fri", "time": "10:00am"}, {"days": "Sat", "time": "10:15am"}, {"days": "Sun", "time": "Closed"}], "id": "1094000021", "name": "USPS COLLECTION BOX - BLUE BOX", "address": {"city": "MIDDLETOWN", "state": "NY", "street": "112 NORTH ST", "postcode": "10940"}}},
{"geometry": {"type": "Point", "coordinates": [-74.3821206513, 41.4558117902]}, "type": "Feature", "properties": {"collection_times": [{"days": "Mon-Sat", "time": "10:15am"}, {"days": "Sun", "time": "Closed"}], "id": "1094000022", "name": "USPS COLLECTION BOX - BLUE BOX", "address": {"city": "MIDDLETOWN", "state": "NY", "street": "453 ROUTE 211 E", "postcode": "10940"}}},
{"geometry": {"type": "Point", "coordinates": [-74.3872311087, 41.4654977374]}, "type": "Feature", "properties": {"collection_times": [{"days": "Mon-Sat", "time": "10:15am"}, {"days": "Sun", "time": "Closed"}], "id": "1094000024", "name": "USPS COLLECTION BOX - BLUE BOX", "address": {"city": "MIDDLETOWN", "state": "NY", "street": "299 SILVER LAKE SCOTCHTOWN RD", "postcode": "10940"}}},
{"geometry": {"type": "Point", "coordinates": [-74.4313210976, 41.4479321005]}, "type": "Feature", "properties": {"collection_times": [{"days": "Mon-Sat", "time": "10:00am"}, {"days": "Sun", "time": "Closed"}], "id": "1094000027", "name": "USPS COLLECTION BOX - BLUE BOX", "address": {"city": "MIDDLETOWN", "state": "NY", "street": "95 MONHAGEN AVE", "postcode": "10940"}}},
{"geometry": {"type": "Point", "coordinates": [-74.415627964, 41.4409940462]}, "type": "Feature", "properties": {"collection_times": [{"days": "Mon-Fri", "time": "10:30am"}, {"days": "Sat", "time": "10:00am"}, {"days": "Sun", "time": "Closed"}], "id": "1094000030", "name": "USPS COLLECTION BOX - BLUE BOX", "address": {"city": "MIDDLETOWN", "state": "NY", "street": "72 SPRAGUE AVE", "postcode": "10940"}}},
{"geometry": {"type": "Point", "coordinates": [-74.4221138278, 41.4351127787]}, "type": "Feature", "properties": {"collection_times": [{"days": "Mon-Sat", "time": "10:00am"}, {"days": "Sun", "time": "Closed"}], "id": "1094000033", "name": "USPS COLLECTION BOX - BLUE BOX", "address": {"city": "MIDDLETOWN", "state": "NY", "street": "45 DOLSON AVE", "postcode": "10940"}}},
{"geometry": {"type": "Point", "coordinates": [-74.422343622, 41.4426312614]}, "type": "Feature", "properties": {"collection_times": [{"days": "Mon-Fri", "time": "5:00pm"}, {"days": "Sat", "time": "4:00pm"}, {"days": "Sun", "time": "Closed"}], "id": "1094000045", "name": "USPS COLLECTION BOX - BLUE BOX", "address": {"city": "MIDDLETOWN", "state": "NY", "street": "40 FULTON ST", "postcode": "10940"}}},
{"geometry": {"type": "Point", "coordinates": [-74.4137659865, 41.4511355534]}, "type": "Feature", "properties": {"collection_times": [{"days": "Mon-Sat", "time": "10:00am"}, {"days": "Sun", "time": "Closed"}], "id": "1094000050", "name": "USPS COLLECTION BOX - BLUE BOX", "address": {"city": "MIDDLETOWN", "state": "NY", "street": "131 WICKHAM AVE", "postcode": "10940"}}},
{"geometry": {"type": "Point", "coordinates": [-74.4212570892, 41.4460239426]}, "type": "Feature", "properties": {"collection_times": [{"days": "Mon-Fri", "time": "4:00pm"}, {"days": "Sat", "time": "10:15am"}, {"days": "Sun", "time": "Closed"}], "id": "1094000051", "name": "USPS COLLECTION BOX - BLUE BOX", "address": {"city": "MIDDLETOWN", "state": "NY", "street": "22 JAMES ST", "postcode": "10940"}}},
{"geometry": {"type": "Point", "coordinates": [-74.4461684156, 41.4640132447]}, "type": "Feature", "properties": {"collection_times": [{"days": "Mon-Sat", "time": "10:15am"}, {"days": "Sun", "time": "Closed"}], "id": "1094000060", "name": "USPS COLLECTION BOX - BLUE BOX", "address": {"city": "MIDDLETOWN", "state": "NY", "street": "400 ROUTE 211", "postcode": "10940"}}},
{"geometry": {"type": "Point", "coordinates": [-74.4248787031, 41.4296920563]}, "type": "Feature", "properties": {"collection_times": [{"days": "Mon-Sat", "time": "10:00am"}, {"days": "Sun", "time": "Closed"}], "id": "1094000063", "name": "USPS COLLECTION BOX - BLUE BOX", "address": {"city": "MIDDLETOWN", "state": "NY", "street": "130 DOLSON AVE", "postcode": "10940"}}},
{"geometry": {"type": "Point", "coordinates": [-74.4322172488, 41.4254766166]}, "type": "Feature", "properties": {"collection_times": [{"days": "Mon-Sat", "time": "10:00am"}, {"days": "Sun", "time": "Closed"}], "id": "1094000065", "name": "USPS COLLECTION BOX - BLUE BOX", "address": {"city": "MIDDLETOWN", "state": "NY", "street": "9 COBB LN", "postcode": "10940"}}},
{"geometry": {"type": "Point", "coordinates": [-74.4298063821, 41.4486101048]}, "type": "Feature", "properties": {"collection_times": [{"days": "Mon-Fri", "time": "10:15am"}, {"days": "Sat", "time": "10:30am"}, {"days": "Sun", "time": "Closed"}], "id": "1094000066", "name": "USPS COLLECTION BOX - BLUE BOX", "address": {"city": "MIDDLETOWN", "state": "NY", "street": "1 N GALLERIA DR", "postcode": "10940"}}},
{"geometry": {"type": "Point", "coordinates": [-74.3722062722, 41.4425212462]}, "type": "Feature", "properties": {"collection_times": [{"days": "Mon-Sat", "time": "10:30am"}, {"days": "Sun", "time": "Closed"}], "id": "1094000067", "name": "USPS COLLECTION BOX - BLUE BOX", "address": {"city": "MIDDLETOWN", "state": "NY", "street": "200 MIDWAY PARK DR", "postcode": "10940"}}},
{"geometry": {"type": "Point", "coordinates": [-74.4298063821, 41.4486101048]}, "type": "Feature", "properties": {"collection_times": [{"days": "Mon-Fri", "time": "10:15am"}, {"days": "Sat", "time": "10:30am"}, {"days": "Sun", "time": "Closed"}], "id": "1094000070", "name": "USPS COLLECTION BOX - BLUE BOX", "address": {"city": "MIDDLETOWN", "state": "NY", "street": "85 CRYSTAL RUN RD", "postcode": "10940"}}},
{"geometry": {"type": "Point", "coordinates": [-74.359496662, 41.4486532863]}, "type": "Feature", "properties": {"collection_times": [{"days": "Mon-Fri", "time": "4:00pm"}, {"days": "Sat", "time": "10:30am"}, {"days": "Sun", "time": "Closed"}], "id": "1094000078", "name": "USPS COLLECTION BOX - BLUE BOX", "address": {"city": "MIDDLETOWN", "state": "NY", "street": "100 CRYSTAL RUN RD", "postcode": "10940"}}},
{"geometry": {"type": "Point", "coordinates": [-74.422343622, 41.4426312614]}, "type": "Feature", "properties": {"collection_times": [{"days": "Mon-Fri", "time": "5:00pm"}, {"days": "Sat", "time": "4:00pm"}, {"days": "Sun", "time": "Closed"}], "id": "1094000080", "name": "USPS COLLECTION BOX - PO LOBBY", "address": {"city": "MIDDLETOWN", "state": "NY", "street": "40 FULTON ST LBBY DROP", "postcode": "10940"}}},
{"geometry": {"type": "Point", "coordinates": [-74.4623349062, 41.4728447391]}, "type": "Feature", "properties": {"collection_times": [{"days": "Mon-Fri", "time": "5:00pm"}, {"days": "Sat", "time": "1:00pm"}, {"days": "Sun", "time": "Closed"}], "id": "1094000081", "name": "USPS COLLECTION BOX - PO LOBBY", "address": {"city": "MIDDLETOWN", "state": "NY", "street": "731 ROUTE 211 W LBBY DROP", "postcode": "10940"}}},
{"geometry": {"type": "Point", "coordinates": [-74.1913590545, 41.3277186276]}, "type": "Feature", "properties": {"collection_times": [{"days": "Mon-Sat", "time": "2:00pm"}, {"days": "Sun", "time": "Closed"}], "id": "1095000002", "name": "USPS COLLECTION BOX - BLUE BOX", "address": {"city": "MONROE", "state": "NY", "street": "11 LAKES ST", "postcode": "10950"}}},
{"geometry": {"type": "Point", "coordinates": [-74.1871299762, 41.3282060067]}, "type": "Feature", "properties": {"collection_times": [{"days": "Mon-Sat", "time": "1:30pm"}, {"days": "Sun", "time": "Closed"}], "id": "1095000003", "name": "USPS COLLECTION BOX - BLUE BOX", "address": {"city": "MONROE", "state": "NY", "street": "7 STAGE RD", "postcode": "10950"}}},
{"geometry": {"type": "Point", "coordinates": [-74.1844470253, 41.3216583288]}, "type": "Feature", "properties": {"collection_times": [{"days": "Mon-Sat", "time": "1:00pm"}, {"days": "Sun", "time": "Closed"}], "id": "1095000004", "name": "USPS COLLECTION BOX - BLUE BOX", "address": {"city": "MONROE", "state": "NY", "street": "581 STATE ROUTE 17M", "postcode": "10950"}}},
{"geometry": {"type": "Point", "coordinates": [-74.1691486755, 41.3401986681]}, "type": "Feature", "properties": {"collection_times": [{"days": "Mon-Sat", "time": "1:30pm"}, {"days": "Sun", "time": "Closed"}], "id": "1095000007", "name": "USPS COLLECTION BOX - BLUE BOX", "address": {"city": "MONROE", "state": "NY", "street": "14 GARFIELD RD", "postcode": "10950"}}},
{"geometry": {"type": "Point", "coordinates": [-74.192955116, 41.368317321]}, "type": "Feature", "properties": {"collection_times": [{"days": "Mon-Sat", "time": "1:30pm"}, {"days": "Sun", "time": "Closed"}], "id": "1095000017", "name": "USPS COLLECTION BOX - BLUE BOX", "address": {"city": "MONROE", "state": "NY", "street": "37 TANAGER RD", "postcode": "10950"}}},
{"geometry": {"type": "Point", "coordinates": [-74.1920949355, 41.3332844704]}, "type": "Feature", "properties": {"collection_times": [{"days": "Mon-Fri", "time": "5:00pm"}, {"days": "Sat", "time": "4:00pm"}, {"days": "Sun", "time": "Closed"}], "id": "1095000019", "name": "USPS COLLECTION BOX - BLUE BOX", "address": {"city": "MONROE", "state": "NY", "street": "787 STATE ROUTE 17M", "postcode": "10950"}}},
{"geometry": {"type": "Point", "coordinates": [-74.1703156566, 41.340085947]}, "type": "Feature", "properties": {"collection_times": [{"days": "Mon-Sat", "time": "1:30pm"}, {"days": "Sun", "time": "Closed"}], "id": "1095000023", "name": "USPS COLLECTION BOX - BLUE BOX", "address": {"city": "MONROE", "state": "NY", "street": "51 FOREST RD", "postcode": "10950"}}},
{"geometry": {"type": "Point", "coordinates": [-74.1691486755, 41.3401986681]}, "type": "Feature", "properties": {"collection_times": [{"days": "Mon-Sat", "time": "1:30pm"}, {"days": "Sun", "time": "Closed"}], "id": "1095000026", "name": "USPS COLLECTION BOX - BLUE BOX", "address": {"city": "MONROE", "state": "NY", "street": "14 GARFIELD RD", "postcode": "10950"}}},
{"geometry": {"type": "Point", "coordinates": [-74.1703156566, 41.340085947]}, "type": "Feature", "properties": {"collection_times": [{"days": "Mon-Sat", "time": "1:30pm"}, {"days": "Sun", "time": "Closed"}], "id": "1095000027", "name": "USPS COLLECTION BOX - BLUE BOX", "address": {"city": "MONROE", "state": "NY", "street": "51 FOREST RD", "postcode": "10950"}}},
{"geometry": {"type": "Point", "coordinates": [-74.1758820703, 41.318616881]}, "type": "Feature", "properties": {"collection_times": [{"days": "Mon-Sat", "time": "1:00pm"}, {"days": "Sun", "time": "Closed"}], "id": "1095000029", "name": "USPS COLLECTION BOX - BLUE BOX", "address": {"city": "MONROE", "state": "NY", "street": "475 STATE ROUTE 17M", "postcode": "10950"}}},
{"geometry": {"type": "Point", "coordinates": [-74.1705744655, 41.3171063027]}, "type": "Feature", "properties": {"collection_times": [{"days": "Mon-Sat", "time": "1:00pm"}, {"days": "Sun", "time": "Closed"}], "id": "1095000030", "name": "USPS COLLECTION BOX - BLUE BOX", "address": {"city": "MONROE", "state": "NY", "street": "412 STATE ROUTE 17M", "postcode": "10950"}}},
{"geometry": {"type": "Point", "coordinates": [-74.2011856164, 41.3147864043]}, "type": "Feature", "properties": {"collection_times": [{"days": "Mon-Fri", "time": "5:00pm"}, {"days": "Sat", "time": "4:00pm"}, {"days": "Sun", "time": "Closed"}], "id": "1095000031", "name": "USPS COLLECTION BOX - PO LOBBY", "address": {"city": "MONROE", "state": "NY", "street": "787 STATE ROUTE 17M LBBY DROP", "postcode": "10950"}}},
{"geometry": {"type": "Point", "coordinates": [-74.0616234747, 41.1110415772]}, "type": "Feature", "properties": {"collection_times": [{"days": "Mon-Fri", "time": "5:00pm"}, {"days": "Sat", "time": "3:30pm"}, {"days": "Sun", "time": "Closed"}], "id": "1095200002", "name": "USPS COLLECTION BOX - BLUE BOX", "address": {"city": "AIRMONT", "state": "NY", "street": "15 MELNICK DR", "postcode": "10952"}}},
{"geometry": {"type": "Point", "coordinates": [-74.0599524238, 41.1063858223]}, "type": "Feature", "properties": {"collection_times": [{"days": "Mon-Sat", "time": "9:30am"}, {"days": "Sun", "time": "Closed"}], "id": "1095200004", "name": "USPS COLLECTION BOX - BLUE BOX", "address": {"city": "AIRMONT", "state": "NY", "street": "20 SECORA RD", "postcode": "10952"}}},
{"geometry": {"type": "Point", "coordinates": [-74.0693315742, 41.1074033857]}, "type": "Feature", "properties": {"collection_times": [{"days": "Mon-Sat", "time": "9:30am"}, {"days": "Sun", "time": "Closed"}], "id": "1095200007", "name": "USPS COLLECTION BOX - BLUE BOX", "address": {"city": "AIRMONT", "state": "NY", "street": "110 ROUTE 59", "postcode": "10952"}}},
{"geometry": {"type": "Point", "coordinates": [-74.0675470203, 41.1098921126]}, "type": "Feature", "properties": {"collection_times": [{"days": "Mon-Sat", "time": "9:30am"}, {"days": "Sun", "time": "Closed"}], "id": "1095200008", "name": "USPS COLLECTION BOX - BLUE BOX", "address": {"city": "AIRMONT", "state": "NY", "street": "27 ORCHARD ST", "postcode": "10952"}}},
{"geometry": {"type": "Point", "coordinates": [-74.0639023238, 41.1243667985]}, "type": "Feature", "properties": {"collection_times": [{"days": "Mon-Sat", "time": "10:00am"}, {"days": "Sun", "time": "Closed"}], "id": "1095200010", "name": "USPS COLLECTION BOX - BLUE BOX", "address": {"city": "AIRMONT", "state": "NY", "street": "26 JILL LN", "postcode": "10952"}}},
{"geometry": {"type": "Point", "coordinates": [-74.088110396, 41.1139153561]}, "type": "Feature", "properties": {"collection_times": [{"days": "Mon-Sat", "time": "9:30am"}, {"days": "Sun", "time": "Closed"}], "id": "1095200016", "name": "USPS COLLECTION BOX - BLUE BOX", "address": {"city": "AIRMONT", "state": "NY", "street": "410 ROUTE 59", "postcode": "10952"}}},
{"geometry": {"type": "Point", "coordinates": [-74.0704406441, 41.1548841783]}, "type": "Feature", "properties": {"collection_times": [{"days": "Mon-Sat", "time": "10:00am"}, {"days": "Sun", "time": "Closed"}], "id": "1095200017", "name": "USPS COLLECTION BOX - BLUE BOX", "address": {"city": "AIRMONT", "state": "NY", "street": "455 ROUTE 306", "postcode": "10952"}}},
{"geometry": {"type": "Point", "coordinates": [-74.0744909895, 41.0926043503]}, "type": "Feature", "properties": {"collection_times": [{"days": "Mon-Sat", "time": "9:30am"}, {"days": "Sun", "time": "Closed"}], "id": "1095200023", "name": "USPS COLLECTION BOX - BLUE BOX", "address": {"city": "AIRMONT", "state": "NY", "street": "300 SADDLE RIVER RD", "postcode": "10952"}}},
{"geometry": {"type": "Point", "coordinates": [-74.0616234747, 41.1110415772]}, "type": "Feature", "properties": {"collection_times": [{"days": "Mon-Fri", "time": "5:00pm"}, {"days": "Sat", "time": "3:30pm"}, {"days": "Sun", "time": "Closed"}], "id": "1095200026", "name": "USPS COLLECTION BOX - APC", "address": {"city": "AIRMONT", "state": "NY", "street": "15 MELNICK DR", "postcode": "10952"}}},
{"geometry": {"type": "Point", "coordinates": [-74.0616234747, 41.1110415772]}, "type": "Feature", "properties": {"collection_times": [{"days": "Mon-Fri", "time": "5:00pm"}, {"days": "Sat", "time": "3:30pm"}, {"days": "Sun", "time": "Closed"}], "id": "1095200027", "name": "USPS COLLECTION BOX - PO LOBBY", "address": {"city": "AIRMONT", "state": "NY", "street": "15 MELNICK DR LBBY DROP", "postcode": "10952"}}},
{"geometry": {"type": "Point", "coordinates": [-74.0798292645, 41.4059709657]}, "type": "Feature", "properties": {"collection_times": [{"days": "Mon-Fri", "time": "5:00pm"}, {"days": "Sat", "time": "11:00am"}, {"days": "Sun", "time": "Closed"}], "id": "1095300001", "name": "USPS COLLECTION BOX - BLUE BOX", "address": {"city": "MOUNTAINVILLE", "state": "NY", "street": "7 KETCHAM AVE", "postcode": "10953"}}},
{"geometry": {"type": "Point", "coordinates": [-74.0798292645, 41.4059709657]}, "type": "Feature", "properties": {"collection_times": [{"days": "Mon-Fri", "time": "5:00pm"}, {"days": "Sat", "time": "11:00am"}, {"days": "Sun", "time": "Closed"}], "id": "1095300002", "name": "USPS COLLECTION BOX - PO LOBBY", "address": {"city": "MOUNTAINVILLE", "state": "NY", "street": "7 KETCHAM AVE LBBY DROP", "postcode": "10953"}}},
{"geometry": {"type": "Point", "coordinates": [-74.0143529046, 41.0909564885]}, "type": "Feature", "properties": {"collection_times": [{"days": "Mon-Fri", "time": "5:00pm"}, {"days": "Sat", "time": "3:00pm"}, {"days": "Sun", "time": "Closed"}], "id": "1095400003", "name": "USPS COLLECTION BOX - BLUE BOX", "address": {"city": "NANUET", "state": "NY", "street": "10 W PROSPECT ST", "postcode": "10954"}}},
{"geometry": {"type": "Point", "coordinates": [-74.0271865234, 41.1171664508]}, "type": "Feature", "properties": {"collection_times": [{"days": "Mon-Sat", "time": "9:00am"}, {"days": "Sun", "time": "Closed"}], "id": "1095400007", "name": "USPS COLLECTION BOX - BLUE BOX", "address": {"city": "NANUET", "state": "NY", "street": "1 MEADOW LN", "postcode": "10954"}}},
{"geometry": {"type": "Point", "coordinates": [-74.0146344488, 41.0817258597]}, "type": "Feature", "properties": {"collection_times": [{"days": "Mon-Sat", "time": "9:30am"}, {"days": "Sun", "time": "Closed"}], "id": "1095400008", "name": "USPS COLLECTION BOX - BLUE BOX", "address": {"city": "NANUET", "state": "NY", "street": "1 E PALISADES AVE", "postcode": "10954"}}},
{"geometry": {"type": "Point", "coordinates": [-74.0107894615, 41.0952121938]}, "type": "Feature", "properties": {"collection_times": [{"days": "Mon-Sat", "time": "10:00am"}, {"days": "Sun", "time": "Closed"}], "id": "1095400010", "name": "USPS COLLECTION BOX - BLUE BOX", "address": {"city": "NANUET", "state": "NY", "street": "8 NORMANDY VLG", "postcode": "10954"}}},
{"geometry": {"type": "Point", "coordinates": [-73.9932530228, 41.1096645864]}, "type": "Feature", "properties": {"collection_times": [{"days": "Mon-Fri", "time": "5:00pm"}, {"days": "Sat", "time": "1:00pm"}, {"days": "Sun", "time": "Closed"}], "id": "1095400018", "name": "USPS COLLECTION BOX - BLUE BOX", "address": {"city": "NANUET", "state": "NY", "street": "77 BARDONIA RD", "postcode": "10954"}}},
{"geometry": {"type": "Point", "coordinates": [-74.0254243688, 41.1005275205]}, "type": "Feature", "properties": {"collection_times": [{"days": "Mon-Sat", "time": "8:30am"}, {"days": "Sun", "time": "Closed"}], "id": "1095400019", "name": "USPS COLLECTION BOX - BLUE BOX", "address": {"city": "NANUET", "state": "NY", "street": "20 OLD TURNPIKE RD", "postcode": "10954"}}},
{"geometry": {"type": "Point", "coordinates": [-74.0310665731, 41.0982801172]}, "type": "Feature", "properties": {"collection_times": [{"days": "Mon-Sat", "time": "9:00am"}, {"days": "Sun", "time": "Closed"}], "id": "1095400022", "name": "USPS COLLECTION BOX - BLUE BOX", "address": {"city": "NANUET", "state": "NY", "street": "71 NEW HOLLAND VLG", "postcode": "10954"}}},
{"geometry": {"type": "Point", "coordinates": [-74.0127133234, 41.0925605808]}, "type": "Feature", "properties": {"collection_times": [{"days": "Mon-Sat", "time": "10:00am"}, {"days": "Sun", "time": "Closed"}], "id": "1095400023", "name": "USPS COLLECTION BOX - BLUE BOX", "address": {"city": "NANUET", "state": "NY", "street": "132 MAIN ST", "postcode": "10954"}}},
{"geometry": {"type": "Point", "coordinates": [-74.0289216735, 41.1002815104]}, "type": "Feature", "properties": {"collection_times": [{"days": "Mon-Fri", "time": "4:00pm"}, {"days": "Sat", "time": "9:00am"}, {"days": "Sun", "time": "Closed"}], "id": "1095400025", "name": "USPS COLLECTION BOX - BLUE BOX", "address": {"city": "NANUET", "state": "NY", "street": "55 OLD TURNPIKE RD", "postcode": "10954"}}},
{"geometry": {"type": "Point", "coordinates": [-74.0289216735, 41.1002815104]}, "type": "Feature", "properties": {"collection_times": [{"days": "Mon-Fri", "time": "4:00pm"}, {"days": "Sat", "time": "9:00am"}, {"days": "Sun", "time": "Closed"}], "id": "1095400026", "name": "USPS COLLECTION BOX - BLUE BOX", "address": {"city": "NANUET", "state": "NY", "street": "55 OLD TURNPIKE RD", "postcode": "10954"}}},
{"geometry": {"type": "Point", "coordinates": [-74.0289216735, 41.1002815104]}, "type": "Feature", "properties": {"collection_times": [{"days": "Mon-Fri", "time": "4:00pm"}, {"days": "Sat", "time": "9:00am"}, {"days": "Sun", "time": "Closed"}], "id": "1095400027", "name": "USPS COLLECTION BOX - BLUE BOX", "address": {"city": "NANUET", "state": "NY", "street": "55 OLD TURNPIKE RD", "postcode": "10954"}}},
{"geometry": {"type": "Point", "coordinates": [-73.9990276712, 41.0956279934]}, "type": "Feature", "properties": {"collection_times": [{"days": "Mon-Fri", "time": "3:30pm"}, {"days": "Sat", "time": "9:00am"}, {"days": "Sun", "time": "Closed"}], "id": "1095400028", "name": "USPS COLLECTION BOX - BLUE BOX", "address": {"city": "NANUET", "state": "NY", "street": "25 SMITH ST", "postcode": "10954"}}},
{"geometry": {"type": "Point", "coordinates": [-74.0120947598, 41.099622722]}, "type": "Feature", "properties": {"collection_times": [{"days": "Mon-Sat", "time": "9:00am"}, {"days": "Sun", "time": "Closed"}], "id": "1095400030", "name": "USPS COLLECTION BOX - BLUE BOX", "address": {"city": "NANUET", "state": "NY", "street": "400 KINGSGATE PKWY", "postcode": "10954"}}},
{"geometry": {"type": "Point", "coordinates": [-74.0051116291, 41.1045427722]}, "type": "Feature", "properties": {"collection_times": [{"days": "Mon-Sat", "time": "8:30am"}, {"days": "Sun", "time": "Closed"}], "id": "1095400031", "name": "USPS COLLECTION BOX - BLUE BOX", "address": {"city": "NANUET", "state": "NY", "street": "16 JAMES DR", "postcode": "10954"}}},
{"geometry": {"type": "Point", "coordinates": [-74.0267396679, 41.1087150685]}, "type": "Feature", "properties": {"collection_times": [{"days": "Mon-Fri", "time": "4:00pm"}, {"days": "Sat", "time": "9:00am"}, {"days": "Sun", "time": "Closed"}], "id": "1095400035", "name": "USPS COLLECTION BOX - BLUE BOX", "address": {"city": "NANUET", "state": "NY", "street": "400 AIRPORT EXECUTIVE PARK", "postcode": "10954"}}},
{"geometry": {"type": "Point", "coordinates": [-74.0079904644, 41.0941659961]}, "type": "Feature", "properties": {"collection_times": [{"days": "Mon-Sat", "time": "10:00am"}, {"days": "Sun", "time": "Closed"}], "id": "1095400037", "name": "USPS COLLECTION BOX - BLUE BOX", "address": {"city": "NANUET", "state": "NY", "street": "46 COLLEGE AVE", "postcode": "10954"}}},
{"geometry": {"type": "Point", "coordinates": [-74.0143529046, 41.0909564885]}, "type": "Feature", "properties": {"collection_times": [{"days": "Mon-Fri", "time": "5:00pm"}, {"days": "Sat", "time": "3:00pm"}, {"days": "Sun", "time": "Closed"}], "id": "1095400039", "name": "USPS COLLECTION BOX - APC", "address": {"city": "NANUET", "state": "NY", "street": "10 W PROSPECT ST", "postcode": "10954"}}},
{"geometry": {"type": "Point", "coordinates": [-74.0143529046, 41.0909564885]}, "type": "Feature", "properties": {"collection_times": [{"days": "Mon-Fri", "time": "5:00pm"}, {"days": "Sat", "time": "3:00pm"}, {"days": "Sun", "time": "Closed"}], "id": "1095400040", "name": "USPS COLLECTION BOX - PO LOBBY", "address": {"city": "NANUET", "state": "NY", "street": "10 W PROSPECT ST LBBY DROP", "postcode": "10954"}}},
{"geometry": {"type": "Point", "coordinates": [-73.9932530228, 41.1096645864]}, "type": "Feature", "properties": {"collection_times": [{"days": "Mon-Fri", "time": "5:00pm"}, {"days": "Sat", "time": "1:00pm"}, {"days": "Sun", "time": "Closed"}], "id": "1095400041", "name": "USPS COLLECTION BOX - PO LOBBY", "address": {"city": "NANUET", "state": "NY", "street": "77 BARDONIA RD LBBY DROP", "postcode": "10954"}}},
{"geometry": {"type": "Point", "coordinates": [-73.9926854926, 41.136958739]}, "type": "Feature", "properties": {"collection_times": [{"days": "Mon-Sat", "time": "11:30am"}, {"days": "Sun", "time": "Closed"}], "id": "1095600001", "name": "USPS COLLECTION BOX - BLUE BOX", "address": {"city": "NEW CITY", "state": "NY", "street": "10 ESQUIRE RD", "postcode": "10956"}}},
{"geometry": {"type": "Point", "coordinates": [-73.9905730635, 41.1400824084]}, "type": "Feature", "properties": {"collection_times": [{"days": "Mon-Fri", "time": "3:00pm"}, {"days": "Sat", "time": "2:00pm"}, {"days": "Sun", "time": "Closed"}], "id": "1095600002", "name": "USPS COLLECTION BOX - BLUE BOX", "address": {"city": "NEW CITY", "state": "NY", "street": "254 S MAIN ST", "postcode": "10956"}}},
{"geometry": {"type": "Point", "coordinates": [-73.9931116513, 41.1563049401]}, "type": "Feature", "properties": {"collection_times": [{"days": "Mon-Sat", "time": "10:30am"}, {"days": "Sun", "time": "Closed"}], "id": "1095600003", "name": "USPS COLLECTION BOX - BLUE BOX", "address": {"city": "NEW CITY", "state": "NY", "street": "499 S MAIN ST", "postcode": "10956"}}},
{"geometry": {"type": "Point", "coordinates": [-73.9931116513, 41.1563049401]}, "type": "Feature", "properties": {"collection_times": [{"days": "Mon-Fri", "time": "10:00am"}, {"days": "Sat", "time": "2:00pm"}, {"days": "Sun", "time": "Closed"}], "id": "1095600004", "name": "USPS COLLECTION BOX - BLUE BOX", "address": {"city": "NEW CITY", "state": "NY", "street": "490 S MAIN ST", "postcode": "10956"}}},
{"geometry": {"type": "Point", "coordinates": [-74.0020737905, 41.1300804903]}, "type": "Feature", "properties": {"collection_times": [{"days": "Mon-Fri", "time": "10:00am"}, {"days": "Sat", "time": "2:00pm"}, {"days": "Sun", "time": "Closed"}], "id": "1095600005", "name": "USPS COLLECTION BOX - BLUE BOX", "address": {"city": "NEW CITY", "state": "NY", "street": "265 S LITTLE TOR RD", "postcode": "10956"}}},
{"geometry": {"type": "Point", "coordinates": [-73.988482775, 41.1466596602]}, "type": "Feature", "properties": {"collection_times": [{"days": "Mon-Fri", "time": "10:15am"}, {"days": "Sat", "time": "2:00pm"}, {"days": "Sun", "time": "Closed"}], "id": "1095600006", "name": "USPS COLLECTION BOX - BLUE BOX", "address": {"city": "NEW CITY", "state": "NY", "street": "10 MAPLE AVE", "postcode": "10956"}}},
{"geometry": {"type": "Point", "coordinates": [-73.9849741187, 41.157390281]}, "type": "Feature", "properties": {"collection_times": [{"days": "Mon-Fri", "time": "2:30pm"}, {"days": "Sat", "time": "2:00pm"}, {"days": "Sun", "time": "Closed"}], "id": "1095600007", "name": "USPS COLLECTION BOX - BLUE BOX", "address": {"city": "NEW CITY", "state": "NY", "street": "17 SQUADRON BLVD", "postcode": "10956"}}},
{"geometry": {"type": "Point", "coordinates": [-73.9895639995, 41.1467720413]}, "type": "Feature", "properties": {"collection_times": [{"days": "Mon-Sat", "time": "10:00am"}, {"days": "Sun", "time": "Closed"}], "id": "1095600009", "name": "USPS COLLECTION BOX - BLUE BOX", "address": {"city": "NEW CITY", "state": "NY", "street": "20 S MAIN ST", "postcode": "10956"}}},
{"geometry": {"type": "Point", "coordinates": [-74.0330809447, 41.1496054206]}, "type": "Feature", "properties": {"collection_times": [{"days": "Mon-Fri", "time": "9:30am"}, {"days": "Sat", "time": "2:00pm"}, {"days": "Sun", "time": "Closed"}], "id": "1095600012", "name": "USPS COLLECTION BOX - BLUE BOX", "address": {"city": "NEW CITY", "state": "NY", "street": "500 NEW HEMPSTEAD RD", "postcode": "10956"}}},
{"geometry": {"type": "Point", "coordinates": [-73.9881674547, 41.1662384695]}, "type": "Feature", "properties": {"collection_times": [{"days": "Mon-Fri", "time": "3:00pm"}, {"days": "Sat", "time": "2:00pm"}, {"days": "Sun", "time": "Closed"}], "id": "1095600015", "name": "USPS COLLECTION BOX - BLUE BOX", "address": {"city": "NEW CITY", "state": "NY", "street": "337 N MAIN ST", "postcode": "10956"}}},
{"geometry": {"type": "Point", "coordinates": [-73.9891026455, 41.1512034056]}, "type": "Feature", "properties": {"collection_times": [{"days": "Mon-Fri", "time": "3:00pm"}, {"days": "Sat", "time": "2:00pm"}, {"days": "Sun", "time": "Closed"}], "id": "1095600016", "name": "USPS COLLECTION BOX - BLUE BOX", "address": {"city": "NEW CITY", "state": "NY", "street": "120 N MAIN ST", "postcode": "10956"}}},
{"geometry": {"type": "Point", "coordinates": [-73.9891866355, 41.1502191837]}, "type": "Feature", "properties": {"collection_times": [{"days": "Mon-Sat", "time": "10:00am"}, {"days": "Sun", "time": "Closed"}], "id": "1095600017", "name": "USPS COLLECTION BOX - BLUE BOX", "address": {"city": "NEW CITY", "state": "NY", "street": "67 N MAIN ST", "postcode": "10956"}}},
{"geometry": {"type": "Point", "coordinates": [-73.9892398606, 41.1486114003]}, "type": "Feature", "properties": {"collection_times": [{"days": "Mon-Fri", "time": "10:15am"}, {"days": "Sat", "time": "2:00pm"}, {"days": "Sun", "time": "Closed"}], "id": "1095600019", "name": "USPS COLLECTION BOX - BLUE BOX", "address": {"city": "NEW CITY", "state": "NY", "street": "18 N MAIN ST", "postcode": "10956"}}},
{"geometry": {"type": "Point", "coordinates": [-73.9898266163, 41.1453891623]}, "type": "Feature", "properties": {"collection_times": [{"days": "Mon-Fri", "time": "10:30am"}, {"days": "Sat", "time": "2:00pm"}, {"days": "Sun", "time": "Closed"}], "id": "1095600020", "name": "USPS COLLECTION BOX - BLUE BOX", "address": {"city": "NEW CITY", "state": "NY", "street": "60 N MAIN ST", "postcode": "10956"}}},
{"geometry": {"type": "Point", "coordinates": [-74.0242057698, 41.1263648162]}, "type": "Feature", "properties": {"collection_times": [{"days": "Mon-Fri", "time": "9:30am"}, {"days": "Sat", "time": "2:00pm"}, {"days": "Sun", "time": "Closed"}], "id": "1095600021", "name": "USPS COLLECTION BOX - BLUE BOX", "address": {"city": "NEW CITY", "state": "NY", "street": "200 E ECKERSON RD", "postcode": "10956"}}},
{"geometry": {"type": "Point", "coordinates": [-73.988480409, 41.1604671573]}, "type": "Feature", "properties": {"collection_times": [{"days": "Mon-Fri", "time": "5:00pm"}, {"days": "Sat", "time": "3:30pm"}, {"days": "Sun", "time": "Closed"}], "id": "1095600026", "name": "USPS COLLECTION BOX - BLUE BOX", "address": {"city": "NEW CITY", "state": "NY", "street": "245 N MAIN ST", "postcode": "10956"}}},
{"geometry": {"type": "Point", "coordinates": [-73.9889914473, 41.1524928309]}, "type": "Feature", "properties": {"collection_times": [{"days": "Mon-Fri", "time": "2:30pm"}, {"days": "Sat", "time": "2:00pm"}, {"days": "Sun", "time": "Closed"}], "id": "1095600032", "name": "USPS COLLECTION BOX - BLUE BOX", "address": {"city": "NEW CITY", "state": "NY", "street": "151 N MAIN ST", "postcode": "10956"}}},
{"geometry": {"type": "Point", "coordinates": [-73.9904109832, 41.1414535836]}, "type": "Feature", "properties": {"collection_times": [{"days": "Mon-Fri", "time": "10:00am"}, {"days": "Sat", "time": "2:30pm"}, {"days": "Sun", "time": "Closed"}], "id": "1095600033", "name": "USPS COLLECTION BOX - BLUE BOX", "address": {"city": "NEW CITY", "state": "NY", "street": "182 S MAIN ST", "postcode": "10956"}}},
{"geometry": {"type": "Point", "coordinates": [-73.988480409, 41.1604671573]}, "type": "Feature", "properties": {"collection_times": [{"days": "Mon-Fri", "time": "5:00pm"}, {"days": "Sat", "time": "3:30pm"}, {"days": "Sun", "time": "Closed"}], "id": "1095600034", "name": "USPS COLLECTION BOX - APC", "address": {"city": "NEW CITY", "state": "NY", "street": "245 N MAIN ST", "postcode": "10956"}}},
{"geometry": {"type": "Point", "coordinates": [-73.9903979855, 41.1421289274]}, "type": "Feature", "properties": {"collection_times": [{"days": "Mon-Fri", "time": "2:30pm"}, {"days": "Sat", "time": "2:00pm"}, {"days": "Sun", "time": "Closed"}], "id": "1095600035", "name": "USPS COLLECTION BOX - BLUE BOX", "address": {"city": "NEW CITY", "state": "NY", "street": "151 S MAIN ST", "postcode": "10956"}}},
{"geometry": {"type": "Point", "coordinates": [-73.988480409, 41.1604671573]}, "type": "Feature", "properties": {"collection_times": [{"days": "Mon-Fri", "time": "5:00pm"}, {"days": "Sat", "time": "3:30pm"}, {"days": "Sun", "time": "Closed"}], "id": "1095600036", "name": "USPS COLLECTION BOX - PO LOBBY", "address": {"city": "NEW CITY", "state": "NY", "street": "245 N MAIN ST LBBY DROP", "postcode": "10956"}}},
{"geometry": {"type": "Point", "coordinates": [-74.4192395377, 41.4116389195]}, "type": "Feature", "properties": {"collection_times": [{"days": "Mon-Fri", "time": "5:00pm"}, {"days": "Sat", "time": "12:00pm"}, {"days": "Sun", "time": "Closed"}], "id": "1095800001", "name": "USPS COLLECTION BOX - BLUE BOX", "address": {"city": "NEW HAMPTON", "state": "NY", "street": "5070 ROUTE 17M", "postcode": "10958"}}},
{"geometry": {"type": "Point", "coordinates": [-74.4192395377, 41.4116389195]}, "type": "Feature", "properties": {"collection_times": [{"days": "Mon-Fri", "time": "5:00pm"}, {"days": "Sat", "time": "12:00pm"}, {"days": "Sun", "time": "Closed"}], "id": "1095800002", "name": "USPS COLLECTION BOX - PO LOBBY", "address": {"city": "NEW HAMPTON", "state": "NY", "street": "5070 ROUTE 17M LBBY DROP", "postcode": "10958"}}},
{"geometry": {"type": "Point", "coordinates": [-74.4137506829, 41.234578828]}, "type": "Feature", "properties": {"collection_times": [{"days": "Mon-Fri", "time": "5:00pm"}, {"days": "Sat", "time": "11:30am"}, {"days": "Sun", "time": "Closed"}], "id": "1095900001", "name": "USPS COLLECTION BOX - BLUE BOX", "address": {"city": "NEW MILFORD", "state": "NY", "street": "3 JOCKEY HOLLOW RD STE 2", "postcode": "10959"}}},
{"geometry": {"type": "Point", "coordinates": [-74.4137506829, 41.234578828]}, "type": "Feature", "properties": {"collection_times": [{"days": "Mon-Fri", "time": "12:30pm"}, {"days": "Sat", "time": "11:30am"}, {"days": "Sun", "time": "Closed"}], "id": "1095900002", "name": "USPS COLLECTION BOX - PO LOBBY", "address": {"city": "NEW MILFORD", "state": "NY", "street": "3 JOCKEY HOLLOW RD STE DROP", "postcode": "10959"}}},
{"geometry": {"type": "Point", "coordinates": [-73.9182800752, 41.0908488392]}, "type": "Feature", "properties": {"collection_times": [{"days": "Mon-Fri", "time": "5:00pm"}, {"days": "Sat", "time": "9:00am"}, {"days": "Sun", "time": "Closed"}], "id": "1096000003", "name": "USPS COLLECTION BOX - BLUE BOX", "address": {"city": "NYACK", "state": "NY", "street": "1 S BROADWAY", "postcode": "10960"}}},
{"geometry": {"type": "Point", "coordinates": [-73.9192891392, 41.0911646893]}, "type": "Feature", "properties": {"collection_times": [{"days": "Mon-Sat", "time": "9:00am"}, {"days": "Sun", "time": "Closed"}], "id": "1096000004", "name": "USPS COLLECTION BOX - BLUE BOX", "address": {"city": "NYACK", "state": "NY", "street": "96 MAIN ST", "postcode": "10960"}}},
{"geometry": {"type": "Point", "coordinates": [-73.9185971082, 41.0897735295]}, "type": "Feature", "properties": {"collection_times": [{"days": "Mon-Sat", "time": "9:00am"}, {"days": "Sun", "time": "Closed"}], "id": "1096000005", "name": "USPS COLLECTION BOX - BLUE BOX", "address": {"city": "NYACK", "state": "NY", "street": "36 S BROADWAY", "postcode": "10960"}}},
{"geometry": {"type": "Point", "coordinates": [-73.9202426041, 41.0827609488]}, "type": "Feature", "properties": {"collection_times": [{"days": "Mon-Sat", "time": "9:00am"}, {"days": "Sun", "time": "Closed"}], "id": "1096000006", "name": "USPS COLLECTION BOX - BLUE BOX", "address": {"city": "NYACK", "state": "NY", "street": "213 S BROADWAY", "postcode": "10960"}}},
{"geometry": {"type": "Point", "coordinates": [-73.9192725778, 41.0871225185]}, "type": "Feature", "properties": {"collection_times": [{"days": "Mon-Sat", "time": "9:00am"}, {"days": "Sun", "time": "Closed"}], "id": "1096000007", "name": "USPS COLLECTION BOX - BLUE BOX", "address": {"city": "NYACK", "state": "NY", "street": "97 S BROADWAY", "postcode": "10960"}}},
{"geometry": {"type": "Point", "coordinates": [-73.9179543266, 41.0925456819]}, "type": "Feature", "properties": {"collection_times": [{"days": "Mon-Fri", "time": "5:00pm"}, {"days": "Sat", "time": "9:00am"}, {"days": "Sun", "time": "Closed"}], "id": "1096000008", "name": "USPS COLLECTION BOX - BLUE BOX", "address": {"city": "NYACK", "state": "NY", "street": "56 N BROADWAY", "postcode": "10960"}}},
{"geometry": {"type": "Point", "coordinates": [-73.9172023996, 41.0943397511]}, "type": "Feature", "properties": {"collection_times": [{"days": "Mon-Sat", "time": "9:00am"}, {"days": "Sun", "time": "Closed"}], "id": "1096000009", "name": "USPS COLLECTION BOX - BLUE BOX", "address": {"city": "NYACK", "state": "NY", "street": "38 4TH AVE", "postcode": "10960"}}},
{"geometry": {"type": "Point", "coordinates": [-73.9471299604, 41.0930671183]}, "type": "Feature", "properties": {"collection_times": [{"days": "Mon-Sat", "time": "2:00pm"}, {"days": "Sun", "time": "Closed"}], "id": "1096000010", "name": "USPS COLLECTION BOX - BLUE BOX", "address": {"city": "NYACK", "state": "NY", "street": "313 ROUTE 59", "postcode": "10960"}}},
{"geometry": {"type": "Point", "coordinates": [-73.9171751915, 41.1012162916]}, "type": "Feature", "properties": {"collection_times": [{"days": "Mon-Sat", "time": "9:00am"}, {"days": "Sun", "time": "Closed"}], "id": "1096000011", "name": "USPS COLLECTION BOX - BLUE BOX", "address": {"city": "NYACK", "state": "NY", "street": "328 N BROADWAY", "postcode": "10960"}}},
{"geometry": {"type": "Point", "coordinates": [-73.9240576468, 41.0983535309]}, "type": "Feature", "properties": {"collection_times": [{"days": "Mon-Sat", "time": "12:30pm"}, {"days": "Sun", "time": "Closed"}], "id": "1096000012", "name": "USPS COLLECTION BOX - BLUE BOX", "address": {"city": "NYACK", "state": "NY", "street": "246 N MIDLAND AVE", "postcode": "10960"}}},
{"geometry": {"type": "Point", "coordinates": [-73.9252734241, 41.0953913769]}, "type": "Feature", "properties": {"collection_times": [{"days": "Mon-Sat", "time": "12:00pm"}, {"days": "Sun", "time": "Closed"}], "id": "1096000013", "name": "USPS COLLECTION BOX - BLUE BOX", "address": {"city": "NYACK", "state": "NY", "street": "150 N MIDLAND AVE", "postcode": "10960"}}},
{"geometry": {"type": "Point", "coordinates": [-73.9261975084, 41.0918374528]}, "type": "Feature", "properties": {"collection_times": [{"days": "Mon-Sat", "time": "9:00am"}, {"days": "Sun", "time": "Closed"}], "id": "1096000014", "name": "USPS COLLECTION BOX - BLUE BOX", "address": {"city": "NYACK", "state": "NY", "street": "248 MAIN ST", "postcode": "10960"}}},
{"geometry": {"type": "Point", "coordinates": [-73.9353679174, 41.091317291]}, "type": "Feature", "properties": {"collection_times": [{"days": "Mon-Sat", "time": "9:00am"}, {"days": "Sun", "time": "Closed"}], "id": "1096000016", "name": "USPS COLLECTION BOX - BLUE BOX", "address": {"city": "NYACK", "state": "NY", "street": "2 DICKINSON AVE", "postcode": "10960"}}},
{"geometry": {"type": "Point", "coordinates": [-73.9292158531, 41.0906470339]}, "type": "Feature", "properties": {"collection_times": [{"days": "Mon-Sat", "time": "9:00am"}, {"days": "Sun", "time": "Closed"}], "id": "1096000021", "name": "USPS COLLECTION BOX - BLUE BOX", "address": {"city": "NYACK", "state": "NY", "street": "100 DEPEW AVE", "postcode": "10960"}}},
{"geometry": {"type": "Point", "coordinates": [-73.9215296635, 41.0915396872]}, "type": "Feature", "properties": {"collection_times": [{"days": "Mon-Sat", "time": "9:00am"}, {"days": "Sun", "time": "Closed"}], "id": "1096000024", "name": "USPS COLLECTION BOX - BLUE BOX", "address": {"city": "NYACK", "state": "NY", "street": "138 MAIN ST", "postcode": "10960"}}},
{"geometry": {"type": "Point", "coordinates": [-73.9361151323, 41.0968064282]}, "type": "Feature", "properties": {"collection_times": [{"days": "Mon-Sat", "time": "10:00am"}, {"days": "Sun", "time": "Closed"}], "id": "1096000027", "name": "USPS COLLECTION BOX - BLUE BOX", "address": {"city": "NYACK", "state": "NY", "street": "11 GAIL DR", "postcode": "10960"}}},
{"geometry": {"type": "Point", "coordinates": [-73.9188254193, 41.0890081551]}, "type": "Feature", "properties": {"collection_times": [{"days": "Mon-Fri", "time": "5:00pm"}, {"days": "Sat", "time": "2:00pm"}, {"days": "Sun", "time": "Closed"}], "id": "1096000029", "name": "USPS COLLECTION BOX - BLUE BOX", "address": {"city": "NYACK", "state": "NY", "street": "48 S BROADWAY", "postcode": "10960"}}},
{"geometry": {"type": "Point", "coordinates": [-73.9192501015, 41.0885728262]}, "type": "Feature", "properties": {"collection_times": [{"days": "Mon-Fri", "time": "5:00pm"}, {"days": "Sat", "time": "2:00pm"}, {"days": "Sun", "time": "Closed"}], "id": "1096000031", "name": "USPS COLLECTION BOX - BLUE BOX", "address": {"city": "NYACK", "state": "NY", "street": "35 HUDSON AVE", "postcode": "10960"}}},
{"geometry": {"type": "Point", "coordinates": [-73.9188254193, 41.0890081551]}, "type": "Feature", "properties": {"collection_times": [{"days": "Mon-Fri", "time": "5:00pm"}, {"days": "Sat", "time": "2:00pm"}, {"days": "Sun", "time": "Closed"}], "id": "1096000033", "name": "USPS COLLECTION BOX - PO LOBBY", "address": {"city": "NYACK", "state": "NY", "street": "48 S BROADWAY LBBY DROP", "postcode": "10960"}}},
{"geometry": {"type": "Point", "coordinates": [-73.9549033018, 41.043692546]}, "type": "Feature", "properties": {"collection_times": [{"days": "Mon-Fri", "time": "11:30am"}, {"days": "Sat", "time": "9:30am"}, {"days": "Sun", "time": "Closed"}], "id": "1096200001", "name": "USPS COLLECTION BOX - BLUE BOX", "address": {"city": "ORANGEBURG", "state": "NY", "street": "100 DUTCH HILL RD", "postcode": "10962"}}},
{"geometry": {"type": "Point", "coordinates": [-73.9622376474, 41.0434453076]}, "type": "Feature", "properties": {"collection_times": [{"days": "Mon-Fri", "time": "11:30am"}, {"days": "Sat", "time": "9:30am"}, {"days": "Sun", "time": "Closed"}], "id": "1096200003", "name": "USPS COLLECTION BOX - BLUE BOX", "address": {"city": "ORANGEBURG", "state": "NY", "street": "11 LESTER DR", "postcode": "10962"}}},
{"geometry": {"type": "Point", "coordinates": [-73.9556935184, 41.0458952156]}, "type": "Feature", "properties": {"collection_times": [{"days": "Mon-Fri", "time": "11:00am"}, {"days": "Sat", "time": "9:00am"}, {"days": "Sun", "time": "Closed"}], "id": "1096200005", "name": "USPS COLLECTION BOX - BLUE BOX", "address": {"city": "ORANGEBURG", "state": "NY", "street": "26 W ORANGEBURG RD", "postcode": "10962"}}},
{"geometry": {"type": "Point", "coordinates": [-73.9847446246, 41.0438250374]}, "type": "Feature", "properties": {"collection_times": [{"days": "Mon-Fri", "time": "11:00am"}, {"days": "Sat", "time": "9:00am"}, {"days": "Sun", "time": "Closed"}], "id": "1096200006", "name": "USPS COLLECTION BOX - BLUE BOX", "address": {"city": "ORANGEBURG", "state": "NY", "street": "140 OLD ORANGEBURG RD", "postcode": "10962"}}},
{"geometry": {"type": "Point", "coordinates": [-73.9460358414, 41.0516881656]}, "type": "Feature", "properties": {"collection_times": [{"days": "Mon-Fri", "time": "11:00am"}, {"days": "Sat", "time": "9:00am"}, {"days": "Sun", "time": "Closed"}], "id": "1096200007", "name": "USPS COLLECTION BOX - BLUE BOX", "address": {"city": "ORANGEBURG", "state": "NY", "street": "500 ROUTE 303", "postcode": "10962"}}},
{"geometry": {"type": "Point", "coordinates": [-73.9749958598, 41.0336941768]}, "type": "Feature", "properties": {"collection_times": [{"days": "Mon-Fri", "time": "11:30am"}, {"days": "Sat", "time": "9:00am"}, {"days": "Sun", "time": "Closed"}], "id": "1096200008", "name": "USPS COLLECTION BOX - BLUE BOX", "address": {"city": "ORANGEBURG", "state": "NY", "street": "1 RAMLAND RD", "postcode": "10962"}}},
{"geometry": {"type": "Point", "coordinates": [-73.9833061465, 41.0351657778]}, "type": "Feature", "properties": {"collection_times": [{"days": "Mon-Sat", "time": "10:00am"}, {"days": "Sun", "time": "Closed"}], "id": "1096200009", "name": "USPS COLLECTION BOX - BLUE BOX", "address": {"city": "ORANGEBURG", "state": "NY", "street": "29 CORPORATE DR", "postcode": "10962"}}},
{"geometry": {"type": "Point", "coordinates": [-73.9525563391, 41.0405999653]}, "type": "Feature", "properties": {"collection_times": [{"days": "Mon-Sat", "time": "12:00pm"}, {"days": "Sun", "time": "Closed"}], "id": "1096200010", "name": "USPS COLLECTION BOX - BLUE BOX", "address": {"city": "ORANGEBURG", "state": "NY", "street": "34 CORTWOOD VLG", "postcode": "10962"}}},
{"geometry": {"type": "Point", "coordinates": [-73.9548654471, 41.045191355]}, "type": "Feature", "properties": {"collection_times": [{"days": "Mon-Fri", "time": "11:30am"}, {"days": "Sat", "time": "9:30am"}, {"days": "Sun", "time": "Closed"}], "id": "1096200011", "name": "USPS COLLECTION BOX - BLUE BOX", "address": {"city": "ORANGEBURG", "state": "NY", "street": "60 DUTCH HILL RD", "postcode": "10962"}}},
{"geometry": {"type": "Point", "coordinates": [-73.9534806031, 41.0439739917]}, "type": "Feature", "properties": {"collection_times": [{"days": "Mon-Fri", "time": "5:00pm"}, {"days": "Sat", "time": "4:00pm"}, {"days": "Sun", "time": "Closed"}], "id": "1096200013", "name": "USPS COLLECTION BOX - BLUE BOX", "address": {"city": "ORANGEBURG", "state": "NY", "street": "26 ORANGETOWN SHOPPING CTR", "postcode": "10962"}}},
{"geometry": {"type": "Point", "coordinates": [-73.9534806031, 41.0439739917]}, "type": "Feature", "properties": {"collection_times": [{"days": "Mon-Fri", "time": "5:00pm"}, {"days": "Sat", "time": "4:00pm"}, {"days": "Sun", "time": "Closed"}], "id": "1096200014", "name": "USPS COLLECTION BOX - PO LOBBY", "address": {"city": "ORANGEBURG", "state": "NY", "street": "26 ORANGETOWN SHOPPING CTR", "postcode": "10962"}}},
{"geometry": {"type": "Point", "coordinates": [-74.539298043, 41.4735786509]}, "type": "Feature", "properties": {"collection_times": [{"days": "Mon-Fri", "time": "5:00pm"}, {"days": "Sat", "time": "11:00am"}, {"days": "Sun", "time": "Closed"}], "id": "1096300001", "name": "USPS COLLECTION BOX - BLUE BOX", "address": {"city": "OTISVILLE", "state": "NY", "street": "11 MAIN ST", "postcode": "10963"}}},
{"geometry": {"type": "Point", "coordinates": [-74.539298043, 41.4735786509]}, "type": "Feature", "properties": {"collection_times": [{"days": "Mon-Fri", "time": "5:00pm"}, {"days": "Sat", "time": "11:00am"}, {"days": "Sun", "time": "Closed"}], "id": "1096300002", "name": "USPS COLLECTION BOX - PO LOBBY", "address": {"city": "OTISVILLE", "state": "NY", "street": "11 MAIN ST LBBY DROP", "postcode": "10963"}}},
{"geometry": {"type": "Point", "coordinates": [-73.9158940469, 41.0117562028]}, "type": "Feature", "properties": {"collection_times": [{"days": "Mon-Fri", "time": "5:00pm"}, {"days": "Sat", "time": "1:00pm"}, {"days": "Sun", "time": "Closed"}], "id": "1096400002", "name": "USPS COLLECTION BOX - BLUE BOX", "address": {"city": "PALISADES", "state": "NY", "street": "705 OAK TREE RD", "postcode": "10964"}}},
{"geometry": {"type": "Point", "coordinates": [-73.9158940469, 41.0117562028]}, "type": "Feature", "properties": {"collection_times": [{"days": "Mon-Fri", "time": "5:00pm"}, {"days": "Sat", "time": "1:00pm"}, {"days": "Sun", "time": "Closed"}], "id": "1096400003", "name": "USPS COLLECTION BOX - PO LOBBY", "address": {"city": "PALISADES", "state": "NY", "street": "705 OAK TREE RD LBBY DROP", "postcode": "10964"}}},
{"geometry": {"type": "Point", "coordinates": [-74.0083978891, 41.048333294]}, "type": "Feature", "properties": {"collection_times": [{"days": "Mon-Fri", "time": "8:30am"}, {"days": "Sat-Sun", "time": "Closed"}], "id": "1096500001", "name": "USPS COLLECTION BOX - BLUE BOX", "address": {"city": "PEARL RIVER", "state": "NY", "street": "1 BLUE HILL PLZ", "postcode": "10965"}}},
{"geometry": {"type": "Point", "coordinates": [-74.0142050347, 41.0597512139]}, "type": "Feature", "properties": {"collection_times": [{"days": "Mon-Fri", "time": "8:30am"}, {"days": "Sat", "time": "8:45am"}, {"days": "Sun", "time": "Closed"}], "id": "1096500005", "name": "USPS COLLECTION BOX - BLUE BOX", "address": {"city": "PEARL RIVER", "state": "NY", "street": "180 E CENTRAL AVE", "postcode": "10965"}}},
{"geometry": {"type": "Point", "coordinates": [-74.0171331553, 41.0533388767]}, "type": "Feature", "properties": {"collection_times": [{"days": "Mon-Fri", "time": "8:30am"}, {"days": "Sat", "time": "8:45am"}, {"days": "Sun", "time": "Closed"}], "id": "1096500011", "name": "USPS COLLECTION BOX - BLUE BOX", "address": {"city": "PEARL RIVER", "state": "NY", "street": "128 MEYER OVAL", "postcode": "10965"}}},
{"geometry": {"type": "Point", "coordinates": [-74.0215642224, 41.0629700453]}, "type": "Feature", "properties": {"collection_times": [{"days": "Mon-Fri", "time": "8:30am"}, {"days": "Sat", "time": "8:45am"}, {"days": "Sun", "time": "Closed"}], "id": "1096500012", "name": "USPS COLLECTION BOX - BLUE BOX", "address": {"city": "PEARL RIVER", "state": "NY", "street": "112 N MAIN ST", "postcode": "10965"}}},
{"geometry": {"type": "Point", "coordinates": [-74.012688147, 41.0636885931]}, "type": "Feature", "properties": {"collection_times": [{"days": "Mon-Fri", "time": "8:30am"}, {"days": "Sat", "time": "8:45am"}, {"days": "Sun", "time": "Closed"}], "id": "1096500013", "name": "USPS COLLECTION BOX - BLUE BOX", "address": {"city": "PEARL RIVER", "state": "NY", "street": "110 N MIDDLETOWN RD", "postcode": "10965"}}},
{"geometry": {"type": "Point", "coordinates": [-74.0128258506, 41.0707390741]}, "type": "Feature", "properties": {"collection_times": [{"days": "Mon-Fri", "time": "8:30am"}, {"days": "Sat", "time": "8:45am"}, {"days": "Sun", "time": "Closed"}], "id": "1096500019", "name": "USPS COLLECTION BOX - BLUE BOX", "address": {"city": "PEARL RIVER", "state": "NY", "street": "300 N MIDDLETOWN RD", "postcode": "10965"}}},
{"geometry": {"type": "Point", "coordinates": [-74.0217440322, 41.0577366348]}, "type": "Feature", "properties": {"collection_times": [{"days": "Mon-Fri", "time": "5:00pm"}, {"days": "Sat", "time": "4:00pm"}, {"days": "Sun", "time": "Closed"}], "id": "1096500021", "name": "USPS COLLECTION BOX - BLUE BOX", "address": {"city": "PEARL RIVER", "state": "NY", "street": "35 S MAIN ST", "postcode": "10965"}}},
{"geometry": {"type": "Point", "coordinates": [-74.0217440322, 41.0577366348]}, "type": "Feature", "properties": {"collection_times": [{"days": "Mon-Fri", "time": "5:00pm"}, {"days": "Sat", "time": "4:00pm"}, {"days": "Sun", "time": "Closed"}], "id": "1096500022", "name": "USPS COLLECTION BOX - BLUE BOX", "address": {"city": "PEARL RIVER", "state": "NY", "street": "35 S MAIN ST", "postcode": "10965"}}},
{"geometry": {"type": "Point", "coordinates": [-74.0239904713, 41.0660161646]}, "type": "Feature", "properties": {"collection_times": [{"days": "Mon-Fri", "time": "5:00pm"}, {"days": "Sat", "time": "9:00am"}, {"days": "Sun", "time": "Closed"}], "id": "1096500024", "name": "USPS COLLECTION BOX - BLUE BOX", "address": {"city": "PEARL RIVER", "state": "NY", "street": "1 RAILROAD AVE", "postcode": "10965"}}},
{"geometry": {"type": "Point", "coordinates": [-74.0239904713, 41.0660161646]}, "type": "Feature", "properties": {"collection_times": [{"days": "Mon-Fri", "time": "5:00pm"}, {"days": "Sat", "time": "9:00am"}, {"days": "Sun", "time": "Closed"}], "id": "1096500026", "name": "USPS COLLECTION BOX - BLUE BOX", "address": {"city": "PEARL RIVER", "state": "NY", "street": "1 RAILROAD AVE", "postcode": "10965"}}},
{"geometry": {"type": "Point", "coordinates": [-74.0083978891, 41.048333294]}, "type": "Feature", "properties": {"collection_times": [{"days": "Mon-Fri", "time": "8:30am"}, {"days": "Sat-Sun", "time": "Closed"}], "id": "1096500028", "name": "USPS COLLECTION BOX - BLUE BOX", "address": {"city": "PEARL RIVER", "state": "NY", "street": "1 BLUE HILL PLZ", "postcode": "10965"}}},
{"geometry": {"type": "Point", "coordinates": [-74.0083978891, 41.048333294]}, "type": "Feature", "properties": {"collection_times": [{"days": "Mon-Fri", "time": "8:30am"}, {"days": "Sat-Sun", "time": "Closed"}], "id": "1096500029", "name": "USPS COLLECTION BOX - BLUE BOX", "address": {"city": "PEARL RIVER", "state": "NY", "street": "1 BLUE HILL PLZ", "postcode": "10965"}}},
{"geometry": {"type": "Point", "coordinates": [-74.0217440322, 41.0577366348]}, "type": "Feature", "properties": {"collection_times": [{"days": "Mon-Fri", "time": "5:00pm"}, {"days": "Sat", "time": "4:00pm"}, {"days": "Sun", "time": "Closed"}], "id": "1096500030", "name": "USPS COLLECTION BOX - PO LOBBY", "address": {"city": "PEARL RIVER", "state": "NY", "street": "35 S MAIN ST LBBY DROP", "postcode": "10965"}}},
{"geometry": {"type": "Point", "coordinates": [-73.9161779571, 41.0403636995]}, "type": "Feature", "properties": {"collection_times": [{"days": "Mon-Fri", "time": "11:30am"}, {"days": "Sat", "time": "2:00pm"}, {"days": "Sun", "time": "Closed"}], "id": "1096800001", "name": "USPS COLLECTION BOX - BLUE BOX", "address": {"city": "PIERMONT", "state": "NY", "street": "478 PIERMONT AVE", "postcode": "10968"}}},
{"geometry": {"type": "Point", "coordinates": [-73.9162716249, 41.0379218189]}, "type": "Feature", "properties": {"collection_times": [{"days": "Mon-Fri", "time": "5:00pm"}, {"days": "Sat", "time": "2:00pm"}, {"days": "Sun", "time": "Closed"}], "id": "1096800009", "name": "USPS COLLECTION BOX - BLUE BOX", "address": {"city": "PIERMONT", "state": "NY", "street": "393 PIERMONT AVE", "postcode": "10968"}}},
{"geometry": {"type": "Point", "coordinates": [-73.9162716249, 41.0379218189]}, "type": "Feature", "properties": {"collection_times": [{"days": "Mon-Fri", "time": "5:00pm"}, {"days": "Sat", "time": "12:00pm"}, {"days": "Sun", "time": "Closed"}], "id": "1096800010", "name": "USPS COLLECTION BOX - PO LOBBY", "address": {"city": "PIERMONT", "state": "NY", "street": "393 PIERMONT AVE LBBY DROP", "postcode": "10968"}}},
{"geometry": {"type": "Point", "coordinates": [-74.4637909553, 41.2968221053]}, "type": "Feature", "properties": {"collection_times": [{"days": "Mon-Fri", "time": "5:00pm"}, {"days": "Sat", "time": "12:00pm"}, {"days": "Sun", "time": "Closed"}], "id": "1096900001", "name": "USPS COLLECTION BOX - BLUE BOX", "address": {"city": "PINE ISLAND", "state": "NY", "street": "665 COUNTY ROUTE 1", "postcode": "10969"}}},
{"geometry": {"type": "Point", "coordinates": [-74.4637909553, 41.2968221053]}, "type": "Feature", "properties": {"collection_times": [{"days": "Mon-Fri", "time": "5:00pm"}, {"days": "Sat", "time": "12:00pm"}, {"days": "Sun", "time": "Closed"}], "id": "1096900002", "name": "USPS COLLECTION BOX - PO LOBBY", "address": {"city": "PINE ISLAND", "state": "NY", "street": "665 COUNTY ROUTE 1 LBBY DROP", "postcode": "10969"}}},
{"geometry": {"type": "Point", "coordinates": [-74.0520076714, 41.1822229556]}, "type": "Feature", "properties": {"collection_times": [{"days": "Mon-Fri", "time": "5:00pm"}, {"days": "Sat", "time": "4:00pm"}, {"days": "Sun", "time": "Closed"}], "id": "1097000011", "name": "USPS COLLECTION BOX - BLUE BOX", "address": {"city": "POMONA", "state": "NY", "street": "1515 ROUTE 202", "postcode": "10970"}}},
{"geometry": {"type": "Point", "coordinates": [-74.0336800881, 41.1704939174]}, "type": "Feature", "properties": {"collection_times": [{"days": "Mon-Sat", "time": "8:30am"}, {"days": "Sun", "time": "Closed"}], "id": "1097000012", "name": "USPS COLLECTION BOX - BLUE BOX", "address": {"city": "POMONA", "state": "NY", "street": "978 ROUTE 45", "postcode": "10970"}}},
{"geometry": {"type": "Point", "coordinates": [-74.035270349, 41.1917420094]}, "type": "Feature", "properties": {"collection_times": [{"days": "Mon-Sat", "time": "8:30am"}, {"days": "Sun", "time": "Closed"}], "id": "1097000013", "name": "USPS COLLECTION BOX - BLUE BOX", "address": {"city": "POMONA", "state": "NY", "street": "31 COUNTRY CLUB LN", "postcode": "10970"}}},
{"geometry": {"type": "Point", "coordinates": [-74.0520076714, 41.1822229556]}, "type": "Feature", "properties": {"collection_times": [{"days": "Mon-Fri", "time": "5:00pm"}, {"days": "Sat", "time": "4:00pm"}, {"days": "Sun", "time": "Closed"}], "id": "1097000014", "name": "USPS COLLECTION BOX - PO LOBBY", "address": {"city": "POMONA", "state": "NY", "street": "1515 ROUTE 202 LBBY DROP", "postcode": "10970"}}},
{"geometry": {"type": "Point", "coordinates": [-74.477060206, 41.3891402229]}, "type": "Feature", "properties": {"collection_times": [{"days": "Mon-Fri", "time": "5:00pm"}, {"days": "Sat", "time": "12:00pm"}, {"days": "Sun", "time": "Closed"}], "id": "1097300001", "name": "USPS COLLECTION BOX - BLUE BOX", "address": {"city": "SLATE HILL", "state": "NY", "street": "1990 ROUTE 284", "postcode": "10973"}}},
{"geometry": {"type": "Point", "coordinates": [-74.477060206, 41.3891402229]}, "type": "Feature", "properties": {"collection_times": [{"days": "Mon-Fri", "time": "5:00pm"}, {"days": "Sat", "time": "12:00pm"}, {"days": "Sun", "time": "Closed"}], "id": "1097300002", "name": "USPS COLLECTION BOX - PO LOBBY", "address": {"city": "SLATE HILL", "state": "NY", "street": "1990 ROUTE 284 LBBY DROP", "postcode": "10973"}}},
{"geometry": {"type": "Point", "coordinates": [-74.1933322301, 41.1546363525]}, "type": "Feature", "properties": {"collection_times": [{"days": "Mon-Fri", "time": "5:00pm"}, {"days": "Sat", "time": "1:00pm"}, {"days": "Sun", "time": "Closed"}], "id": "1097400005", "name": "USPS COLLECTION BOX - BLUE BOX", "address": {"city": "SLOATSBURG", "state": "NY", "street": "39 ORANGE TPKE", "postcode": "10974"}}},
{"geometry": {"type": "Point", "coordinates": [-74.1933322301, 41.1546363525]}, "type": "Feature", "properties": {"collection_times": [{"days": "Mon-Fri", "time": "5:00pm"}, {"days": "Sat", "time": "1:00pm"}, {"days": "Sun", "time": "Closed"}], "id": "1097400008", "name": "USPS COLLECTION BOX - PO LOBBY", "address": {"city": "SLOATSBURG", "state": "NY", "street": "39 ORANGE TPKE LBBY DROP", "postcode": "10974"}}},
{"geometry": {"type": "Point", "coordinates": [-74.1764868944, 41.2425171911]}, "type": "Feature", "properties": {"collection_times": [{"days": "Mon-Fri", "time": "5:00pm"}, {"days": "Sat", "time": "11:30am"}, {"days": "Sun", "time": "Closed"}], "id": "1097500001", "name": "USPS COLLECTION BOX - BLUE BOX", "address": {"city": "SOUTHFIELDS", "state": "NY", "street": "996 ROUTE 17", "postcode": "10975"}}},
{"geometry": {"type": "Point", "coordinates": [-74.1764868944, 41.2425171911]}, "type": "Feature", "properties": {"collection_times": [{"days": "Mon-Fri", "time": "5:00pm"}, {"days": "Sat", "time": "11:30am"}, {"days": "Sun", "time": "Closed"}], "id": "1097500002", "name": "USPS COLLECTION BOX - PO LOBBY", "address": {"city": "SOUTHFIELDS", "state": "NY", "street": "996 ROUTE 17 LBBY DROP", "postcode": "10975"}}},
{"geometry": {"type": "Point", "coordinates": [-73.9283446901, 41.0299465628]}, "type": "Feature", "properties": {"collection_times": [{"days": "Mon-Fri", "time": "5:00pm"}, {"days": "Sat", "time": "12:30pm"}, {"days": "Sun", "time": "Closed"}], "id": "1097600003", "name": "USPS COLLECTION BOX - BLUE BOX", "address": {"city": "SPARKILL", "state": "NY", "street": "2 DEPOT SQ", "postcode": "10976"}}},
{"geometry": {"type": "Point", "coordinates": [-73.9283446901, 41.0299465628]}, "type": "Feature", "properties": {"collection_times": [{"days": "Mon-Fri", "time": "5:00pm"}, {"days": "Sat", "time": "12:30pm"}, {"days": "Sun", "time": "Closed"}], "id": "1097600004", "name": "USPS COLLECTION BOX - PO LOBBY", "address": {"city": "SPARKILL", "state": "NY", "street": "2 DEPOT SQ LBBY DROP", "postcode": "10976"}}},
{"geometry": {"type": "Point", "coordinates": [-74.0462358911, 41.1097539026]}, "type": "Feature", "properties": {"collection_times": [{"days": "Mon-Fri", "time": "1:30pm"}, {"days": "Sat", "time": "10:00am"}, {"days": "Sun", "time": "Closed"}], "id": "1097700003", "name": "USPS COLLECTION BOX - BLUE BOX", "address": {"city": "NEW SQUARE", "state": "NY", "street": "19 S MADISON AVE", "postcode": "10977"}}},
{"geometry": {"type": "Point", "coordinates": [-74.0459912039, 41.1016851433]}, "type": "Feature", "properties": {"collection_times": [{"days": "Mon-Fri", "time": "1:00pm"}, {"days": "Sat", "time": "9:00am"}, {"days": "Sun", "time": "Closed"}], "id": "1097700013", "name": "USPS COLLECTION BOX - BLUE BOX", "address": {"city": "NEW SQUARE", "state": "NY", "street": "501 S MAIN ST", "postcode": "10977"}}},
{"geometry": {"type": "Point", "coordinates": [-74.0352305173, 41.1411571363]}, "type": "Feature", "properties": {"collection_times": [{"days": "Mon-Fri", "time": "4:00pm"}, {"days": "Sat", "time": "9:00am"}, {"days": "Sun", "time": "Closed"}], "id": "1097700014", "name": "USPS COLLECTION BOX - BLUE BOX", "address": {"city": "NEW SQUARE", "state": "NY", "street": "747 S MAIN ST", "postcode": "10977"}}},
{"geometry": {"type": "Point", "coordinates": [-74.0455096778, 41.1129618911]}, "type": "Feature", "properties": {"collection_times": [{"days": "Mon-Fri", "time": "5:00pm"}, {"days": "Sat", "time": "3:00pm"}, {"days": "Sun", "time": "Closed"}], "id": "1097700015", "name": "USPS COLLECTION BOX - BLUE BOX", "address": {"city": "NEW SQUARE", "state": "NY", "street": "7 N MADISON AVE", "postcode": "10977"}}},
{"geometry": {"type": "Point", "coordinates": [-74.0407565487, 41.1293435069]}, "type": "Feature", "properties": {"collection_times": [{"days": "Mon-Fri", "time": "1:30pm"}, {"days": "Sat", "time": "10:00am"}, {"days": "Sun", "time": "Closed"}], "id": "1097700019", "name": "USPS COLLECTION BOX - BLUE BOX", "address": {"city": "NEW SQUARE", "state": "NY", "street": "269 N MAIN ST", "postcode": "10977"}}},
{"geometry": {"type": "Point", "coordinates": [-74.0578894753, 41.1072246958]}, "type": "Feature", "properties": {"collection_times": [{"days": "Mon-Fri", "time": "1:00pm"}, {"days": "Sat", "time": "9:00am"}, {"days": "Sun", "time": "Closed"}], "id": "1097700024", "name": "USPS COLLECTION BOX - BLUE BOX", "address": {"city": "NEW SQUARE", "state": "NY", "street": "65 KENNEDY DR", "postcode": "10977"}}},
{"geometry": {"type": "Point", "coordinates": [-74.05436818, 41.100823998]}, "type": "Feature", "properties": {"collection_times": [{"days": "Mon-Sat", "time": "10:30am"}, {"days": "Sun", "time": "Closed"}], "id": "1097700025", "name": "USPS COLLECTION BOX - BLUE BOX", "address": {"city": "NEW SQUARE", "state": "NY", "street": "1 ALAN RD", "postcode": "10977"}}},
{"geometry": {"type": "Point", "coordinates": [-74.0550407782, 41.0789340765]}, "type": "Feature", "properties": {"collection_times": [{"days": "Mon-Sat", "time": "11:00am"}, {"days": "Sun", "time": "Closed"}], "id": "1097700026", "name": "USPS COLLECTION BOX - BLUE BOX", "address": {"city": "NEW SQUARE", "state": "NY", "street": "80 RED SCHOOLHOUSE RD", "postcode": "10977"}}},
{"geometry": {"type": "Point", "coordinates": [-74.0547982716, 41.0775961499]}, "type": "Feature", "properties": {"collection_times": [{"days": "Mon-Fri", "time": "1:00pm"}, {"days": "Sat", "time": "9:00am"}, {"days": "Sun", "time": "Closed"}], "id": "1097700027", "name": "USPS COLLECTION BOX - BLUE BOX", "address": {"city": "NEW SQUARE", "state": "NY", "street": "100 RED SCHOOLHOUSE RD", "postcode": "10977"}}},
{"geometry": {"type": "Point", "coordinates": [-74.0348405709, 41.1420473032]}, "type": "Feature", "properties": {"collection_times": [{"days": "Mon-Fri", "time": "1:30pm"}, {"days": "Sat", "time": "10:00am"}, {"days": "Sun", "time": "Closed"}], "id": "1097700030", "name": "USPS COLLECTION BOX - BLUE BOX", "address": {"city": "NEW SQUARE", "state": "NY", "street": "766 N MAIN ST", "postcode": "10977"}}},
{"geometry": {"type": "Point", "coordinates": [-74.0294935964, 41.1396920319]}, "type": "Feature", "properties": {"collection_times": [{"days": "Mon-Fri", "time": "1:30pm"}, {"days": "Sat", "time": "10:00am"}, {"days": "Sun", "time": "Closed"}], "id": "1097700031", "name": "USPS COLLECTION BOX - BLUE BOX", "address": {"city": "NEW SQUARE", "state": "NY", "street": "77 WASHINGTON AVE", "postcode": "10977"}}},
{"geometry": {"type": "Point", "coordinates": [-74.0446863383, 41.1100873009]}, "type": "Feature", "properties": {"collection_times": [{"days": "Mon-Sat", "time": "12:30pm"}, {"days": "Sun", "time": "Closed"}], "id": "1097700033", "name": "USPS COLLECTION BOX - BLUE BOX", "address": {"city": "NEW SQUARE", "state": "NY", "street": "24 S MAIN ST", "postcode": "10977"}}},
{"geometry": {"type": "Point", "coordinates": [-74.0318583313, 41.1053022318]}, "type": "Feature", "properties": {"collection_times": [{"days": "Mon-Fri", "time": "4:00pm"}, {"days": "Sat", "time": "9:00am"}, {"days": "Sun", "time": "Closed"}], "id": "1097700035", "name": "USPS COLLECTION BOX - BLUE BOX", "address": {"city": "NEW SQUARE", "state": "NY", "street": "1 PERLMAN DR", "postcode": "10977"}}},
{"geometry": {"type": "Point", "coordinates": [-74.0346698595, 41.1423029248]}, "type": "Feature", "properties": {"collection_times": [{"days": "Mon-Fri", "time": "1:00pm"}, {"days": "Sat", "time": "9:00am"}, {"days": "Sun", "time": "Closed"}], "id": "1097700040", "name": "USPS COLLECTION BOX - BLUE BOX", "address": {"city": "NEW SQUARE", "state": "NY", "street": "770 S MAIN ST", "postcode": "10977"}}},
{"geometry": {"type": "Point", "coordinates": [-74.0448943541, 41.1289352818]}, "type": "Feature", "properties": {"collection_times": [{"days": "Mon-Fri", "time": "1:30pm"}, {"days": "Sat", "time": "9:30am"}, {"days": "Sun", "time": "Closed"}], "id": "1097700041", "name": "USPS COLLECTION BOX - BLUE BOX", "address": {"city": "NEW SQUARE", "state": "NY", "street": "13 CATAMOUNT DR", "postcode": "10977"}}},
{"geometry": {"type": "Point", "coordinates": [-74.0455096778, 41.1129618911]}, "type": "Feature", "properties": {"collection_times": [{"days": "Mon-Fri", "time": "5:00pm"}, {"days": "Sat", "time": "3:00pm"}, {"days": "Sun", "time": "Closed"}], "id": "1097700042", "name": "USPS COLLECTION BOX - PO LOBBY", "address": {"city": "NEW SQUARE", "state": "NY", "street": "7 N MADISON AVE LBBY DROP", "postcode": "10977"}}},
{"geometry": {"type": "Point", "coordinates": [-73.9954894409, 41.2178501307]}, "type": "Feature", "properties": {"collection_times": [{"days": "Mon-Fri", "time": "5:00pm"}, {"days": "Sat", "time": "4:00pm"}, {"days": "Sun", "time": "Closed"}], "id": "1098000002", "name": "USPS COLLECTION BOX - BLUE BOX", "address": {"city": "STONY POINT", "state": "NY", "street": "81 CENTRAL HWY", "postcode": "10980"}}},
{"geometry": {"type": "Point", "coordinates": [-73.9859666212, 41.2316197731]}, "type": "Feature", "properties": {"collection_times": [{"days": "Mon-Sat", "time": "9:00am"}, {"days": "Sun", "time": "Closed"}], "id": "1098000009", "name": "USPS COLLECTION BOX - BLUE BOX", "address": {"city": "STONY POINT", "state": "NY", "street": "32 S LIBERTY DR", "postcode": "10980"}}},
{"geometry": {"type": "Point", "coordinates": [-73.9954894409, 41.2178501307]}, "type": "Feature", "properties": {"collection_times": [{"days": "Mon-Fri", "time": "5:00pm"}, {"days": "Sat", "time": "4:00pm"}, {"days": "Sun", "time": "Closed"}], "id": "1098000010", "name": "USPS COLLECTION BOX - PO LOBBY", "address": {"city": "STONY POINT", "state": "NY", "street": "81 CENTRAL HWY LBBY DROP", "postcode": "10980"}}},
{"geometry": {"type": "Point", "coordinates": [-74.2860746793, 41.3206684543]}, "type": "Feature", "properties": {"collection_times": [{"days": "Mon-Fri", "time": "5:00pm"}, {"days": "Sat", "time": "11:00am"}, {"days": "Sun", "time": "Closed"}], "id": "1098100001", "name": "USPS COLLECTION BOX - BLUE BOX", "address": {"city": "SUGAR LOAF", "state": "NY", "street": "1407 KINGS HWY", "postcode": "10981"}}},
{"geometry": {"type": "Point", "coordinates": [-74.2860746793, 41.3206684543]}, "type": "Feature", "properties": {"collection_times": [{"days": "Mon-Fri", "time": "5:00pm"}, {"days": "Sat", "time": "11:00am"}, {"days": "Sun", "time": "Closed"}], "id": "1098100002", "name": "USPS COLLECTION BOX - PO LOBBY", "address": {"city": "SUGAR LOAF", "state": "NY", "street": "1407 KINGS HWY LBBY DROP", "postcode": "10981"}}},
{"geometry": {"type": "Point", "coordinates": [-74.0998225512, 41.1109222253]}, "type": "Feature", "properties": {"collection_times": [{"days": "Mon-Fri", "time": "5:00pm"}, {"days": "Sat", "time": "12:00pm"}, {"days": "Sun", "time": "Closed"}], "id": "1098200001", "name": "USPS COLLECTION BOX - BLUE BOX", "address": {"city": "TALLMAN", "state": "NY", "street": "321 ROUTE 59", "postcode": "10982"}}},
{"geometry": {"type": "Point", "coordinates": [-74.0998225512, 41.1109222253]}, "type": "Feature", "properties": {"collection_times": [{"days": "Mon-Fri", "time": "5:00pm"}, {"days": "Sat", "time": "12:00pm"}, {"days": "Sun", "time": "Closed"}], "id": "1098200002", "name": "USPS COLLECTION BOX - PO LOBBY", "address": {"city": "TALLMAN", "state": "NY", "street": "321 ROUTE 59 LBBY DROP", "postcode": "10982"}}},
{"geometry": {"type": "Point", "coordinates": [-73.9505523787, 41.0224525178]}, "type": "Feature", "properties": {"collection_times": [{"days": "Mon-Fri", "time": "5:00pm"}, {"days": "Sat", "time": "2:15pm"}, {"days": "Sun", "time": "Closed"}], "id": "1098300014", "name": "USPS COLLECTION BOX - BLUE BOX", "address": {"city": "TAPPAN", "state": "NY", "street": "57 OLD TAPPAN RD", "postcode": "10983"}}},
{"geometry": {"type": "Point", "coordinates": [-73.9505523787, 41.0224525178]}, "type": "Feature", "properties": {"collection_times": [{"days": "Mon-Fri", "time": "5:00pm"}, {"days": "Sat", "time": "2:15pm"}, {"days": "Sun", "time": "Closed"}], "id": "1098300015", "name": "USPS COLLECTION BOX - BLUE BOX", "address": {"city": "TAPPAN", "state": "NY", "street": "57 OLD TAPPAN RD", "postcode": "10983"}}},
{"geometry": {"type": "Point", "coordinates": [-73.9529774446, 41.0340218564]}, "type": "Feature", "properties": {"collection_times": [{"days": "Mon-Sat", "time": "10:00am"}, {"days": "Sun", "time": "Closed"}], "id": "1098300016", "name": "USPS COLLECTION BOX - BLUE BOX", "address": {"city": "TAPPAN", "state": "NY", "street": "4 INDEPENDENCE AVE", "postcode": "10983"}}},
{"geometry": {"type": "Point", "coordinates": [-73.9382613091, 41.0164612188]}, "type": "Feature", "properties": {"collection_times": [{"days": "Mon-Sat", "time": "9:30am"}, {"days": "Sun", "time": "Closed"}], "id": "1098300017", "name": "USPS COLLECTION BOX - BLUE BOX", "address": {"city": "TAPPAN", "state": "NY", "street": "1 ROCKLAND PARK AVE", "postcode": "10983"}}},
{"geometry": {"type": "Point", "coordinates": [-73.9505523787, 41.0224525178]}, "type": "Feature", "properties": {"collection_times": [{"days": "Mon-Fri", "time": "5:00pm"}, {"days": "Sat", "time": "2:15pm"}, {"days": "Sun", "time": "Closed"}], "id": "1098300018", "name": "USPS COLLECTION BOX - PO LOBBY", "address": {"city": "TAPPAN", "state": "NY", "street": "57 OLD TAPPAN RD LBBY DROP", "postcode": "10983"}}},
{"geometry": {"type": "Point", "coordinates": [-74.0226229707, 41.2072792094]}, "type": "Feature", "properties": {"collection_times": [{"days": "Mon-Fri", "time": "5:00pm"}, {"days": "Sat", "time": "12:00pm"}, {"days": "Sun", "time": "Closed"}], "id": "1098400002", "name": "USPS COLLECTION BOX - BLUE BOX", "address": {"city": "THIELLS", "state": "NY", "street": "177 THIELLS MT IVY RD", "postcode": "10984"}}},
{"geometry": {"type": "Point", "coordinates": [-74.0226229707, 41.2072792094]}, "type": "Feature", "properties": {"collection_times": [{"days": "Mon-Fri", "time": "5:00pm"}, {"days": "Sat", "time": "12:00pm"}, {"days": "Sun", "time": "Closed"}], "id": "1098400003", "name": "USPS COLLECTION BOX - PO LOBBY", "address": {"city": "THIELLS", "state": "NY", "street": "177 THIELLS MT IVY RD LBBY DROP", "postcode": "10984"}}},
{"geometry": {"type": "Point", "coordinates": [-74.3240098432, 41.5737636432]}, "type": "Feature", "properties": {"collection_times": [{"days": "Mon-Fri", "time": "5:00pm"}, {"days": "Sat", "time": "12:00pm"}, {"days": "Sun", "time": "Closed"}], "id": "1098500001", "name": "USPS COLLECTION BOX - BLUE BOX", "address": {"city": "THOMPSON RIDGE", "state": "NY", "street": "49 COUNTY HIGHWAY 17", "postcode": "10985"}}},
{"geometry": {"type": "Point", "coordinates": [-74.3240098432, 41.5737636432]}, "type": "Feature", "properties": {"collection_times": [{"days": "Mon-Fri", "time": "5:00pm"}, {"days": "Sat", "time": "12:00pm"}, {"days": "Sun", "time": "Closed"}], "id": "1098500002", "name": "USPS COLLECTION BOX - PO LOBBY", "address": {"city": "THOMPSON RIDGE", "state": "NY", "street": "49 COUNTY HIGHWAY 17 LBBY DROP", "postcode": "10985"}}},
{"geometry": {"type": "Point", "coordinates": [-73.9878391181, 41.2777067571]}, "type": "Feature", "properties": {"collection_times": [{"days": "Mon-Fri", "time": "5:00pm"}, {"days": "Sat", "time": "11:30am"}, {"days": "Sun", "time": "Closed"}], "id": "1098600001", "name": "USPS COLLECTION BOX - BLUE BOX", "address": {"city": "TOMKINS COVE", "state": "NY", "street": "160 N LIBERTY DR", "postcode": "10986"}}},
{"geometry": {"type": "Point", "coordinates": [-73.9878391181, 41.2777067571]}, "type": "Feature", "properties": {"collection_times": [{"days": "Mon-Fri", "time": "5:00pm"}, {"days": "Sat", "time": "11:30am"}, {"days": "Sun", "time": "Closed"}], "id": "1098600002", "name": "USPS COLLECTION BOX - PO LOBBY", "address": {"city": "TOMKINS COVE", "state": "NY", "street": "160 N LIBERTY DR LBBY DROP", "postcode": "10986"}}},
{"geometry": {"type": "Point", "coordinates": [-74.1845842485, 41.1931463987]}, "type": "Feature", "properties": {"collection_times": [{"days": "Mon-Fri", "time": "5:00pm"}, {"days": "Sat", "time": "1:00pm"}, {"days": "Sun", "time": "Closed"}], "id": "1098700002", "name": "USPS COLLECTION BOX - BLUE BOX", "address": {"city": "TUXEDO PARK", "state": "NY", "street": "228 ROUTE 17", "postcode": "10987"}}},
{"geometry": {"type": "Point", "coordinates": [-74.1845842485, 41.1931463987]}, "type": "Feature", "properties": {"collection_times": [{"days": "Mon-Fri", "time": "5:00pm"}, {"days": "Sat", "time": "1:00pm"}, {"days": "Sun", "time": "Closed"}], "id": "1098700006", "name": "USPS COLLECTION BOX - PO LOBBY", "address": {"city": "TUXEDO PARK", "state": "NY", "street": "228 ROUTE 17 LBBY DROP", "postcode": "10987"}}},
{"geometry": {"type": "Point", "coordinates": [-74.5617455895, 41.3018327559]}, "type": "Feature", "properties": {"collection_times": [{"days": "Mon-Fri", "time": "5:00pm"}, {"days": "Sat", "time": "12:00pm"}, {"days": "Sun", "time": "Closed"}], "id": "1098800001", "name": "USPS COLLECTION BOX - BLUE BOX", "address": {"city": "UNIONVILLE", "state": "NY", "street": "1 MAIN ST", "postcode": "10988"}}},
{"geometry": {"type": "Point", "coordinates": [-74.5617455895, 41.3018327559]}, "type": "Feature", "properties": {"collection_times": [{"days": "Mon-Fri", "time": "5:00pm"}, {"days": "Sat", "time": "12:00pm"}, {"days": "Sun", "time": "Closed"}], "id": "1098800002", "name": "USPS COLLECTION BOX - PO LOBBY", "address": {"city": "UNIONVILLE", "state": "NY", "street": "1 MAIN ST LBBY DROP", "postcode": "10988"}}},
{"geometry": {"type": "Point", "coordinates": [-73.9352519253, 41.1032896605]}, "type": "Feature", "properties": {"collection_times": [{"days": "Mon-Sat", "time": "11:00am"}, {"days": "Sun", "time": "Closed"}], "id": "1098900001", "name": "USPS COLLECTION BOX - BLUE BOX", "address": {"city": "VALLEY COTTAGE", "state": "NY", "street": "202 SIERRA VISTA LN", "postcode": "10989"}}},
{"geometry": {"type": "Point", "coordinates": [-73.9476882454, 41.1188140519]}, "type": "Feature", "properties": {"collection_times": [{"days": "Mon-Sat", "time": "11:00am"}, {"days": "Sun", "time": "Closed"}], "id": "1098900003", "name": "USPS COLLECTION BOX - BLUE BOX", "address": {"city": "VALLEY COTTAGE", "state": "NY", "street": "5 CHURCH LN", "postcode": "10989"}}},
{"geometry": {"type": "Point", "coordinates": [-73.9424889671, 41.1218115071]}, "type": "Feature", "properties": {"collection_times": [{"days": "Mon-Fri", "time": "5:00pm"}, {"days": "Sat", "time": "4:00pm"}, {"days": "Sun", "time": "Closed"}], "id": "1098900005", "name": "USPS COLLECTION BOX - BLUE BOX", "address": {"city": "VALLEY COTTAGE", "state": "NY", "street": "137 ROUTE 303", "postcode": "10989"}}},
{"geometry": {"type": "Point", "coordinates": [-73.9424889671, 41.1218115071]}, "type": "Feature", "properties": {"collection_times": [{"days": "Mon-Fri", "time": "5:00pm"}, {"days": "Sat", "time": "4:00pm"}, {"days": "Sun", "time": "Closed"}], "id": "1098900006", "name": "USPS COLLECTION BOX - PO LOBBY", "address": {"city": "VALLEY COTTAGE", "state": "NY", "street": "137 ROUTE 303 LBBY DROP", "postcode": "10989"}}},
{"geometry": {"type": "Point", "coordinates": [-74.357711476, 41.25915196]}, "type": "Feature", "properties": {"collection_times": [{"days": "Mon-Fri", "time": "5:00pm"}, {"days": "Sat", "time": "4:00pm"}, {"days": "Sun", "time": "Closed"}], "id": "1099000001", "name": "USPS COLLECTION BOX - BLUE BOX", "address": {"city": "WARWICK", "state": "NY", "street": "108 MAIN ST", "postcode": "10990"}}},
{"geometry": {"type": "Point", "coordinates": [-74.3600998701, 41.2565340718]}, "type": "Feature", "properties": {"collection_times": [{"days": "Mon-Sat", "time": "10:00am"}, {"days": "Sun", "time": "Closed"}], "id": "1099000004", "name": "USPS COLLECTION BOX - BLUE BOX", "address": {"city": "WARWICK", "state": "NY", "street": "17 MAIN ST", "postcode": "10990"}}},
{"geometry": {"type": "Point", "coordinates": [-74.3558910931, 41.2505256929]}, "type": "Feature", "properties": {"collection_times": [{"days": "Mon-Sat", "time": "10:00am"}, {"days": "Sun", "time": "Closed"}], "id": "1099000007", "name": "USPS COLLECTION BOX - BLUE BOX", "address": {"city": "WARWICK", "state": "NY", "street": "44 GALLOWAY RD", "postcode": "10990"}}},
{"geometry": {"type": "Point", "coordinates": [-74.3817158207, 41.2373470598]}, "type": "Feature", "properties": {"collection_times": [{"days": "Mon-Sat", "time": "10:00am"}, {"days": "Sun", "time": "Closed"}], "id": "1099000020", "name": "USPS COLLECTION BOX - BLUE BOX", "address": {"city": "WARWICK", "state": "NY", "street": "153 S ROUTE 94", "postcode": "10990"}}},
{"geometry": {"type": "Point", "coordinates": [-74.364812202, 41.2639001532]}, "type": "Feature", "properties": {"collection_times": [{"days": "Mon-Sat", "time": "10:00am"}, {"days": "Sun", "time": "Closed"}], "id": "1099000023", "name": "USPS COLLECTION BOX - BLUE BOX", "address": {"city": "WARWICK", "state": "NY", "street": "3 CRESCENT AVE", "postcode": "10990"}}},
{"geometry": {"type": "Point", "coordinates": [-74.3516980111, 41.2535089699]}, "type": "Feature", "properties": {"collection_times": [{"days": "Mon-Sat", "time": "11:30am"}, {"days": "Sun", "time": "Closed"}], "id": "1099000024", "name": "USPS COLLECTION BOX - BLUE BOX", "address": {"city": "WARWICK", "state": "NY", "street": "103 FORESTER AVE", "postcode": "10990"}}},
{"geometry": {"type": "Point", "coordinates": [-74.357711476, 41.25915196]}, "type": "Feature", "properties": {"collection_times": [{"days": "Mon-Fri", "time": "5:00pm"}, {"days": "Sat", "time": "4:00pm"}, {"days": "Sun", "time": "Closed"}], "id": "1099000025", "name": "USPS COLLECTION BOX - PO LOBBY", "address": {"city": "WARWICK", "state": "NY", "street": "108 MAIN ST LBBY DROP", "postcode": "10990"}}},
{"geometry": {"type": "Point", "coordinates": [-74.163236571, 41.427768565]}, "type": "Feature", "properties": {"collection_times": [{"days": "Mon-Fri", "time": "3:00pm"}, {"days": "Sat-Sun", "time": "Closed"}], "id": "1099200002", "name": "USPS COLLECTION BOX - BLUE BOX", "address": {"city": "WASHINGTONVILLE", "state": "NY", "street": "52 W MAIN ST", "postcode": "10992"}}},
{"geometry": {"type": "Point", "coordinates": [-74.1627603489, 41.4283460527]}, "type": "Feature", "properties": {"collection_times": [{"days": "Mon-Fri", "time": "5:00pm"}, {"days": "Sat", "time": "3:30pm"}, {"days": "Sun", "time": "Closed"}], "id": "1099200006", "name": "USPS COLLECTION BOX - BLUE BOX", "address": {"city": "WASHINGTONVILLE", "state": "NY", "street": "22 BROTHERHOOD PLAZA DR", "postcode": "10992"}}},
{"geometry": {"type": "Point", "coordinates": [-74.1627603489, 41.4283460527]}, "type": "Feature", "properties": {"collection_times": [{"days": "Mon-Fri", "time": "5:00pm"}, {"days": "Sat", "time": "3:30pm"}, {"days": "Sun", "time": "Closed"}], "id": "1099200007", "name": "USPS COLLECTION BOX - PO LOBBY", "address": {"city": "WASHINGTONVILLE", "state": "NY", "street": "22 BROTHERHOOD PLAZA DR LBBY DROP", "postcode": "10992"}}},
{"geometry": {"type": "Point", "coordinates": [-73.9851479744, 41.2129703804]}, "type": "Feature", "properties": {"collection_times": [{"days": "Mon-Sat", "time": "9:00am"}, {"days": "Sun", "time": "Closed"}], "id": "1099300002", "name": "USPS COLLECTION BOX - BLUE BOX", "address": {"city": "WEST HAVERSTRAW", "state": "NY", "street": "527 WALNUT HLS", "postcode": "10993"}}},
{"geometry": {"type": "Point", "coordinates": [-73.982259873, 41.2094518704]}, "type": "Feature", "properties": {"collection_times": [{"days": "Mon-Sat", "time": "9:30am"}, {"days": "Sun", "time": "Closed"}], "id": "1099300003", "name": "USPS COLLECTION BOX - BLUE BOX", "address": {"city": "WEST HAVERSTRAW", "state": "NY", "street": "58 E RAILROAD AVE", "postcode": "10993"}}},
{"geometry": {"type": "Point", "coordinates": [-73.9772748059, 41.2088347742]}, "type": "Feature", "properties": {"collection_times": [{"days": "Mon-Sat", "time": "9:00am"}, {"days": "Sun", "time": "Closed"}], "id": "1099300005", "name": "USPS COLLECTION BOX - BLUE BOX", "address": {"city": "WEST HAVERSTRAW", "state": "NY", "street": "137 E RAILROAD AVE", "postcode": "10993"}}},
{"geometry": {"type": "Point", "coordinates": [-73.9740873473, 41.206369514]}, "type": "Feature", "properties": {"collection_times": [{"days": "Mon-Sat", "time": "9:15am"}, {"days": "Sun", "time": "Closed"}], "id": "1099300006", "name": "USPS COLLECTION BOX - BLUE BOX", "address": {"city": "WEST HAVERSTRAW", "state": "NY", "street": "34 TANNEYANNS LN", "postcode": "10993"}}},
{"geometry": {"type": "Point", "coordinates": [-73.9769749501, 41.2053569011]}, "type": "Feature", "properties": {"collection_times": [{"days": "Mon-Sat", "time": "9:15am"}, {"days": "Sun", "time": "Closed"}], "id": "1099300007", "name": "USPS COLLECTION BOX - BLUE BOX", "address": {"city": "WEST HAVERSTRAW", "state": "NY", "street": "6 DELLORO ST", "postcode": "10993"}}},
{"geometry": {"type": "Point", "coordinates": [-73.9649943159, 41.2122938151]}, "type": "Feature", "properties": {"collection_times": [{"days": "Mon-Sat", "time": "9:00am"}, {"days": "Sun", "time": "Closed"}], "id": "1099300009", "name": "USPS COLLECTION BOX - BLUE BOX", "address": {"city": "WEST HAVERSTRAW", "state": "NY", "street": "21 SAMSONDALE PLZ", "postcode": "10993"}}},
{"geometry": {"type": "Point", "coordinates": [-73.9837534346, 41.2018877457]}, "type": "Feature", "properties": {"collection_times": [{"days": "Mon-Fri", "time": "5:00pm"}, {"days": "Sat", "time": "1:00pm"}, {"days": "Sun", "time": "Closed"}], "id": "1099300010", "name": "USPS COLLECTION BOX - BLUE BOX", "address": {"city": "WEST HAVERSTRAW", "state": "NY", "street": "101 S ROUTE 9W", "postcode": "10993"}}},
{"geometry": {"type": "Point", "coordinates": [-73.9837534346, 41.2018877457]}, "type": "Feature", "properties": {"collection_times": [{"days": "Mon-Fri", "time": "5:00pm"}, {"days": "Sat", "time": "1:00pm"}, {"days": "Sun", "time": "Closed"}], "id": "1099300011", "name": "USPS COLLECTION BOX - PO LOBBY", "address": {"city": "WEST HAVERSTRAW", "state": "NY", "street": "101 S ROUTE 9W LBBY DROP", "postcode": "10993"}}},
{"geometry": {"type": "Point", "coordinates": [-73.9778858286, 41.0929757994]}, "type": "Feature", "properties": {"collection_times": [{"days": "Mon-Fri", "time": "3:30pm"}, {"days": "Sat", "time": "12:00pm"}, {"days": "Sun", "time": "Closed"}], "id": "1099400003", "name": "USPS COLLECTION BOX - BLUE BOX", "address": {"city": "WEST NYACK", "state": "NY", "street": "2 CROSFIELD AVE", "postcode": "10994"}}},
{"geometry": {"type": "Point", "coordinates": [-73.9698547201, 41.0940783172]}, "type": "Feature", "properties": {"collection_times": [{"days": "Mon-Fri", "time": "5:00pm"}, {"days": "Sat", "time": "4:00pm"}, {"days": "Sun", "time": "Closed"}], "id": "1099400005", "name": "USPS COLLECTION BOX - BLUE BOX", "address": {"city": "WEST NYACK", "state": "NY", "street": "720 W NYACK RD", "postcode": "10994"}}},
{"geometry": {"type": "Point", "coordinates": [-73.9717356249, 41.0939718509]}, "type": "Feature", "properties": {"collection_times": [{"days": "Mon-Fri", "time": "3:30pm"}, {"days": "Sat", "time": "12:00pm"}, {"days": "Sun", "time": "Closed"}], "id": "1099400008", "name": "USPS COLLECTION BOX - BLUE BOX", "address": {"city": "WEST NYACK", "state": "NY", "street": "719 W NYACK RD", "postcode": "10994"}}},
{"geometry": {"type": "Point", "coordinates": [-73.9778858286, 41.0929757994]}, "type": "Feature", "properties": {"collection_times": [{"days": "Mon-Fri", "time": "3:30pm"}, {"days": "Sat", "time": "12:00pm"}, {"days": "Sun", "time": "Closed"}], "id": "1099400010", "name": "USPS COLLECTION BOX - BLUE BOX", "address": {"city": "WEST NYACK", "state": "NY", "street": "2 CROSFIELD AVE", "postcode": "10994"}}},
{"geometry": {"type": "Point", "coordinates": [-73.9698547201, 41.0940783172]}, "type": "Feature", "properties": {"collection_times": [{"days": "Mon-Fri", "time": "5:00pm"}, {"days": "Sat", "time": "4:00pm"}, {"days": "Sun", "time": "Closed"}], "id": "1099400011", "name": "USPS COLLECTION BOX - PO LOBBY", "address": {"city": "WEST NYACK", "state": "NY", "street": "720 W NYACK RD LBBY DROP", "postcode": "10994"}}},
{"geometry": {"type": "Point", "coordinates": [-73.9523329356, 41.0949976299]}, "type": "Feature", "properties": {"collection_times": [{"days": "Mon-Fri", "time": "5:00pm"}, {"days": "Sat", "time": "4:00pm"}, {"days": "Sun", "time": "Closed"}], "id": "1099400012", "name": "USPS COLLECTION BOX - PO LOBBY", "address": {"city": "WEST NYACK", "state": "NY", "street": "3302 PALISADES CENTER DR - PO LOBBY", "postcode": "10994"}}},
{"geometry": {"type": "Point", "coordinates": [-73.9697658897, 41.3980907258]}, "type": "Feature", "properties": {"collection_times": [{"days": "Mon-Sat", "time": "9:00am"}, {"days": "Sun", "time": "Closed"}], "id": "1099600004", "name": "USPS COLLECTION BOX - BLUE BOX", "address": {"city": "WEST POINT", "state": "NY", "street": "752 THAYER RD", "postcode": "10996"}}},
{"geometry": {"type": "Point", "coordinates": [-73.9563259695, 41.390022187]}, "type": "Feature", "properties": {"collection_times": [{"days": "Mon-Sat", "time": "9:30am"}, {"days": "Sun", "time": "Closed"}], "id": "1099600005", "name": "USPS COLLECTION BOX - BLUE BOX", "address": {"city": "WEST POINT", "state": "NY", "street": "757 THAYER RD", "postcode": "10996"}}},
{"geometry": {"type": "Point", "coordinates": [-73.9587696139, 41.3953658292]}, "type": "Feature", "properties": {"collection_times": [{"days": "Mon-Sat", "time": "9:30am"}, {"days": "Sun", "time": "Closed"}], "id": "1099600009", "name": "USPS COLLECTION BOX - BLUE BOX", "address": {"city": "WEST POINT", "state": "NY", "street": "639 HOWARD RD", "postcode": "10996"}}},
{"geometry": {"type": "Point", "coordinates": [-73.9589800581, 41.3943215757]}, "type": "Feature", "properties": {"collection_times": [{"days": "Mon-Sat", "time": "9:30am"}, {"days": "Sun", "time": "Closed"}], "id": "1099600010", "name": "USPS COLLECTION BOX - BLUE BOX", "address": {"city": "WEST POINT", "state": "NY", "street": "667 RUGER RD", "postcode": "10996"}}},
{"geometry": {"type": "Point", "coordinates": [-73.9740703438, 41.4015849921]}, "type": "Feature", "properties": {"collection_times": [{"days": "Mon-Sat", "time": "9:30am"}, {"days": "Sun", "time": "Closed"}], "id": "1099600015", "name": "USPS COLLECTION BOX - BLUE BOX", "address": {"city": "WEST POINT", "state": "NY", "street": "421 BAILEY LOOP", "postcode": "10996"}}},
{"geometry": {"type": "Point", "coordinates": [-73.9691082782, 41.4069616649]}, "type": "Feature", "properties": {"collection_times": [{"days": "Mon-Sat", "time": "9:30am"}, {"days": "Sun", "time": "Closed"}], "id": "1099600016", "name": "USPS COLLECTION BOX - BLUE BOX", "address": {"city": "WEST POINT", "state": "NY", "street": "208 LEE RD", "postcode": "10996"}}},
{"geometry": {"type": "Point", "coordinates": [-73.9697658897, 41.3980907258]}, "type": "Feature", "properties": {"collection_times": [{"days": "Mon-Sat", "time": "10:00am"}, {"days": "Sun", "time": "Closed"}], "id": "1099600018", "name": "USPS COLLECTION BOX - BLUE BOX", "address": {"city": "WEST POINT", "state": "NY", "street": "502 SLADEN PL", "postcode": "10996"}}},
{"geometry": {"type": "Point", "coordinates": [-73.9645844918, 41.3969486835]}, "type": "Feature", "properties": {"collection_times": [{"days": "Mon-Sat", "time": "9:30am"}, {"days": "Sun", "time": "Closed"}], "id": "1099600020", "name": "USPS COLLECTION BOX - BLUE BOX", "address": {"city": "WEST POINT", "state": "NY", "street": "681 HARDEE PL", "postcode": "10996"}}},
{"geometry": {"type": "Point", "coordinates": [-73.9697658897, 41.3980907258]}, "type": "Feature", "properties": {"collection_times": [{"days": "Mon-Sat", "time": "10:00am"}, {"days": "Sun", "time": "Closed"}], "id": "1099600024", "name": "USPS COLLECTION BOX - BLUE BOX", "address": {"city": "WEST POINT", "state": "NY", "street": "WEST CONTINENTAL ROAD", "postcode": "10996"}}},
{"geometry": {"type": "Point", "coordinates": [-73.9628584398, 41.3772734165]}, "type": "Feature", "properties": {"collection_times": [{"days": "Mon-Fri", "time": "5:00pm"}, {"days": "Sat", "time": "1:00pm"}, {"days": "Sun", "time": "Closed"}], "id": "1099600027", "name": "USPS COLLECTION BOX - BLUE BOX", "address": {"city": "WEST POINT", "state": "NY", "street": "634 SWIFT RD", "postcode": "10996"}}},
{"geometry": {"type": "Point", "coordinates": [-73.9561821229, 41.3896833204]}, "type": "Feature", "properties": {"collection_times": [{"days": "Mon-Sat", "time": "9:00am"}, {"days": "Sun", "time": "Closed"}], "id": "1099600028", "name": "USPS COLLECTION BOX - BLUE BOX", "address": {"city": "WEST POINT", "state": "NY", "street": "674 THAYER RD", "postcode": "10996"}}},
{"geometry": {"type": "Point", "coordinates": [-73.9628584398, 41.3772734165]}, "type": "Feature", "properties": {"collection_times": [{"days": "Mon-Fri", "time": "5:00pm"}, {"days": "Sat", "time": "1:00pm"}, {"days": "Sun", "time": "Closed"}], "id": "1099600042", "name": "USPS COLLECTION BOX - PO LOBBY", "address": {"city": "WEST POINT", "state": "NY", "street": "634 SWIFT RD LBBY DROP", "postcode": "10996"}}},
{"geometry": {"type": "Point", "coordinates": [-74.540625744, 41.337571565]}, "type": "Feature", "properties": {"collection_times": [{"days": "Mon-Fri", "time": "5:00pm"}, {"days": "Sat", "time": "12:00pm"}, {"days": "Sun", "time": "Closed"}], "id": "1099800001", "name": "USPS COLLECTION BOX - BLUE BOX", "address": {"city": "WESTTOWN", "state": "NY", "street": "2097 COUNTY ROUTE 1", "postcode": "10998"}}},
{"geometry": {"type": "Point", "coordinates": [-74.540625744, 41.337571565]}, "type": "Feature", "properties": {"collection_times": [{"days": "Mon-Fri", "time": "5:00pm"}, {"days": "Sat", "time": "12:00pm"}, {"days": "Sun", "time": "Closed"}], "id": "1099800002", "name": "USPS COLLECTION BOX - PO LOBBY", "address": {"city": "WESTTOWN", "state": "NY", "street": "2097 COUNTY ROUTE 1 LBBY DROP", "postcode": "10998"}}}
]}
