{"type": "FeatureCollection", "features": [
{"geometry": {"type": "Point", "coordinates": [-73.7049595292, 40.7242629738]}, "type": "Feature", "properties": {"collection_times": [{"days": "Mon-Fri", "time": "11:00am"}, {"days": "Sat", "time": "12:00pm"}, {"days": "Sun", "time": "Closed"}], "id": "1100100005", "name": "USPS COLLECTION BOX - BLUE BOX", "address": {"city": "FLORAL PARK", "state": "NY", "street": "266 WHITTIER AVE", "postcode": "11001"}}},
{"geometry": {"type": "Point", "coordinates": [-73.6966692745, 40.719059032]}, "type": "Feature", "properties": {"collection_times": [{"days": "Mon-Fri", "time": "10:30am"}, {"days": "Sat", "time": "12:00pm"}, {"days": "Sun", "time": "Closed"}], "id": "1100100006", "name": "USPS COLLECTION BOX - BLUE BOX", "address": {"city": "FLORAL PARK", "state": "NY", "street": "50 BIRCH ST", "postcode": "11001"}}},
{"geometry": {"type": "Point", "coordinates": [-73.7172137229, 40.7194186515]}, "type": "Feature", "properties": {"collection_times": [{"days": "Mon-Fri", "time": "10:30am"}, {"days": "Sat", "time": "12:00pm"}, {"days": "Sun", "time": "Closed"}], "id": "1100100011", "name": "USPS COLLECTION BOX - BLUE BOX", "address": {"city": "FLORAL PARK", "state": "NY", "street": "235 CROCUS AVE", "postcode": "11001"}}},
{"geometry": {"type": "Point", "coordinates": [-73.7108884413, 40.7194967268]}, "type": "Feature", "properties": {"collection_times": [{"days": "Mon-Fri", "time": "10:30am"}, {"days": "Sat", "time": "12:00pm"}, {"days": "Sun", "time": "Closed"}], "id": "1100100012", "name": "USPS COLLECTION BOX - BLUE BOX", "address": {"city": "FLORAL PARK", "state": "NY", "street": "26 MAYFAIR AVE", "postcode": "11001"}}},
{"geometry": {"type": "Point", "coordinates": [-73.7044909992, 40.7177258373]}, "type": "Feature", "properties": {"collection_times": [{"days": "Mon-Fri", "time": "10:30am"}, {"days": "Sat", "time": "12:00pm"}, {"days": "Sun", "time": "Closed"}], "id": "1100100013", "name": "USPS COLLECTION BOX - BLUE BOX", "address": {"city": "FLORAL PARK", "state": "NY", "street": "168 BELLMORE ST", "postcode": "11001"}}},
{"geometry": {"type": "Point", "coordinates": [-73.6982224996, 40.716148953]}, "type": "Feature", "properties": {"collection_times": [{"days": "Mon-Fri", "time": "10:30am"}, {"days": "Sat", "time": "12:00pm"}, {"days": "Sun", "time": "Closed"}], "id": "1100100014", "name": "USPS COLLECTION BOX - BLUE BOX", "address": {"city": "FLORAL PARK", "state": "NY", "street": "1 E CHERRY ST", "postcode": "11001"}}},
{"geometry": {"type": "Point", "coordinates": [-73.7073690527, 40.7214054894]}, "type": "Feature", "properties": {"collection_times": [{"days": "Mon-Fri", "time": "11:30am"}, {"days": "Sat", "time": "12:00pm"}, {"days": "Sun", "time": "Closed"}], "id": "1100100017", "name": "USPS COLLECTION BOX - BLUE BOX", "address": {"city": "FLORAL PARK", "state": "NY", "street": "26101 BRIDGEWATER AVE", "postcode": "11001"}}},
{"geometry": {"type": "Point", "coordinates": [-73.7073690527, 40.7214054894]}, "type": "Feature", "properties": {"collection_times": [{"days": "Mon-Fri", "time": "11:00am"}, {"days": "Sat", "time": "12:00pm"}, {"days": "Sun", "time": "Closed"}], "id": "1100100018", "name": "USPS COLLECTION BOX - BLUE BOX", "address": {"city": "FLORAL PARK", "state": "NY", "street": "8063 267TH ST", "postcode": "11001"}}},
{"geometry": {"type": "Point", "coordinates": [-73.7073690527, 40.7214054894]}, "type": "Feature", "properties": {"collection_times": [{"days": "Mon-Fri", "time": "11:30am"}, {"days": "Sat", "time": "12:00pm"}, {"days": "Sun", "time": "Closed"}], "id": "1100100019", "name": "USPS COLLECTION BOX - BLUE BOX", "address": {"city": "FLORAL PARK", "state": "NY", "street": "26301 74TH AVE", "postcode": "11001"}}},
{"geometry": {"type": "Point", "coordinates": [-73.7073690527, 40.7214054894]}, "type": "Feature", "properties": {"collection_times": [{"days": "Mon-Fri", "time": "11:30am"}, {"days": "Sat", "time": "12:00pm"}, {"days": "Sun", "time": "Closed"}], "id": "1100100020", "name": "USPS COLLECTION BOX - BLUE BOX", "address": {"city": "FLORAL PARK", "state": "NY", "street": "7101 LITTLE NECK PKWY", "postcode": "11001"}}},
{"geometry": {"type": "Point", "coordinates": [-73.7073690527, 40.7214054894]}, "type": "Feature", "properties": {"collection_times": [{"days": "Mon-Fri", "time": "11:30am"}, {"days": "Sat", "time": "12:00pm"}, {"days": "Sun", "time": "Closed"}], "id": "1100100021", "name": "USPS COLLECTION BOX - BLUE BOX", "address": {"city": "FLORAL PARK", "state": "NY", "street": "25502 74TH AVE", "postcode": "11001"}}},
{"geometry": {"type": "Point", "coordinates": [-73.7073690527, 40.7214054894]}, "type": "Feature", "properties": {"collection_times": [{"days": "Mon-Fri", "time": "11:00am"}, {"days": "Sat", "time": "12:00pm"}, {"days": "Sun", "time": "Closed"}], "id": "1100100022", "name": "USPS COLLECTION BOX - BLUE BOX", "address": {"city": "FLORAL PARK", "state": "NY", "street": "25815 80TH AVE", "postcode": "11001"}}},
{"geometry": {"type": "Point", "coordinates": [-73.7007717762, 40.7203922268]}, "type": "Feature", "properties": {"collection_times": [{"days": "Mon-Fri", "time": "10:30am"}, {"days": "Sat", "time": "12:00pm"}, {"days": "Sun", "time": "Closed"}], "id": "1100100023", "name": "USPS COLLECTION BOX - BLUE BOX", "address": {"city": "FLORAL PARK", "state": "NY", "street": "70 FLORAL PKWY", "postcode": "11001"}}},
{"geometry": {"type": "Point", "coordinates": [-73.7268731835, 40.7224685331]}, "type": "Feature", "properties": {"collection_times": [{"days": "Mon-Fri", "time": "10:00am"}, {"days": "Sat", "time": "12:00pm"}, {"days": "Sun", "time": "Closed"}], "id": "1100100027", "name": "USPS COLLECTION BOX - BLUE BOX", "address": {"city": "FLORAL PARK", "state": "NY", "street": "9454 240TH ST", "postcode": "11001"}}},
{"geometry": {"type": "Point", "coordinates": [-73.7111325171, 40.7247333894]}, "type": "Feature", "properties": {"collection_times": [{"days": "Mon-Fri", "time": "10:00am"}, {"days": "Sat", "time": "12:00pm"}, {"days": "Sun", "time": "Closed"}], "id": "1100100028", "name": "USPS COLLECTION BOX - BLUE BOX", "address": {"city": "FLORAL PARK", "state": "NY", "street": "9453 243RD ST", "postcode": "11001"}}},
{"geometry": {"type": "Point", "coordinates": [-73.7123475613, 40.7238195618]}, "type": "Feature", "properties": {"collection_times": [{"days": "Mon-Fri", "time": "10:00am"}, {"days": "Sat", "time": "12:00pm"}, {"days": "Sun", "time": "Closed"}], "id": "1100100029", "name": "USPS COLLECTION BOX - BLUE BOX", "address": {"city": "FLORAL PARK", "state": "NY", "street": "93 SUPERIOR RD # 44", "postcode": "11001"}}},
{"geometry": {"type": "Point", "coordinates": [-73.719630508, 40.7239245422]}, "type": "Feature", "properties": {"collection_times": [{"days": "Mon-Fri", "time": "10:00am"}, {"days": "Sat", "time": "12:00pm"}, {"days": "Sun", "time": "Closed"}], "id": "1100100030", "name": "USPS COLLECTION BOX - BLUE BOX", "address": {"city": "FLORAL PARK", "state": "NY", "street": "25 MASSACHUSETTS BLVD", "postcode": "11001"}}},
{"geometry": {"type": "Point", "coordinates": [-73.715884077, 40.7229012827]}, "type": "Feature", "properties": {"collection_times": [{"days": "Mon-Fri", "time": "10:00am"}, {"days": "Sat", "time": "12:00pm"}, {"days": "Sun", "time": "Closed"}], "id": "1100100031", "name": "USPS COLLECTION BOX - BLUE BOX", "address": {"city": "FLORAL PARK", "state": "NY", "street": "50 SUPERIOR RD", "postcode": "11001"}}},
{"geometry": {"type": "Point", "coordinates": [-73.704669626, 40.7284174204]}, "type": "Feature", "properties": {"collection_times": [{"days": "Mon-Fri", "time": "4:00pm"}, {"days": "Sat", "time": "11:30am"}, {"days": "Sun", "time": "Closed"}], "id": "1100100032", "name": "USPS COLLECTION BOX - BLUE BOX", "address": {"city": "FLORAL PARK", "state": "NY", "street": "166 JERICHO TPKE", "postcode": "11001"}}},
{"geometry": {"type": "Point", "coordinates": [-73.7026242899, 40.7288409197]}, "type": "Feature", "properties": {"collection_times": [{"days": "Mon-Fri", "time": "4:00pm"}, {"days": "Sat", "time": "11:30am"}, {"days": "Sun", "time": "Closed"}], "id": "1100100033", "name": "USPS COLLECTION BOX - BLUE BOX", "address": {"city": "FLORAL PARK", "state": "NY", "street": "222 JERICHO TPKE", "postcode": "11001"}}},
{"geometry": {"type": "Point", "coordinates": [-73.696762503, 40.7342497352]}, "type": "Feature", "properties": {"collection_times": [{"days": "Mon-Fri", "time": "4:00pm"}, {"days": "Sat", "time": "11:30am"}, {"days": "Sun", "time": "Closed"}], "id": "1100100035", "name": "USPS COLLECTION BOX - BLUE BOX", "address": {"city": "FLORAL PARK", "state": "NY", "street": "118 CHERRY LN", "postcode": "11001"}}},
{"geometry": {"type": "Point", "coordinates": [-73.7029377741, 40.7288941528]}, "type": "Feature", "properties": {"collection_times": [{"days": "Mon-Fri", "time": "4:00pm"}, {"days": "Sat", "time": "12:00pm"}, {"days": "Sun", "time": "Closed"}], "id": "1100100038", "name": "USPS COLLECTION BOX - BLUE BOX", "address": {"city": "FLORAL PARK", "state": "NY", "street": "199 JERICHO TPKE", "postcode": "11001"}}},
{"geometry": {"type": "Point", "coordinates": [-73.7056349205, 40.7301114176]}, "type": "Feature", "properties": {"collection_times": [{"days": "Mon-Fri", "time": "4:00pm"}, {"days": "Sat", "time": "12:00pm"}, {"days": "Sun", "time": "Closed"}], "id": "1100100041", "name": "USPS COLLECTION BOX - BLUE BOX", "address": {"city": "FLORAL PARK", "state": "NY", "street": "35 N TYSON AVE", "postcode": "11001"}}},
{"geometry": {"type": "Point", "coordinates": [-73.7073690527, 40.7214054894]}, "type": "Feature", "properties": {"collection_times": [{"days": "Mon-Fri", "time": "11:00am"}, {"days": "Sat", "time": "12:00pm"}, {"days": "Sun", "time": "Closed"}], "id": "1100100042", "name": "USPS COLLECTION BOX - BLUE BOX", "address": {"city": "FLORAL PARK", "state": "NY", "street": "26710 HILLSIDE AVE", "postcode": "11001"}}},
{"geometry": {"type": "Point", "coordinates": [-73.7073690527, 40.7214054894]}, "type": "Feature", "properties": {"collection_times": [{"days": "Mon-Fri", "time": "11:00am"}, {"days": "Sat", "time": "12:00pm"}, {"days": "Sun", "time": "Closed"}], "id": "1100100043", "name": "USPS COLLECTION BOX - BLUE BOX", "address": {"city": "FLORAL PARK", "state": "NY", "street": "26021 HILLSIDE AVE", "postcode": "11001"}}},
{"geometry": {"type": "Point", "coordinates": [-73.7073690527, 40.7214054894]}, "type": "Feature", "properties": {"collection_times": [{"days": "Mon-Fri", "time": "11:00am"}, {"days": "Sat", "time": "12:00pm"}, {"days": "Sun", "time": "Closed"}], "id": "1100100044", "name": "USPS COLLECTION BOX - BLUE BOX", "address": {"city": "FLORAL PARK", "state": "NY", "street": "25703 HILLSIDE AVE", "postcode": "11001"}}},
{"geometry": {"type": "Point", "coordinates": [-73.7073690527, 40.7214054894]}, "type": "Feature", "properties": {"collection_times": [{"days": "Mon-Fri", "time": "11:00am"}, {"days": "Sat", "time": "12:00pm"}, {"days": "Sun", "time": "Closed"}], "id": "1100100045", "name": "USPS COLLECTION BOX - BLUE BOX", "address": {"city": "FLORAL PARK", "state": "NY", "street": "25501 HILLSIDE AVE", "postcode": "11001"}}},
{"geometry": {"type": "Point", "coordinates": [-73.7073690527, 40.7214054894]}, "type": "Feature", "properties": {"collection_times": [{"days": "Mon-Fri", "time": "11:00am"}, {"days": "Sat", "time": "12:00pm"}, {"days": "Sun", "time": "Closed"}], "id": "1100100046", "name": "USPS COLLECTION BOX - BLUE BOX", "address": {"city": "FLORAL PARK", "state": "NY", "street": "8114 257TH ST", "postcode": "11001"}}},
{"geometry": {"type": "Point", "coordinates": [-73.7073690527, 40.7214054894]}, "type": "Feature", "properties": {"collection_times": [{"days": "Mon-Fri", "time": "11:00am"}, {"days": "Sat", "time": "12:00pm"}, {"days": "Sun", "time": "Closed"}], "id": "1100100047", "name": "USPS COLLECTION BOX - BLUE BOX", "address": {"city": "FLORAL PARK", "state": "NY", "street": "8051 261ST ST", "postcode": "11001"}}},
{"geometry": {"type": "Point", "coordinates": [-73.7073690527, 40.7214054894]}, "type": "Feature", "properties": {"collection_times": [{"days": "Mon-Fri", "time": "11:00am"}, {"days": "Sat", "time": "12:00pm"}, {"days": "Sun", "time": "Closed"}], "id": "1100100048", "name": "USPS COLLECTION BOX - BLUE BOX", "address": {"city": "FLORAL PARK", "state": "NY", "street": "26222 UNION TPKE", "postcode": "11001"}}},
{"geometry": {"type": "Point", "coordinates": [-73.7073690527, 40.7214054894]}, "type": "Feature", "properties": {"collection_times": [{"days": "Mon-Fri", "time": "11:30am"}, {"days": "Sat", "time": "12:00pm"}, {"days": "Sun", "time": "Closed"}], "id": "1100100049", "name": "USPS COLLECTION BOX - BLUE BOX", "address": {"city": "FLORAL PARK", "state": "NY", "street": "7531 260TH ST", "postcode": "11001"}}},
{"geometry": {"type": "Point", "coordinates": [-73.7073690527, 40.7214054894]}, "type": "Feature", "properties": {"collection_times": [{"days": "Mon-Fri", "time": "11:30am"}, {"days": "Sat", "time": "12:00pm"}, {"days": "Sun", "time": "Closed"}], "id": "1100100050", "name": "USPS COLLECTION BOX - BLUE BOX", "address": {"city": "FLORAL PARK", "state": "NY", "street": "25309 UNION TPKE", "postcode": "11001"}}},
{"geometry": {"type": "Point", "coordinates": [-73.7025130918, 40.723961214]}, "type": "Feature", "properties": {"collection_times": [{"days": "Mon-Fri", "time": "4:00pm"}, {"days": "Sat", "time": "11:30am"}, {"days": "Sun", "time": "Closed"}], "id": "1100100051", "name": "USPS COLLECTION BOX - BLUE BOX", "address": {"city": "FLORAL PARK", "state": "NY", "street": "170 TULIP AVE", "postcode": "11001"}}},
{"geometry": {"type": "Point", "coordinates": [-73.7039279107, 40.7245325831]}, "type": "Feature", "properties": {"collection_times": [{"days": "Mon-Fri", "time": "4:00pm"}, {"days": "Sat", "time": "11:30am"}, {"days": "Sun", "time": "Closed"}], "id": "1100100053", "name": "USPS COLLECTION BOX - BLUE BOX", "address": {"city": "FLORAL PARK", "state": "NY", "street": "142 TULIP AVE", "postcode": "11001"}}},
{"geometry": {"type": "Point", "coordinates": [-73.7019662204, 40.7227466396]}, "type": "Feature", "properties": {"collection_times": [{"days": "Mon-Fri", "time": "4:00pm"}, {"days": "Sat", "time": "11:30am"}, {"days": "Sun", "time": "Closed"}], "id": "1100100054", "name": "USPS COLLECTION BOX - BLUE BOX", "address": {"city": "FLORAL PARK", "state": "NY", "street": "2 BELLMORE ST", "postcode": "11001"}}},
{"geometry": {"type": "Point", "coordinates": [-73.7073690527, 40.7214054894]}, "type": "Feature", "properties": {"collection_times": [{"days": "Mon-Fri", "time": "5:00pm"}, {"days": "Sat", "time": "1:00pm"}, {"days": "Sun", "time": "Closed"}], "id": "1100100057", "name": "USPS COLLECTION BOX - BLUE BOX", "address": {"city": "FLORAL PARK", "state": "NY", "street": "25629 UNION TPKE", "postcode": "11001"}}},
{"geometry": {"type": "Point", "coordinates": [-73.7072295492, 40.7278673445]}, "type": "Feature", "properties": {"collection_times": [{"days": "Mon-Fri", "time": "4:00pm"}, {"days": "Sat", "time": "11:30am"}, {"days": "Sun", "time": "Closed"}], "id": "1100100058", "name": "USPS COLLECTION BOX - BLUE BOX", "address": {"city": "FLORAL PARK", "state": "NY", "street": "110 JERICHO TPKE", "postcode": "11001"}}},
{"geometry": {"type": "Point", "coordinates": [-73.7052961302, 40.7237443143]}, "type": "Feature", "properties": {"collection_times": [{"days": "Mon-Fri", "time": "4:00pm"}, {"days": "Sat", "time": "11:30am"}, {"days": "Sun", "time": "Closed"}], "id": "1100100059", "name": "USPS COLLECTION BOX - BLUE BOX", "address": {"city": "FLORAL PARK", "state": "NY", "street": "21 VERNON ST", "postcode": "11001"}}},
{"geometry": {"type": "Point", "coordinates": [-73.7083462625, 40.7263685355]}, "type": "Feature", "properties": {"collection_times": [{"days": "Mon-Fri", "time": "5:00pm"}, {"days": "Sat", "time": "3:30pm"}, {"days": "Sun", "time": "Closed"}], "id": "1100100061", "name": "USPS COLLECTION BOX - BLUE BOX", "address": {"city": "FLORAL PARK", "state": "NY", "street": "35 TULIP AVE", "postcode": "11001"}}},
{"geometry": {"type": "Point", "coordinates": [-73.7083462625, 40.7263685355]}, "type": "Feature", "properties": {"collection_times": [{"days": "Mon-Fri", "time": "5:00pm"}, {"days": "Sat", "time": "3:30pm"}, {"days": "Sun", "time": "Closed"}], "id": "1100100062", "name": "USPS COLLECTION BOX - BLUE BOX", "address": {"city": "FLORAL PARK", "state": "NY", "street": "35 TULIP AVE", "postcode": "11001"}}},
{"geometry": {"type": "Point", "coordinates": [-73.7073690527, 40.7214054894]}, "type": "Feature", "properties": {"collection_times": [{"days": "Mon-Fri", "time": "10:30am"}, {"days": "Sat", "time": "10:00am"}, {"days": "Sun", "time": "Closed"}], "id": "1100100066", "name": "USPS COLLECTION BOX - BLUE BOX", "address": {"city": "FLORAL PARK", "state": "NY", "street": "130 HILLSBORO ST", "postcode": "11001"}}},
{"geometry": {"type": "Point", "coordinates": [-73.7073690527, 40.7214054894]}, "type": "Feature", "properties": {"collection_times": [{"days": "Mon-Fri", "time": "11:30am"}, {"days": "Sat", "time": "11:00am"}, {"days": "Sun", "time": "Closed"}], "id": "1100100070", "name": "USPS COLLECTION BOX - BLUE BOX", "address": {"city": "FLORAL PARK", "state": "NY", "street": "653 MIRIAM PKWY", "postcode": "11001"}}},
{"geometry": {"type": "Point", "coordinates": [-73.7073690527, 40.7214054894]}, "type": "Feature", "properties": {"collection_times": [{"days": "Mon-Fri", "time": "11:30am"}, {"days": "Sat", "time": "11:00am"}, {"days": "Sun", "time": "Closed"}], "id": "1100100071", "name": "USPS COLLECTION BOX - BLUE BOX", "address": {"city": "FLORAL PARK", "state": "NY", "street": "233 EMILY AVE", "postcode": "11001"}}},
{"geometry": {"type": "Point", "coordinates": [-73.7026539349, 40.7140032319]}, "type": "Feature", "properties": {"collection_times": [{"days": "Mon-Fri", "time": "11:30am"}, {"days": "Sat", "time": "11:00am"}, {"days": "Sun", "time": "Closed"}], "id": "1100100073", "name": "USPS COLLECTION BOX - BLUE BOX", "address": {"city": "FLORAL PARK", "state": "NY", "street": "55 KINGSTON ST", "postcode": "11001"}}},
{"geometry": {"type": "Point", "coordinates": [-73.7073690527, 40.7214054894]}, "type": "Feature", "properties": {"collection_times": [{"days": "Mon-Fri", "time": "10:30am"}, {"days": "Sat", "time": "10:00am"}, {"days": "Sun", "time": "Closed"}], "id": "1100100074", "name": "USPS COLLECTION BOX - BLUE BOX", "address": {"city": "FLORAL PARK", "state": "NY", "street": "4 1 ST", "postcode": "11001"}}},
{"geometry": {"type": "Point", "coordinates": [-73.7073690527, 40.7214054894]}, "type": "Feature", "properties": {"collection_times": [{"days": "Mon-Fri", "time": "10:30am"}, {"days": "Sat", "time": "10:00am"}, {"days": "Sun", "time": "Closed"}], "id": "1100100077", "name": "USPS COLLECTION BOX - BLUE BOX", "address": {"city": "FLORAL PARK", "state": "NY", "street": "2330 DUTCH BROADWAY", "postcode": "11001"}}},
{"geometry": {"type": "Point", "coordinates": [-73.7073690527, 40.7214054894]}, "type": "Feature", "properties": {"collection_times": [{"days": "Mon-Fri", "time": "10:30am"}, {"days": "Sat", "time": "10:00am"}, {"days": "Sun", "time": "Closed"}], "id": "1100100078", "name": "USPS COLLECTION BOX - BLUE BOX", "address": {"city": "FLORAL PARK", "state": "NY", "street": "2234 HOFFMAN AVE", "postcode": "11001"}}},
{"geometry": {"type": "Point", "coordinates": [-73.7073690527, 40.7214054894]}, "type": "Feature", "properties": {"collection_times": [{"days": "Mon-Fri", "time": "11:30am"}, {"days": "Sat", "time": "11:00am"}, {"days": "Sun", "time": "Closed"}], "id": "1100100080", "name": "USPS COLLECTION BOX - BLUE BOX", "address": {"city": "FLORAL PARK", "state": "NY", "street": "1478 DUTCH BROADWAY", "postcode": "11001"}}},
{"geometry": {"type": "Point", "coordinates": [-73.7073690527, 40.7214054894]}, "type": "Feature", "properties": {"collection_times": [{"days": "Mon-Fri", "time": "4:00pm"}, {"days": "Sat", "time": "10:30am"}, {"days": "Sun", "time": "Closed"}], "id": "1100100082", "name": "USPS COLLECTION BOX - BLUE BOX", "address": {"city": "FLORAL PARK", "state": "NY", "street": "1540 HEMPSTEAD TPKE", "postcode": "11001"}}},
{"geometry": {"type": "Point", "coordinates": [-73.7208845828, 40.7090456659]}, "type": "Feature", "properties": {"collection_times": [{"days": "Mon-Fri", "time": "10:30am"}, {"days": "Sat", "time": "10:00am"}, {"days": "Sun", "time": "Closed"}], "id": "1100100083", "name": "USPS COLLECTION BOX - BLUE BOX", "address": {"city": "FLORAL PARK", "state": "NY", "street": "166 HEMPSTEAD TPKE", "postcode": "11001"}}},
{"geometry": {"type": "Point", "coordinates": [-73.7073690527, 40.7214054894]}, "type": "Feature", "properties": {"collection_times": [{"days": "Mon-Fri", "time": "10:30am"}, {"days": "Sat", "time": "10:00am"}, {"days": "Sun", "time": "Closed"}], "id": "1100100084", "name": "USPS COLLECTION BOX - BLUE BOX", "address": {"city": "FLORAL PARK", "state": "NY", "street": "481 HEMPSTEAD TPKE", "postcode": "11001"}}},
{"geometry": {"type": "Point", "coordinates": [-73.7049595292, 40.7242568224]}, "type": "Feature", "properties": {"collection_times": [{"days": "Mon-Fri", "time": "11:00am"}, {"days": "Sat", "time": "10:30am"}, {"days": "Sun", "time": "Closed"}], "id": "1100100088", "name": "USPS COLLECTION BOX - BLUE BOX", "address": {"city": "FLORAL PARK", "state": "NY", "street": "115 MEACHAM AVE", "postcode": "11001"}}},
{"geometry": {"type": "Point", "coordinates": [-73.7073690527, 40.7214054894]}, "type": "Feature", "properties": {"collection_times": [{"days": "Mon-Fri", "time": "11:00am"}, {"days": "Sat", "time": "10:30am"}, {"days": "Sun", "time": "Closed"}], "id": "1100100089", "name": "USPS COLLECTION BOX - BLUE BOX", "address": {"city": "FLORAL PARK", "state": "NY", "street": "265 MEACHAM AVE", "postcode": "11001"}}},
{"geometry": {"type": "Point", "coordinates": [-73.7073690527, 40.7214054894]}, "type": "Feature", "properties": {"collection_times": [{"days": "Mon-Fri", "time": "11:30am"}, {"days": "Sat", "time": "11:00am"}, {"days": "Sun", "time": "Closed"}], "id": "1100100091", "name": "USPS COLLECTION BOX - BLUE BOX", "address": {"city": "FLORAL PARK", "state": "NY", "street": "1644 DUTCH BROADWAY", "postcode": "11001"}}},
{"geometry": {"type": "Point", "coordinates": [-73.7073690527, 40.7214054894]}, "type": "Feature", "properties": {"collection_times": [{"days": "Mon-Fri", "time": "5:00pm"}, {"days": "Sat", "time": "1:00pm"}, {"days": "Sun", "time": "Closed"}], "id": "1100100092", "name": "USPS COLLECTION BOX - BLUE BOX", "address": {"city": "FLORAL PARK", "state": "NY", "street": "778 ELMONT RD", "postcode": "11001"}}},
{"geometry": {"type": "Point", "coordinates": [-73.7073690527, 40.7214054894]}, "type": "Feature", "properties": {"collection_times": [{"days": "Mon-Fri", "time": "4:00pm"}, {"days": "Sat", "time": "11:00am"}, {"days": "Sun", "time": "Closed"}], "id": "1100100093", "name": "USPS COLLECTION BOX - BLUE BOX", "address": {"city": "FLORAL PARK", "state": "NY", "street": "12 VILLAGE AVE", "postcode": "11001"}}},
{"geometry": {"type": "Point", "coordinates": [-73.7073690527, 40.7214054894]}, "type": "Feature", "properties": {"collection_times": [{"days": "Mon-Fri", "time": "5:00pm"}, {"days": "Sat", "time": "1:00pm"}, {"days": "Sun", "time": "Closed"}], "id": "1100100094", "name": "USPS COLLECTION BOX - BLUE BOX", "address": {"city": "FLORAL PARK", "state": "NY", "street": "260 ELMONT RD", "postcode": "11001"}}},
{"geometry": {"type": "Point", "coordinates": [-73.7065528967, 40.7244083725]}, "type": "Feature", "properties": {"collection_times": [{"days": "Mon-Fri", "time": "10:00am"}, {"days": "Sat", "time": "11:30am"}, {"days": "Sun", "time": "Closed"}], "id": "1100100098", "name": "USPS COLLECTION BOX - BLUE BOX", "address": {"city": "FLORAL PARK", "state": "NY", "street": "29 ATLANTIC AVE", "postcode": "11001"}}},
{"geometry": {"type": "Point", "coordinates": [-73.7002662661, 40.7142614166]}, "type": "Feature", "properties": {"collection_times": [{"days": "Mon-Sat", "time": "10:30am"}, {"days": "Sun", "time": "Closed"}], "id": "1100100100", "name": "USPS COLLECTION BOX - BLUE BOX", "address": {"city": "FLORAL PARK", "state": "NY", "street": "383 ROQUETTE AVE", "postcode": "11001"}}},
{"geometry": {"type": "Point", "coordinates": [-73.7073690527, 40.7214054894]}, "type": "Feature", "properties": {"collection_times": [{"days": "Mon-Fri", "time": "11:30am"}, {"days": "Sat", "time": "11:00am"}, {"days": "Sun", "time": "Closed"}], "id": "1100100102", "name": "USPS COLLECTION BOX - BLUE BOX", "address": {"city": "FLORAL PARK", "state": "NY", "street": "1791 DUTCH BROADWAY", "postcode": "11001"}}},
{"geometry": {"type": "Point", "coordinates": [-73.7073690527, 40.7214054894]}, "type": "Feature", "properties": {"collection_times": [{"days": "Mon-Fri", "time": "4:00pm"}, {"days": "Sat", "time": "11:00am"}, {"days": "Sun", "time": "Closed"}], "id": "1100100104", "name": "USPS COLLECTION BOX - BLUE BOX", "address": {"city": "FLORAL PARK", "state": "NY", "street": "23939 LINDEN BLVD", "postcode": "11001"}}},
{"geometry": {"type": "Point", "coordinates": [-73.7073690527, 40.7214054894]}, "type": "Feature", "properties": {"collection_times": [{"days": "Mon-Fri", "time": "4:00pm"}, {"days": "Sat", "time": "11:00am"}, {"days": "Sun", "time": "Closed"}], "id": "1100100107", "name": "USPS COLLECTION BOX - BLUE BOX", "address": {"city": "FLORAL PARK", "state": "NY", "street": "1975 LINDEN BLVD", "postcode": "11001"}}},
{"geometry": {"type": "Point", "coordinates": [-73.7073690527, 40.7214054894]}, "type": "Feature", "properties": {"collection_times": [{"days": "Mon-Fri", "time": "11:00am"}, {"days": "Sat", "time": "10:30am"}, {"days": "Sun", "time": "Closed"}], "id": "1100100110", "name": "USPS COLLECTION BOX - BLUE BOX", "address": {"city": "FLORAL PARK", "state": "NY", "street": "425 MEACHAM AVE", "postcode": "11001"}}},
{"geometry": {"type": "Point", "coordinates": [-73.7073690527, 40.7214054894]}, "type": "Feature", "properties": {"collection_times": [{"days": "Mon-Fri", "time": "12:00pm"}, {"days": "Sat", "time": "11:00am"}, {"days": "Sun", "time": "Closed"}], "id": "1100100111", "name": "USPS COLLECTION BOX - BLUE BOX", "address": {"city": "FLORAL PARK", "state": "NY", "street": "631 ELMONT RD", "postcode": "11001"}}},
{"geometry": {"type": "Point", "coordinates": [-73.7054965143, 40.7251761128]}, "type": "Feature", "properties": {"collection_times": [{"days": "Mon-Fri", "time": "4:00pm"}, {"days": "Sat", "time": "11:30am"}, {"days": "Sun", "time": "Closed"}], "id": "1100100115", "name": "USPS COLLECTION BOX - BLUE BOX", "address": {"city": "FLORAL PARK", "state": "NY", "street": "99 TULIP AVE", "postcode": "11001"}}},
{"geometry": {"type": "Point", "coordinates": [-73.7073690527, 40.7214054894]}, "type": "Feature", "properties": {"collection_times": [{"days": "Mon-Fri", "time": "5:00pm"}, {"days": "Sat", "time": "1:00pm"}, {"days": "Sun", "time": "Closed"}], "id": "1100100126", "name": "USPS COLLECTION BOX - BLUE BOX", "address": {"city": "FLORAL PARK", "state": "NY", "street": "798 MEACHAM AVE", "postcode": "11001"}}},
{"geometry": {"type": "Point", "coordinates": [-73.7052961302, 40.7237443143]}, "type": "Feature", "properties": {"collection_times": [{"days": "Mon-Fri", "time": "4:00pm"}, {"days": "Sat", "time": "11:30am"}, {"days": "Sun", "time": "Closed"}], "id": "1100100137", "name": "USPS COLLECTION BOX - BLUE BOX", "address": {"city": "FLORAL PARK", "state": "NY", "street": "21 VERNON ST", "postcode": "11001"}}},
{"geometry": {"type": "Point", "coordinates": [-73.7083462625, 40.7263685355]}, "type": "Feature", "properties": {"collection_times": [{"days": "Mon-Fri", "time": "5:00pm"}, {"days": "Sat", "time": "3:00pm"}, {"days": "Sun", "time": "Closed"}], "id": "1100100141", "name": "USPS COLLECTION BOX - PO LOBBY", "address": {"city": "FLORAL PARK", "state": "NY", "street": "35 TULIP AVE", "postcode": "11001"}}},
{"geometry": {"type": "Point", "coordinates": [-73.7120789618, 40.7024519969]}, "type": "Feature", "properties": {"collection_times": [{"days": "Mon-Fri", "time": "5:00pm"}, {"days": "Sat", "time": "1:00pm"}, {"days": "Sun", "time": "Closed"}], "id": "1100300001", "name": "USPS COLLECTION BOX - PO LOBBY", "address": {"city": "FLORAL PARK", "state": "NY", "street": "260 ELMONT RD", "postcode": "11003"}}},
{"geometry": {"type": "Point", "coordinates": [-73.7205336005, 40.6911583483]}, "type": "Feature", "properties": {"collection_times": [{"days": "Mon-Fri", "time": "5:00pm"}, {"days": "Sat-Sun", "time": "Closed"}], "id": "1100300003", "name": "USPS COLLECTION BOX - PO LOBBY", "address": {"city": "FLORAL PARK", "state": "NY", "street": "778 ELMONT RD", "postcode": "11003"}}},
{"geometry": {"type": "Point", "coordinates": [-73.6916600044, 40.6886322479]}, "type": "Feature", "properties": {"collection_times": [{"days": "Mon-Fri", "time": "5:00pm"}, {"days": "Sat-Sun", "time": "Closed"}], "id": "1100300004", "name": "USPS COLLECTION BOX - PO LOBBY", "address": {"city": "FLORAL PARK", "state": "NY", "street": "798 MEACHAM AVE", "postcode": "11003"}}},
{"geometry": {"type": "Point", "coordinates": [-73.6781228439, 40.7033741791]}, "type": "Feature", "properties": {"collection_times": [{"days": "Mon-Sat", "time": "12:00pm"}, {"days": "Sun", "time": "Closed"}], "id": "1101000001", "name": "USPS COLLECTION BOX - BLUE BOX", "address": {"city": "FRANKLIN SQUARE", "state": "NY", "street": "167 FRANKLIN AVE", "postcode": "11010"}}},
{"geometry": {"type": "Point", "coordinates": [-73.6809016145, 40.7050113943]}, "type": "Feature", "properties": {"collection_times": [{"days": "Mon-Sat", "time": "12:00pm"}, {"days": "Sun", "time": "Closed"}], "id": "1101000002", "name": "USPS COLLECTION BOX - BLUE BOX", "address": {"city": "FRANKLIN SQUARE", "state": "NY", "street": "116 SCHERER BLVD", "postcode": "11010"}}},
{"geometry": {"type": "Point", "coordinates": [-73.6753239629, 40.70277087]}, "type": "Feature", "properties": {"collection_times": [{"days": "Mon-Sat", "time": "12:00pm"}, {"days": "Sun", "time": "Closed"}], "id": "1101000003", "name": "USPS COLLECTION BOX - BLUE BOX", "address": {"city": "FRANKLIN SQUARE", "state": "NY", "street": "944 FENWORTH BLVD", "postcode": "11010"}}},
{"geometry": {"type": "Point", "coordinates": [-73.6647814327, 40.7098556113]}, "type": "Feature", "properties": {"collection_times": [{"days": "Mon-Sat", "time": "12:00pm"}, {"days": "Sun", "time": "Closed"}], "id": "1101000006", "name": "USPS COLLECTION BOX - BLUE BOX", "address": {"city": "FRANKLIN SQUARE", "state": "NY", "street": "124 CARL AVE", "postcode": "11010"}}},
{"geometry": {"type": "Point", "coordinates": [-73.6800453069, 40.7101055341]}, "type": "Feature", "properties": {"collection_times": [{"days": "Mon-Sat", "time": "12:00pm"}, {"days": "Sun", "time": "Closed"}], "id": "1101000007", "name": "USPS COLLECTION BOX - BLUE BOX", "address": {"city": "FRANKLIN SQUARE", "state": "NY", "street": "1066 LAWRENCE ST", "postcode": "11010"}}},
{"geometry": {"type": "Point", "coordinates": [-73.6750433521, 40.7005767811]}, "type": "Feature", "properties": {"collection_times": [{"days": "Mon-Sat", "time": "12:00pm"}, {"days": "Sun", "time": "Closed"}], "id": "1101000008", "name": "USPS COLLECTION BOX - BLUE BOX", "address": {"city": "FRANKLIN SQUARE", "state": "NY", "street": "1048 WINDMERE RD SE", "postcode": "11010"}}},
{"geometry": {"type": "Point", "coordinates": [-73.6844138196, 40.6916960082]}, "type": "Feature", "properties": {"collection_times": [{"days": "Mon-Sat", "time": "12:00pm"}, {"days": "Sun", "time": "Closed"}], "id": "1101000009", "name": "USPS COLLECTION BOX - BLUE BOX", "address": {"city": "FRANKLIN SQUARE", "state": "NY", "street": "605 FRANKLIN AVE", "postcode": "11010"}}},
{"geometry": {"type": "Point", "coordinates": [-73.6800759091, 40.6931758899]}, "type": "Feature", "properties": {"collection_times": [{"days": "Mon-Sat", "time": "12:00pm"}, {"days": "Sun", "time": "Closed"}], "id": "1101000010", "name": "USPS COLLECTION BOX - BLUE BOX", "address": {"city": "FRANKLIN SQUARE", "state": "NY", "street": "515 2ND ST", "postcode": "11010"}}},
{"geometry": {"type": "Point", "coordinates": [-73.6646347457, 40.7018114903]}, "type": "Feature", "properties": {"collection_times": [{"days": "Mon-Sat", "time": "12:00pm"}, {"days": "Sun", "time": "Closed"}], "id": "1101000012", "name": "USPS COLLECTION BOX - BLUE BOX", "address": {"city": "FRANKLIN SQUARE", "state": "NY", "street": "775 WOOL AVE", "postcode": "11010"}}},
{"geometry": {"type": "Point", "coordinates": [-73.6759189913, 40.6841984143]}, "type": "Feature", "properties": {"collection_times": [{"days": "Mon-Sat", "time": "12:00pm"}, {"days": "Sun", "time": "Closed"}], "id": "1101000013", "name": "USPS COLLECTION BOX - BLUE BOX", "address": {"city": "FRANKLIN SQUARE", "state": "NY", "street": "877 WILLOW RD", "postcode": "11010"}}},
{"geometry": {"type": "Point", "coordinates": [-73.6856096119, 40.6955699555]}, "type": "Feature", "properties": {"collection_times": [{"days": "Mon-Sat", "time": "12:00pm"}, {"days": "Sun", "time": "Closed"}], "id": "1101000014", "name": "USPS COLLECTION BOX - BLUE BOX", "address": {"city": "FRANKLIN SQUARE", "state": "NY", "street": "1182 MARTHA PL", "postcode": "11010"}}},
{"geometry": {"type": "Point", "coordinates": [-73.6840731275, 40.699283507]}, "type": "Feature", "properties": {"collection_times": [{"days": "Mon-Sat", "time": "12:00pm"}, {"days": "Sun", "time": "Closed"}], "id": "1101000015", "name": "USPS COLLECTION BOX - BLUE BOX", "address": {"city": "FRANKLIN SQUARE", "state": "NY", "street": "1185 LAIDLAW AVE", "postcode": "11010"}}},
{"geometry": {"type": "Point", "coordinates": [-73.6792667652, 40.6949515113]}, "type": "Feature", "properties": {"collection_times": [{"days": "Mon-Sat", "time": "12:00pm"}, {"days": "Sun", "time": "Closed"}], "id": "1101000016", "name": "USPS COLLECTION BOX - BLUE BOX", "address": {"city": "FRANKLIN SQUARE", "state": "NY", "street": "987 CENTER DR", "postcode": "11010"}}},
{"geometry": {"type": "Point", "coordinates": [-73.6809264566, 40.6856037695]}, "type": "Feature", "properties": {"collection_times": [{"days": "Mon-Sat", "time": "12:00pm"}, {"days": "Sun", "time": "Closed"}], "id": "1101000017", "name": "USPS COLLECTION BOX - BLUE BOX", "address": {"city": "FRANKLIN SQUARE", "state": "NY", "street": "1009 SHELBURNE DR", "postcode": "11010"}}},
{"geometry": {"type": "Point", "coordinates": [-73.6833219485, 40.7043725965]}, "type": "Feature", "properties": {"collection_times": [{"days": "Mon-Sat", "time": "12:00pm"}, {"days": "Sun", "time": "Closed"}], "id": "1101000020", "name": "USPS COLLECTION BOX - BLUE BOX", "address": {"city": "FRANKLIN SQUARE", "state": "NY", "street": "139 CATHERINE AVE", "postcode": "11010"}}},
{"geometry": {"type": "Point", "coordinates": [-73.6703697308, 40.7028643238]}, "type": "Feature", "properties": {"collection_times": [{"days": "Mon-Sat", "time": "12:00pm"}, {"days": "Sun", "time": "Closed"}], "id": "1101000021", "name": "USPS COLLECTION BOX - BLUE BOX", "address": {"city": "FRANKLIN SQUARE", "state": "NY", "street": "189 CLAFIN BLVD", "postcode": "11010"}}},
{"geometry": {"type": "Point", "coordinates": [-73.6737506275, 40.7004061351]}, "type": "Feature", "properties": {"collection_times": [{"days": "Mon-Sat", "time": "12:00pm"}, {"days": "Sun", "time": "Closed"}], "id": "1101000027", "name": "USPS COLLECTION BOX - BLUE BOX", "address": {"city": "FRANKLIN SQUARE", "state": "NY", "street": "266 MADISON ST", "postcode": "11010"}}},
{"geometry": {"type": "Point", "coordinates": [-73.6770569978, 40.6989723888]}, "type": "Feature", "properties": {"collection_times": [{"days": "Mon-Sat", "time": "12:00pm"}, {"days": "Sun", "time": "Closed"}], "id": "1101000028", "name": "USPS COLLECTION BOX - BLUE BOX", "address": {"city": "FRANKLIN SQUARE", "state": "NY", "street": "328 HARRISON ST", "postcode": "11010"}}},
{"geometry": {"type": "Point", "coordinates": [-73.6741871394, 40.6956967754]}, "type": "Feature", "properties": {"collection_times": [{"days": "Mon-Sat", "time": "12:00pm"}, {"days": "Sun", "time": "Closed"}], "id": "1101000029", "name": "USPS COLLECTION BOX - BLUE BOX", "address": {"city": "FRANKLIN SQUARE", "state": "NY", "street": "405 JEFFERSON ST", "postcode": "11010"}}},
{"geometry": {"type": "Point", "coordinates": [-73.6661733235, 40.6982683479]}, "type": "Feature", "properties": {"collection_times": [{"days": "Mon-Sat", "time": "12:00pm"}, {"days": "Sun", "time": "Closed"}], "id": "1101000030", "name": "USPS COLLECTION BOX - BLUE BOX", "address": {"city": "FRANKLIN SQUARE", "state": "NY", "street": "340 DOGWOOD AVE", "postcode": "11010"}}},
{"geometry": {"type": "Point", "coordinates": [-73.6679, 40.68829]}, "type": "Feature", "properties": {"collection_times": [{"days": "Mon-Sat", "time": "12:00pm"}, {"days": "Sun", "time": "Closed"}], "id": "1101000031", "name": "USPS COLLECTION BOX - BLUE BOX", "address": {"city": "FRANKLIN SQUARE", "state": "NY", "street": "662 DOGWOOD AVE", "postcode": "11010"}}},
{"geometry": {"type": "Point", "coordinates": [-73.685757661, 40.6890804859]}, "type": "Feature", "properties": {"collection_times": [{"days": "Mon-Sat", "time": "12:00pm"}, {"days": "Sun", "time": "Closed"}], "id": "1101000033", "name": "USPS COLLECTION BOX - BLUE BOX", "address": {"city": "FRANKLIN SQUARE", "state": "NY", "street": "711 FRANKLIN AVE", "postcode": "11010"}}},
{"geometry": {"type": "Point", "coordinates": [-73.6836260248, 40.6932237428]}, "type": "Feature", "properties": {"collection_times": [{"days": "Mon-Sat", "time": "12:00pm"}, {"days": "Sun", "time": "Closed"}], "id": "1101000034", "name": "USPS COLLECTION BOX - BLUE BOX", "address": {"city": "FRANKLIN SQUARE", "state": "NY", "street": "550 FRANKLIN AVE", "postcode": "11010"}}},
{"geometry": {"type": "Point", "coordinates": [-73.6823105186, 40.69619835]}, "type": "Feature", "properties": {"collection_times": [{"days": "Mon-Sat", "time": "12:00pm"}, {"days": "Sun", "time": "Closed"}], "id": "1101000035", "name": "USPS COLLECTION BOX - BLUE BOX", "address": {"city": "FRANKLIN SQUARE", "state": "NY", "street": "1078 OAKS DR", "postcode": "11010"}}},
{"geometry": {"type": "Point", "coordinates": [-73.6787107745, 40.7077712376]}, "type": "Feature", "properties": {"collection_times": [{"days": "Mon-Sat", "time": "12:00pm"}, {"days": "Sun", "time": "Closed"}], "id": "1101000037", "name": "USPS COLLECTION BOX - BLUE BOX", "address": {"city": "FRANKLIN SQUARE", "state": "NY", "street": "1040 HEMPSTEAD TPKE", "postcode": "11010"}}},
{"geometry": {"type": "Point", "coordinates": [-73.6764316336, 40.7114119415]}, "type": "Feature", "properties": {"collection_times": [{"days": "Mon-Sat", "time": "12:00pm"}, {"days": "Sun", "time": "Closed"}], "id": "1101000038", "name": "USPS COLLECTION BOX - BLUE BOX", "address": {"city": "FRANKLIN SQUARE", "state": "NY", "street": "178 NEW HYDE PARK RD", "postcode": "11010"}}},
{"geometry": {"type": "Point", "coordinates": [-73.6743140023, 40.7070961256]}, "type": "Feature", "properties": {"collection_times": [{"days": "Mon-Sat", "time": "12:00pm"}, {"days": "Sun", "time": "Closed"}], "id": "1101000040", "name": "USPS COLLECTION BOX - BLUE BOX", "address": {"city": "FRANKLIN SQUARE", "state": "NY", "street": "7 JAMES ST", "postcode": "11010"}}},
{"geometry": {"type": "Point", "coordinates": [-73.6686214904, 40.7068139997]}, "type": "Feature", "properties": {"collection_times": [{"days": "Mon-Sat", "time": "12:00pm"}, {"days": "Sun", "time": "Closed"}], "id": "1101000041", "name": "USPS COLLECTION BOX - BLUE BOX", "address": {"city": "FRANKLIN SQUARE", "state": "NY", "street": "775 HEMPSTEAD TPKE", "postcode": "11010"}}},
{"geometry": {"type": "Point", "coordinates": [-73.6718105748, 40.7070697429]}, "type": "Feature", "properties": {"collection_times": [{"days": "Mon-Fri", "time": "5:00pm"}, {"days": "Sat", "time": "1:00pm"}, {"days": "Sun", "time": "Closed"}], "id": "1101000043", "name": "USPS COLLECTION BOX - BLUE BOX", "address": {"city": "FRANKLIN SQUARE", "state": "NY", "street": "867 HEMPSTEAD TPKE", "postcode": "11010"}}},
{"geometry": {"type": "Point", "coordinates": [-73.6755786024, 40.7016211042]}, "type": "Feature", "properties": {"collection_times": [{"days": "Mon-Fri", "time": "5:00pm"}, {"days": "Sat", "time": "1:00pm"}, {"days": "Sun", "time": "Closed"}], "id": "1101000045", "name": "USPS COLLECTION BOX - EXPRESS", "address": {"city": "FRANKLIN SQUARE", "state": "NY", "street": "867 HEMPSTEAD TPKE", "postcode": "11010"}}},
{"geometry": {"type": "Point", "coordinates": [-73.6718105748, 40.7070697429]}, "type": "Feature", "properties": {"collection_times": [{"days": "Mon-Fri", "time": "5:00pm"}, {"days": "Sat", "time": "1:00pm"}, {"days": "Sun", "time": "Closed"}], "id": "1101000046", "name": "USPS COLLECTION BOX - BLUE BOX", "address": {"city": "FRANKLIN SQUARE", "state": "NY", "street": "867 HEMPSTEAD TPKE", "postcode": "11010"}}},
{"geometry": {"type": "Point", "coordinates": [-73.6695014389, 40.6972014992]}, "type": "Feature", "properties": {"collection_times": [{"days": "Mon-Sat", "time": "12:00pm"}, {"days": "Sun", "time": "Closed"}], "id": "1101000050", "name": "USPS COLLECTION BOX - BLUE BOX", "address": {"city": "FRANKLIN SQUARE", "state": "NY", "street": "782 CORNELL RD", "postcode": "11010"}}},
{"geometry": {"type": "Point", "coordinates": [-73.6655490915, 40.7066539467]}, "type": "Feature", "properties": {"collection_times": [{"days": "Mon-Sat", "time": "12:00pm"}, {"days": "Sun", "time": "Closed"}], "id": "1101000052", "name": "USPS COLLECTION BOX - BLUE BOX", "address": {"city": "FRANKLIN SQUARE", "state": "NY", "street": "695 HEMPSTEAD TPKE", "postcode": "11010"}}},
{"geometry": {"type": "Point", "coordinates": [-73.6718105748, 40.7070697429]}, "type": "Feature", "properties": {"collection_times": [{"days": "Mon-Fri", "time": "5:00pm"}, {"days": "Sat", "time": "12:30pm"}, {"days": "Sun", "time": "Closed"}], "id": "1101000053", "name": "USPS COLLECTION BOX - PO LOBBY", "address": {"city": "FRANKLIN SQUARE", "state": "NY", "street": "867 HEMPSTEAD TPKE", "postcode": "11010"}}},
{"geometry": {"type": "Point", "coordinates": [-73.728311482, 40.8007444419]}, "type": "Feature", "properties": {"collection_times": [{"days": "Mon-Fri", "time": "12:00pm"}, {"days": "Sat", "time": "11:00am"}, {"days": "Sun", "time": "Closed"}], "id": "1102000003", "name": "USPS COLLECTION BOX - BLUE BOX", "address": {"city": "GREAT NECK", "state": "NY", "street": "61 BAKERHILL RD", "postcode": "11020"}}},
{"geometry": {"type": "Point", "coordinates": [-73.7214984002, 40.7926828491]}, "type": "Feature", "properties": {"collection_times": [{"days": "Mon-Fri", "time": "9:00am"}, {"days": "Sat", "time": "10:30am"}, {"days": "Sun", "time": "Closed"}], "id": "1102000005", "name": "USPS COLLECTION BOX - BLUE BOX", "address": {"city": "GREAT NECK", "state": "NY", "street": "45 BEVERLY RD", "postcode": "11020"}}},
{"geometry": {"type": "Point", "coordinates": [-73.7298997748, 40.7910290725]}, "type": "Feature", "properties": {"collection_times": [{"days": "Mon-Fri", "time": "9:00am"}, {"days": "Sat", "time": "11:00am"}, {"days": "Sun", "time": "Closed"}], "id": "1102000006", "name": "USPS COLLECTION BOX - BLUE BOX", "address": {"city": "GREAT NECK", "state": "NY", "street": "2 NASSAU DR", "postcode": "11020"}}},
{"geometry": {"type": "Point", "coordinates": [-73.7277739975, 40.7892380726]}, "type": "Feature", "properties": {"collection_times": [{"days": "Mon-Fri", "time": "5:00pm"}, {"days": "Sat", "time": "10:30am"}, {"days": "Sun", "time": "Closed"}], "id": "1102000008", "name": "USPS COLLECTION BOX - BLUE BOX", "address": {"city": "GREAT NECK", "state": "NY", "street": "15 BOND ST", "postcode": "11020"}}},
{"geometry": {"type": "Point", "coordinates": [-73.7306406526, 40.790158352]}, "type": "Feature", "properties": {"collection_times": [{"days": "Mon-Fri", "time": "12:00pm"}, {"days": "Sat", "time": "11:30am"}, {"days": "Sun", "time": "Closed"}], "id": "1102000011", "name": "USPS COLLECTION BOX - BLUE BOX", "address": {"city": "GREAT NECK", "state": "NY", "street": "132 MIDDLENECK RD", "postcode": "11020"}}},
{"geometry": {"type": "Point", "coordinates": [-73.7342050545, 40.7955043796]}, "type": "Feature", "properties": {"collection_times": [{"days": "Mon-Fri", "time": "12:00pm"}, {"days": "Sat", "time": "11:30am"}, {"days": "Sun", "time": "Closed"}], "id": "1102000012", "name": "USPS COLLECTION BOX - BLUE BOX", "address": {"city": "GREAT NECK", "state": "NY", "street": "230 MIDDLENECK RD", "postcode": "11020"}}},
{"geometry": {"type": "Point", "coordinates": [-73.7311182225, 40.7858571759]}, "type": "Feature", "properties": {"collection_times": [{"days": "Mon-Fri", "time": "4:00pm"}, {"days": "Sat-Sun", "time": "Closed"}], "id": "1102000017", "name": "USPS COLLECTION BOX - BLUE BOX", "address": {"city": "GREAT NECK", "state": "NY", "street": "60 CUTTERMILL RD", "postcode": "11020"}}},
{"geometry": {"type": "Point", "coordinates": [-73.7300204366, 40.786344555]}, "type": "Feature", "properties": {"collection_times": [{"days": "Mon-Fri", "time": "4:00pm"}, {"days": "Sat", "time": "10:30am"}, {"days": "Sun", "time": "Closed"}], "id": "1102000019", "name": "USPS COLLECTION BOX - BLUE BOX", "address": {"city": "GREAT NECK", "state": "NY", "street": "40 CUTTERMILL RD", "postcode": "11020"}}},
{"geometry": {"type": "Point", "coordinates": [-73.7311182225, 40.7858571759]}, "type": "Feature", "properties": {"collection_times": [{"days": "Mon-Fri", "time": "4:00pm"}, {"days": "Sat-Sun", "time": "Closed"}], "id": "1102000020", "name": "USPS COLLECTION BOX - BLUE BOX", "address": {"city": "GREAT NECK", "state": "NY", "street": "60 CUTTERMILL RD", "postcode": "11020"}}},
{"geometry": {"type": "Point", "coordinates": [-73.7285559334, 40.7868201045]}, "type": "Feature", "properties": {"collection_times": [{"days": "Mon-Fri", "time": "4:30pm"}, {"days": "Sat", "time": "10:30am"}, {"days": "Sun", "time": "Closed"}], "id": "1102000022", "name": "USPS COLLECTION BOX - BLUE BOX", "address": {"city": "GREAT NECK", "state": "NY", "street": "10 CUTTERMILL RD", "postcode": "11020"}}},
{"geometry": {"type": "Point", "coordinates": [-73.7310223146, 40.7859822537]}, "type": "Feature", "properties": {"collection_times": [{"days": "Mon-Fri", "time": "4:00pm"}, {"days": "Sat", "time": "10:30am"}, {"days": "Sun", "time": "Closed"}], "id": "1102000023", "name": "USPS COLLECTION BOX - BLUE BOX", "address": {"city": "GREAT NECK", "state": "NY", "street": "63 CUTTERMILL RD", "postcode": "11020"}}},
{"geometry": {"type": "Point", "coordinates": [-73.7194069288, 40.8184772694]}, "type": "Feature", "properties": {"collection_times": [{"days": "Mon-Fri", "time": "4:00pm"}, {"days": "Sat", "time": "10:30am"}, {"days": "Sun", "time": "Closed"}], "id": "1102000024", "name": "USPS COLLECTION BOX - BLUE BOX", "address": {"city": "GREAT NECK", "state": "NY", "street": "98 CUTTERMILL RD", "postcode": "11020"}}},
{"geometry": {"type": "Point", "coordinates": [-73.7194069288, 40.8184772694]}, "type": "Feature", "properties": {"collection_times": [{"days": "Mon-Fri", "time": "4:00pm"}, {"days": "Sat", "time": "10:30am"}, {"days": "Sun", "time": "Closed"}], "id": "1102000025", "name": "USPS COLLECTION BOX - BLUE BOX", "address": {"city": "GREAT NECK", "state": "NY", "street": "98 CUTTERMILL RD", "postcode": "11020"}}},
{"geometry": {"type": "Point", "coordinates": [-73.7334072481, 40.7831919693]}, "type": "Feature", "properties": {"collection_times": [{"days": "Mon-Fri", "time": "4:00pm"}, {"days": "Sat", "time": "10:30am"}, {"days": "Sun", "time": "Closed"}], "id": "1102000028", "name": "USPS COLLECTION BOX - BLUE BOX", "address": {"city": "GREAT NECK", "state": "NY", "street": "115 CUTTERMILL RD", "postcode": "11020"}}},
{"geometry": {"type": "Point", "coordinates": [-73.7300204366, 40.786344555]}, "type": "Feature", "properties": {"collection_times": [{"days": "Mon-Fri", "time": "4:00pm"}, {"days": "Sat", "time": "10:30am"}, {"days": "Sun", "time": "Closed"}], "id": "1102000030", "name": "USPS COLLECTION BOX - BLUE BOX", "address": {"city": "GREAT NECK", "state": "NY", "street": "40 CUTTERMILL RD", "postcode": "11020"}}},
{"geometry": {"type": "Point", "coordinates": [-73.7145887369, 40.8001485031]}, "type": "Feature", "properties": {"collection_times": [{"days": "Mon-Fri", "time": "2:00pm"}, {"days": "Sat", "time": "11:00am"}, {"days": "Sun", "time": "Closed"}], "id": "1102000035", "name": "USPS COLLECTION BOX - BLUE BOX", "address": {"city": "GREAT NECK", "state": "NY", "street": "310 EAST SHORE RD", "postcode": "11020"}}},
{"geometry": {"type": "Point", "coordinates": [-73.7507161489, 40.7920808163]}, "type": "Feature", "properties": {"collection_times": [{"days": "Mon-Fri", "time": "12:00pm"}, {"days": "Sat", "time": "11:30am"}, {"days": "Sun", "time": "Closed"}], "id": "1102000037", "name": "USPS COLLECTION BOX - BLUE BOX", "address": {"city": "GREAT NECK", "state": "NY", "street": "195 EMERSON RD", "postcode": "11020"}}},
{"geometry": {"type": "Point", "coordinates": [-73.7293615285, 40.7885211995]}, "type": "Feature", "properties": {"collection_times": [{"days": "Mon-Fri", "time": "12:00pm"}, {"days": "Sat", "time": "11:30am"}, {"days": "Sun", "time": "Closed"}], "id": "1102000038", "name": "USPS COLLECTION BOX - BLUE BOX", "address": {"city": "GREAT NECK", "state": "NY", "street": "78 MIDDLENECK RD", "postcode": "11020"}}},
{"geometry": {"type": "Point", "coordinates": [-73.7293213079, 40.784441174]}, "type": "Feature", "properties": {"collection_times": [{"days": "Mon-Fri", "time": "9:30am"}, {"days": "Sat", "time": "11:30am"}, {"days": "Sun", "time": "Closed"}], "id": "1102000040", "name": "USPS COLLECTION BOX - BLUE BOX", "address": {"city": "GREAT NECK", "state": "NY", "street": "1 GREAT NECK RD", "postcode": "11020"}}},
{"geometry": {"type": "Point", "coordinates": [-73.7293485159, 40.7850243728]}, "type": "Feature", "properties": {"collection_times": [{"days": "Mon-Fri", "time": "4:30pm"}, {"days": "Sat-Sun", "time": "Closed"}], "id": "1102000041", "name": "USPS COLLECTION BOX - BLUE BOX", "address": {"city": "GREAT NECK", "state": "NY", "street": "111 GREAT NECK RD", "postcode": "11020"}}},
{"geometry": {"type": "Point", "coordinates": [-73.7314908542, 40.7825508055]}, "type": "Feature", "properties": {"collection_times": [{"days": "Mon-Fri", "time": "4:30pm"}, {"days": "Sat", "time": "12:00pm"}, {"days": "Sun", "time": "Closed"}], "id": "1102000046", "name": "USPS COLLECTION BOX - BLUE BOX", "address": {"city": "GREAT NECK", "state": "NY", "street": "185 GREAT NECK RD", "postcode": "11020"}}},
{"geometry": {"type": "Point", "coordinates": [-73.7323644719, 40.7751916064]}, "type": "Feature", "properties": {"collection_times": [{"days": "Mon-Fri", "time": "4:30pm"}, {"days": "Sat", "time": "12:00pm"}, {"days": "Sun", "time": "Closed"}], "id": "1102000050", "name": "USPS COLLECTION BOX - BLUE BOX", "address": {"city": "GREAT NECK", "state": "NY", "street": "485 GREAT NECK RD", "postcode": "11020"}}},
{"geometry": {"type": "Point", "coordinates": [-73.732085883, 40.7762030478]}, "type": "Feature", "properties": {"collection_times": [{"days": "Mon-Fri", "time": "4:30pm"}, {"days": "Sat", "time": "12:00pm"}, {"days": "Sun", "time": "Closed"}], "id": "1102000052", "name": "USPS COLLECTION BOX - BLUE BOX", "address": {"city": "GREAT NECK", "state": "NY", "street": "488 GREAT NECK RD", "postcode": "11020"}}},
{"geometry": {"type": "Point", "coordinates": [-73.731509782, 40.7776509896]}, "type": "Feature", "properties": {"collection_times": [{"days": "Mon-Fri", "time": "4:45pm"}, {"days": "Sat", "time": "12:00pm"}, {"days": "Sun", "time": "Closed"}], "id": "1102000053", "name": "USPS COLLECTION BOX - BLUE BOX", "address": {"city": "GREAT NECK", "state": "NY", "street": "400 GREAT NECK RD", "postcode": "11020"}}},
{"geometry": {"type": "Point", "coordinates": [-73.7267135081, 40.7866994435]}, "type": "Feature", "properties": {"collection_times": [{"days": "Mon-Fri", "time": "5:00pm"}, {"days": "Sat", "time": "11:30am"}, {"days": "Sun", "time": "Closed"}], "id": "1102000055", "name": "USPS COLLECTION BOX - BLUE BOX", "address": {"city": "GREAT NECK", "state": "NY", "street": "4 GREAT NECK RD", "postcode": "11020"}}},
{"geometry": {"type": "Point", "coordinates": [-73.7280176871, 40.7883887081]}, "type": "Feature", "properties": {"collection_times": [{"days": "Mon-Fri", "time": "4:30pm"}, {"days": "Sat", "time": "10:30am"}, {"days": "Sun", "time": "Closed"}], "id": "1102000056", "name": "USPS COLLECTION BOX - BLUE BOX", "address": {"city": "GREAT NECK", "state": "NY", "street": "11 GRACE AVE E", "postcode": "11020"}}},
{"geometry": {"type": "Point", "coordinates": [-73.7276297739, 40.7884179209]}, "type": "Feature", "properties": {"collection_times": [{"days": "Mon-Fri", "time": "4:30pm"}, {"days": "Sat", "time": "10:30am"}, {"days": "Sun", "time": "Closed"}], "id": "1102000058", "name": "USPS COLLECTION BOX - BLUE BOX", "address": {"city": "GREAT NECK", "state": "NY", "street": "10 GRACE AVE E", "postcode": "11020"}}},
{"geometry": {"type": "Point", "coordinates": [-73.7237300141, 40.7890890255]}, "type": "Feature", "properties": {"collection_times": [{"days": "Mon-Fri", "time": "9:00am"}, {"days": "Sat", "time": "10:30am"}, {"days": "Sun", "time": "Closed"}], "id": "1102000059", "name": "USPS COLLECTION BOX - BLUE BOX", "address": {"city": "GREAT NECK", "state": "NY", "street": "15 CANTERBURY RD", "postcode": "11020"}}},
{"geometry": {"type": "Point", "coordinates": [-73.7289001745, 40.7879687576]}, "type": "Feature", "properties": {"collection_times": [{"days": "Mon-Fri", "time": "4:30pm"}, {"days": "Sat", "time": "10:30am"}, {"days": "Sun", "time": "Closed"}], "id": "1102000060", "name": "USPS COLLECTION BOX - BLUE BOX", "address": {"city": "GREAT NECK", "state": "NY", "street": "51 MIDDLE NECK RD", "postcode": "11020"}}},
{"geometry": {"type": "Point", "coordinates": [-73.7220390125, 40.7680654731]}, "type": "Feature", "properties": {"collection_times": [{"days": "Mon-Fri", "time": "10:00am"}, {"days": "Sat", "time": "12:00pm"}, {"days": "Sun", "time": "Closed"}], "id": "1102000062", "name": "USPS COLLECTION BOX - BLUE BOX", "address": {"city": "GREAT NECK", "state": "NY", "street": "100 HORACE HARDING BLVD", "postcode": "11020"}}},
{"geometry": {"type": "Point", "coordinates": [-73.7321899834, 40.7921706279]}, "type": "Feature", "properties": {"collection_times": [{"days": "Mon-Fri", "time": "12:00pm"}, {"days": "Sat", "time": "11:30am"}, {"days": "Sun", "time": "Closed"}], "id": "1102000064", "name": "USPS COLLECTION BOX - BLUE BOX", "address": {"city": "GREAT NECK", "state": "NY", "street": "160 MIDDLE NECK RD", "postcode": "11020"}}},
{"geometry": {"type": "Point", "coordinates": [-73.7267583654, 40.7848889778]}, "type": "Feature", "properties": {"collection_times": [{"days": "Mon-Fri", "time": "11:00am"}, {"days": "Sat", "time": "12:00pm"}, {"days": "Sun", "time": "Closed"}], "id": "1102000065", "name": "USPS COLLECTION BOX - BLUE BOX", "address": {"city": "GREAT NECK", "state": "NY", "street": "15 CLENT RD", "postcode": "11020"}}},
{"geometry": {"type": "Point", "coordinates": [-73.7460826418, 40.7966057416]}, "type": "Feature", "properties": {"collection_times": [{"days": "Mon-Fri", "time": "12:00pm"}, {"days": "Sat", "time": "11:30am"}, {"days": "Sun", "time": "Closed"}], "id": "1102000066", "name": "USPS COLLECTION BOX - BLUE BOX", "address": {"city": "GREAT NECK", "state": "NY", "street": "169 BAYVIEW AVE", "postcode": "11020"}}},
{"geometry": {"type": "Point", "coordinates": [-73.7277657168, 40.7872625311]}, "type": "Feature", "properties": {"collection_times": [{"days": "Mon-Fri", "time": "4:30pm"}, {"days": "Sat", "time": "10:30am"}, {"days": "Sun", "time": "Closed"}], "id": "1102000068", "name": "USPS COLLECTION BOX - BLUE BOX", "address": {"city": "GREAT NECK", "state": "NY", "street": "11 MIDDLE NECK RD", "postcode": "11020"}}},
{"geometry": {"type": "Point", "coordinates": [-73.7294482497, 40.7887767432]}, "type": "Feature", "properties": {"collection_times": [{"days": "Mon-Fri", "time": "5:00pm"}, {"days": "Sat", "time": "10:30am"}, {"days": "Sun", "time": "Closed"}], "id": "1102000070", "name": "USPS COLLECTION BOX - BLUE BOX", "address": {"city": "GREAT NECK", "state": "NY", "street": "91 MIDDLE NECK RD", "postcode": "11020"}}},
{"geometry": {"type": "Point", "coordinates": [-73.7353771968, 40.80154588]}, "type": "Feature", "properties": {"collection_times": [{"days": "Mon-Fri", "time": "11:30am"}, {"days": "Sat", "time": "11:00am"}, {"days": "Sun", "time": "Closed"}], "id": "1102000071", "name": "USPS COLLECTION BOX - BLUE BOX", "address": {"city": "GREAT NECK", "state": "NY", "street": "569 MIDDLE NECK RD", "postcode": "11020"}}},
{"geometry": {"type": "Point", "coordinates": [-73.7197064781, 40.7738612114]}, "type": "Feature", "properties": {"collection_times": [{"days": "Mon-Fri", "time": "12:00pm"}, {"days": "Sat", "time": "11:00am"}, {"days": "Sun", "time": "Closed"}], "id": "1102000073", "name": "USPS COLLECTION BOX - BLUE BOX", "address": {"city": "GREAT NECK", "state": "NY", "street": "700 MIDDLE NECK RD", "postcode": "11020"}}},
{"geometry": {"type": "Point", "coordinates": [-73.7355649653, 40.8084126545]}, "type": "Feature", "properties": {"collection_times": [{"days": "Mon-Fri", "time": "12:00pm"}, {"days": "Sat", "time": "11:30am"}, {"days": "Sun", "time": "Closed"}], "id": "1102000074", "name": "USPS COLLECTION BOX - BLUE BOX", "address": {"city": "GREAT NECK", "state": "NY", "street": "781 MIDDLE NECK RD", "postcode": "11020"}}},
{"geometry": {"type": "Point", "coordinates": [-73.7314932205, 40.7748580234]}, "type": "Feature", "properties": {"collection_times": [{"days": "Mon-Fri", "time": "4:00pm"}, {"days": "Sat", "time": "12:00pm"}, {"days": "Sun", "time": "Closed"}], "id": "1102000079", "name": "USPS COLLECTION BOX - BLUE BOX", "address": {"city": "GREAT NECK", "state": "NY", "street": "107 NORTHERN BLVD", "postcode": "11020"}}},
{"geometry": {"type": "Point", "coordinates": [-73.7268505074, 40.7774402967]}, "type": "Feature", "properties": {"collection_times": [{"days": "Mon-Fri", "time": "4:00pm"}, {"days": "Sat", "time": "12:00pm"}, {"days": "Sun", "time": "Closed"}], "id": "1102000080", "name": "USPS COLLECTION BOX - BLUE BOX", "address": {"city": "GREAT NECK", "state": "NY", "street": "277 NORTHERN BLVD", "postcode": "11020"}}},
{"geometry": {"type": "Point", "coordinates": [-73.7272363218, 40.777130834]}, "type": "Feature", "properties": {"collection_times": [{"days": "Mon-Fri", "time": "10:00am"}, {"days": "Sat", "time": "12:00pm"}, {"days": "Sun", "time": "Closed"}], "id": "1102000081", "name": "USPS COLLECTION BOX - BLUE BOX", "address": {"city": "GREAT NECK", "state": "NY", "street": "260 NORTHERN BLVD", "postcode": "11020"}}},
{"geometry": {"type": "Point", "coordinates": [-73.7258976169, 40.7778863234]}, "type": "Feature", "properties": {"collection_times": [{"days": "Mon-Fri", "time": "4:00pm"}, {"days": "Sat", "time": "12:00pm"}, {"days": "Sun", "time": "Closed"}], "id": "1102000083", "name": "USPS COLLECTION BOX - BLUE BOX", "address": {"city": "GREAT NECK", "state": "NY", "street": "305 NORTHERN BLVD", "postcode": "11020"}}},
{"geometry": {"type": "Point", "coordinates": [-73.7248296127, 40.7783229102]}, "type": "Feature", "properties": {"collection_times": [{"days": "Mon-Fri", "time": "4:30pm"}, {"days": "Sat", "time": "12:00pm"}, {"days": "Sun", "time": "Closed"}], "id": "1102000084", "name": "USPS COLLECTION BOX - BLUE BOX", "address": {"city": "GREAT NECK", "state": "NY", "street": "320 NORTHERN BLVD", "postcode": "11020"}}},
{"geometry": {"type": "Point", "coordinates": [-73.722399815, 40.7794372576]}, "type": "Feature", "properties": {"collection_times": [{"days": "Mon-Fri", "time": "9:30am"}, {"days": "Sat", "time": "12:00pm"}, {"days": "Sun", "time": "Closed"}], "id": "1102000085", "name": "USPS COLLECTION BOX - BLUE BOX", "address": {"city": "GREAT NECK", "state": "NY", "street": "410 NORTHERN BLVD", "postcode": "11020"}}},
{"geometry": {"type": "Point", "coordinates": [-73.722312276, 40.7794762952]}, "type": "Feature", "properties": {"collection_times": [{"days": "Mon-Fri", "time": "4:00pm"}, {"days": "Sat", "time": "12:00pm"}, {"days": "Sun", "time": "Closed"}], "id": "1102000087", "name": "USPS COLLECTION BOX - BLUE BOX", "address": {"city": "GREAT NECK", "state": "NY", "street": "445 NORTHERN BLVD", "postcode": "11020"}}},
{"geometry": {"type": "Point", "coordinates": [-73.7202858673, 40.7804486875]}, "type": "Feature", "properties": {"collection_times": [{"days": "Mon-Fri", "time": "4:00pm"}, {"days": "Sat", "time": "12:00pm"}, {"days": "Sun", "time": "Closed"}], "id": "1102000089", "name": "USPS COLLECTION BOX - BLUE BOX", "address": {"city": "GREAT NECK", "state": "NY", "street": "525 NORTHERN BLVD", "postcode": "11020"}}},
{"geometry": {"type": "Point", "coordinates": [-73.7179528589, 40.7812755716]}, "type": "Feature", "properties": {"collection_times": [{"days": "Mon-Fri", "time": "10:00am"}, {"days": "Sat", "time": "12:00pm"}, {"days": "Sun", "time": "Closed"}], "id": "1102000090", "name": "USPS COLLECTION BOX - BLUE BOX", "address": {"city": "GREAT NECK", "state": "NY", "street": "550 NORTHERN BLVD", "postcode": "11020"}}},
{"geometry": {"type": "Point", "coordinates": [-73.717353312, 40.7816032555]}, "type": "Feature", "properties": {"collection_times": [{"days": "Mon-Fri", "time": "4:30pm"}, {"days": "Sat", "time": "10:00am"}, {"days": "Sun", "time": "Closed"}], "id": "1102000091", "name": "USPS COLLECTION BOX - BLUE BOX", "address": {"city": "GREAT NECK", "state": "NY", "street": "560 NORTHERN BLVD", "postcode": "11020"}}},
{"geometry": {"type": "Point", "coordinates": [-73.7094310358, 40.7851237413]}, "type": "Feature", "properties": {"collection_times": [{"days": "Mon-Fri", "time": "11:00am"}, {"days": "Sat", "time": "12:00pm"}, {"days": "Sun", "time": "Closed"}], "id": "1102000092", "name": "USPS COLLECTION BOX - BLUE BOX", "address": {"city": "GREAT NECK", "state": "NY", "street": "833 NORTHERN BLVD", "postcode": "11020"}}},
{"geometry": {"type": "Point", "coordinates": [-73.7197064781, 40.7738612114]}, "type": "Feature", "properties": {"collection_times": [{"days": "Mon-Fri", "time": "4:45pm"}, {"days": "Sat", "time": "12:00pm"}, {"days": "Sun", "time": "Closed"}], "id": "1102000093", "name": "USPS COLLECTION BOX - BLUE BOX", "address": {"city": "GREAT NECK", "state": "NY", "street": "600 NORTHERN BLVD", "postcode": "11020"}}},
{"geometry": {"type": "Point", "coordinates": [-73.707408176, 40.7854182981]}, "type": "Feature", "properties": {"collection_times": [{"days": "Mon-Fri", "time": "5:00pm"}, {"days": "Sat", "time": "12:00pm"}, {"days": "Sun", "time": "Closed"}], "id": "1102000099", "name": "USPS COLLECTION BOX - BLUE BOX", "address": {"city": "GREAT NECK", "state": "NY", "street": "1010 NORTHERN BLVD", "postcode": "11020"}}},
{"geometry": {"type": "Point", "coordinates": [-73.706397929, 40.7855638021]}, "type": "Feature", "properties": {"collection_times": [{"days": "Mon-Fri", "time": "10:30am"}, {"days": "Sat", "time": "12:00pm"}, {"days": "Sun", "time": "Closed"}], "id": "1102000102", "name": "USPS COLLECTION BOX - BLUE BOX", "address": {"city": "GREAT NECK", "state": "NY", "street": "935 NORTHERN BLVD", "postcode": "11020"}}},
{"geometry": {"type": "Point", "coordinates": [-73.7352597619, 40.8044343635]}, "type": "Feature", "properties": {"collection_times": [{"days": "Mon-Fri", "time": "5:00pm"}, {"days": "Sat", "time": "12:00pm"}, {"days": "Sun", "time": "Closed"}], "id": "1102000103", "name": "USPS COLLECTION BOX - BLUE BOX", "address": {"city": "GREAT NECK", "state": "NY", "street": "661 MIDDLE NECK RD", "postcode": "11020"}}},
{"geometry": {"type": "Point", "coordinates": [-73.7261154891, 40.7876268825]}, "type": "Feature", "properties": {"collection_times": [{"days": "Mon-Fri", "time": "4:30pm"}, {"days": "Sat", "time": "10:30am"}, {"days": "Sun", "time": "Closed"}], "id": "1102000111", "name": "USPS COLLECTION BOX - BLUE BOX", "address": {"city": "GREAT NECK", "state": "NY", "street": "35 NORTH STATION PLZ", "postcode": "11020"}}},
{"geometry": {"type": "Point", "coordinates": [-73.7250851318, 40.7879723065]}, "type": "Feature", "properties": {"collection_times": [{"days": "Mon-Fri", "time": "5:00pm"}, {"days": "Sat", "time": "10:30am"}, {"days": "Sun", "time": "Closed"}], "id": "1102000112", "name": "USPS COLLECTION BOX - BLUE BOX", "address": {"city": "GREAT NECK", "state": "NY", "street": "75 NORTH STATION PLZ", "postcode": "11020"}}},
{"geometry": {"type": "Point", "coordinates": [-73.7446950426, 40.7909604609]}, "type": "Feature", "properties": {"collection_times": [{"days": "Mon-Fri", "time": "12:00pm"}, {"days": "Sat", "time": "11:30am"}, {"days": "Sun", "time": "Closed"}], "id": "1102000113", "name": "USPS COLLECTION BOX - BLUE BOX", "address": {"city": "GREAT NECK", "state": "NY", "street": "2 SHOREPARK RD", "postcode": "11020"}}},
{"geometry": {"type": "Point", "coordinates": [-73.7230331558, 40.7874100785]}, "type": "Feature", "properties": {"collection_times": [{"days": "Mon-Fri", "time": "5:00pm"}, {"days": "Sat", "time": "1:00pm"}, {"days": "Sun", "time": "Closed"}], "id": "1102000116", "name": "USPS COLLECTION BOX - BLUE BOX", "address": {"city": "GREAT NECK", "state": "NY", "street": "1 WELWYN RD", "postcode": "11020"}}},
{"geometry": {"type": "Point", "coordinates": [-73.7230331558, 40.7874100785]}, "type": "Feature", "properties": {"collection_times": [{"days": "Mon-Fri", "time": "5:00pm"}, {"days": "Sat", "time": "1:00pm"}, {"days": "Sun", "time": "Closed"}], "id": "1102000117", "name": "USPS COLLECTION BOX - BLUE BOX", "address": {"city": "GREAT NECK", "state": "NY", "street": "1 WELWYN RD", "postcode": "11020"}}},
{"geometry": {"type": "Point", "coordinates": [-73.7230331558, 40.7874100785]}, "type": "Feature", "properties": {"collection_times": [{"days": "Mon-Fri", "time": "5:00pm"}, {"days": "Sat", "time": "1:00pm"}, {"days": "Sun", "time": "Closed"}], "id": "1102000118", "name": "USPS COLLECTION BOX - BLUE BOX", "address": {"city": "GREAT NECK", "state": "NY", "street": "1 WELWYN RD", "postcode": "11020"}}},
{"geometry": {"type": "Point", "coordinates": [-73.7230331558, 40.7874100785]}, "type": "Feature", "properties": {"collection_times": [{"days": "Mon-Fri", "time": "5:00pm"}, {"days": "Sat", "time": "1:00pm"}, {"days": "Sun", "time": "Closed"}], "id": "1102000119", "name": "USPS COLLECTION BOX - BLUE BOX", "address": {"city": "GREAT NECK", "state": "NY", "street": "1 WELWYN RD", "postcode": "11020"}}},
{"geometry": {"type": "Point", "coordinates": [-73.7284695774, 40.7876209677]}, "type": "Feature", "properties": {"collection_times": [{"days": "Mon-Fri", "time": "11:00am"}, {"days": "Sat", "time": "12:00pm"}, {"days": "Sun", "time": "Closed"}], "id": "1102000120", "name": "USPS COLLECTION BOX - BLUE BOX", "address": {"city": "GREAT NECK", "state": "NY", "street": "41 SOUTH MIDDLE NECK RD", "postcode": "11020"}}},
{"geometry": {"type": "Point", "coordinates": [-73.7210666202, 40.7843595498]}, "type": "Feature", "properties": {"collection_times": [{"days": "Mon-Fri", "time": "9:30am"}, {"days": "Sat", "time": "12:00pm"}, {"days": "Sun", "time": "Closed"}], "id": "1102000122", "name": "USPS COLLECTION BOX - BLUE BOX", "address": {"city": "GREAT NECK", "state": "NY", "street": "150 SOUTH MIDDLE NECK RD", "postcode": "11020"}}},
{"geometry": {"type": "Point", "coordinates": [-73.726171279, 40.7869620874]}, "type": "Feature", "properties": {"collection_times": [{"days": "Mon-Fri", "time": "11:00am"}, {"days": "Sat", "time": "12:00pm"}, {"days": "Sun", "time": "Closed"}], "id": "1102000123", "name": "USPS COLLECTION BOX - BLUE BOX", "address": {"city": "GREAT NECK", "state": "NY", "street": "28 SOUTH STATION PLZ", "postcode": "11020"}}},
{"geometry": {"type": "Point", "coordinates": [-73.7200823983, 40.7981126308]}, "type": "Feature", "properties": {"collection_times": [{"days": "Mon-Fri", "time": "12:00pm"}, {"days": "Sat", "time": "11:00am"}, {"days": "Sun", "time": "Closed"}], "id": "1102000124", "name": "USPS COLLECTION BOX - BLUE BOX", "address": {"city": "GREAT NECK", "state": "NY", "street": "149 WOOLEYS LN", "postcode": "11020"}}},
{"geometry": {"type": "Point", "coordinates": [-73.7467305323, 40.8081846458]}, "type": "Feature", "properties": {"collection_times": [{"days": "Mon-Fri", "time": "12:00pm"}, {"days": "Sat", "time": "11:30am"}, {"days": "Sun", "time": "Closed"}], "id": "1102000126", "name": "USPS COLLECTION BOX - BLUE BOX", "address": {"city": "GREAT NECK", "state": "NY", "street": "123 STEAMBOAT RD", "postcode": "11020"}}},
{"geometry": {"type": "Point", "coordinates": [-73.7283193416, 40.7774380569]}, "type": "Feature", "properties": {"collection_times": [{"days": "Mon-Fri", "time": "9:30am"}, {"days": "Sat", "time": "12:00pm"}, {"days": "Sun", "time": "Closed"}], "id": "1102000129", "name": "USPS COLLECTION BOX - BLUE BOX", "address": {"city": "GREAT NECK", "state": "NY", "street": "6 TAIN DR", "postcode": "11020"}}},
{"geometry": {"type": "Point", "coordinates": [-73.7347324693, 40.776695333]}, "type": "Feature", "properties": {"collection_times": [{"days": "Mon-Fri", "time": "9:30am"}, {"days": "Sat", "time": "12:00pm"}, {"days": "Sun", "time": "Closed"}], "id": "1102000130", "name": "USPS COLLECTION BOX - BLUE BOX", "address": {"city": "GREAT NECK", "state": "NY", "street": "6 TERRACE CIR", "postcode": "11020"}}},
{"geometry": {"type": "Point", "coordinates": [-73.7354679626, 40.7763190474]}, "type": "Feature", "properties": {"collection_times": [{"days": "Mon-Fri", "time": "9:30am"}, {"days": "Sat", "time": "12:00pm"}, {"days": "Sun", "time": "Closed"}], "id": "1102000131", "name": "USPS COLLECTION BOX - BLUE BOX", "address": {"city": "GREAT NECK", "state": "NY", "street": "9 TERRACE CIR", "postcode": "11020"}}},
{"geometry": {"type": "Point", "coordinates": [-73.7128092385, 40.7710420346]}, "type": "Feature", "properties": {"collection_times": [{"days": "Mon-Fri", "time": "9:30am"}, {"days": "Sat", "time": "12:00pm"}, {"days": "Sun", "time": "Closed"}], "id": "1102000133", "name": "USPS COLLECTION BOX - BLUE BOX", "address": {"city": "GREAT NECK", "state": "NY", "street": "25701 PEMBROKE AVE", "postcode": "11020"}}},
{"geometry": {"type": "Point", "coordinates": [-73.7333741253, 40.7971745443]}, "type": "Feature", "properties": {"collection_times": [{"days": "Mon-Fri", "time": "12:00pm"}, {"days": "Sat", "time": "11:00am"}, {"days": "Sun", "time": "Closed"}], "id": "1102000134", "name": "USPS COLLECTION BOX - BLUE BOX", "address": {"city": "GREAT NECK", "state": "NY", "street": "8 WOOLEYS LN", "postcode": "11020"}}},
{"geometry": {"type": "Point", "coordinates": [-73.7197064782, 40.7738611656]}, "type": "Feature", "properties": {"collection_times": [{"days": "Mon-Fri", "time": "5:00pm"}, {"days": "Sat", "time": "1:00pm"}, {"days": "Sun", "time": "Closed"}], "id": "1102000136", "name": "USPS COLLECTION BOX - EXPRESS", "address": {"city": "GREAT NECK", "state": "NY", "street": "1 WELWYN RD", "postcode": "11020"}}},
{"geometry": {"type": "Point", "coordinates": [-73.7197064782, 40.7738611656]}, "type": "Feature", "properties": {"collection_times": [{"days": "Mon-Fri", "time": "5:00pm"}, {"days": "Sat", "time": "12:00pm"}, {"days": "Sun", "time": "Closed"}], "id": "1102000137", "name": "USPS COLLECTION BOX - EXPRESS", "address": {"city": "GREAT NECK", "state": "NY", "street": "661 MIDDLE NECK RD", "postcode": "11020"}}},
{"geometry": {"type": "Point", "coordinates": [-73.7340716586, 40.8002767745]}, "type": "Feature", "properties": {"collection_times": [{"days": "Mon-Fri", "time": "12:00pm"}, {"days": "Sat", "time": "11:00am"}, {"days": "Sun", "time": "Closed"}], "id": "1102000140", "name": "USPS COLLECTION BOX - BLUE BOX", "address": {"city": "GREAT NECK", "state": "NY", "street": "495 MIDDLE NECK RD", "postcode": "11020"}}},
{"geometry": {"type": "Point", "coordinates": [-73.7082539917, 40.7852964533]}, "type": "Feature", "properties": {"collection_times": [{"days": "Mon-Fri", "time": "5:00pm"}, {"days": "Sat", "time": "12:00pm"}, {"days": "Sun", "time": "Closed"}], "id": "1102000141", "name": "USPS COLLECTION BOX - BLUE BOX", "address": {"city": "GREAT NECK", "state": "NY", "street": "1000 NORTHERN BLVD", "postcode": "11020"}}},
{"geometry": {"type": "Point", "coordinates": [-73.7148134991, 40.7736170995]}, "type": "Feature", "properties": {"collection_times": [{"days": "Mon-Fri", "time": "9:30am"}, {"days": "Sat", "time": "12:00pm"}, {"days": "Sun", "time": "Closed"}], "id": "1102000142", "name": "USPS COLLECTION BOX - BLUE BOX", "address": {"city": "GREAT NECK", "state": "NY", "street": "16 BIRCH HILL RD", "postcode": "11020"}}},
{"geometry": {"type": "Point", "coordinates": [-73.732260363, 40.7792703347]}, "type": "Feature", "properties": {"collection_times": [{"days": "Mon-Fri", "time": "4:30pm"}, {"days": "Sat", "time": "12:00pm"}, {"days": "Sun", "time": "Closed"}], "id": "1102000145", "name": "USPS COLLECTION BOX - BLUE BOX", "address": {"city": "GREAT NECK", "state": "NY", "street": "343 GREAT NECK RD", "postcode": "11020"}}},
{"geometry": {"type": "Point", "coordinates": [-73.722900654, 40.787349133]}, "type": "Feature", "properties": {"collection_times": [{"days": "Mon-Fri", "time": "5:00pm"}, {"days": "Sat", "time": "12:00pm"}, {"days": "Sun", "time": "Closed"}], "id": "1102000147", "name": "USPS COLLECTION BOX - PO LOBBY", "address": {"city": "GREAT NECK", "state": "NY", "street": "1 WELWYN RD", "postcode": "11020"}}},
{"geometry": {"type": "Point", "coordinates": [-73.7352597619, 40.8044343635]}, "type": "Feature", "properties": {"collection_times": [{"days": "Mon-Fri", "time": "5:00pm"}, {"days": "Sat", "time": "12:00pm"}, {"days": "Sun", "time": "Closed"}], "id": "1102300001", "name": "USPS COLLECTION BOX - PO LOBBY", "address": {"city": "GREAT NECK", "state": "NY", "street": "661 MIDDLENECK RD", "postcode": "11023"}}},
{"geometry": {"type": "Point", "coordinates": [-73.6913037974, 40.7979330883]}, "type": "Feature", "properties": {"collection_times": [{"days": "Mon-Sat", "time": "10:00am"}, {"days": "Sun", "time": "Closed"}], "id": "1103000001", "name": "USPS COLLECTION BOX - BLUE BOX", "address": {"city": "MANHASSET", "state": "NY", "street": "61 RIDGE CRES", "postcode": "11030"}}},
{"geometry": {"type": "Point", "coordinates": [-73.6989571172, 40.7968811705]}, "type": "Feature", "properties": {"collection_times": [{"days": "Mon-Sat", "time": "10:00am"}, {"days": "Sun", "time": "Closed"}], "id": "1103000002", "name": "USPS COLLECTION BOX - BLUE BOX", "address": {"city": "MANHASSET", "state": "NY", "street": "1 PARK AVE", "postcode": "11030"}}},
{"geometry": {"type": "Point", "coordinates": [-73.6880111978, 40.796836218]}, "type": "Feature", "properties": {"collection_times": [{"days": "Mon-Sat", "time": "10:00am"}, {"days": "Sun", "time": "Closed"}], "id": "1103000003", "name": "USPS COLLECTION BOX - BLUE BOX", "address": {"city": "MANHASSET", "state": "NY", "street": "12 OXFORD RD", "postcode": "11030"}}},
{"geometry": {"type": "Point", "coordinates": [-73.6900083656, 40.7962118739]}, "type": "Feature", "properties": {"collection_times": [{"days": "Mon-Fri", "time": "5:00pm"}, {"days": "Sat", "time": "3:00pm"}, {"days": "Sun", "time": "Closed"}], "id": "1103000004", "name": "USPS COLLECTION BOX - EXPRESS", "address": {"city": "MANHASSET", "state": "NY", "street": "42 ORCHARD ST", "postcode": "11030"}}},
{"geometry": {"type": "Point", "coordinates": [-73.6982307803, 40.7985633381]}, "type": "Feature", "properties": {"collection_times": [{"days": "Mon-Fri", "time": "5:00pm"}, {"days": "Sat", "time": "3:00pm"}, {"days": "Sun", "time": "Closed"}], "id": "1103000005", "name": "USPS COLLECTION BOX - BLUE BOX", "address": {"city": "MANHASSET", "state": "NY", "street": "42 ORCHARD ST", "postcode": "11030"}}},
{"geometry": {"type": "Point", "coordinates": [-73.6722695629, 40.7963665833]}, "type": "Feature", "properties": {"collection_times": [{"days": "Mon-Fri", "time": "4:00pm"}, {"days": "Sat", "time": "2:00pm"}, {"days": "Sun", "time": "Closed"}], "id": "1103000007", "name": "USPS COLLECTION BOX - BLUE BOX", "address": {"city": "MANHASSET", "state": "NY", "street": "2110 NORTHERN BLVD", "postcode": "11030"}}},
{"geometry": {"type": "Point", "coordinates": [-73.6769730077, 40.7954107525]}, "type": "Feature", "properties": {"collection_times": [{"days": "Mon-Fri", "time": "4:00pm"}, {"days": "Sat", "time": "2:00pm"}, {"days": "Sun", "time": "Closed"}], "id": "1103000011", "name": "USPS COLLECTION BOX - BLUE BOX", "address": {"city": "MANHASSET", "state": "NY", "street": "1900 NORTHERN BLVD", "postcode": "11030"}}},
{"geometry": {"type": "Point", "coordinates": [-73.6865872275, 40.7943904069]}, "type": "Feature", "properties": {"collection_times": [{"days": "Mon-Fri", "time": "4:00pm"}, {"days": "Sat", "time": "2:00pm"}, {"days": "Sun", "time": "Closed"}], "id": "1103000012", "name": "USPS COLLECTION BOX - BLUE BOX", "address": {"city": "MANHASSET", "state": "NY", "street": "1699 NORTHERN BLVD", "postcode": "11030"}}},
{"geometry": {"type": "Point", "coordinates": [-73.6878491325, 40.7941662797]}, "type": "Feature", "properties": {"collection_times": [{"days": "Mon-Fri", "time": "4:00pm"}, {"days": "Sat", "time": "10:00am"}, {"days": "Sun", "time": "Closed"}], "id": "1103000014", "name": "USPS COLLECTION BOX - BLUE BOX", "address": {"city": "MANHASSET", "state": "NY", "street": "1615 NORTHERN BLVD", "postcode": "11030"}}},
{"geometry": {"type": "Point", "coordinates": [-73.6891279111, 40.7939852869]}, "type": "Feature", "properties": {"collection_times": [{"days": "Mon-Sat", "time": "10:00am"}, {"days": "Sun", "time": "Closed"}], "id": "1103000015", "name": "USPS COLLECTION BOX - BLUE BOX", "address": {"city": "MANHASSET", "state": "NY", "street": "1554 NORTHERN BLVD", "postcode": "11030"}}},
{"geometry": {"type": "Point", "coordinates": [-73.6922806138, 40.7934609072]}, "type": "Feature", "properties": {"collection_times": [{"days": "Mon-Sat", "time": "10:00am"}, {"days": "Sun", "time": "Closed"}], "id": "1103000016", "name": "USPS COLLECTION BOX - BLUE BOX", "address": {"city": "MANHASSET", "state": "NY", "street": "1488 NORTHERN BLVD", "postcode": "11030"}}},
{"geometry": {"type": "Point", "coordinates": [-73.6931180317, 40.793463602]}, "type": "Feature", "properties": {"collection_times": [{"days": "Mon-Fri", "time": "4:00pm"}, {"days": "Sat", "time": "2:00pm"}, {"days": "Sun", "time": "Closed"}], "id": "1103000017", "name": "USPS COLLECTION BOX - BLUE BOX", "address": {"city": "MANHASSET", "state": "NY", "street": "1453 NORTHERN BLVD", "postcode": "11030"}}},
{"geometry": {"type": "Point", "coordinates": [-73.6964326827, 40.7928827692]}, "type": "Feature", "properties": {"collection_times": [{"days": "Mon-Fri", "time": "4:00pm"}, {"days": "Sat", "time": "2:00pm"}, {"days": "Sun", "time": "Closed"}], "id": "1103000019", "name": "USPS COLLECTION BOX - BLUE BOX", "address": {"city": "MANHASSET", "state": "NY", "street": "1300 NORTHERN BLVD", "postcode": "11030"}}},
{"geometry": {"type": "Point", "coordinates": [-73.6985915828, 40.7925811146]}, "type": "Feature", "properties": {"collection_times": [{"days": "Mon-Sat", "time": "10:00am"}, {"days": "Sun", "time": "Closed"}], "id": "1103000020", "name": "USPS COLLECTION BOX - BLUE BOX", "address": {"city": "MANHASSET", "state": "NY", "street": "1295 NORTHERN BLVD", "postcode": "11030"}}},
{"geometry": {"type": "Point", "coordinates": [-73.7018506348, 40.7911154285]}, "type": "Feature", "properties": {"collection_times": [{"days": "Mon-Fri", "time": "3:30pm"}, {"days": "Sat", "time": "2:00pm"}, {"days": "Sun", "time": "Closed"}], "id": "1103000021", "name": "USPS COLLECTION BOX - BLUE BOX", "address": {"city": "MANHASSET", "state": "NY", "street": "1201 NORTHERN BLVD", "postcode": "11030"}}},
{"geometry": {"type": "Point", "coordinates": [-73.7037197099, 40.7901110963]}, "type": "Feature", "properties": {"collection_times": [{"days": "Mon-Fri", "time": "3:30pm"}, {"days": "Sat", "time": "2:00pm"}, {"days": "Sun", "time": "Closed"}], "id": "1103000024", "name": "USPS COLLECTION BOX - BLUE BOX", "address": {"city": "MANHASSET", "state": "NY", "street": "1129 NORTHERN BLVD", "postcode": "11030"}}},
{"geometry": {"type": "Point", "coordinates": [-73.7043987284, 40.7896260832]}, "type": "Feature", "properties": {"collection_times": [{"days": "Mon-Fri", "time": "4:00pm"}, {"days": "Sat", "time": "2:00pm"}, {"days": "Sun", "time": "Closed"}], "id": "1103000025", "name": "USPS COLLECTION BOX - BLUE BOX", "address": {"city": "MANHASSET", "state": "NY", "street": "1100 NORTHERN BLVD", "postcode": "11030"}}},
{"geometry": {"type": "Point", "coordinates": [-73.6900401244, 40.802196367]}, "type": "Feature", "properties": {"collection_times": [{"days": "Mon-Sat", "time": "10:00am"}, {"days": "Sun", "time": "Closed"}], "id": "1103000027", "name": "USPS COLLECTION BOX - BLUE BOX", "address": {"city": "MANHASSET", "state": "NY", "street": "435 NASSAU AVE", "postcode": "11030"}}},
{"geometry": {"type": "Point", "coordinates": [-73.699249308, 40.7976335324]}, "type": "Feature", "properties": {"collection_times": [{"days": "Mon-Fri", "time": "5:00pm"}, {"days": "Sat", "time": "3:00pm"}, {"days": "Sun", "time": "Closed"}], "id": "1103000029", "name": "USPS COLLECTION BOX - BLUE BOX", "address": {"city": "MANHASSET", "state": "NY", "street": "28 MAPLE PL", "postcode": "11030"}}},
{"geometry": {"type": "Point", "coordinates": [-73.7034264804, 40.7942487262]}, "type": "Feature", "properties": {"collection_times": [{"days": "Mon-Fri", "time": "3:30pm"}, {"days": "Sat-Sun", "time": "Closed"}], "id": "1103000032", "name": "USPS COLLECTION BOX - BLUE BOX", "address": {"city": "MANHASSET", "state": "NY", "street": "200 MEMORIAL PL", "postcode": "11030"}}},
{"geometry": {"type": "Point", "coordinates": [-73.698500495, 40.796980539]}, "type": "Feature", "properties": {"collection_times": [{"days": "Mon-Fri", "time": "5:00pm"}, {"days": "Sat", "time": "2:00pm"}, {"days": "Sun", "time": "Closed"}], "id": "1103000034", "name": "USPS COLLECTION BOX - BLUE BOX", "address": {"city": "MANHASSET", "state": "NY", "street": "30 PARK AVE", "postcode": "11030"}}},
{"geometry": {"type": "Point", "coordinates": [-73.7005526168, 40.7992445375]}, "type": "Feature", "properties": {"collection_times": [{"days": "Mon-Fri", "time": "3:30pm"}, {"days": "Sat", "time": "2:00pm"}, {"days": "Sun", "time": "Closed"}], "id": "1103000036", "name": "USPS COLLECTION BOX - BLUE BOX", "address": {"city": "MANHASSET", "state": "NY", "street": "465 PLANDOME RD", "postcode": "11030"}}},
{"geometry": {"type": "Point", "coordinates": [-73.6831513135, 40.7897119591]}, "type": "Feature", "properties": {"collection_times": [{"days": "Mon-Sat", "time": "10:00am"}, {"days": "Sun", "time": "Closed"}], "id": "1103000037", "name": "USPS COLLECTION BOX - BLUE BOX", "address": {"city": "MANHASSET", "state": "NY", "street": "74 PAYNE WHITNEY LN", "postcode": "11030"}}},
{"geometry": {"type": "Point", "coordinates": [-73.7082478619, 40.7898849933]}, "type": "Feature", "properties": {"collection_times": [{"days": "Mon-Sat", "time": "10:00am"}, {"days": "Sun", "time": "Closed"}], "id": "1103000039", "name": "USPS COLLECTION BOX - BLUE BOX", "address": {"city": "MANHASSET", "state": "NY", "street": "155 E SHORE RD", "postcode": "11030"}}},
{"geometry": {"type": "Point", "coordinates": [-73.6804617422, 40.793176168]}, "type": "Feature", "properties": {"collection_times": [{"days": "Mon-Sat", "time": "10:00am"}, {"days": "Sun", "time": "Closed"}], "id": "1103000040", "name": "USPS COLLECTION BOX - BLUE BOX", "address": {"city": "MANHASSET", "state": "NY", "street": "74 E GATE", "postcode": "11030"}}},
{"geometry": {"type": "Point", "coordinates": [-73.6982757328, 40.7939710914]}, "type": "Feature", "properties": {"collection_times": [{"days": "Mon-Fri", "time": "3:30pm"}, {"days": "Sat", "time": "2:00pm"}, {"days": "Sun", "time": "Closed"}], "id": "1103000042", "name": "USPS COLLECTION BOX - BLUE BOX", "address": {"city": "MANHASSET", "state": "NY", "street": "75 PLANDOME RD", "postcode": "11030"}}},
{"geometry": {"type": "Point", "coordinates": [-73.6854179628, 40.7922768661]}, "type": "Feature", "properties": {"collection_times": [{"days": "Mon-Sat", "time": "10:00am"}, {"days": "Sun", "time": "Closed"}], "id": "1103000044", "name": "USPS COLLECTION BOX - BLUE BOX", "address": {"city": "MANHASSET", "state": "NY", "street": "7 MARLBORO RD", "postcode": "11030"}}},
{"geometry": {"type": "Point", "coordinates": [-73.6796751934, 40.7894883402]}, "type": "Feature", "properties": {"collection_times": [{"days": "Mon-Sat", "time": "10:00am"}, {"days": "Sun", "time": "Closed"}], "id": "1103000046", "name": "USPS COLLECTION BOX - BLUE BOX", "address": {"city": "MANHASSET", "state": "NY", "street": "209 COUNTRY CLUB DR", "postcode": "11030"}}},
{"geometry": {"type": "Point", "coordinates": [-73.7033872985, 40.771294951]}, "type": "Feature", "properties": {"collection_times": [{"days": "Mon-Fri", "time": "4:00pm"}, {"days": "Sat-Sun", "time": "Closed"}], "id": "1103000047", "name": "USPS COLLECTION BOX - BLUE BOX", "address": {"city": "MANHASSET", "state": "NY", "street": "800 COMMUNITY DR", "postcode": "11030"}}},
{"geometry": {"type": "Point", "coordinates": [-73.7030749973, 40.7750567605]}, "type": "Feature", "properties": {"collection_times": [{"days": "Mon-Fri", "time": "4:00pm"}, {"days": "Sat-Sun", "time": "Closed"}], "id": "1103000048", "name": "USPS COLLECTION BOX - BLUE BOX", "address": {"city": "MANHASSET", "state": "NY", "street": "600 COMMUNITY DR", "postcode": "11030"}}},
{"geometry": {"type": "Point", "coordinates": [-73.703199208, 40.7748674871]}, "type": "Feature", "properties": {"collection_times": [{"days": "Mon-Fri", "time": "4:00pm"}, {"days": "Sat", "time": "2:00pm"}, {"days": "Sun", "time": "Closed"}], "id": "1103000050", "name": "USPS COLLECTION BOX - BLUE BOX", "address": {"city": "MANHASSET", "state": "NY", "street": "300 COMMUNITY DR", "postcode": "11030"}}},
{"geometry": {"type": "Point", "coordinates": [-73.703199208, 40.7748674871]}, "type": "Feature", "properties": {"collection_times": [{"days": "Mon-Fri", "time": "4:00pm"}, {"days": "Sat", "time": "2:00pm"}, {"days": "Sun", "time": "Closed"}], "id": "1103000052", "name": "USPS COLLECTION BOX - BLUE BOX", "address": {"city": "MANHASSET", "state": "NY", "street": "300 COMMUNITY DR", "postcode": "11030"}}},
{"geometry": {"type": "Point", "coordinates": [-73.6980848083, 40.7911684185]}, "type": "Feature", "properties": {"collection_times": [{"days": "Mon-Sat", "time": "10:00am"}, {"days": "Sun", "time": "Closed"}], "id": "1103000054", "name": "USPS COLLECTION BOX - BLUE BOX", "address": {"city": "MANHASSET", "state": "NY", "street": "51 CLAPHAM AVE", "postcode": "11030"}}},
{"geometry": {"type": "Point", "coordinates": [-73.6899996756, 40.7962119201]}, "type": "Feature", "properties": {"collection_times": [{"days": "Mon-Sat", "time": "10:00am"}, {"days": "Sun", "time": "Closed"}], "id": "1103000055", "name": "USPS COLLECTION BOX - BLUE BOX", "address": {"city": "MANHASSET", "state": "NY", "street": "115 PINEWOOD RD", "postcode": "11030"}}},
{"geometry": {"type": "Point", "coordinates": [-73.6992113417, 40.8013953429]}, "type": "Feature", "properties": {"collection_times": [{"days": "Mon-Sat", "time": "10:00am"}, {"days": "Sun", "time": "Closed"}], "id": "1103000056", "name": "USPS COLLECTION BOX - BLUE BOX", "address": {"city": "MANHASSET", "state": "NY", "street": "29 WINTHROPE RD", "postcode": "11030"}}},
{"geometry": {"type": "Point", "coordinates": [-73.6804216278, 40.8028896429]}, "type": "Feature", "properties": {"collection_times": [{"days": "Mon-Sat", "time": "10:00am"}, {"days": "Sun", "time": "Closed"}], "id": "1103000058", "name": "USPS COLLECTION BOX - BLUE BOX", "address": {"city": "MANHASSET", "state": "NY", "street": "11 BIRCH LN", "postcode": "11030"}}},
{"geometry": {"type": "Point", "coordinates": [-73.7018745738, 40.7977422458]}, "type": "Feature", "properties": {"collection_times": [{"days": "Mon-Fri", "time": "3:30pm"}, {"days": "Sat", "time": "2:00pm"}, {"days": "Sun", "time": "Closed"}], "id": "1103000059", "name": "USPS COLLECTION BOX - BLUE BOX", "address": {"city": "MANHASSET", "state": "NY", "street": "3 LOCUST ST", "postcode": "11030"}}},
{"geometry": {"type": "Point", "coordinates": [-73.7046908285, 40.7967516528]}, "type": "Feature", "properties": {"collection_times": [{"days": "Mon-Sat", "time": "10:00am"}, {"days": "Sun", "time": "Closed"}], "id": "1103000060", "name": "USPS COLLECTION BOX - BLUE BOX", "address": {"city": "MANHASSET", "state": "NY", "street": "145 HILLSIDE AVE", "postcode": "11030"}}},
{"geometry": {"type": "Point", "coordinates": [-73.6768709403, 40.8006718853]}, "type": "Feature", "properties": {"collection_times": [{"days": "Mon-Sat", "time": "10:00am"}, {"days": "Sun", "time": "Closed"}], "id": "1103000062", "name": "USPS COLLECTION BOX - BLUE BOX", "address": {"city": "MANHASSET", "state": "NY", "street": "696 PARK AVE", "postcode": "11030"}}},
{"geometry": {"type": "Point", "coordinates": [-73.6808439659, 40.7974066722]}, "type": "Feature", "properties": {"collection_times": [{"days": "Mon-Sat", "time": "10:00am"}, {"days": "Sun", "time": "Closed"}], "id": "1103000063", "name": "USPS COLLECTION BOX - BLUE BOX", "address": {"city": "MANHASSET", "state": "NY", "street": "540 HUNT LN", "postcode": "11030"}}},
{"geometry": {"type": "Point", "coordinates": [-73.6714573027, 40.7991657163]}, "type": "Feature", "properties": {"collection_times": [{"days": "Mon-Sat", "time": "10:00am"}, {"days": "Sun", "time": "Closed"}], "id": "1103000064", "name": "USPS COLLECTION BOX - BLUE BOX", "address": {"city": "MANHASSET", "state": "NY", "street": "340 TRUMBULL RD", "postcode": "11030"}}},
{"geometry": {"type": "Point", "coordinates": [-73.6989978924, 40.7958786358]}, "type": "Feature", "properties": {"collection_times": [{"days": "Mon-Fri", "time": "5:00pm"}, {"days": "Sat", "time": "2:00pm"}, {"days": "Sun", "time": "Closed"}], "id": "1103000066", "name": "USPS COLLECTION BOX - BLUE BOX", "address": {"city": "MANHASSET", "state": "NY", "street": "220 PLANDOME RD", "postcode": "11030"}}},
{"geometry": {"type": "Point", "coordinates": [-73.6995822592, 40.7970838853]}, "type": "Feature", "properties": {"collection_times": [{"days": "Mon-Sat", "time": "10:00am"}, {"days": "Sun", "time": "Closed"}], "id": "1103000067", "name": "USPS COLLECTION BOX - BLUE BOX", "address": {"city": "MANHASSET", "state": "NY", "street": "295 PLANDOME RD", "postcode": "11030"}}},
{"geometry": {"type": "Point", "coordinates": [-73.7014812065, 40.8002108244]}, "type": "Feature", "properties": {"collection_times": [{"days": "Mon-Fri", "time": "3:30pm"}, {"days": "Sat", "time": "2:00pm"}, {"days": "Sun", "time": "Closed"}], "id": "1103000068", "name": "USPS COLLECTION BOX - BLUE BOX", "address": {"city": "MANHASSET", "state": "NY", "street": "588 PLANDOME RD", "postcode": "11030"}}},
{"geometry": {"type": "Point", "coordinates": [-73.6901184435, 40.7960433131]}, "type": "Feature", "properties": {"collection_times": [{"days": "Mon-Sat", "time": "10:00am"}, {"days": "Sun", "time": "Closed"}], "id": "1103000069", "name": "USPS COLLECTION BOX - BLUE BOX", "address": {"city": "MANHASSET", "state": "NY", "street": "38 ROCKYWOOD RD", "postcode": "11030"}}},
{"geometry": {"type": "Point", "coordinates": [-73.6925360159, 40.7951516845]}, "type": "Feature", "properties": {"collection_times": [{"days": "Mon-Sat", "time": "10:00am"}, {"days": "Sun", "time": "Closed"}], "id": "1103000070", "name": "USPS COLLECTION BOX - BLUE BOX", "address": {"city": "MANHASSET", "state": "NY", "street": "58 STRATHMORE RD", "postcode": "11030"}}},
{"geometry": {"type": "Point", "coordinates": [-73.6993625226, 40.7897571615]}, "type": "Feature", "properties": {"collection_times": [{"days": "Mon-Sat", "time": "10:00am"}, {"days": "Sun", "time": "Closed"}], "id": "1103000071", "name": "USPS COLLECTION BOX - BLUE BOX", "address": {"city": "MANHASSET", "state": "NY", "street": "65 SOUTH DR", "postcode": "11030"}}},
{"geometry": {"type": "Point", "coordinates": [-73.7014205154, 40.8114229531]}, "type": "Feature", "properties": {"collection_times": [{"days": "Mon-Fri", "time": "2:00pm"}, {"days": "Sat", "time": "10:00am"}, {"days": "Sun", "time": "Closed"}], "id": "1103000072", "name": "USPS COLLECTION BOX - BLUE BOX", "address": {"city": "MANHASSET", "state": "NY", "street": "1 STONYTOWN RD", "postcode": "11030"}}},
{"geometry": {"type": "Point", "coordinates": [-73.6900083656, 40.7962118739]}, "type": "Feature", "properties": {"collection_times": [{"days": "Mon-Fri", "time": "5:00pm"}, {"days": "Sat", "time": "3:00pm"}, {"days": "Sun", "time": "Closed"}], "id": "1103000077", "name": "USPS COLLECTION BOX - EXPRESS", "address": {"city": "MANHASSET", "state": "NY", "street": "28 MAPLE PL", "postcode": "11030"}}},
{"geometry": {"type": "Point", "coordinates": [-73.703199208, 40.7748674871]}, "type": "Feature", "properties": {"collection_times": [{"days": "Mon-Fri", "time": "4:00pm"}, {"days": "Sat", "time": "2:00pm"}, {"days": "Sun", "time": "Closed"}], "id": "1103000078", "name": "USPS COLLECTION BOX - BLUE BOX", "address": {"city": "MANHASSET", "state": "NY", "street": "300 COMMUNITY DR", "postcode": "11030"}}},
{"geometry": {"type": "Point", "coordinates": [-73.6951704655, 40.7940491667]}, "type": "Feature", "properties": {"collection_times": [{"days": "Mon-Sat", "time": "10:00am"}, {"days": "Sun", "time": "Closed"}], "id": "1103000079", "name": "USPS COLLECTION BOX - BLUE BOX", "address": {"city": "MANHASSET", "state": "NY", "street": "30 ONDERDONK AVE", "postcode": "11030"}}},
{"geometry": {"type": "Point", "coordinates": [-73.7026325707, 40.7907865659]}, "type": "Feature", "properties": {"collection_times": [{"days": "Mon-Sat", "time": "10:00am"}, {"days": "Sun", "time": "Closed"}], "id": "1103000080", "name": "USPS COLLECTION BOX - BLUE BOX", "address": {"city": "MANHASSET", "state": "NY", "street": "1165 NORTHERN BLVD", "postcode": "11030"}}},
{"geometry": {"type": "Point", "coordinates": [-73.7030572529, 40.7753666958]}, "type": "Feature", "properties": {"collection_times": [{"days": "Mon-Fri", "time": "4:00pm"}, {"days": "Sat", "time": "2:00pm"}, {"days": "Sun", "time": "Closed"}], "id": "1103000083", "name": "USPS COLLECTION BOX - BLUE BOX", "address": {"city": "MANHASSET", "state": "NY", "street": "444 COMMUNITY DR", "postcode": "11030"}}},
{"geometry": {"type": "Point", "coordinates": [-73.6849027839, 40.8000081305]}, "type": "Feature", "properties": {"collection_times": [{"days": "Mon-Sat", "time": "10:00am"}, {"days": "Sun", "time": "Closed"}], "id": "1103000123", "name": "USPS COLLECTION BOX - BLUE BOX", "address": {"city": "MANHASSET", "state": "NY", "street": "250 MANHASSET WOODS RD", "postcode": "11030"}}},
{"geometry": {"type": "Point", "coordinates": [-73.699249308, 40.7976335324]}, "type": "Feature", "properties": {"collection_times": [{"days": "Mon-Fri", "time": "5:00pm"}, {"days": "Sat", "time": "3:00pm"}, {"days": "Sun", "time": "Closed"}], "id": "1103000124", "name": "USPS COLLECTION BOX - PO LOBBY", "address": {"city": "MANHASSET", "state": "NY", "street": "28 MAPLE PL", "postcode": "11030"}}},
{"geometry": {"type": "Point", "coordinates": [-73.7014205154, 40.8114229531]}, "type": "Feature", "properties": {"collection_times": [{"days": "Mon-Fri", "time": "2:30pm"}, {"days": "Sat-Sun", "time": "Closed"}], "id": "1103000125", "name": "USPS COLLECTION BOX - PO LOBBY", "address": {"city": "MANHASSET", "state": "NY", "street": "1 STONYTOWN RD", "postcode": "11030"}}},
{"geometry": {"type": "Point", "coordinates": [-73.6975839831, 40.7488051235]}, "type": "Feature", "properties": {"collection_times": [{"days": "Mon-Sat", "time": "10:00am"}, {"days": "Sun", "time": "Closed"}], "id": "1104000006", "name": "USPS COLLECTION BOX - BLUE BOX", "address": {"city": "NEW HYDE PARK", "state": "NY", "street": "10 CAMPBELL ST", "postcode": "11040"}}},
{"geometry": {"type": "Point", "coordinates": [-73.6704915755, 40.7444145748]}, "type": "Feature", "properties": {"collection_times": [{"days": "Mon-Sat", "time": "10:00am"}, {"days": "Sun", "time": "Closed"}], "id": "1104000007", "name": "USPS COLLECTION BOX - BLUE BOX", "address": {"city": "NEW HYDE PARK", "state": "NY", "street": "136 CENTRAL AVE", "postcode": "11040"}}},
{"geometry": {"type": "Point", "coordinates": [-73.7014313845, 40.7469881053]}, "type": "Feature", "properties": {"collection_times": [{"days": "Mon-Sat", "time": "10:00am"}, {"days": "Sun", "time": "Closed"}], "id": "1104000010", "name": "USPS COLLECTION BOX - BLUE BOX", "address": {"city": "NEW HYDE PARK", "state": "NY", "street": "27103 80 TH AVE", "postcode": "11040"}}},
{"geometry": {"type": "Point", "coordinates": [-73.694258185, 40.7579207399]}, "type": "Feature", "properties": {"collection_times": [{"days": "Mon-Fri", "time": "3:00pm"}, {"days": "Sat-Sun", "time": "Closed"}], "id": "1104000012", "name": "USPS COLLECTION BOX - BLUE BOX", "address": {"city": "NEW HYDE PARK", "state": "NY", "street": "6 NEVADA DR", "postcode": "11040"}}},
{"geometry": {"type": "Point", "coordinates": [-73.6892625238, 40.7590985819]}, "type": "Feature", "properties": {"collection_times": [{"days": "Mon-Fri", "time": "5:00pm"}, {"days": "Sat-Sun", "time": "Closed"}], "id": "1104000013", "name": "USPS COLLECTION BOX - BLUE BOX", "address": {"city": "NEW HYDE PARK", "state": "NY", "street": "5 DAKOTA DR", "postcode": "11040"}}},
{"geometry": {"type": "Point", "coordinates": [-73.6892625238, 40.7590985819]}, "type": "Feature", "properties": {"collection_times": [{"days": "Mon-Fri", "time": "5:00pm"}, {"days": "Sat-Sun", "time": "Closed"}], "id": "1104000014", "name": "USPS COLLECTION BOX - BLUE BOX", "address": {"city": "NEW HYDE PARK", "state": "NY", "street": "5 DAKOTA DR", "postcode": "11040"}}},
{"geometry": {"type": "Point", "coordinates": [-73.6811271744, 40.7430724567]}, "type": "Feature", "properties": {"collection_times": [{"days": "Mon-Fri", "time": "5:00pm"}, {"days": "Sat-Sun", "time": "Closed"}], "id": "1104000015", "name": "USPS COLLECTION BOX - EXPRESS", "address": {"city": "NEW HYDE PARK", "state": "NY", "street": "5 DAKOTA DR", "postcode": "11040"}}},
{"geometry": {"type": "Point", "coordinates": [-73.6727971626, 40.748954771]}, "type": "Feature", "properties": {"collection_times": [{"days": "Mon-Sat", "time": "10:00am"}, {"days": "Sun", "time": "Closed"}], "id": "1104000016", "name": "USPS COLLECTION BOX - BLUE BOX", "address": {"city": "NEW HYDE PARK", "state": "NY", "street": "500 DENTON AVE", "postcode": "11040"}}},
{"geometry": {"type": "Point", "coordinates": [-73.6887020459, 40.7500218]}, "type": "Feature", "properties": {"collection_times": [{"days": "Mon-Sat", "time": "10:00am"}, {"days": "Sun", "time": "Closed"}], "id": "1104000021", "name": "USPS COLLECTION BOX - BLUE BOX", "address": {"city": "NEW HYDE PARK", "state": "NY", "street": "61 EVANS ST", "postcode": "11040"}}},
{"geometry": {"type": "Point", "coordinates": [-73.6939946043, 40.7483952314]}, "type": "Feature", "properties": {"collection_times": [{"days": "Mon-Sat", "time": "10:00am"}, {"days": "Sun", "time": "Closed"}], "id": "1104000022", "name": "USPS COLLECTION BOX - BLUE BOX", "address": {"city": "NEW HYDE PARK", "state": "NY", "street": "122 NUGENT ST", "postcode": "11040"}}},
{"geometry": {"type": "Point", "coordinates": [-73.6785352308, 40.7500115467]}, "type": "Feature", "properties": {"collection_times": [{"days": "Mon-Sat", "time": "10:00am"}, {"days": "Sun", "time": "Closed"}], "id": "1104000024", "name": "USPS COLLECTION BOX - BLUE BOX", "address": {"city": "NEW HYDE PARK", "state": "NY", "street": "150 MAPLE DR", "postcode": "11040"}}},
{"geometry": {"type": "Point", "coordinates": [-73.7004359756, 40.7391487649]}, "type": "Feature", "properties": {"collection_times": [{"days": "Mon-Sat", "time": "10:00am"}, {"days": "Sun", "time": "Closed"}], "id": "1104000027", "name": "USPS COLLECTION BOX - BLUE BOX", "address": {"city": "NEW HYDE PARK", "state": "NY", "street": "27001 HILLSIDE AVE", "postcode": "11040"}}},
{"geometry": {"type": "Point", "coordinates": [-73.6894898966, 40.7459015539]}, "type": "Feature", "properties": {"collection_times": [{"days": "Mon-Sat", "time": "10:00am"}, {"days": "Sun", "time": "Closed"}], "id": "1104000029", "name": "USPS COLLECTION BOX - BLUE BOX", "address": {"city": "NEW HYDE PARK", "state": "NY", "street": "71 HILLSIDE LN", "postcode": "11040"}}},
{"geometry": {"type": "Point", "coordinates": [-73.6972643029, 40.7411212167]}, "type": "Feature", "properties": {"collection_times": [{"days": "Mon-Fri", "time": "3:00pm"}, {"days": "Sat", "time": "2:00pm"}, {"days": "Sun", "time": "Closed"}], "id": "1104000031", "name": "USPS COLLECTION BOX - BLUE BOX", "address": {"city": "NEW HYDE PARK", "state": "NY", "street": "661 HILLSIDE AVE", "postcode": "11040"}}},
{"geometry": {"type": "Point", "coordinates": [-73.6946227555, 40.7372351965]}, "type": "Feature", "properties": {"collection_times": [{"days": "Mon-Sat", "time": "10:00am"}, {"days": "Sun", "time": "Closed"}], "id": "1104000032", "name": "USPS COLLECTION BOX - BLUE BOX", "address": {"city": "NEW HYDE PARK", "state": "NY", "street": "928 HILLSIDE AVE", "postcode": "11040"}}},
{"geometry": {"type": "Point", "coordinates": [-73.6796310669, 40.7453400337]}, "type": "Feature", "properties": {"collection_times": [{"days": "Mon-Sat", "time": "10:00am"}, {"days": "Sun", "time": "Closed"}], "id": "1104000035", "name": "USPS COLLECTION BOX - BLUE BOX", "address": {"city": "NEW HYDE PARK", "state": "NY", "street": "1598 HILLSIDE AVE & NEW HYDE PK.RD", "postcode": "11040"}}},
{"geometry": {"type": "Point", "coordinates": [-73.6850549834, 40.7482260683]}, "type": "Feature", "properties": {"collection_times": [{"days": "Mon-Fri", "time": "3:00pm"}, {"days": "Sat", "time": "10:00am"}, {"days": "Sun", "time": "Closed"}], "id": "1104000036", "name": "USPS COLLECTION BOX - BLUE BOX", "address": {"city": "NEW HYDE PARK", "state": "NY", "street": "1614 HILLSIDE AVE", "postcode": "11040"}}},
{"geometry": {"type": "Point", "coordinates": [-73.6799073159, 40.7506852801]}, "type": "Feature", "properties": {"collection_times": [{"days": "Mon-Sat", "time": "10:00am"}, {"days": "Sun", "time": "Closed"}], "id": "1104000037", "name": "USPS COLLECTION BOX - BLUE BOX", "address": {"city": "NEW HYDE PARK", "state": "NY", "street": "1 MANOR CT S", "postcode": "11040"}}},
{"geometry": {"type": "Point", "coordinates": [-73.6751678124, 40.7512331499]}, "type": "Feature", "properties": {"collection_times": [{"days": "Mon-Fri", "time": "5:00pm"}, {"days": "Sat", "time": "2:00pm"}, {"days": "Sun", "time": "Closed"}], "id": "1104000038", "name": "USPS COLLECTION BOX - BLUE BOX", "address": {"city": "NEW HYDE PARK", "state": "NY", "street": "2038 HILLSIDE AVE", "postcode": "11040"}}},
{"geometry": {"type": "Point", "coordinates": [-73.6939105943, 40.74318845]}, "type": "Feature", "properties": {"collection_times": [{"days": "Mon-Fri", "time": "3:00pm"}, {"days": "Sat", "time": "2:00pm"}, {"days": "Sun", "time": "Closed"}], "id": "1104000040", "name": "USPS COLLECTION BOX - BLUE BOX", "address": {"city": "NEW HYDE PARK", "state": "NY", "street": "787 HILLSIDE AVE", "postcode": "11040"}}},
{"geometry": {"type": "Point", "coordinates": [-73.6884938451, 40.7600994274]}, "type": "Feature", "properties": {"collection_times": [{"days": "Mon-Sat", "time": "10:00am"}, {"days": "Sun", "time": "Closed"}], "id": "1104000041", "name": "USPS COLLECTION BOX - BLUE BOX", "address": {"city": "NEW HYDE PARK", "state": "NY", "street": "1 HOLIDAY GATE", "postcode": "11040"}}},
{"geometry": {"type": "Point", "coordinates": [-73.6811271744, 40.7430724567]}, "type": "Feature", "properties": {"collection_times": [{"days": "Mon-Fri", "time": "5:00pm"}, {"days": "Sat-Sun", "time": "Closed"}], "id": "1104000042", "name": "USPS COLLECTION BOX - BLUE BOX", "address": {"city": "NEW HYDE PARK", "state": "NY", "street": "1 HOLLOW LN", "postcode": "11040"}}},
{"geometry": {"type": "Point", "coordinates": [-73.6944554829, 40.7669328558]}, "type": "Feature", "properties": {"collection_times": [{"days": "Mon-Fri", "time": "5:00pm"}, {"days": "Sat-Sun", "time": "Closed"}], "id": "1104000043", "name": "USPS COLLECTION BOX - BLUE BOX", "address": {"city": "NEW HYDE PARK", "state": "NY", "street": "1 HOLLOW LN", "postcode": "11040"}}},
{"geometry": {"type": "Point", "coordinates": [-73.6811271744, 40.7430724567]}, "type": "Feature", "properties": {"collection_times": [{"days": "Mon-Fri", "time": "5:00pm"}, {"days": "Sat-Sun", "time": "Closed"}], "id": "1104000044", "name": "USPS COLLECTION BOX - EXPRESS", "address": {"city": "NEW HYDE PARK", "state": "NY", "street": "1 HOLLOW LN", "postcode": "11040"}}},
{"geometry": {"type": "Point", "coordinates": [-73.6717904645, 40.7505837055]}, "type": "Feature", "properties": {"collection_times": [{"days": "Mon-Sat", "time": "10:00am"}, {"days": "Sun", "time": "Closed"}], "id": "1104000045", "name": "USPS COLLECTION BOX - BLUE BOX", "address": {"city": "NEW HYDE PARK", "state": "NY", "street": "31 HOWARD AVE", "postcode": "11040"}}},
{"geometry": {"type": "Point", "coordinates": [-73.6849603467, 40.7618774147]}, "type": "Feature", "properties": {"collection_times": [{"days": "Mon-Sat", "time": "10:00am"}, {"days": "Sun", "time": "Closed"}], "id": "1104000046", "name": "USPS COLLECTION BOX - BLUE BOX", "address": {"city": "NEW HYDE PARK", "state": "NY", "street": "461 OLD COURTHOUSE RD", "postcode": "11040"}}},
{"geometry": {"type": "Point", "coordinates": [-73.6900908397, 40.7419386414]}, "type": "Feature", "properties": {"collection_times": [{"days": "Mon-Sat", "time": "10:00am"}, {"days": "Sun", "time": "Closed"}], "id": "1104000047", "name": "USPS COLLECTION BOX - BLUE BOX", "address": {"city": "NEW HYDE PARK", "state": "NY", "street": "92 FRANKLIN AVE", "postcode": "11040"}}},
{"geometry": {"type": "Point", "coordinates": [-73.6624605196, 40.7414248633]}, "type": "Feature", "properties": {"collection_times": [{"days": "Mon-Fri", "time": "10:00am"}, {"days": "Sat", "time": "2:00pm"}, {"days": "Sun", "time": "Closed"}], "id": "1104000049", "name": "USPS COLLECTION BOX - BLUE BOX", "address": {"city": "NEW HYDE PARK", "state": "NY", "street": "2323 JERICHO TPKE", "postcode": "11040"}}},
{"geometry": {"type": "Point", "coordinates": [-73.6816770678, 40.7334199357]}, "type": "Feature", "properties": {"collection_times": [{"days": "Mon-Fri", "time": "3:00pm"}, {"days": "Sat", "time": "10:00am"}, {"days": "Sun", "time": "Closed"}], "id": "1104000052", "name": "USPS COLLECTION BOX - BLUE BOX", "address": {"city": "NEW HYDE PARK", "state": "NY", "street": "1335 JERICHO TPKE", "postcode": "11040"}}},
{"geometry": {"type": "Point", "coordinates": [-73.686566805, 40.7322431097]}, "type": "Feature", "properties": {"collection_times": [{"days": "Mon-Fri", "time": "3:00pm"}, {"days": "Sat", "time": "2:00pm"}, {"days": "Sun", "time": "Closed"}], "id": "1104000056", "name": "USPS COLLECTION BOX - BLUE BOX", "address": {"city": "NEW HYDE PARK", "state": "NY", "street": "820 JERICHO TPKE", "postcode": "11040"}}},
{"geometry": {"type": "Point", "coordinates": [-73.6825923379, 40.7330337413]}, "type": "Feature", "properties": {"collection_times": [{"days": "Mon-Sat", "time": "10:00am"}, {"days": "Sun", "time": "Closed"}], "id": "1104000057", "name": "USPS COLLECTION BOX - BLUE BOX", "address": {"city": "NEW HYDE PARK", "state": "NY", "street": "1300 JERICHO TPKE", "postcode": "11040"}}},
{"geometry": {"type": "Point", "coordinates": [-73.6809824692, 40.7333736901]}, "type": "Feature", "properties": {"collection_times": [{"days": "Mon-Sat", "time": "10:00am"}, {"days": "Sun", "time": "Closed"}], "id": "1104000058", "name": "USPS COLLECTION BOX - BLUE BOX", "address": {"city": "NEW HYDE PARK", "state": "NY", "street": "1420 JERICHO TPKE", "postcode": "11040"}}},
{"geometry": {"type": "Point", "coordinates": [-73.6683714315, 40.738338506]}, "type": "Feature", "properties": {"collection_times": [{"days": "Mon-Sat", "time": "10:00am"}, {"days": "Sun", "time": "Closed"}], "id": "1104000059", "name": "USPS COLLECTION BOX - BLUE BOX", "address": {"city": "NEW HYDE PARK", "state": "NY", "street": "2164 JERICHO TPKE", "postcode": "11040"}}},
{"geometry": {"type": "Point", "coordinates": [-73.66612764, 40.7394922822]}, "type": "Feature", "properties": {"collection_times": [{"days": "Mon-Sat", "time": "10:00am"}, {"days": "Sun", "time": "Closed"}], "id": "1104000060", "name": "USPS COLLECTION BOX - BLUE BOX", "address": {"city": "NEW HYDE PARK", "state": "NY", "street": "2244 JERICHO TPKE", "postcode": "11040"}}},
{"geometry": {"type": "Point", "coordinates": [-73.6778803373, 40.734080245]}, "type": "Feature", "properties": {"collection_times": [{"days": "Mon-Fri", "time": "3:00pm"}, {"days": "Sat", "time": "10:00am"}, {"days": "Sun", "time": "Closed"}], "id": "1104000061", "name": "USPS COLLECTION BOX - BLUE BOX", "address": {"city": "NEW HYDE PARK", "state": "NY", "street": "1700 JERICHO TPKE", "postcode": "11040"}}},
{"geometry": {"type": "Point", "coordinates": [-73.6904386296, 40.7386157096]}, "type": "Feature", "properties": {"collection_times": [{"days": "Mon-Sat", "time": "10:00am"}, {"days": "Sun", "time": "Closed"}], "id": "1104000062", "name": "USPS COLLECTION BOX - BLUE BOX", "address": {"city": "NEW HYDE PARK", "state": "NY", "street": "901 LAKE VILLE RD", "postcode": "11040"}}},
{"geometry": {"type": "Point", "coordinates": [-73.7009421223, 40.7518246294]}, "type": "Feature", "properties": {"collection_times": [{"days": "Mon-Sat", "time": "10:00am"}, {"days": "Sun", "time": "Closed"}], "id": "1104000063", "name": "USPS COLLECTION BOX - BLUE BOX", "address": {"city": "NEW HYDE PARK", "state": "NY", "street": "2020 LAKEVILLE RD", "postcode": "11040"}}},
{"geometry": {"type": "Point", "coordinates": [-73.7044626082, 40.7568462902]}, "type": "Feature", "properties": {"collection_times": [{"days": "Mon-Fri", "time": "5:00pm"}, {"days": "Sat-Sun", "time": "Closed"}], "id": "1104000065", "name": "USPS COLLECTION BOX - BLUE BOX", "address": {"city": "NEW HYDE PARK", "state": "NY", "street": "410 LAKEVILLE RD", "postcode": "11040"}}},
{"geometry": {"type": "Point", "coordinates": [-73.7044626082, 40.7568462902]}, "type": "Feature", "properties": {"collection_times": [{"days": "Mon-Fri", "time": "5:00pm"}, {"days": "Sat-Sun", "time": "Closed"}], "id": "1104000066", "name": "USPS COLLECTION BOX - BLUE BOX", "address": {"city": "NEW HYDE PARK", "state": "NY", "street": "410 LAKEVILLE RD", "postcode": "11040"}}},
{"geometry": {"type": "Point", "coordinates": [-73.70086523, 40.7517418223]}, "type": "Feature", "properties": {"collection_times": [{"days": "Mon-Fri", "time": "3:00pm"}, {"days": "Sat", "time": "10:00am"}, {"days": "Sun", "time": "Closed"}], "id": "1104000067", "name": "USPS COLLECTION BOX - BLUE BOX", "address": {"city": "NEW HYDE PARK", "state": "NY", "street": "2035 LAKEVILLE RD", "postcode": "11040"}}},
{"geometry": {"type": "Point", "coordinates": [-73.6823424585, 40.753652301]}, "type": "Feature", "properties": {"collection_times": [{"days": "Mon-Sat", "time": "10:00am"}, {"days": "Sun", "time": "Closed"}], "id": "1104000068", "name": "USPS COLLECTION BOX - BLUE BOX", "address": {"city": "NEW HYDE PARK", "state": "NY", "street": "107 LAUREL DR", "postcode": "11040"}}},
{"geometry": {"type": "Point", "coordinates": [-73.7075230776, 40.7527444721]}, "type": "Feature", "properties": {"collection_times": [{"days": "Mon-Fri", "time": "3:00pm"}, {"days": "Sat", "time": "2:00pm"}, {"days": "Sun", "time": "Closed"}], "id": "1104000069", "name": "USPS COLLECTION BOX - BLUE BOX", "address": {"city": "NEW HYDE PARK", "state": "NY", "street": "26901 76TH AVE", "postcode": "11040"}}},
{"geometry": {"type": "Point", "coordinates": [-73.6809288225, 40.7558999231]}, "type": "Feature", "properties": {"collection_times": [{"days": "Mon-Sat", "time": "10:00am"}, {"days": "Sun", "time": "Closed"}], "id": "1104000071", "name": "USPS COLLECTION BOX - BLUE BOX", "address": {"city": "NEW HYDE PARK", "state": "NY", "street": "70 MEADOWFARM RD", "postcode": "11040"}}},
{"geometry": {"type": "Point", "coordinates": [-73.667065266, 40.7468493577]}, "type": "Feature", "properties": {"collection_times": [{"days": "Mon-Sat", "time": "10:00am"}, {"days": "Sun", "time": "Closed"}], "id": "1104000072", "name": "USPS COLLECTION BOX - BLUE BOX", "address": {"city": "NEW HYDE PARK", "state": "NY", "street": "43 PARK CIR W", "postcode": "11040"}}},
{"geometry": {"type": "Point", "coordinates": [-73.6962636163, 40.7600683288]}, "type": "Feature", "properties": {"collection_times": [{"days": "Mon-Fri", "time": "5:00pm"}, {"days": "Sat-Sun", "time": "Closed"}], "id": "1104000074", "name": "USPS COLLECTION BOX - BLUE BOX", "address": {"city": "NEW HYDE PARK", "state": "NY", "street": "3000 MARCUS AVE E", "postcode": "11040"}}},
{"geometry": {"type": "Point", "coordinates": [-73.6962636163, 40.7600683288]}, "type": "Feature", "properties": {"collection_times": [{"days": "Mon-Fri", "time": "5:00pm"}, {"days": "Sat-Sun", "time": "Closed"}], "id": "1104000075", "name": "USPS COLLECTION BOX - BLUE BOX", "address": {"city": "NEW HYDE PARK", "state": "NY", "street": "3000 MARCUS AVE E", "postcode": "11040"}}},
{"geometry": {"type": "Point", "coordinates": [-73.6962636163, 40.7600683288]}, "type": "Feature", "properties": {"collection_times": [{"days": "Mon-Fri", "time": "5:00pm"}, {"days": "Sat-Sun", "time": "Closed"}], "id": "1104000076", "name": "USPS COLLECTION BOX - BLUE BOX", "address": {"city": "NEW HYDE PARK", "state": "NY", "street": "3000 MARCUS AVE E", "postcode": "11040"}}},
{"geometry": {"type": "Point", "coordinates": [-73.6811271744, 40.7430724567]}, "type": "Feature", "properties": {"collection_times": [{"days": "Mon-Fri", "time": "5:00pm"}, {"days": "Sat-Sun", "time": "Closed"}], "id": "1104000077", "name": "USPS COLLECTION BOX - EXPRESS", "address": {"city": "NEW HYDE PARK", "state": "NY", "street": "3000 MARCUS AVE E", "postcode": "11040"}}},
{"geometry": {"type": "Point", "coordinates": [-73.6811271744, 40.7430724567]}, "type": "Feature", "properties": {"collection_times": [{"days": "Mon-Fri", "time": "5:00pm"}, {"days": "Sat-Sun", "time": "Closed"}], "id": "1104000078", "name": "USPS COLLECTION BOX - EXPRESS", "address": {"city": "NEW HYDE PARK", "state": "NY", "street": "2001 MARCUS AVE E", "postcode": "11040"}}},
{"geometry": {"type": "Point", "coordinates": [-73.6969715779, 40.7582515576]}, "type": "Feature", "properties": {"collection_times": [{"days": "Mon-Fri", "time": "5:00pm"}, {"days": "Sat-Sun", "time": "Closed"}], "id": "1104000079", "name": "USPS COLLECTION BOX - BLUE BOX", "address": {"city": "NEW HYDE PARK", "state": "NY", "street": "2001 MARCUS AVE E", "postcode": "11040"}}},
{"geometry": {"type": "Point", "coordinates": [-73.6969715779, 40.7582515576]}, "type": "Feature", "properties": {"collection_times": [{"days": "Mon-Fri", "time": "5:00pm"}, {"days": "Sat-Sun", "time": "Closed"}], "id": "1104000081", "name": "USPS COLLECTION BOX - BLUE BOX", "address": {"city": "NEW HYDE PARK", "state": "NY", "street": "2001 MARCUS AVE E", "postcode": "11040"}}},
{"geometry": {"type": "Point", "coordinates": [-73.6969715779, 40.7582515576]}, "type": "Feature", "properties": {"collection_times": [{"days": "Mon-Fri", "time": "5:00pm"}, {"days": "Sat-Sun", "time": "Closed"}], "id": "1104000082", "name": "USPS COLLECTION BOX - BLUE BOX", "address": {"city": "NEW HYDE PARK", "state": "NY", "street": "2001 MARCUS AVE E", "postcode": "11040"}}},
{"geometry": {"type": "Point", "coordinates": [-73.69957034, 40.7589217602]}, "type": "Feature", "properties": {"collection_times": [{"days": "Mon-Fri", "time": "3:00pm"}, {"days": "Sat-Sun", "time": "Closed"}], "id": "1104000083", "name": "USPS COLLECTION BOX - BLUE BOX", "address": {"city": "NEW HYDE PARK", "state": "NY", "street": "2400 MARCUS AVE E", "postcode": "11040"}}},
{"geometry": {"type": "Point", "coordinates": [-73.69957034, 40.7589217602]}, "type": "Feature", "properties": {"collection_times": [{"days": "Mon-Fri", "time": "3:00pm"}, {"days": "Sat-Sun", "time": "Closed"}], "id": "1104000084", "name": "USPS COLLECTION BOX - BLUE BOX", "address": {"city": "NEW HYDE PARK", "state": "NY", "street": "2400 MARCUS AVE E", "postcode": "11040"}}},
{"geometry": {"type": "Point", "coordinates": [-73.6944039081, 40.7577997552]}, "type": "Feature", "properties": {"collection_times": [{"days": "Mon-Fri", "time": "5:00pm"}, {"days": "Sat-Sun", "time": "Closed"}], "id": "1104000085", "name": "USPS COLLECTION BOX - BLUE BOX", "address": {"city": "NEW HYDE PARK", "state": "NY", "street": "1981 MARCUS AVE E", "postcode": "11040"}}},
{"geometry": {"type": "Point", "coordinates": [-73.6944039081, 40.7577997552]}, "type": "Feature", "properties": {"collection_times": [{"days": "Mon-Fri", "time": "5:00pm"}, {"days": "Sat-Sun", "time": "Closed"}], "id": "1104000086", "name": "USPS COLLECTION BOX - BLUE BOX", "address": {"city": "NEW HYDE PARK", "state": "NY", "street": "1981 MARCUS AVE E", "postcode": "11040"}}},
{"geometry": {"type": "Point", "coordinates": [-73.6948711769, 40.7578730986]}, "type": "Feature", "properties": {"collection_times": [{"days": "Mon-Fri", "time": "5:00pm"}, {"days": "Sat-Sun", "time": "Closed"}], "id": "1104000087", "name": "USPS COLLECTION BOX - BLUE BOX", "address": {"city": "NEW HYDE PARK", "state": "NY", "street": "1983 MARCUS AVE E", "postcode": "11040"}}},
{"geometry": {"type": "Point", "coordinates": [-73.6948711769, 40.7578730986]}, "type": "Feature", "properties": {"collection_times": [{"days": "Mon-Fri", "time": "5:00pm"}, {"days": "Sat-Sun", "time": "Closed"}], "id": "1104000088", "name": "USPS COLLECTION BOX - BLUE BOX", "address": {"city": "NEW HYDE PARK", "state": "NY", "street": "1983 MARCUS AVE E", "postcode": "11040"}}},
{"geometry": {"type": "Point", "coordinates": [-73.6937840376, 40.7576968377]}, "type": "Feature", "properties": {"collection_times": [{"days": "Mon-Fri", "time": "5:00pm"}, {"days": "Sat-Sun", "time": "Closed"}], "id": "1104000089", "name": "USPS COLLECTION BOX - BLUE BOX", "address": {"city": "NEW HYDE PARK", "state": "NY", "street": "1979 MARCUS AVE E", "postcode": "11040"}}},
{"geometry": {"type": "Point", "coordinates": [-73.6937840376, 40.7576968377]}, "type": "Feature", "properties": {"collection_times": [{"days": "Mon-Fri", "time": "5:00pm"}, {"days": "Sat-Sun", "time": "Closed"}], "id": "1104000090", "name": "USPS COLLECTION BOX - BLUE BOX", "address": {"city": "NEW HYDE PARK", "state": "NY", "street": "1979 MARCUS AVE E", "postcode": "11040"}}},
{"geometry": {"type": "Point", "coordinates": [-73.6811271744, 40.7430724567]}, "type": "Feature", "properties": {"collection_times": [{"days": "Mon-Fri", "time": "5:00pm"}, {"days": "Sat-Sun", "time": "Closed"}], "id": "1104000091", "name": "USPS COLLECTION BOX - EXPRESS", "address": {"city": "NEW HYDE PARK", "state": "NY", "street": "1979 MARCUS AVE E", "postcode": "11040"}}},
{"geometry": {"type": "Point", "coordinates": [-73.6811271744, 40.7430724567]}, "type": "Feature", "properties": {"collection_times": [{"days": "Mon-Fri", "time": "5:00pm"}, {"days": "Sat-Sun", "time": "Closed"}], "id": "1104000092", "name": "USPS COLLECTION BOX - EXPRESS", "address": {"city": "NEW HYDE PARK", "state": "NY", "street": "1983 MARCUS AVE E", "postcode": "11040"}}},
{"geometry": {"type": "Point", "coordinates": [-73.6835218686, 40.7425182912]}, "type": "Feature", "properties": {"collection_times": [{"days": "Mon-Sat", "time": "10:00am"}, {"days": "Sun", "time": "Closed"}], "id": "1104000098", "name": "USPS COLLECTION BOX - BLUE BOX", "address": {"city": "NEW HYDE PARK", "state": "NY", "street": "1629 NEW HYDE PARK DR", "postcode": "11040"}}},
{"geometry": {"type": "Point", "coordinates": [-73.690844901, 40.7677917138]}, "type": "Feature", "properties": {"collection_times": [{"days": "Mon-Fri", "time": "5:00pm"}, {"days": "Sat-Sun", "time": "Closed"}], "id": "1104000099", "name": "USPS COLLECTION BOX - BLUE BOX", "address": {"city": "NEW HYDE PARK", "state": "NY", "street": "3333 NEW HYDE PARK RD", "postcode": "11040"}}},
{"geometry": {"type": "Point", "coordinates": [-73.690844901, 40.7677917138]}, "type": "Feature", "properties": {"collection_times": [{"days": "Mon-Fri", "time": "5:00pm"}, {"days": "Sat-Sun", "time": "Closed"}], "id": "1104000100", "name": "USPS COLLECTION BOX - BLUE BOX", "address": {"city": "NEW HYDE PARK", "state": "NY", "street": "3333 NEW HYDE PARK RD", "postcode": "11040"}}},
{"geometry": {"type": "Point", "coordinates": [-73.6811271744, 40.7430724567]}, "type": "Feature", "properties": {"collection_times": [{"days": "Mon-Fri", "time": "5:00pm"}, {"days": "Sat-Sun", "time": "Closed"}], "id": "1104000101", "name": "USPS COLLECTION BOX - EXPRESS", "address": {"city": "NEW HYDE PARK", "state": "NY", "street": "3333 NEW HYDE PARK RD", "postcode": "11040"}}},
{"geometry": {"type": "Point", "coordinates": [-73.6892022971, 40.7617878343]}, "type": "Feature", "properties": {"collection_times": [{"days": "Mon-Fri", "time": "3:00pm"}, {"days": "Sat-Sun", "time": "Closed"}], "id": "1104000103", "name": "USPS COLLECTION BOX - BLUE BOX", "address": {"city": "NEW HYDE PARK", "state": "NY", "street": "3003 NEW HYDE PARK RD", "postcode": "11040"}}},
{"geometry": {"type": "Point", "coordinates": [-73.6786244185, 40.7554752408]}, "type": "Feature", "properties": {"collection_times": [{"days": "Mon-Sat", "time": "10:00am"}, {"days": "Sun", "time": "Closed"}], "id": "1104000107", "name": "USPS COLLECTION BOX - BLUE BOX", "address": {"city": "NEW HYDE PARK", "state": "NY", "street": "93 NOTTINGHAM RD", "postcode": "11040"}}},
{"geometry": {"type": "Point", "coordinates": [-73.6816409638, 40.7478203133]}, "type": "Feature", "properties": {"collection_times": [{"days": "Mon-Sat", "time": "10:00am"}, {"days": "Sun", "time": "Closed"}], "id": "1104000108", "name": "USPS COLLECTION BOX - BLUE BOX", "address": {"city": "NEW HYDE PARK", "state": "NY", "street": "1 MAGNOLIA DR", "postcode": "11040"}}},
{"geometry": {"type": "Point", "coordinates": [-73.6698989131, 40.7401736666]}, "type": "Feature", "properties": {"collection_times": [{"days": "Mon-Sat", "time": "10:00am"}, {"days": "Sun", "time": "Closed"}], "id": "1104000109", "name": "USPS COLLECTION BOX - BLUE BOX", "address": {"city": "NEW HYDE PARK", "state": "NY", "street": "7 3RD ST", "postcode": "11040"}}},
{"geometry": {"type": "Point", "coordinates": [-73.6983348807, 40.7510769994]}, "type": "Feature", "properties": {"collection_times": [{"days": "Mon-Sat", "time": "10:00am"}, {"days": "Sun", "time": "Closed"}], "id": "1104000110", "name": "USPS COLLECTION BOX - BLUE BOX", "address": {"city": "NEW HYDE PARK", "state": "NY", "street": "138 CLAUDY LN", "postcode": "11040"}}},
{"geometry": {"type": "Point", "coordinates": [-73.7019214955, 40.7522008241]}, "type": "Feature", "properties": {"collection_times": [{"days": "Mon-Fri", "time": "3:00pm"}, {"days": "Sat", "time": "10:00am"}, {"days": "Sun", "time": "Closed"}], "id": "1104000115", "name": "USPS COLLECTION BOX - BLUE BOX", "address": {"city": "NEW HYDE PARK", "state": "NY", "street": "27206 UNION TPKE", "postcode": "11040"}}},
{"geometry": {"type": "Point", "coordinates": [-73.6834758235, 40.755076792]}, "type": "Feature", "properties": {"collection_times": [{"days": "Mon-Fri", "time": "10:00am"}, {"days": "Sat", "time": "2:00pm"}, {"days": "Sun", "time": "Closed"}], "id": "1104000116", "name": "USPS COLLECTION BOX - BLUE BOX", "address": {"city": "NEW HYDE PARK", "state": "NY", "street": "1600 MARCUS AVE", "postcode": "11040"}}},
{"geometry": {"type": "Point", "coordinates": [-73.7079542322, 40.7492717673]}, "type": "Feature", "properties": {"collection_times": [{"days": "Mon-Sat", "time": "10:00am"}, {"days": "Sun", "time": "Closed"}], "id": "1104000117", "name": "USPS COLLECTION BOX - BLUE BOX", "address": {"city": "NEW HYDE PARK", "state": "NY", "street": "26501 UNION TPKE", "postcode": "11040"}}},
{"geometry": {"type": "Point", "coordinates": [-73.6868895014, 40.7547897967]}, "type": "Feature", "properties": {"collection_times": [{"days": "Mon-Fri", "time": "5:00pm"}, {"days": "Sat", "time": "2:00pm"}, {"days": "Sun", "time": "Closed"}], "id": "1104000120", "name": "USPS COLLECTION BOX - BLUE BOX", "address": {"city": "NEW HYDE PARK", "state": "NY", "street": "1568 UNION TPKE", "postcode": "11040"}}},
{"geometry": {"type": "Point", "coordinates": [-73.6954547641, 40.7537362679]}, "type": "Feature", "properties": {"collection_times": [{"days": "Mon-Fri", "time": "5:00pm"}, {"days": "Sat", "time": "2:00pm"}, {"days": "Sun", "time": "Closed"}], "id": "1104000121", "name": "USPS COLLECTION BOX - BLUE BOX", "address": {"city": "NEW HYDE PARK", "state": "NY", "street": "1300 UNION TPKE", "postcode": "11040"}}},
{"geometry": {"type": "Point", "coordinates": [-73.6924650384, 40.7573514137]}, "type": "Feature", "properties": {"collection_times": [{"days": "Mon-Fri", "time": "5:00pm"}, {"days": "Sat-Sun", "time": "Closed"}], "id": "1104000123", "name": "USPS COLLECTION BOX - BLUE BOX", "address": {"city": "NEW HYDE PARK", "state": "NY", "street": "1985 MARCUS AVE E", "postcode": "11040"}}},
{"geometry": {"type": "Point", "coordinates": [-73.6861504788, 40.7637661684]}, "type": "Feature", "properties": {"collection_times": [{"days": "Mon-Sat", "time": "10:00am"}, {"days": "Sun", "time": "Closed"}], "id": "1104000128", "name": "USPS COLLECTION BOX - BLUE BOX", "address": {"city": "NEW HYDE PARK", "state": "NY", "street": "122 WINDSOR GATE DR", "postcode": "11040"}}},
{"geometry": {"type": "Point", "coordinates": [-73.7002563732, 40.7590495934]}, "type": "Feature", "properties": {"collection_times": [{"days": "Mon-Fri", "time": "4:00pm"}, {"days": "Sat-Sun", "time": "Closed"}], "id": "1104000130", "name": "USPS COLLECTION BOX - BLUE BOX", "address": {"city": "NEW HYDE PARK", "state": "NY", "street": "2500 MARCUS AVE E", "postcode": "11040"}}},
{"geometry": {"type": "Point", "coordinates": [-73.6729295099, 40.751634011]}, "type": "Feature", "properties": {"collection_times": [{"days": "Mon-Sat", "time": "10:00am"}, {"days": "Sun", "time": "Closed"}], "id": "1104000131", "name": "USPS COLLECTION BOX - BLUE BOX", "address": {"city": "NEW HYDE PARK", "state": "NY", "street": "2127 HILLSIDE AVE", "postcode": "11040"}}},
{"geometry": {"type": "Point", "coordinates": [-73.7010705002, 40.7442790991]}, "type": "Feature", "properties": {"collection_times": [{"days": "Mon-Sat", "time": "10:00am"}, {"days": "Sun", "time": "Closed"}], "id": "1104000133", "name": "USPS COLLECTION BOX - BLUE BOX", "address": {"city": "NEW HYDE PARK", "state": "NY", "street": "8135 LANGDALE ST", "postcode": "11040"}}},
{"geometry": {"type": "Point", "coordinates": [-73.6751678124, 40.7512331499]}, "type": "Feature", "properties": {"collection_times": [{"days": "Mon-Fri", "time": "5:00pm"}, {"days": "Sat", "time": "2:00pm"}, {"days": "Sun", "time": "Closed"}], "id": "1104000134", "name": "USPS COLLECTION BOX - BLUE BOX", "address": {"city": "NEW HYDE PARK", "state": "NY", "street": "2038 HILLSIDE AVE", "postcode": "11040"}}},
{"geometry": {"type": "Point", "coordinates": [-73.690844901, 40.7677917138]}, "type": "Feature", "properties": {"collection_times": [{"days": "Mon-Fri", "time": "5:00pm"}, {"days": "Sat-Sun", "time": "Closed"}], "id": "1104000135", "name": "USPS COLLECTION BOX - BLUE BOX", "address": {"city": "NEW HYDE PARK", "state": "NY", "street": "3333 NEW HYDE PARK RD", "postcode": "11040"}}},
{"geometry": {"type": "Point", "coordinates": [-73.6868895014, 40.7547897967]}, "type": "Feature", "properties": {"collection_times": [{"days": "Mon-Fri", "time": "5:00pm"}, {"days": "Sat", "time": "2:00pm"}, {"days": "Sun", "time": "Closed"}], "id": "1104000136", "name": "USPS COLLECTION BOX - BLUE BOX", "address": {"city": "NEW HYDE PARK", "state": "NY", "street": "1568 UNION TPKE", "postcode": "11040"}}},
{"geometry": {"type": "Point", "coordinates": [-73.7002563732, 40.7590495934]}, "type": "Feature", "properties": {"collection_times": [{"days": "Mon-Fri", "time": "4:00pm"}, {"days": "Sat-Sun", "time": "Closed"}], "id": "1104000137", "name": "USPS COLLECTION BOX - BLUE BOX", "address": {"city": "NEW HYDE PARK", "state": "NY", "street": "2500 MARCUS AVE", "postcode": "11040"}}},
{"geometry": {"type": "Point", "coordinates": [-73.6997272234, 40.7435143427]}, "type": "Feature", "properties": {"collection_times": [{"days": "Mon-Sat", "time": "10:00am"}, {"days": "Sun", "time": "Closed"}], "id": "1104000139", "name": "USPS COLLECTION BOX - BLUE BOX", "address": {"city": "NEW HYDE PARK", "state": "NY", "street": "70 LESLIE LN", "postcode": "11040"}}},
{"geometry": {"type": "Point", "coordinates": [-73.6759488726, 40.7535106312]}, "type": "Feature", "properties": {"collection_times": [{"days": "Mon-Fri", "time": "5:00pm"}, {"days": "Sat-Sun", "time": "Closed"}], "id": "1104000140", "name": "USPS COLLECTION BOX - BLUE BOX", "address": {"city": "NEW HYDE PARK", "state": "NY", "street": "1111 MARCUS AVE", "postcode": "11040"}}},
{"geometry": {"type": "Point", "coordinates": [-73.6759488726, 40.7535106312]}, "type": "Feature", "properties": {"collection_times": [{"days": "Mon-Fri", "time": "5:00pm"}, {"days": "Sat-Sun", "time": "Closed"}], "id": "1104000141", "name": "USPS COLLECTION BOX - BLUE BOX", "address": {"city": "NEW HYDE PARK", "state": "NY", "street": "1111 MARCUS AVE", "postcode": "11040"}}},
{"geometry": {"type": "Point", "coordinates": [-73.6759488726, 40.7535106312]}, "type": "Feature", "properties": {"collection_times": [{"days": "Mon-Fri", "time": "5:00pm"}, {"days": "Sat-Sun", "time": "Closed"}], "id": "1104000142", "name": "USPS COLLECTION BOX - BLUE BOX", "address": {"city": "NEW HYDE PARK", "state": "NY", "street": "1111 MARCUS AVE", "postcode": "11040"}}},
{"geometry": {"type": "Point", "coordinates": [-73.6759488726, 40.7535106312]}, "type": "Feature", "properties": {"collection_times": [{"days": "Mon-Fri", "time": "5:00pm"}, {"days": "Sat-Sun", "time": "Closed"}], "id": "1104000143", "name": "USPS COLLECTION BOX - BLUE BOX", "address": {"city": "NEW HYDE PARK", "state": "NY", "street": "1111 MARCUS AVE", "postcode": "11040"}}},
{"geometry": {"type": "Point", "coordinates": [-73.6759488726, 40.7535106312]}, "type": "Feature", "properties": {"collection_times": [{"days": "Mon-Fri", "time": "5:00pm"}, {"days": "Sat-Sun", "time": "Closed"}], "id": "1104000144", "name": "USPS COLLECTION BOX - BLUE BOX", "address": {"city": "NEW HYDE PARK", "state": "NY", "street": "1111 MARCUS AVE", "postcode": "11040"}}},
{"geometry": {"type": "Point", "coordinates": [-73.6969499575, 40.7582464834]}, "type": "Feature", "properties": {"collection_times": [{"days": "Mon-Fri", "time": "5:00pm"}, {"days": "Sat-Sun", "time": "Closed"}], "id": "1104000146", "name": "USPS COLLECTION BOX - BLUE BOX", "address": {"city": "NEW HYDE PARK", "state": "NY", "street": "1999 MARCUS AVE", "postcode": "11040"}}},
{"geometry": {"type": "Point", "coordinates": [-73.6751678124, 40.7512331499]}, "type": "Feature", "properties": {"collection_times": [{"days": "Mon-Fri", "time": "5:00pm"}, {"days": "Sat-Sun", "time": "Closed"}], "id": "1104000148", "name": "USPS COLLECTION BOX - PO LOBBY", "address": {"city": "NEW HYDE PARK", "state": "NY", "street": "2038 HILLSIDE AVE", "postcode": "11040"}}},
{"geometry": {"type": "Point", "coordinates": [-73.6868895014, 40.7547897967]}, "type": "Feature", "properties": {"collection_times": [{"days": "Mon-Fri", "time": "5:00pm"}, {"days": "Sat-Sun", "time": "Closed"}], "id": "1104000149", "name": "USPS COLLECTION BOX - PO LOBBY", "address": {"city": "NEW HYDE PARK", "state": "NY", "street": "1568 UNION TPKE", "postcode": "11040"}}},
{"geometry": {"type": "Point", "coordinates": [-73.6860060824, 40.8277457528]}, "type": "Feature", "properties": {"collection_times": [{"days": "Mon-Fri", "time": "4:00pm"}, {"days": "Sat", "time": "1:00pm"}, {"days": "Sun", "time": "Closed"}], "id": "1105000001", "name": "USPS COLLECTION BOX - BLUE BOX", "address": {"city": "PORT WASHINGTON", "state": "NY", "street": "44 S BAYLES AVE", "postcode": "11050"}}},
{"geometry": {"type": "Point", "coordinates": [-73.6914036915, 40.8389427711]}, "type": "Feature", "properties": {"collection_times": [{"days": "Mon-Fri", "time": "4:00pm"}, {"days": "Sat-Sun", "time": "Closed"}], "id": "1105000003", "name": "USPS COLLECTION BOX - BLUE BOX", "address": {"city": "PORT WASHINGTON", "state": "NY", "street": "14 VANDEVENTER E", "postcode": "11050"}}},
{"geometry": {"type": "Point", "coordinates": [-73.6948791168, 40.8343914373]}, "type": "Feature", "properties": {"collection_times": [{"days": "Mon-Sat", "time": "9:00am"}, {"days": "Sun", "time": "Closed"}], "id": "1105000008", "name": "USPS COLLECTION BOX - BLUE BOX", "address": {"city": "PORT WASHINGTON", "state": "NY", "street": "376 PORT WASHINGTON BLVD", "postcode": "11050"}}},
{"geometry": {"type": "Point", "coordinates": [-73.6751429702, 40.8163171863]}, "type": "Feature", "properties": {"collection_times": [{"days": "Mon-Sat", "time": "9:00am"}, {"days": "Sun", "time": "Closed"}], "id": "1105000010", "name": "USPS COLLECTION BOX - BLUE BOX", "address": {"city": "PORT WASHINGTON", "state": "NY", "street": "35 WAKEFIELD AVE", "postcode": "11050"}}},
{"geometry": {"type": "Point", "coordinates": [-73.687198505, 40.8250864611]}, "type": "Feature", "properties": {"collection_times": [{"days": "Mon-Sat", "time": "9:00am"}, {"days": "Sun", "time": "Closed"}], "id": "1105000014", "name": "USPS COLLECTION BOX - BLUE BOX", "address": {"city": "PORT WASHINGTON", "state": "NY", "street": "49 WILLOWDALE AVE", "postcode": "11050"}}},
{"geometry": {"type": "Point", "coordinates": [-73.6873901444, 40.8216937348]}, "type": "Feature", "properties": {"collection_times": [{"days": "Mon-Sat", "time": "9:00am"}, {"days": "Sun", "time": "Closed"}], "id": "1105000015", "name": "USPS COLLECTION BOX - BLUE BOX", "address": {"city": "PORT WASHINGTON", "state": "NY", "street": "139 HAVEN AVE", "postcode": "11050"}}},
{"geometry": {"type": "Point", "coordinates": [-73.6898826389, 40.8235947498]}, "type": "Feature", "properties": {"collection_times": [{"days": "Mon-Sat", "time": "9:00am"}, {"days": "Sun", "time": "Closed"}], "id": "1105000016", "name": "USPS COLLECTION BOX - BLUE BOX", "address": {"city": "PORT WASHINGTON", "state": "NY", "street": "1 VISTA WAY", "postcode": "11050"}}},
{"geometry": {"type": "Point", "coordinates": [-73.6940442886, 40.821370787]}, "type": "Feature", "properties": {"collection_times": [{"days": "Mon-Sat", "time": "9:00am"}, {"days": "Sun", "time": "Closed"}], "id": "1105000017", "name": "USPS COLLECTION BOX - BLUE BOX", "address": {"city": "PORT WASHINGTON", "state": "NY", "street": "23 AMHERST RD", "postcode": "11050"}}},
{"geometry": {"type": "Point", "coordinates": [-73.6969993201, 40.8269306941]}, "type": "Feature", "properties": {"collection_times": [{"days": "Mon-Sat", "time": "9:00am"}, {"days": "Sun", "time": "Closed"}], "id": "1105000020", "name": "USPS COLLECTION BOX - BLUE BOX", "address": {"city": "PORT WASHINGTON", "state": "NY", "street": "34 BAYVIEW AVE", "postcode": "11050"}}},
{"geometry": {"type": "Point", "coordinates": [-73.7021132517, 40.8299058359]}, "type": "Feature", "properties": {"collection_times": [{"days": "Mon-Sat", "time": "9:00am"}, {"days": "Sun", "time": "Closed"}], "id": "1105000022", "name": "USPS COLLECTION BOX - BLUE BOX", "address": {"city": "PORT WASHINGTON", "state": "NY", "street": "403 MAIN ST", "postcode": "11050"}}},
{"geometry": {"type": "Point", "coordinates": [-73.6948791168, 40.8343914373]}, "type": "Feature", "properties": {"collection_times": [{"days": "Mon-Sat", "time": "9:00am"}, {"days": "Sun", "time": "Closed"}], "id": "1105000023", "name": "USPS COLLECTION BOX - BLUE BOX", "address": {"city": "PORT WASHINGTON", "state": "NY", "street": "43 MACKEY AVE", "postcode": "11050"}}},
{"geometry": {"type": "Point", "coordinates": [-73.6914036915, 40.8389427711]}, "type": "Feature", "properties": {"collection_times": [{"days": "Mon-Fri", "time": "5:00pm"}, {"days": "Sat", "time": "2:00pm"}, {"days": "Sun", "time": "Closed"}], "id": "1105000026", "name": "USPS COLLECTION BOX - BLUE BOX", "address": {"city": "PORT WASHINGTON", "state": "NY", "street": "1051 PT WASHINGTON BLVD", "postcode": "11050"}}},
{"geometry": {"type": "Point", "coordinates": [-73.6914036915, 40.8389427711]}, "type": "Feature", "properties": {"collection_times": [{"days": "Mon-Fri", "time": "5:00pm"}, {"days": "Sat", "time": "2:00pm"}, {"days": "Sun", "time": "Closed"}], "id": "1105000027", "name": "USPS COLLECTION BOX - BLUE BOX", "address": {"city": "PORT WASHINGTON", "state": "NY", "street": "1051 PT WASHINGTON BLVD", "postcode": "11050"}}},
{"geometry": {"type": "Point", "coordinates": [-73.6948791168, 40.8343914373]}, "type": "Feature", "properties": {"collection_times": [{"days": "Mon-Fri", "time": "5:00pm"}, {"days": "Sat", "time": "2:00pm"}, {"days": "Sun", "time": "Closed"}], "id": "1105000028", "name": "USPS COLLECTION BOX - EXPRESS", "address": {"city": "PORT WASHINGTON", "state": "NY", "street": "1051 PORT WASHINGTON BLVD", "postcode": "11050"}}},
{"geometry": {"type": "Point", "coordinates": [-73.6656509075, 40.8138211429]}, "type": "Feature", "properties": {"collection_times": [{"days": "Mon-Fri", "time": "4:30pm"}, {"days": "Sat-Sun", "time": "Closed"}], "id": "1105000029", "name": "USPS COLLECTION BOX - BLUE BOX", "address": {"city": "PORT WASHINGTON", "state": "NY", "street": "99 SEAVIEW BLVD", "postcode": "11050"}}},
{"geometry": {"type": "Point", "coordinates": [-73.6601856371, 40.8123933114]}, "type": "Feature", "properties": {"collection_times": [{"days": "Mon-Fri", "time": "4:30pm"}, {"days": "Sat-Sun", "time": "Closed"}], "id": "1105000032", "name": "USPS COLLECTION BOX - BLUE BOX", "address": {"city": "PORT WASHINGTON", "state": "NY", "street": "21 HARBOR PARK DR", "postcode": "11050"}}},
{"geometry": {"type": "Point", "coordinates": [-73.7031873978, 40.838770845]}, "type": "Feature", "properties": {"collection_times": [{"days": "Mon-Fri", "time": "3:30pm"}, {"days": "Sat", "time": "1:00pm"}, {"days": "Sun", "time": "Closed"}], "id": "1105000037", "name": "USPS COLLECTION BOX - BLUE BOX", "address": {"city": "PORT WASHINGTON", "state": "NY", "street": "35 OLD SHORE RD", "postcode": "11050"}}},
{"geometry": {"type": "Point", "coordinates": [-73.6870376226, 40.8367208625]}, "type": "Feature", "properties": {"collection_times": [{"days": "Mon-Sat", "time": "9:00am"}, {"days": "Sun", "time": "Closed"}], "id": "1105000038", "name": "USPS COLLECTION BOX - BLUE BOX", "address": {"city": "PORT WASHINGTON", "state": "NY", "street": "1 EASTERNCREST RD", "postcode": "11050"}}},
{"geometry": {"type": "Point", "coordinates": [-73.6953526412, 40.8415709943]}, "type": "Feature", "properties": {"collection_times": [{"days": "Mon-Sat", "time": "9:00am"}, {"days": "Sun", "time": "Closed"}], "id": "1105000040", "name": "USPS COLLECTION BOX - BLUE BOX", "address": {"city": "PORT WASHINGTON", "state": "NY", "street": "85 HARBOR RD", "postcode": "11050"}}},
{"geometry": {"type": "Point", "coordinates": [-73.6923627771, 40.8442793306]}, "type": "Feature", "properties": {"collection_times": [{"days": "Mon-Sat", "time": "9:00am"}, {"days": "Sun", "time": "Closed"}], "id": "1105000041", "name": "USPS COLLECTION BOX - BLUE BOX", "address": {"city": "PORT WASHINGTON", "state": "NY", "street": "37 AVENUE A", "postcode": "11050"}}},
{"geometry": {"type": "Point", "coordinates": [-73.7059566853, 40.8474633129]}, "type": "Feature", "properties": {"collection_times": [{"days": "Mon-Sat", "time": "9:00am"}, {"days": "Sun", "time": "Closed"}], "id": "1105000043", "name": "USPS COLLECTION BOX - BLUE BOX", "address": {"city": "PORT WASHINGTON", "state": "NY", "street": "66 SOUNDVIEW DR", "postcode": "11050"}}},
{"geometry": {"type": "Point", "coordinates": [-73.7049547191, 40.8433797385]}, "type": "Feature", "properties": {"collection_times": [{"days": "Mon-Sat", "time": "9:00am"}, {"days": "Sun", "time": "Closed"}], "id": "1105000044", "name": "USPS COLLECTION BOX - BLUE BOX", "address": {"city": "PORT WASHINGTON", "state": "NY", "street": "9 FISHERMANS DR", "postcode": "11050"}}},
{"geometry": {"type": "Point", "coordinates": [-73.7053841332, 40.8473663102]}, "type": "Feature", "properties": {"collection_times": [{"days": "Mon-Sat", "time": "9:00am"}, {"days": "Sun", "time": "Closed"}], "id": "1105000045", "name": "USPS COLLECTION BOX - BLUE BOX", "address": {"city": "PORT WASHINGTON", "state": "NY", "street": "3 STEAMBOAT DR", "postcode": "11050"}}},
{"geometry": {"type": "Point", "coordinates": [-73.7113202213, 40.8475685962]}, "type": "Feature", "properties": {"collection_times": [{"days": "Mon-Sat", "time": "9:00am"}, {"days": "Sun", "time": "Closed"}], "id": "1105000046", "name": "USPS COLLECTION BOX - BLUE BOX", "address": {"city": "PORT WASHINGTON", "state": "NY", "street": "15 MOREWOOD OAKS", "postcode": "11050"}}},
{"geometry": {"type": "Point", "coordinates": [-73.7090371105, 40.8425090807]}, "type": "Feature", "properties": {"collection_times": [{"days": "Mon-Fri", "time": "3:30pm"}, {"days": "Sat", "time": "1:00pm"}, {"days": "Sun", "time": "Closed"}], "id": "1105000047", "name": "USPS COLLECTION BOX - BLUE BOX", "address": {"city": "PORT WASHINGTON", "state": "NY", "street": "33 MANORHAVEN BLVD", "postcode": "11050"}}},
{"geometry": {"type": "Point", "coordinates": [-73.7126279194, 40.8413293443]}, "type": "Feature", "properties": {"collection_times": [{"days": "Mon-Sat", "time": "9:00am"}, {"days": "Sun", "time": "Closed"}], "id": "1105000048", "name": "USPS COLLECTION BOX - BLUE BOX", "address": {"city": "PORT WASHINGTON", "state": "NY", "street": "103 MANORHAVEN BLVD", "postcode": "11050"}}},
{"geometry": {"type": "Point", "coordinates": [-73.7176265755, 40.8403525465]}, "type": "Feature", "properties": {"collection_times": [{"days": "Mon-Sat", "time": "9:00am"}, {"days": "Sun", "time": "Closed"}], "id": "1105000049", "name": "USPS COLLECTION BOX - BLUE BOX", "address": {"city": "PORT WASHINGTON", "state": "NY", "street": "195 MANORHAVEN BLVD", "postcode": "11050"}}},
{"geometry": {"type": "Point", "coordinates": [-73.7192791692, 40.8381025586]}, "type": "Feature", "properties": {"collection_times": [{"days": "Mon-Sat", "time": "9:00am"}, {"days": "Sun", "time": "Closed"}], "id": "1105000050", "name": "USPS COLLECTION BOX - BLUE BOX", "address": {"city": "PORT WASHINGTON", "state": "NY", "street": "48 ORCHARD BEACH BLVD", "postcode": "11050"}}},
{"geometry": {"type": "Point", "coordinates": [-73.7068415881, 40.841793928]}, "type": "Feature", "properties": {"collection_times": [{"days": "Mon-Fri", "time": "3:30pm"}, {"days": "Sat", "time": "1:00pm"}, {"days": "Sun", "time": "Closed"}], "id": "1105000052", "name": "USPS COLLECTION BOX - BLUE BOX", "address": {"city": "PORT WASHINGTON", "state": "NY", "street": "122 SHORE RD", "postcode": "11050"}}},
{"geometry": {"type": "Point", "coordinates": [-73.7068811217, 40.8405847461]}, "type": "Feature", "properties": {"collection_times": [{"days": "Mon-Fri", "time": "3:30pm"}, {"days": "Sat", "time": "1:00pm"}, {"days": "Sun", "time": "Closed"}], "id": "1105000054", "name": "USPS COLLECTION BOX - BLUE BOX", "address": {"city": "PORT WASHINGTON", "state": "NY", "street": "100 MANHASSET AVE", "postcode": "11050"}}},
{"geometry": {"type": "Point", "coordinates": [-73.7216864907, 40.8474455685]}, "type": "Feature", "properties": {"collection_times": [{"days": "Mon-Fri", "time": "3:30pm"}, {"days": "Sat", "time": "1:00pm"}, {"days": "Sun", "time": "Closed"}], "id": "1105000055", "name": "USPS COLLECTION BOX - BLUE BOX", "address": {"city": "PORT WASHINGTON", "state": "NY", "street": "3 SOUNDVIEW MARKET PL", "postcode": "11050"}}},
{"geometry": {"type": "Point", "coordinates": [-73.7001034044, 40.8351747351]}, "type": "Feature", "properties": {"collection_times": [{"days": "Mon-Sat", "time": "9:00am"}, {"days": "Sun", "time": "Closed"}], "id": "1105000058", "name": "USPS COLLECTION BOX - BLUE BOX", "address": {"city": "PORT WASHINGTON", "state": "NY", "street": "25 SHORE RD", "postcode": "11050"}}},
{"geometry": {"type": "Point", "coordinates": [-73.6984901824, 40.8323408268]}, "type": "Feature", "properties": {"collection_times": [{"days": "Mon-Fri", "time": "4:00pm"}, {"days": "Sat", "time": "1:00pm"}, {"days": "Sun", "time": "Closed"}], "id": "1105000060", "name": "USPS COLLECTION BOX - BLUE BOX", "address": {"city": "PORT WASHINGTON", "state": "NY", "street": "282 MAIN ST", "postcode": "11050"}}},
{"geometry": {"type": "Point", "coordinates": [-73.6925756133, 40.8305313944]}, "type": "Feature", "properties": {"collection_times": [{"days": "Mon-Fri", "time": "4:00pm"}, {"days": "Sat", "time": "1:00pm"}, {"days": "Sun", "time": "Closed"}], "id": "1105000061", "name": "USPS COLLECTION BOX - BLUE BOX", "address": {"city": "PORT WASHINGTON", "state": "NY", "street": "156 MAIN ST", "postcode": "11050"}}},
{"geometry": {"type": "Point", "coordinates": [-73.69009178, 40.8303961266]}, "type": "Feature", "properties": {"collection_times": [{"days": "Mon-Fri", "time": "4:00pm"}, {"days": "Sat", "time": "1:00pm"}, {"days": "Sun", "time": "Closed"}], "id": "1105000062", "name": "USPS COLLECTION BOX - BLUE BOX", "address": {"city": "PORT WASHINGTON", "state": "NY", "street": "110 MAIN ST", "postcode": "11050"}}},
{"geometry": {"type": "Point", "coordinates": [-73.688679971, 40.8305842934]}, "type": "Feature", "properties": {"collection_times": [{"days": "Mon-Fri", "time": "3:30pm"}, {"days": "Sat", "time": "1:00pm"}, {"days": "Sun", "time": "Closed"}], "id": "1105000063", "name": "USPS COLLECTION BOX - BLUE BOX", "address": {"city": "PORT WASHINGTON", "state": "NY", "street": "79 MAIN ST", "postcode": "11050"}}},
{"geometry": {"type": "Point", "coordinates": [-73.6878134622, 40.8305680215]}, "type": "Feature", "properties": {"collection_times": [{"days": "Mon-Fri", "time": "4:00pm"}, {"days": "Sat", "time": "1:00pm"}, {"days": "Sun", "time": "Closed"}], "id": "1105000065", "name": "USPS COLLECTION BOX - BLUE BOX", "address": {"city": "PORT WASHINGTON", "state": "NY", "street": "66 MAIN ST", "postcode": "11050"}}},
{"geometry": {"type": "Point", "coordinates": [-73.6878134622, 40.8305680215]}, "type": "Feature", "properties": {"collection_times": [{"days": "Mon-Fri", "time": "4:00pm"}, {"days": "Sat", "time": "1:00pm"}, {"days": "Sun", "time": "Closed"}], "id": "1105000066", "name": "USPS COLLECTION BOX - BLUE BOX", "address": {"city": "PORT WASHINGTON", "state": "NY", "street": "66 MAIN ST", "postcode": "11050"}}},
{"geometry": {"type": "Point", "coordinates": [-73.6869764392, 40.8307886806]}, "type": "Feature", "properties": {"collection_times": [{"days": "Mon-Sat", "time": "9:00am"}, {"days": "Sun", "time": "Closed"}], "id": "1105000067", "name": "USPS COLLECTION BOX - BLUE BOX", "address": {"city": "PORT WASHINGTON", "state": "NY", "street": "51 MAIN ST", "postcode": "11050"}}},
{"geometry": {"type": "Point", "coordinates": [-73.6855865663, 40.8309418829]}, "type": "Feature", "properties": {"collection_times": [{"days": "Mon-Sat", "time": "9:00am"}, {"days": "Sun", "time": "Closed"}], "id": "1105000068", "name": "USPS COLLECTION BOX - BLUE BOX", "address": {"city": "PORT WASHINGTON", "state": "NY", "street": "33 MAIN ST", "postcode": "11050"}}},
{"geometry": {"type": "Point", "coordinates": [-73.6589139562, 40.8110033346]}, "type": "Feature", "properties": {"collection_times": [{"days": "Mon-Fri", "time": "4:30pm"}, {"days": "Sat-Sun", "time": "Closed"}], "id": "1105000070", "name": "USPS COLLECTION BOX - BLUE BOX", "address": {"city": "PORT WASHINGTON", "state": "NY", "street": "18 INDUSTRIAL PARK DR", "postcode": "11050"}}},
{"geometry": {"type": "Point", "coordinates": [-73.6587045724, 40.8073385277]}, "type": "Feature", "properties": {"collection_times": [{"days": "Mon-Fri", "time": "4:30pm"}, {"days": "Sat-Sun", "time": "Closed"}], "id": "1105000071", "name": "USPS COLLECTION BOX - BLUE BOX", "address": {"city": "PORT WASHINGTON", "state": "NY", "street": "5 HARBOR PARK DR", "postcode": "11050"}}},
{"geometry": {"type": "Point", "coordinates": [-73.7013596347, 40.8452841372]}, "type": "Feature", "properties": {"collection_times": [{"days": "Mon-Sat", "time": "9:00am"}, {"days": "Sun", "time": "Closed"}], "id": "1105000073", "name": "USPS COLLECTION BOX - BLUE BOX", "address": {"city": "PORT WASHINGTON", "state": "NY", "street": "18 RADCLIFF AVE", "postcode": "11050"}}},
{"geometry": {"type": "Point", "coordinates": [-73.684167419, 40.8311098338]}, "type": "Feature", "properties": {"collection_times": [{"days": "Mon-Fri", "time": "5:00pm"}, {"days": "Sat", "time": "2:00pm"}, {"days": "Sun", "time": "Closed"}], "id": "1105000088", "name": "USPS COLLECTION BOX - PO LOBBY", "address": {"city": "PORT WASHINGTON", "state": "NY", "street": "1051 PORT WASHINGTON BLVD", "postcode": "11050"}}},
{"geometry": {"type": "Point", "coordinates": [-73.6948791168, 40.8343914373]}, "type": "Feature", "properties": {"collection_times": [{"days": "Mon-Fri", "time": "4:30pm"}, {"days": "Sat-Sun", "time": "Closed"}], "id": "1105000090", "name": "USPS COLLECTION BOX - BLUE BOX", "address": {"city": "PORT WASHINGTON", "state": "NY", "street": "10 SEAVIEW BLVD", "postcode": "11050"}}},
{"geometry": {"type": "Point", "coordinates": [-73.7486307471, 40.6236356471]}, "type": "Feature", "properties": {"collection_times": [{"days": "Mon-Sat", "time": "9:30am"}, {"days": "Sun", "time": "Closed"}], "id": "1109600005", "name": "USPS COLLECTION BOX - BLUE BOX", "address": {"city": "FAR ROCKAWAY", "state": "NY", "street": "1 WESTVILLE RD", "postcode": "11096"}}},
{"geometry": {"type": "Point", "coordinates": [-73.7421970715, 40.6229277616]}, "type": "Feature", "properties": {"collection_times": [{"days": "Mon-Sat", "time": "9:30am"}, {"days": "Sun", "time": "Closed"}], "id": "1109600010", "name": "USPS COLLECTION BOX - BLUE BOX", "address": {"city": "FAR ROCKAWAY", "state": "NY", "street": "589 BURNSIDE AVE", "postcode": "11096"}}},
{"geometry": {"type": "Point", "coordinates": [-73.7466619771, 40.6154735278]}, "type": "Feature", "properties": {"collection_times": [{"days": "Mon-Fri", "time": "5:00pm"}, {"days": "Sat", "time": "12:00pm"}, {"days": "Sun", "time": "Closed"}], "id": "1109600035", "name": "USPS COLLECTION BOX - PO LOBBY", "address": {"city": "FAR ROCKAWAY", "state": "NY", "street": "143 DOUGHTY BLVD", "postcode": "11096"}}}
]}
