{"type": "FeatureCollection", "features": [
{"geometry": {"type": "Point", "coordinates": [-73.9416064099, 40.7428893757]}, "type": "Feature", "properties": {"collection_times": [{"days": "Mon-Fri", "time": "2:00pm"}, {"days": "Sat", "time": "8:00am"}, {"days": "Sun", "time": "Closed"}], "id": "1110100001", "name": "USPS COLLECTION BOX - BLUE BOX", "address": {"city": "LONG IS CITY", "state": "NY", "street": "4716 AUSTEL PL", "postcode": "11101"}}},
{"geometry": {"type": "Point", "coordinates": [-73.9538004951, 40.7411383838]}, "type": "Feature", "properties": {"collection_times": [{"days": "Mon-Fri", "time": "3:00pm"}, {"days": "Sat", "time": "8:00am"}, {"days": "Sun", "time": "Closed"}], "id": "1110100002", "name": "USPS COLLECTION BOX - BLUE BOX", "address": {"city": "LONG IS CITY", "state": "NY", "street": "1040 BORDEN AVE", "postcode": "11101"}}},
{"geometry": {"type": "Point", "coordinates": [-73.9497691401, 40.7404741056]}, "type": "Feature", "properties": {"collection_times": [{"days": "Mon-Fri", "time": "3:00pm"}, {"days": "Sat", "time": "8:00am"}, {"days": "Sun", "time": "Closed"}], "id": "1110100003", "name": "USPS COLLECTION BOX - BLUE BOX", "address": {"city": "LONG IS CITY", "state": "NY", "street": "2107 BORDEN AVE", "postcode": "11101"}}},
{"geometry": {"type": "Point", "coordinates": [-73.9468750214, 40.739918404]}, "type": "Feature", "properties": {"collection_times": [{"days": "Mon-Fri", "time": "3:00pm"}, {"days": "Sat", "time": "8:00am"}, {"days": "Sun", "time": "Closed"}], "id": "1110100004", "name": "USPS COLLECTION BOX - BLUE BOX", "address": {"city": "LONG IS CITY", "state": "NY", "street": "2359 BORDEN AVE", "postcode": "11101"}}},
{"geometry": {"type": "Point", "coordinates": [-73.9406457223, 40.7383765694]}, "type": "Feature", "properties": {"collection_times": [{"days": "Mon-Fri", "time": "3:00pm"}, {"days": "Sat", "time": "8:00am"}, {"days": "Sun", "time": "Closed"}], "id": "1110100005", "name": "USPS COLLECTION BOX - BLUE BOX", "address": {"city": "LONG IS CITY", "state": "NY", "street": "2831 REVIEW AVE", "postcode": "11101"}}},
{"geometry": {"type": "Point", "coordinates": [-73.9349096213, 40.7384120409]}, "type": "Feature", "properties": {"collection_times": [{"days": "Mon-Fri", "time": "2:00pm"}, {"days": "Sat", "time": "8:00am"}, {"days": "Sun", "time": "Closed"}], "id": "1110100006", "name": "USPS COLLECTION BOX - BLUE BOX", "address": {"city": "LONG IS CITY", "state": "NY", "street": "4962 VAN DAM ST", "postcode": "11101"}}},
{"geometry": {"type": "Point", "coordinates": [-73.9410241515, 40.7513692226]}, "type": "Feature", "properties": {"collection_times": [{"days": "Mon-Fri", "time": "3:00pm"}, {"days": "Sat", "time": "8:00am"}, {"days": "Sun", "time": "Closed"}], "id": "1110100007", "name": "USPS COLLECTION BOX - BLUE BOX", "address": {"city": "LONG IS CITY", "state": "NY", "street": "2401 BRIDGE PLAZA NO", "postcode": "11101"}}},
{"geometry": {"type": "Point", "coordinates": [-73.9387978338, 40.7513882031]}, "type": "Feature", "properties": {"collection_times": [{"days": "Mon-Fri", "time": "4:00pm"}, {"days": "Sat", "time": "8:00am"}, {"days": "Sun", "time": "Closed"}], "id": "1110100010", "name": "USPS COLLECTION BOX - BLUE BOX", "address": {"city": "LONG IS CITY", "state": "NY", "street": "4136 27TH ST", "postcode": "11101"}}},
{"geometry": {"type": "Point", "coordinates": [-73.9377239443, 40.7499289523]}, "type": "Feature", "properties": {"collection_times": [{"days": "Mon-Fri", "time": "2:00pm"}, {"days": "Sat", "time": "8:00am"}, {"days": "Sun", "time": "Closed"}], "id": "1110100012", "name": "USPS COLLECTION BOX - BLUE BOX", "address": {"city": "LONG IS CITY", "state": "NY", "street": "2909 BRIDGE PLAZA NO.", "postcode": "11101"}}},
{"geometry": {"type": "Point", "coordinates": [-73.9425823192, 40.7460897167]}, "type": "Feature", "properties": {"collection_times": [{"days": "Mon-Fri", "time": "3:00pm"}, {"days": "Sat", "time": "8:00am"}, {"days": "Sun", "time": "Closed"}], "id": "1110100022", "name": "USPS COLLECTION BOX - BLUE BOX", "address": {"city": "LONG IS CITY", "state": "NY", "street": "4531 COURT SQ", "postcode": "11101"}}},
{"geometry": {"type": "Point", "coordinates": [-73.9347967518, 40.7354893024]}, "type": "Feature", "properties": {"collection_times": [{"days": "Mon-Fri", "time": "2:00pm"}, {"days": "Sat", "time": "8:00am"}, {"days": "Sun", "time": "Closed"}], "id": "1110100026", "name": "USPS COLLECTION BOX - BLUE BOX", "address": {"city": "LONG IS CITY", "state": "NY", "street": "3236 GREENPOINT AVE", "postcode": "11101"}}},
{"geometry": {"type": "Point", "coordinates": [-73.9375074964, 40.7344853741]}, "type": "Feature", "properties": {"collection_times": [{"days": "Mon-Fri", "time": "2:00pm"}, {"days": "Sat", "time": "8:00am"}, {"days": "Sun", "time": "Closed"}], "id": "1110100029", "name": "USPS COLLECTION BOX - BLUE BOX", "address": {"city": "LONG IS CITY", "state": "NY", "street": "3120 GREENPOINT AVE", "postcode": "11101"}}},
{"geometry": {"type": "Point", "coordinates": [-73.9446180621, 40.7461819282]}, "type": "Feature", "properties": {"collection_times": [{"days": "Mon-Fri", "time": "3:00pm"}, {"days": "Sat", "time": "8:00am"}, {"days": "Sun", "time": "Closed"}], "id": "1110100031", "name": "USPS COLLECTION BOX - BLUE BOX", "address": {"city": "LONG IS CITY", "state": "NY", "street": "2424 JACKSON AVE", "postcode": "11101"}}},
{"geometry": {"type": "Point", "coordinates": [-73.9352780554, 40.750401003]}, "type": "Feature", "properties": {"collection_times": [{"days": "Mon-Fri", "time": "4:00pm"}, {"days": "Sat", "time": "8:00am"}, {"days": "Sun", "time": "Closed"}], "id": "1110100034", "name": "USPS COLLECTION BOX - BLUE BOX", "address": {"city": "LONG IS CITY", "state": "NY", "street": "2976 NORTHERN BLVD", "postcode": "11101"}}},
{"geometry": {"type": "Point", "coordinates": [-73.9345224836, 40.7510746851]}, "type": "Feature", "properties": {"collection_times": [{"days": "Mon-Fri", "time": "4:00pm"}, {"days": "Sat", "time": "8:00am"}, {"days": "Sun", "time": "Closed"}], "id": "1110100035", "name": "USPS COLLECTION BOX - BLUE BOX", "address": {"city": "LONG IS CITY", "state": "NY", "street": "3030 NORTHERN BLVD", "postcode": "11101"}}},
{"geometry": {"type": "Point", "coordinates": [-73.9412061686, 40.7475000173]}, "type": "Feature", "properties": {"collection_times": [{"days": "Mon-Fri", "time": "2:00pm"}, {"days": "Sat", "time": "8:00am"}, {"days": "Sun", "time": "Closed"}], "id": "1110100042", "name": "USPS COLLECTION BOX - BLUE BOX", "address": {"city": "LONG IS CITY", "state": "NY", "street": "3328 NORTHERN BLVD", "postcode": "11101"}}},
{"geometry": {"type": "Point", "coordinates": [-73.9143822089, 40.7537207141]}, "type": "Feature", "properties": {"collection_times": [{"days": "Mon-Fri", "time": "3:00pm"}, {"days": "Sat", "time": "8:00am"}, {"days": "Sun", "time": "Closed"}], "id": "1110100051", "name": "USPS COLLECTION BOX - BLUE BOX", "address": {"city": "LONG IS CITY", "state": "NY", "street": "4815 NORTHERN BLVD", "postcode": "11101"}}},
{"geometry": {"type": "Point", "coordinates": [-73.9427041502, 40.743105576]}, "type": "Feature", "properties": {"collection_times": [{"days": "Mon-Fri", "time": "2:00pm"}, {"days": "Sat", "time": "8:00am"}, {"days": "Sun", "time": "Closed"}], "id": "1110100053", "name": "USPS COLLECTION BOX - BLUE BOX", "address": {"city": "LONG IS CITY", "state": "NY", "street": "4707 PEARSON PL", "postcode": "11101"}}},
{"geometry": {"type": "Point", "coordinates": [-73.9411974786, 40.7474913731]}, "type": "Feature", "properties": {"collection_times": [{"days": "Mon-Fri", "time": "9:00am"}, {"days": "Sat", "time": "8:00am"}, {"days": "Sun", "time": "Closed"}], "id": "1110100054", "name": "USPS COLLECTION BOX - BLUE BOX", "address": {"city": "LONG IS CITY", "state": "NY", "street": "3615 QUEENS BLVD", "postcode": "11101"}}},
{"geometry": {"type": "Point", "coordinates": [-73.9308791461, 40.7442922017]}, "type": "Feature", "properties": {"collection_times": [{"days": "Mon-Fri", "time": "2:00pm"}, {"days": "Sat", "time": "8:00am"}, {"days": "Sun", "time": "Closed"}], "id": "1110100058", "name": "USPS COLLECTION BOX - BLUE BOX", "address": {"city": "LONG IS CITY", "state": "NY", "street": "4508 34TH ST", "postcode": "11101"}}},
{"geometry": {"type": "Point", "coordinates": [-73.9306863674, 40.7447699505]}, "type": "Feature", "properties": {"collection_times": [{"days": "Mon-Fri", "time": "9:00am"}, {"days": "Sat", "time": "8:00am"}, {"days": "Sun", "time": "Closed"}], "id": "1110100059", "name": "USPS COLLECTION BOX - BLUE BOX", "address": {"city": "LONG IS CITY", "state": "NY", "street": "3401 QUEENS BLVD", "postcode": "11101"}}},
{"geometry": {"type": "Point", "coordinates": [-73.9306141673, 40.7447610538]}, "type": "Feature", "properties": {"collection_times": [{"days": "Mon-Fri", "time": "2:00pm"}, {"days": "Sat", "time": "8:00am"}, {"days": "Sun", "time": "Closed"}], "id": "1110100060", "name": "USPS COLLECTION BOX - BLUE BOX", "address": {"city": "LONG IS CITY", "state": "NY", "street": "3409 QUEENS BLVD", "postcode": "11101"}}},
{"geometry": {"type": "Point", "coordinates": [-73.9329464123, 40.7462984226]}, "type": "Feature", "properties": {"collection_times": [{"days": "Mon-Fri", "time": "9:00am"}, {"days": "Sat", "time": "8:00am"}, {"days": "Sun", "time": "Closed"}], "id": "1110100061", "name": "USPS COLLECTION BOX - BLUE BOX", "address": {"city": "LONG IS CITY", "state": "NY", "street": "3230 SKILLMAN AVE", "postcode": "11101"}}},
{"geometry": {"type": "Point", "coordinates": [-73.9376021351, 40.7451812774]}, "type": "Feature", "properties": {"collection_times": [{"days": "Mon-Fri", "time": "2:00pm"}, {"days": "Sat", "time": "8:00am"}, {"days": "Sun", "time": "Closed"}], "id": "1110100066", "name": "USPS COLLECTION BOX - BLUE BOX", "address": {"city": "LONG IS CITY", "state": "NY", "street": "2910 THOMSON AVE", "postcode": "11101"}}},
{"geometry": {"type": "Point", "coordinates": [-73.9412061686, 40.7475000173]}, "type": "Feature", "properties": {"collection_times": [{"days": "Mon-Fri", "time": "5:00pm"}, {"days": "Sat", "time": "1:00pm"}, {"days": "Sun", "time": "Closed"}], "id": "1110100072", "name": "USPS COLLECTION BOX - EXPRESS", "address": {"city": "LONG IS CITY", "state": "NY", "street": "4602 21ST ST", "postcode": "11101"}}},
{"geometry": {"type": "Point", "coordinates": [-73.9386089174, 40.7456781805]}, "type": "Feature", "properties": {"collection_times": [{"days": "Mon-Fri", "time": "2:00pm"}, {"days": "Sat", "time": "8:00am"}, {"days": "Sun", "time": "Closed"}], "id": "1110100073", "name": "USPS COLLECTION BOX - BLUE BOX", "address": {"city": "LONG IS CITY", "state": "NY", "street": "3110 THOMPSON AVE", "postcode": "11101"}}},
{"geometry": {"type": "Point", "coordinates": [-73.9481666539, 40.7459274646]}, "type": "Feature", "properties": {"collection_times": [{"days": "Mon-Fri", "time": "5:00pm"}, {"days": "Sat", "time": "1:00pm"}, {"days": "Sun", "time": "Closed"}], "id": "1110100076", "name": "USPS COLLECTION BOX - BLUE BOX", "address": {"city": "LONG IS CITY", "state": "NY", "street": "4602 21ST ST", "postcode": "11101"}}},
{"geometry": {"type": "Point", "coordinates": [-73.9481666539, 40.7459274646]}, "type": "Feature", "properties": {"collection_times": [{"days": "Mon-Fri", "time": "5:00pm"}, {"days": "Sat", "time": "1:00pm"}, {"days": "Sun", "time": "Closed"}], "id": "1110100077", "name": "USPS COLLECTION BOX - BLUE BOX", "address": {"city": "LONG IS CITY", "state": "NY", "street": "4602 21ST ST", "postcode": "11101"}}},
{"geometry": {"type": "Point", "coordinates": [-73.948861517, 40.7438346233]}, "type": "Feature", "properties": {"collection_times": [{"days": "Mon-Fri", "time": "3:00pm"}, {"days": "Sat", "time": "8:00am"}, {"days": "Sun", "time": "Closed"}], "id": "1110100080", "name": "USPS COLLECTION BOX - BLUE BOX", "address": {"city": "LONG IS CITY", "state": "NY", "street": "4740 21ST ST", "postcode": "11101"}}},
{"geometry": {"type": "Point", "coordinates": [-73.9208429724, 40.7566040467]}, "type": "Feature", "properties": {"collection_times": [{"days": "Mon-Fri", "time": "11:00am"}, {"days": "Sat", "time": "8:00am"}, {"days": "Sun", "time": "Closed"}], "id": "1110100081", "name": "USPS COLLECTION BOX - BLUE BOX", "address": {"city": "LONG IS CITY", "state": "NY", "street": "3401 STEINWAY ST", "postcode": "11101"}}},
{"geometry": {"type": "Point", "coordinates": [-73.9192685178, 40.7558648716]}, "type": "Feature", "properties": {"collection_times": [{"days": "Mon-Fri", "time": "11:00am"}, {"days": "Sat", "time": "8:00am"}, {"days": "Sun", "time": "Closed"}], "id": "1110100082", "name": "USPS COLLECTION BOX - BLUE BOX", "address": {"city": "LONG IS CITY", "state": "NY", "street": "4202 34TH AVE", "postcode": "11101"}}},
{"geometry": {"type": "Point", "coordinates": [-73.9386089174, 40.7456781805]}, "type": "Feature", "properties": {"collection_times": [{"days": "Mon-Fri", "time": "11:00am"}, {"days": "Sat", "time": "8:00am"}, {"days": "Sun", "time": "Closed"}], "id": "1110100084", "name": "USPS COLLECTION BOX - BLUE BOX", "address": {"city": "LONG IS CITY", "state": "NY", "street": "3604 35 AVE", "postcode": "11101"}}},
{"geometry": {"type": "Point", "coordinates": [-73.9432570235, 40.7606011347]}, "type": "Feature", "properties": {"collection_times": [{"days": "Mon-Fri", "time": "3:00pm"}, {"days": "Sat", "time": "8:00am"}, {"days": "Sun", "time": "Closed"}], "id": "1110100087", "name": "USPS COLLECTION BOX - BLUE BOX", "address": {"city": "LONG IS CITY", "state": "NY", "street": "3701 VERNON BLVD", "postcode": "11101"}}},
{"geometry": {"type": "Point", "coordinates": [-73.9414672782, 40.7599433941]}, "type": "Feature", "properties": {"collection_times": [{"days": "Mon-Fri", "time": "2:00pm"}, {"days": "Sat", "time": "8:00am"}, {"days": "Sun", "time": "Closed"}], "id": "1110100088", "name": "USPS COLLECTION BOX - BLUE BOX", "address": {"city": "LONG IS CITY", "state": "NY", "street": "1020 37TH AVE", "postcode": "11101"}}},
{"geometry": {"type": "Point", "coordinates": [-73.9391205478, 40.7592125725]}, "type": "Feature", "properties": {"collection_times": [{"days": "Mon-Fri", "time": "2:00pm"}, {"days": "Sat", "time": "8:00am"}, {"days": "Sun", "time": "Closed"}], "id": "1110100089", "name": "USPS COLLECTION BOX - BLUE BOX", "address": {"city": "LONG IS CITY", "state": "NY", "street": "1301 37TH AVE", "postcode": "11101"}}},
{"geometry": {"type": "Point", "coordinates": [-73.9379818419, 40.7570248316]}, "type": "Feature", "properties": {"collection_times": [{"days": "Mon-Fri", "time": "3:00pm"}, {"days": "Sat", "time": "8:00am"}, {"days": "Sun", "time": "Closed"}], "id": "1110100091", "name": "USPS COLLECTION BOX - BLUE BOX", "address": {"city": "LONG IS CITY", "state": "NY", "street": "2211 38TH AVE", "postcode": "11101"}}},
{"geometry": {"type": "Point", "coordinates": [-73.9356995287, 40.7558096138]}, "type": "Feature", "properties": {"collection_times": [{"days": "Mon-Fri", "time": "3:00pm"}, {"days": "Sat", "time": "8:00am"}, {"days": "Sun", "time": "Closed"}], "id": "1110100092", "name": "USPS COLLECTION BOX - BLUE BOX", "address": {"city": "LONG IS CITY", "state": "NY", "street": "2509 38TH AVE", "postcode": "11101"}}},
{"geometry": {"type": "Point", "coordinates": [-73.9330819853, 40.7553076931]}, "type": "Feature", "properties": {"collection_times": [{"days": "Mon-Fri", "time": "3:00pm"}, {"days": "Sat", "time": "8:00am"}, {"days": "Sun", "time": "Closed"}], "id": "1110100093", "name": "USPS COLLECTION BOX - BLUE BOX", "address": {"city": "LONG IS CITY", "state": "NY", "street": "3744 29TH ST", "postcode": "11101"}}},
{"geometry": {"type": "Point", "coordinates": [-73.9304033752, 40.7529929316]}, "type": "Feature", "properties": {"collection_times": [{"days": "Mon-Fri", "time": "3:00pm"}, {"days": "Sat", "time": "8:00am"}, {"days": "Sun", "time": "Closed"}], "id": "1110100095", "name": "USPS COLLECTION BOX - BLUE BOX", "address": {"city": "LONG IS CITY", "state": "NY", "street": "3301 38TH AVE", "postcode": "11101"}}},
{"geometry": {"type": "Point", "coordinates": [-73.9375393976, 40.7551024769]}, "type": "Feature", "properties": {"collection_times": [{"days": "Mon-Fri", "time": "2:00pm"}, {"days": "Sat", "time": "8:00am"}, {"days": "Sun", "time": "Closed"}], "id": "1110100096", "name": "USPS COLLECTION BOX - BLUE BOX", "address": {"city": "LONG IS CITY", "state": "NY", "street": "2402 39TH AVE", "postcode": "11101"}}},
{"geometry": {"type": "Point", "coordinates": [-73.9359319762, 40.7543744991]}, "type": "Feature", "properties": {"collection_times": [{"days": "Mon-Fri", "time": "4:00pm"}, {"days": "Sat", "time": "8:00am"}, {"days": "Sun", "time": "Closed"}], "id": "1110100097", "name": "USPS COLLECTION BOX - BLUE BOX", "address": {"city": "LONG IS CITY", "state": "NY", "street": "2701 39TH AVE", "postcode": "11101"}}},
{"geometry": {"type": "Point", "coordinates": [-73.934259952, 40.7534837186]}, "type": "Feature", "properties": {"collection_times": [{"days": "Mon-Fri", "time": "4:00pm"}, {"days": "Sat", "time": "8:00am"}, {"days": "Sun", "time": "Closed"}], "id": "1110100098", "name": "USPS COLLECTION BOX - BLUE BOX", "address": {"city": "LONG IS CITY", "state": "NY", "street": "2919 39TH AVE", "postcode": "11101"}}},
{"geometry": {"type": "Point", "coordinates": [-73.9457915932, 40.7577250034]}, "type": "Feature", "properties": {"collection_times": [{"days": "Mon-Fri", "time": "2:00pm"}, {"days": "Sat", "time": "8:00am"}, {"days": "Sun", "time": "Closed"}], "id": "1110100099", "name": "USPS COLLECTION BOX - BLUE BOX", "address": {"city": "LONG IS CITY", "state": "NY", "street": "4001 VERNON BLVD", "postcode": "11101"}}},
{"geometry": {"type": "Point", "coordinates": [-73.9427936517, 40.7559892534]}, "type": "Feature", "properties": {"collection_times": [{"days": "Mon-Fri", "time": "2:00pm"}, {"days": "Sat", "time": "8:00am"}, {"days": "Sun", "time": "Closed"}], "id": "1110100100", "name": "USPS COLLECTION BOX - BLUE BOX", "address": {"city": "LONG IS CITY", "state": "NY", "street": "4001 12TH ST", "postcode": "11101"}}},
{"geometry": {"type": "Point", "coordinates": [-73.9401903595, 40.7546910063]}, "type": "Feature", "properties": {"collection_times": [{"days": "Mon-Fri", "time": "2:00pm"}, {"days": "Sat", "time": "8:00am"}, {"days": "Sun", "time": "Closed"}], "id": "1110100101", "name": "USPS COLLECTION BOX - BLUE BOX", "address": {"city": "LONG IS CITY", "state": "NY", "street": "4001 22ND ST", "postcode": "11101"}}},
{"geometry": {"type": "Point", "coordinates": [-73.9374212697, 40.7541358773]}, "type": "Feature", "properties": {"collection_times": [{"days": "Mon-Fri", "time": "4:00pm"}, {"days": "Sat", "time": "8:00am"}, {"days": "Sun", "time": "Closed"}], "id": "1110100103", "name": "USPS COLLECTION BOX - BLUE BOX", "address": {"city": "LONG IS CITY", "state": "NY", "street": "3950 CRESCENT ST", "postcode": "11101"}}},
{"geometry": {"type": "Point", "coordinates": [-73.9416049021, 40.754759097]}, "type": "Feature", "properties": {"collection_times": [{"days": "Mon-Fri", "time": "3:00pm"}, {"days": "Sat", "time": "8:00am"}, {"days": "Sun", "time": "Closed"}], "id": "1110100106", "name": "USPS COLLECTION BOX - BLUE BOX", "address": {"city": "LONG IS CITY", "state": "NY", "street": "4035 21ST ST", "postcode": "11101"}}},
{"geometry": {"type": "Point", "coordinates": [-73.9393484695, 40.75204962]}, "type": "Feature", "properties": {"collection_times": [{"days": "Mon-Fri", "time": "3:00pm"}, {"days": "Sat", "time": "8:00am"}, {"days": "Sun", "time": "Closed"}], "id": "1110100108", "name": "USPS COLLECTION BOX - BLUE BOX", "address": {"city": "LONG IS CITY", "state": "NY", "street": "4114 CRESCENT ST", "postcode": "11101"}}},
{"geometry": {"type": "Point", "coordinates": [-73.9365498052, 40.7507819001]}, "type": "Feature", "properties": {"collection_times": [{"days": "Mon-Fri", "time": "4:00pm"}, {"days": "Sat", "time": "8:00am"}, {"days": "Sun", "time": "Closed"}], "id": "1110100110", "name": "USPS COLLECTION BOX - BLUE BOX", "address": {"city": "LONG IS CITY", "state": "NY", "street": "2927 41ST AVE", "postcode": "11101"}}},
{"geometry": {"type": "Point", "coordinates": [-73.939255023, 40.7496363352]}, "type": "Feature", "properties": {"collection_times": [{"days": "Mon-Fri", "time": "3:00pm"}, {"days": "Sat", "time": "8:00am"}, {"days": "Sun", "time": "Closed"}], "id": "1110100114", "name": "USPS COLLECTION BOX - BLUE BOX", "address": {"city": "LONG IS CITY", "state": "NY", "street": "4226 28TH ST", "postcode": "11101"}}},
{"geometry": {"type": "Point", "coordinates": [-73.9396677417, 40.7481645453]}, "type": "Feature", "properties": {"collection_times": [{"days": "Mon-Fri", "time": "2:00pm"}, {"days": "Sat", "time": "8:00am"}, {"days": "Sun", "time": "Closed"}], "id": "1110100115", "name": "USPS COLLECTION BOX - BLUE BOX", "address": {"city": "LONG IS CITY", "state": "NY", "street": "2755 JACKSON AVE", "postcode": "11101"}}},
{"geometry": {"type": "Point", "coordinates": [-73.9456147261, 40.7505967179]}, "type": "Feature", "properties": {"collection_times": [{"days": "Mon-Fri", "time": "3:00pm"}, {"days": "Sat", "time": "8:00am"}, {"days": "Sun", "time": "Closed"}], "id": "1110100116", "name": "USPS COLLECTION BOX - BLUE BOX", "address": {"city": "LONG IS CITY", "state": "NY", "street": "4301 21ST ST", "postcode": "11101"}}},
{"geometry": {"type": "Point", "coordinates": [-73.9459408947, 40.7486898361]}, "type": "Feature", "properties": {"collection_times": [{"days": "Mon-Fri", "time": "3:00pm"}, {"days": "Sat", "time": "8:00am"}, {"days": "Sun", "time": "Closed"}], "id": "1110100118", "name": "USPS COLLECTION BOX - BLUE BOX", "address": {"city": "LONG IS CITY", "state": "NY", "street": "2201 44TH RD", "postcode": "11101"}}},
{"geometry": {"type": "Point", "coordinates": [-73.9443962706, 40.748985385]}, "type": "Feature", "properties": {"collection_times": [{"days": "Mon-Fri", "time": "2:00pm"}, {"days": "Sat", "time": "8:00am"}, {"days": "Sun", "time": "Closed"}], "id": "1110100119", "name": "USPS COLLECTION BOX - BLUE BOX", "address": {"city": "LONG IS CITY", "state": "NY", "street": "4402 23RD ST", "postcode": "11101"}}},
{"geometry": {"type": "Point", "coordinates": [-73.9494654288, 40.7485795467]}, "type": "Feature", "properties": {"collection_times": [{"days": "Mon-Fri", "time": "3:00pm"}, {"days": "Sat", "time": "8:00am"}, {"days": "Sun", "time": "Closed"}], "id": "1110100120", "name": "USPS COLLECTION BOX - BLUE BOX", "address": {"city": "LONG IS CITY", "state": "NY", "street": "1105 44TH DR", "postcode": "11101"}}},
{"geometry": {"type": "Point", "coordinates": [-73.9472964326, 40.748077262]}, "type": "Feature", "properties": {"collection_times": [{"days": "Mon-Fri", "time": "3:00pm"}, {"days": "Sat", "time": "8:00am"}, {"days": "Sun", "time": "Closed"}], "id": "1110100121", "name": "USPS COLLECTION BOX - BLUE BOX", "address": {"city": "LONG IS CITY", "state": "NY", "street": "4461 21ST ST", "postcode": "11101"}}},
{"geometry": {"type": "Point", "coordinates": [-73.9521661007, 40.7498668674]}, "type": "Feature", "properties": {"collection_times": [{"days": "Mon-Fri", "time": "2:00pm"}, {"days": "Sat", "time": "8:00am"}, {"days": "Sun", "time": "Closed"}], "id": "1110100124", "name": "USPS COLLECTION BOX - BLUE BOX", "address": {"city": "LONG IS CITY", "state": "NY", "street": "4419 VERNON BLVD", "postcode": "11101"}}},
{"geometry": {"type": "Point", "coordinates": [-73.9455452799, 40.746409492]}, "type": "Feature", "properties": {"collection_times": [{"days": "Mon-Fri", "time": "3:00pm"}, {"days": "Sat", "time": "8:00am"}, {"days": "Sun", "time": "Closed"}], "id": "1110100125", "name": "USPS COLLECTION BOX - BLUE BOX", "address": {"city": "LONG IS CITY", "state": "NY", "street": "4520 23RD ST", "postcode": "11101"}}},
{"geometry": {"type": "Point", "coordinates": [-73.9338758691, 40.7428137547]}, "type": "Feature", "properties": {"collection_times": [{"days": "Mon-Fri", "time": "2:00pm"}, {"days": "Sat", "time": "8:00am"}, {"days": "Sun", "time": "Closed"}], "id": "1110100126", "name": "USPS COLLECTION BOX - BLUE BOX", "address": {"city": "LONG IS CITY", "state": "NY", "street": "4701 VAN DAM ST", "postcode": "11101"}}},
{"geometry": {"type": "Point", "coordinates": [-73.9531673424, 40.7452968424]}, "type": "Feature", "properties": {"collection_times": [{"days": "Mon-Fri", "time": "3:00pm"}, {"days": "Sat", "time": "8:00am"}, {"days": "Sun", "time": "Closed"}], "id": "1110100129", "name": "USPS COLLECTION BOX - BLUE BOX", "address": {"city": "LONG IS CITY", "state": "NY", "street": "4707 VERNON BLVD", "postcode": "11101"}}},
{"geometry": {"type": "Point", "coordinates": [-73.9376179275, 40.7430962829]}, "type": "Feature", "properties": {"collection_times": [{"days": "Mon-Fri", "time": "2:00pm"}, {"days": "Sat", "time": "8:00am"}, {"days": "Sun", "time": "Closed"}], "id": "1110100130", "name": "USPS COLLECTION BOX - BLUE BOX", "address": {"city": "LONG IS CITY", "state": "NY", "street": "4709 30TH ST", "postcode": "11101"}}},
{"geometry": {"type": "Point", "coordinates": [-73.9357661905, 40.7430209999]}, "type": "Feature", "properties": {"collection_times": [{"days": "Mon-Fri", "time": "2:00pm"}, {"days": "Sat", "time": "8:00am"}, {"days": "Sun", "time": "Closed"}], "id": "1110100131", "name": "USPS COLLECTION BOX - BLUE BOX", "address": {"city": "LONG IS CITY", "state": "NY", "street": "3100 47TH AVE", "postcode": "11101"}}},
{"geometry": {"type": "Point", "coordinates": [-73.9311799902, 40.7420593422]}, "type": "Feature", "properties": {"collection_times": [{"days": "Mon-Fri", "time": "2:00pm"}, {"days": "Sat", "time": "8:00am"}, {"days": "Sun", "time": "Closed"}], "id": "1110100134", "name": "USPS COLLECTION BOX - BLUE BOX", "address": {"city": "LONG IS CITY", "state": "NY", "street": "4725 34TH ST", "postcode": "11101"}}},
{"geometry": {"type": "Point", "coordinates": [-73.9301796596, 40.7423810177]}, "type": "Feature", "properties": {"collection_times": [{"days": "Mon-Fri", "time": "2:00pm"}, {"days": "Sat", "time": "8:00am"}, {"days": "Sun", "time": "Closed"}], "id": "1110100135", "name": "USPS COLLECTION BOX - BLUE BOX", "address": {"city": "LONG IS CITY", "state": "NY", "street": "3502 47TH AVE", "postcode": "11101"}}},
{"geometry": {"type": "Point", "coordinates": [-73.9511332331, 40.7443587885]}, "type": "Feature", "properties": {"collection_times": [{"days": "Mon-Fri", "time": "3:00pm"}, {"days": "Sat", "time": "8:00am"}, {"days": "Sun", "time": "Closed"}], "id": "1110100136", "name": "USPS COLLECTION BOX - BLUE BOX", "address": {"city": "LONG IS CITY", "state": "NY", "street": "4728 11TH ST", "postcode": "11101"}}},
{"geometry": {"type": "Point", "coordinates": [-73.9535309736, 40.7446356348]}, "type": "Feature", "properties": {"collection_times": [{"days": "Mon-Fri", "time": "3:00pm"}, {"days": "Sat", "time": "8:00am"}, {"days": "Sun", "time": "Closed"}], "id": "1110100138", "name": "USPS COLLECTION BOX - BLUE BOX", "address": {"city": "LONG IS CITY", "state": "NY", "street": "4746 VERNON BLVD", "postcode": "11101"}}},
{"geometry": {"type": "Point", "coordinates": [-73.9340356801, 40.7419885683]}, "type": "Feature", "properties": {"collection_times": [{"days": "Mon-Fri", "time": "9:00am"}, {"days": "Sat", "time": "8:00am"}, {"days": "Sun", "time": "Closed"}], "id": "1110100140", "name": "USPS COLLECTION BOX - BLUE BOX", "address": {"city": "LONG IS CITY", "state": "NY", "street": "4747 VAN DAM ST", "postcode": "11101"}}},
{"geometry": {"type": "Point", "coordinates": [-73.9324241864, 40.7407404839]}, "type": "Feature", "properties": {"collection_times": [{"days": "Mon-Fri", "time": "2:00pm"}, {"days": "Sat", "time": "8:00am"}, {"days": "Sun", "time": "Closed"}], "id": "1110100143", "name": "USPS COLLECTION BOX - BLUE BOX", "address": {"city": "LONG IS CITY", "state": "NY", "street": "3302 48TH AVE", "postcode": "11101"}}},
{"geometry": {"type": "Point", "coordinates": [-73.9293835091, 40.7414562418]}, "type": "Feature", "properties": {"collection_times": [{"days": "Mon-Fri", "time": "2:00pm"}, {"days": "Sat", "time": "8:00am"}, {"days": "Sun", "time": "Closed"}], "id": "1110100144", "name": "USPS COLLECTION BOX - BLUE BOX", "address": {"city": "LONG IS CITY", "state": "NY", "street": "4747 36TH ST", "postcode": "11101"}}},
{"geometry": {"type": "Point", "coordinates": [-73.9517998506, 40.7430510989]}, "type": "Feature", "properties": {"collection_times": [{"days": "Mon-Fri", "time": "3:00pm"}, {"days": "Sat", "time": "8:00am"}, {"days": "Sun", "time": "Closed"}], "id": "1110100145", "name": "USPS COLLECTION BOX - BLUE BOX", "address": {"city": "LONG IS CITY", "state": "NY", "street": "1087 JACKSON AVE", "postcode": "11101"}}},
{"geometry": {"type": "Point", "coordinates": [-73.9491856007, 40.7424679421]}, "type": "Feature", "properties": {"collection_times": [{"days": "Mon-Fri", "time": "3:00pm"}, {"days": "Sat", "time": "8:00am"}, {"days": "Sun", "time": "Closed"}], "id": "1110100146", "name": "USPS COLLECTION BOX - BLUE BOX", "address": {"city": "LONG IS CITY", "state": "NY", "street": "2100 49TH AVE", "postcode": "11101"}}},
{"geometry": {"type": "Point", "coordinates": [-73.9421856841, 40.7411123997]}, "type": "Feature", "properties": {"collection_times": [{"days": "Mon-Fri", "time": "3:00pm"}, {"days": "Sat", "time": "8:00am"}, {"days": "Sun", "time": "Closed"}], "id": "1110100147", "name": "USPS COLLECTION BOX - BLUE BOX", "address": {"city": "LONG IS CITY", "state": "NY", "street": "2710 49TH AVE", "postcode": "11101"}}},
{"geometry": {"type": "Point", "coordinates": [-73.9401065021, 40.7407076913]}, "type": "Feature", "properties": {"collection_times": [{"days": "Mon-Fri", "time": "3:00pm"}, {"days": "Sat", "time": "8:00am"}, {"days": "Sun", "time": "Closed"}], "id": "1110100149", "name": "USPS COLLECTION BOX - BLUE BOX", "address": {"city": "LONG IS CITY", "state": "NY", "street": "2910 49 AVE", "postcode": "11101"}}},
{"geometry": {"type": "Point", "coordinates": [-73.9527827707, 40.7425329297]}, "type": "Feature", "properties": {"collection_times": [{"days": "Mon-Fri", "time": "3:00pm"}, {"days": "Sat", "time": "8:00am"}, {"days": "Sun", "time": "Closed"}], "id": "1110100150", "name": "USPS COLLECTION BOX - BLUE BOX", "address": {"city": "LONG IS CITY", "state": "NY", "street": "1051 JACKSON AVE", "postcode": "11101"}}},
{"geometry": {"type": "Point", "coordinates": [-73.9538334698, 40.743287415]}, "type": "Feature", "properties": {"collection_times": [{"days": "Mon-Fri", "time": "3:00pm"}, {"days": "Sat", "time": "8:00am"}, {"days": "Sun", "time": "Closed"}], "id": "1110100154", "name": "USPS COLLECTION BOX - BLUE BOX", "address": {"city": "LONG IS CITY", "state": "NY", "street": "4915 VERNON BLVD", "postcode": "11101"}}},
{"geometry": {"type": "Point", "coordinates": [-73.9269100762, 40.7439032498]}, "type": "Feature", "properties": {"collection_times": [{"days": "Mon-Fri", "time": "9:00am"}, {"days": "Sat", "time": "8:00am"}, {"days": "Sun", "time": "Closed"}], "id": "1110100159", "name": "USPS COLLECTION BOX - BLUE BOX", "address": {"city": "LONG IS CITY", "state": "NY", "street": "3818 QUEENS BLVD", "postcode": "11101"}}},
{"geometry": {"type": "Point", "coordinates": [-73.9386089174, 40.7456781805]}, "type": "Feature", "properties": {"collection_times": [{"days": "Mon-Fri", "time": "3:00pm"}, {"days": "Sat", "time": "8:00am"}, {"days": "Sun", "time": "Closed"}], "id": "1110100165", "name": "USPS COLLECTION BOX - BLUE BOX", "address": {"city": "LONG IS CITY", "state": "NY", "street": "4-74 48 AVE", "postcode": "11101"}}},
{"geometry": {"type": "Point", "coordinates": [-73.9489582167, 40.7504203795]}, "type": "Feature", "properties": {"collection_times": [{"days": "Mon-Fri", "time": "3:00pm"}, {"days": "Sat", "time": "8:00am"}, {"days": "Sun", "time": "Closed"}], "id": "1110100166", "name": "USPS COLLECTION BOX - BLUE BOX", "address": {"city": "LONG IS CITY", "state": "NY", "street": "4367 11TH ST", "postcode": "11101"}}},
{"geometry": {"type": "Point", "coordinates": [-73.9496602992, 40.753776481]}, "type": "Feature", "properties": {"collection_times": [{"days": "Mon-Fri", "time": "2:00pm"}, {"days": "Sat", "time": "8:00am"}, {"days": "Sun", "time": "Closed"}], "id": "1110100167", "name": "USPS COLLECTION BOX - BLUE BOX", "address": {"city": "LONG IS CITY", "state": "NY", "street": "4225 VERNON BLVD", "postcode": "11101"}}},
{"geometry": {"type": "Point", "coordinates": [-73.9316097513, 40.7448858641]}, "type": "Feature", "properties": {"collection_times": [{"days": "Mon-Fri", "time": "9:00am"}, {"days": "Sat", "time": "8:00am"}, {"days": "Sun", "time": "Closed"}], "id": "1110100171", "name": "USPS COLLECTION BOX - BLUE BOX", "address": {"city": "LONG IS CITY", "state": "NY", "street": "3301 QUEENS BLVD", "postcode": "11101"}}},
{"geometry": {"type": "Point", "coordinates": [-73.9450310317, 40.7475200957]}, "type": "Feature", "properties": {"collection_times": [{"days": "Mon-Fri", "time": "3:00pm"}, {"days": "Sat", "time": "8:00am"}, {"days": "Sun", "time": "Closed"}], "id": "1110100175", "name": "USPS COLLECTION BOX - BLUE BOX", "address": {"city": "LONG IS CITY", "state": "NY", "street": "4461 23RD ST", "postcode": "11101"}}},
{"geometry": {"type": "Point", "coordinates": [-73.9310670093, 40.7549151656]}, "type": "Feature", "properties": {"collection_times": [{"days": "Mon-Fri", "time": "3:00pm"}, {"days": "Sat", "time": "8:00am"}, {"days": "Sun", "time": "Closed"}], "id": "1110100176", "name": "USPS COLLECTION BOX - BLUE BOX", "address": {"city": "LONG IS CITY", "state": "NY", "street": "3102 37TH AVE", "postcode": "11101"}}},
{"geometry": {"type": "Point", "coordinates": [-73.9505023788, 40.7437237714]}, "type": "Feature", "properties": {"collection_times": [{"days": "Mon-Fri", "time": "2:00pm"}, {"days": "Sat", "time": "8:00am"}, {"days": "Sun", "time": "Closed"}], "id": "1110100177", "name": "USPS COLLECTION BOX - BLUE BOX", "address": {"city": "LONG IS CITY", "state": "NY", "street": "1223 JACKSON AVE", "postcode": "11101"}}},
{"geometry": {"type": "Point", "coordinates": [-73.9566284643, 40.7424258371]}, "type": "Feature", "properties": {"collection_times": [{"days": "Mon-Fri", "time": "2:00pm"}, {"days": "Sat", "time": "8:00am"}, {"days": "Sun", "time": "Closed"}], "id": "1110100182", "name": "USPS COLLECTION BOX - BLUE BOX", "address": {"city": "LONG IS CITY", "state": "NY", "street": "506 51ST AVE", "postcode": "11101"}}},
{"geometry": {"type": "Point", "coordinates": [-73.9452547463, 40.7555134255]}, "type": "Feature", "properties": {"collection_times": [{"days": "Mon-Fri", "time": "2:00pm"}, {"days": "Sat", "time": "8:00am"}, {"days": "Sun", "time": "Closed"}], "id": "1110100219", "name": "USPS COLLECTION BOX - BLUE BOX", "address": {"city": "LONG IS CITY", "state": "NY", "street": "1043 41ST AVE", "postcode": "11101"}}},
{"geometry": {"type": "Point", "coordinates": [-73.9481666539, 40.7459274646]}, "type": "Feature", "properties": {"collection_times": [{"days": "Mon-Fri", "time": "5:00pm"}, {"days": "Sat", "time": "1:00pm"}, {"days": "Sun", "time": "Closed"}], "id": "1110100224", "name": "USPS COLLECTION BOX - PO LOBBY", "address": {"city": "LONG IS CITY", "state": "NY", "street": "4602 21ST ST", "postcode": "11101"}}},
{"geometry": {"type": "Point", "coordinates": [-73.9336621504, 40.7730609757]}, "type": "Feature", "properties": {"collection_times": [{"days": "Mon-Fri", "time": "9:00am"}, {"days": "Sat", "time": "8:00am"}, {"days": "Sun", "time": "Closed"}], "id": "1110200001", "name": "USPS COLLECTION BOX - BLUE BOX", "address": {"city": "LONG IS CITY", "state": "NY", "street": "425 ASTORIA BLVD", "postcode": "11102"}}},
{"geometry": {"type": "Point", "coordinates": [-73.9289621979, 40.7722142415]}, "type": "Feature", "properties": {"collection_times": [{"days": "Mon-Fri", "time": "9:00am"}, {"days": "Sat", "time": "8:00am"}, {"days": "Sun", "time": "Closed"}], "id": "1110200002", "name": "USPS COLLECTION BOX - BLUE BOX", "address": {"city": "LONG IS CITY", "state": "NY", "street": "1401 ASTORIA BLVD", "postcode": "11102"}}},
{"geometry": {"type": "Point", "coordinates": [-73.9249957946, 40.7719916265]}, "type": "Feature", "properties": {"collection_times": [{"days": "Mon-Fri", "time": "9:00am"}, {"days": "Sat", "time": "8:00am"}, {"days": "Sun", "time": "Closed"}], "id": "1110200003", "name": "USPS COLLECTION BOX - BLUE BOX", "address": {"city": "LONG IS CITY", "state": "NY", "street": "2217 ASTORIA BLVD", "postcode": "11102"}}},
{"geometry": {"type": "Point", "coordinates": [-73.9227944275, 40.7712788882]}, "type": "Feature", "properties": {"collection_times": [{"days": "Mon-Fri", "time": "9:00am"}, {"days": "Sat", "time": "8:00am"}, {"days": "Sun", "time": "Closed"}], "id": "1110200004", "name": "USPS COLLECTION BOX - BLUE BOX", "address": {"city": "LONG IS CITY", "state": "NY", "street": "2502 ASTORIA BLVD", "postcode": "11102"}}},
{"geometry": {"type": "Point", "coordinates": [-73.9210353523, 40.7709185385]}, "type": "Feature", "properties": {"collection_times": [{"days": "Mon-Fri", "time": "9:00am"}, {"days": "Sat", "time": "8:00am"}, {"days": "Sun", "time": "Closed"}], "id": "1110200005", "name": "USPS COLLECTION BOX - BLUE BOX", "address": {"city": "LONG IS CITY", "state": "NY", "street": "2711 ASTORIA BLVD", "postcode": "11102"}}},
{"geometry": {"type": "Point", "coordinates": [-73.9178713508, 40.7703158767]}, "type": "Feature", "properties": {"collection_times": [{"days": "Mon-Fri", "time": "9:00am"}, {"days": "Sat", "time": "8:00am"}, {"days": "Sun", "time": "Closed"}], "id": "1110200006", "name": "USPS COLLECTION BOX - BLUE BOX", "address": {"city": "LONG IS CITY", "state": "NY", "street": "2506 31ST ST", "postcode": "11102"}}},
{"geometry": {"type": "Point", "coordinates": [-73.9264825173, 40.7715748289]}, "type": "Feature", "properties": {"collection_times": [{"days": "Mon-Fri", "time": "9:00am"}, {"days": "Sat", "time": "8:00am"}, {"days": "Sun", "time": "Closed"}], "id": "1110200007", "name": "USPS COLLECTION BOX - BLUE BOX", "address": {"city": "LONG IS CITY", "state": "NY", "street": "1930 HOYT AVE SO.", "postcode": "11102"}}},
{"geometry": {"type": "Point", "coordinates": [-73.9182900876, 40.7725555178]}, "type": "Feature", "properties": {"collection_times": [{"days": "Mon-Fri", "time": "9:00am"}, {"days": "Sat", "time": "8:00am"}, {"days": "Sun", "time": "Closed"}], "id": "1110200008", "name": "USPS COLLECTION BOX - BLUE BOX", "address": {"city": "LONG IS CITY", "state": "NY", "street": "2464 28TH ST", "postcode": "11102"}}},
{"geometry": {"type": "Point", "coordinates": [-73.924554701, 40.7712725543]}, "type": "Feature", "properties": {"collection_times": [{"days": "Mon-Fri", "time": "9:00am"}, {"days": "Sat", "time": "8:00am"}, {"days": "Sun", "time": "Closed"}], "id": "1110200009", "name": "USPS COLLECTION BOX - BLUE BOX", "address": {"city": "LONG IS CITY", "state": "NY", "street": "2325 NEWTOWN AVE", "postcode": "11102"}}},
{"geometry": {"type": "Point", "coordinates": [-73.9222319933, 40.7691491171]}, "type": "Feature", "properties": {"collection_times": [{"days": "Mon-Fri", "time": "9:00am"}, {"days": "Sat", "time": "8:00am"}, {"days": "Sun", "time": "Closed"}], "id": "1110200010", "name": "USPS COLLECTION BOX - BLUE BOX", "address": {"city": "LONG IS CITY", "state": "NY", "street": "2902 NEWTOWN AVE", "postcode": "11102"}}},
{"geometry": {"type": "Point", "coordinates": [-73.9215275987, 40.7765483412]}, "type": "Feature", "properties": {"collection_times": [{"days": "Mon-Fri", "time": "9:00am"}, {"days": "Sat", "time": "8:00am"}, {"days": "Sun", "time": "Closed"}], "id": "1110200011", "name": "USPS COLLECTION BOX - BLUE BOX", "address": {"city": "LONG IS CITY", "state": "NY", "street": "2102 24TH AVE", "postcode": "11102"}}},
{"geometry": {"type": "Point", "coordinates": [-73.9171359695, 40.7733302354]}, "type": "Feature", "properties": {"collection_times": [{"days": "Mon-Fri", "time": "9:00am"}, {"days": "Sat", "time": "8:00am"}, {"days": "Sun", "time": "Closed"}], "id": "1110200012", "name": "USPS COLLECTION BOX - BLUE BOX", "address": {"city": "LONG IS CITY", "state": "NY", "street": "2405 28TH ST", "postcode": "11102"}}},
{"geometry": {"type": "Point", "coordinates": [-73.9155096336, 40.7722639492]}, "type": "Feature", "properties": {"collection_times": [{"days": "Mon-Fri", "time": "9:00am"}, {"days": "Sat", "time": "8:00am"}, {"days": "Sun", "time": "Closed"}], "id": "1110200013", "name": "USPS COLLECTION BOX - BLUE BOX", "address": {"city": "LONG IS CITY", "state": "NY", "street": "2402 31ST ST", "postcode": "11102"}}},
{"geometry": {"type": "Point", "coordinates": [-73.9259318135, 40.7746956319]}, "type": "Feature", "properties": {"collection_times": [{"days": "Mon-Fri", "time": "9:00am"}, {"days": "Sat", "time": "8:00am"}, {"days": "Sun", "time": "Closed"}], "id": "1110200014", "name": "USPS COLLECTION BOX - BLUE BOX", "address": {"city": "LONG IS CITY", "state": "NY", "street": "1802 25TH RD", "postcode": "11102"}}},
{"geometry": {"type": "Point", "coordinates": [-73.9332305984, 40.7747233962]}, "type": "Feature", "properties": {"collection_times": [{"days": "Mon-Fri", "time": "9:00am"}, {"days": "Sat", "time": "8:00am"}, {"days": "Sun", "time": "Closed"}], "id": "1110200015", "name": "USPS COLLECTION BOX - BLUE BOX", "address": {"city": "LONG IS CITY", "state": "NY", "street": "421 27TH AVE", "postcode": "11102"}}},
{"geometry": {"type": "Point", "coordinates": [-73.9306487579, 40.7737840053]}, "type": "Feature", "properties": {"collection_times": [{"days": "Mon-Fri", "time": "9:00am"}, {"days": "Sat", "time": "8:00am"}, {"days": "Sun", "time": "Closed"}], "id": "1110200016", "name": "USPS COLLECTION BOX - BLUE BOX", "address": {"city": "LONG IS CITY", "state": "NY", "street": "920 27TH AVE", "postcode": "11102"}}},
{"geometry": {"type": "Point", "coordinates": [-73.9241675727, 40.769868552]}, "type": "Feature", "properties": {"collection_times": [{"days": "Mon-Fri", "time": "9:00am"}, {"days": "Sat", "time": "8:00am"}, {"days": "Sun", "time": "Closed"}], "id": "1110200020", "name": "USPS COLLECTION BOX - BLUE BOX", "address": {"city": "LONG IS CITY", "state": "NY", "street": "2802 CRESCENT ST", "postcode": "11102"}}},
{"geometry": {"type": "Point", "coordinates": [-73.9195109057, 40.7682732114]}, "type": "Feature", "properties": {"collection_times": [{"days": "Mon-Fri", "time": "9:00am"}, {"days": "Sat", "time": "8:00am"}, {"days": "Sun", "time": "Closed"}], "id": "1110200021", "name": "USPS COLLECTION BOX - BLUE BOX", "address": {"city": "LONG IS CITY", "state": "NY", "street": "3101 28TH AVE", "postcode": "11102"}}},
{"geometry": {"type": "Point", "coordinates": [-73.9298662305, 40.770776753]}, "type": "Feature", "properties": {"collection_times": [{"days": "Mon-Fri", "time": "9:00am"}, {"days": "Sat", "time": "8:00am"}, {"days": "Sun", "time": "Closed"}], "id": "1110200022", "name": "USPS COLLECTION BOX - BLUE BOX", "address": {"city": "LONG IS CITY", "state": "NY", "street": "1402 30TH AVE", "postcode": "11102"}}},
{"geometry": {"type": "Point", "coordinates": [-73.9277319421, 40.7699200269]}, "type": "Feature", "properties": {"collection_times": [{"days": "Mon-Fri", "time": "9:00am"}, {"days": "Sat", "time": "8:00am"}, {"days": "Sun", "time": "Closed"}], "id": "1110200023", "name": "USPS COLLECTION BOX - BLUE BOX", "address": {"city": "LONG IS CITY", "state": "NY", "street": "2101 30TH AVE", "postcode": "11102"}}},
{"geometry": {"type": "Point", "coordinates": [-73.9247720251, 40.7684128202]}, "type": "Feature", "properties": {"collection_times": [{"days": "Mon-Fri", "time": "9:00am"}, {"days": "Sat", "time": "8:00am"}, {"days": "Sun", "time": "Closed"}], "id": "1110200024", "name": "USPS COLLECTION BOX - BLUE BOX", "address": {"city": "LONG IS CITY", "state": "NY", "street": "2510 30TH AVE", "postcode": "11102"}}},
{"geometry": {"type": "Point", "coordinates": [-73.921382965, 40.7668303439]}, "type": "Feature", "properties": {"collection_times": [{"days": "Mon-Fri", "time": "9:00am"}, {"days": "Sat", "time": "8:00am"}, {"days": "Sun", "time": "Closed"}], "id": "1110200026", "name": "USPS COLLECTION BOX - BLUE BOX", "address": {"city": "LONG IS CITY", "state": "NY", "street": "3102 30TH AVE", "postcode": "11102"}}},
{"geometry": {"type": "Point", "coordinates": [-73.9343345925, 40.7705908533]}, "type": "Feature", "properties": {"collection_times": [{"days": "Mon-Fri", "time": "9:00am"}, {"days": "Sat", "time": "8:00am"}, {"days": "Sun", "time": "Closed"}], "id": "1110200028", "name": "USPS COLLECTION BOX - BLUE BOX", "address": {"city": "LONG IS CITY", "state": "NY", "street": "3055 VERNON BLVD", "postcode": "11102"}}},
{"geometry": {"type": "Point", "coordinates": [-73.9312489986, 40.7690933263]}, "type": "Feature", "properties": {"collection_times": [{"days": "Mon-Fri", "time": "9:00am"}, {"days": "Sat", "time": "8:00am"}, {"days": "Sun", "time": "Closed"}], "id": "1110200030", "name": "USPS COLLECTION BOX - BLUE BOX", "address": {"city": "LONG IS CITY", "state": "NY", "street": "3073 14TH ST", "postcode": "11102"}}},
{"geometry": {"type": "Point", "coordinates": [-73.9258120006, 40.7669399452]}, "type": "Feature", "properties": {"collection_times": [{"days": "Mon-Fri", "time": "9:00am"}, {"days": "Sat", "time": "8:00am"}, {"days": "Sun", "time": "Closed"}], "id": "1110200031", "name": "USPS COLLECTION BOX - BLUE BOX", "address": {"city": "LONG IS CITY", "state": "NY", "street": "3063 CRESCENT ST", "postcode": "11102"}}},
{"geometry": {"type": "Point", "coordinates": [-73.9281256923, 40.7694204932]}, "type": "Feature", "properties": {"collection_times": [{"days": "Mon-Fri", "time": "5:00pm"}, {"days": "Sat", "time": "1:00pm"}, {"days": "Sun", "time": "Closed"}], "id": "1110200068", "name": "USPS COLLECTION BOX - PO LOBBY", "address": {"city": "LONG IS CITY", "state": "NY", "street": "3011 21ST ST", "postcode": "11102"}}},
{"geometry": {"type": "Point", "coordinates": [-73.9138515918, 40.7692639196]}, "type": "Feature", "properties": {"collection_times": [{"days": "Mon-Fri", "time": "2:00pm"}, {"days": "Sat", "time": "8:00am"}, {"days": "Sun", "time": "Closed"}], "id": "1110300001", "name": "USPS COLLECTION BOX - BLUE BOX", "address": {"city": "LONG IS CITY", "state": "NY", "street": "3602 ASTORIA BLVD", "postcode": "11103"}}},
{"geometry": {"type": "Point", "coordinates": [-73.9111033077, 40.7687504056]}, "type": "Feature", "properties": {"collection_times": [{"days": "Mon-Fri", "time": "2:00pm"}, {"days": "Sat", "time": "8:00am"}, {"days": "Sun", "time": "Closed"}], "id": "1110300002", "name": "USPS COLLECTION BOX - BLUE BOX", "address": {"city": "LONG IS CITY", "state": "NY", "street": "2412 STEINWAY ST", "postcode": "11103"}}},
{"geometry": {"type": "Point", "coordinates": [-73.9069653384, 40.7681619276]}, "type": "Feature", "properties": {"collection_times": [{"days": "Mon-Fri", "time": "2:00pm"}, {"days": "Sat", "time": "8:00am"}, {"days": "Sun", "time": "Closed"}], "id": "1110300003", "name": "USPS COLLECTION BOX - BLUE BOX", "address": {"city": "LONG IS CITY", "state": "NY", "street": "4414 ASTORIA BLVD", "postcode": "11103"}}},
{"geometry": {"type": "Point", "coordinates": [-73.9142193394, 40.7635939177]}, "type": "Feature", "properties": {"collection_times": [{"days": "Mon-Fri", "time": "5:00pm"}, {"days": "Sat", "time": "1:00pm"}, {"days": "Sun", "time": "Closed"}], "id": "1110300006", "name": "USPS COLLECTION BOX - EXPRESS", "address": {"city": "LONG IS CITY", "state": "NY", "street": "4304 BROADWAY", "postcode": "11103"}}},
{"geometry": {"type": "Point", "coordinates": [-73.9165869402, 40.7577753256]}, "type": "Feature", "properties": {"collection_times": [{"days": "Mon-Fri", "time": "5:00pm"}, {"days": "Sat", "time": "1:00pm"}, {"days": "Sun", "time": "Closed"}], "id": "1110300009", "name": "USPS COLLECTION BOX - BLUE BOX", "address": {"city": "LONG IS CITY", "state": "NY", "street": "4304 BROADWAY", "postcode": "11103"}}},
{"geometry": {"type": "Point", "coordinates": [-73.9165869402, 40.7577753256]}, "type": "Feature", "properties": {"collection_times": [{"days": "Mon-Fri", "time": "5:00pm"}, {"days": "Sat", "time": "1:00pm"}, {"days": "Sun", "time": "Closed"}], "id": "1110300010", "name": "USPS COLLECTION BOX - BLUE BOX", "address": {"city": "LONG IS CITY", "state": "NY", "street": "4304 BROADWAY", "postcode": "11103"}}},
{"geometry": {"type": "Point", "coordinates": [-73.9132990969, 40.7563595132]}, "type": "Feature", "properties": {"collection_times": [{"days": "Mon-Fri", "time": "2:00pm"}, {"days": "Sat", "time": "8:00am"}, {"days": "Sun", "time": "Closed"}], "id": "1110300011", "name": "USPS COLLECTION BOX - BLUE BOX", "address": {"city": "LONG IS CITY", "state": "NY", "street": "4707 BROADWAY", "postcode": "11103"}}},
{"geometry": {"type": "Point", "coordinates": [-73.9142200348, 40.7591741245]}, "type": "Feature", "properties": {"collection_times": [{"days": "Mon-Fri", "time": "2:00pm"}, {"days": "Sat", "time": "8:00am"}, {"days": "Sun", "time": "Closed"}], "id": "1110300012", "name": "USPS COLLECTION BOX - BLUE BOX", "address": {"city": "LONG IS CITY", "state": "NY", "street": "4420 NEWTOWN RD", "postcode": "11103"}}},
{"geometry": {"type": "Point", "coordinates": [-73.9158851439, 40.762908611]}, "type": "Feature", "properties": {"collection_times": [{"days": "Mon-Fri", "time": "2:00pm"}, {"days": "Sat", "time": "8:00am"}, {"days": "Sun", "time": "Closed"}], "id": "1110300013", "name": "USPS COLLECTION BOX - BLUE BOX", "address": {"city": "LONG IS CITY", "state": "NY", "street": "3038 STEINWAY ST", "postcode": "11103"}}},
{"geometry": {"type": "Point", "coordinates": [-73.9121023742, 40.7700642568]}, "type": "Feature", "properties": {"collection_times": [{"days": "Mon-Fri", "time": "2:00pm"}, {"days": "Sat", "time": "8:00am"}, {"days": "Sun", "time": "Closed"}], "id": "1110300014", "name": "USPS COLLECTION BOX - BLUE BOX", "address": {"city": "LONG IS CITY", "state": "NY", "street": "3701 24TH AVE", "postcode": "11103"}}},
{"geometry": {"type": "Point", "coordinates": [-73.9118328898, 40.7679037922]}, "type": "Feature", "properties": {"collection_times": [{"days": "Mon-Fri", "time": "2:00pm"}, {"days": "Sat", "time": "8:00am"}, {"days": "Sun", "time": "Closed"}], "id": "1110300015", "name": "USPS COLLECTION BOX - BLUE BOX", "address": {"city": "LONG IS CITY", "state": "NY", "street": "2502 STEINWAY ST", "postcode": "11103"}}},
{"geometry": {"type": "Point", "coordinates": [-73.9093359843, 40.7666987793]}, "type": "Feature", "properties": {"collection_times": [{"days": "Mon-Fri", "time": "2:00pm"}, {"days": "Sat", "time": "8:00am"}, {"days": "Sun", "time": "Closed"}], "id": "1110300016", "name": "USPS COLLECTION BOX - BLUE BOX", "address": {"city": "LONG IS CITY", "state": "NY", "street": "2505 43RD ST", "postcode": "11103"}}},
{"geometry": {"type": "Point", "coordinates": [-73.9083550027, 40.7663214217]}, "type": "Feature", "properties": {"collection_times": [{"days": "Mon-Fri", "time": "2:00pm"}, {"days": "Sat", "time": "8:00am"}, {"days": "Sun", "time": "Closed"}], "id": "1110300017", "name": "USPS COLLECTION BOX - BLUE BOX", "address": {"city": "LONG IS CITY", "state": "NY", "street": "4420 25TH AVE", "postcode": "11103"}}},
{"geometry": {"type": "Point", "coordinates": [-73.9168317232, 40.7670197026]}, "type": "Feature", "properties": {"collection_times": [{"days": "Mon-Fri", "time": "2:00pm"}, {"days": "Sat", "time": "8:00am"}, {"days": "Sun", "time": "Closed"}], "id": "1110300018", "name": "USPS COLLECTION BOX - BLUE BOX", "address": {"city": "LONG IS CITY", "state": "NY", "street": "3501 28TH AVE", "postcode": "11103"}}},
{"geometry": {"type": "Point", "coordinates": [-73.9159304487, 40.7665904513]}, "type": "Feature", "properties": {"collection_times": [{"days": "Mon-Fri", "time": "2:00pm"}, {"days": "Sat", "time": "8:00am"}, {"days": "Sun", "time": "Closed"}], "id": "1110300019", "name": "USPS COLLECTION BOX - BLUE BOX", "address": {"city": "LONG IS CITY", "state": "NY", "street": "3617 28TH AVE", "postcode": "11103"}}},
{"geometry": {"type": "Point", "coordinates": [-73.912437846, 40.767151648]}, "type": "Feature", "properties": {"collection_times": [{"days": "Mon-Fri", "time": "2:00pm"}, {"days": "Sat", "time": "8:00am"}, {"days": "Sun", "time": "Closed"}], "id": "1110300020", "name": "USPS COLLECTION BOX - BLUE BOX", "address": {"city": "LONG IS CITY", "state": "NY", "street": "2598 STEINWAY ST", "postcode": "11103"}}},
{"geometry": {"type": "Point", "coordinates": [-73.9099018648, 40.765996176]}, "type": "Feature", "properties": {"collection_times": [{"days": "Mon-Fri", "time": "2:00pm"}, {"days": "Sat", "time": "8:00am"}, {"days": "Sun", "time": "Closed"}], "id": "1110300021", "name": "USPS COLLECTION BOX - BLUE BOX", "address": {"city": "LONG IS CITY", "state": "NY", "street": "2595 43RD ST", "postcode": "11103"}}},
{"geometry": {"type": "Point", "coordinates": [-73.9087213642, 40.7631917528]}, "type": "Feature", "properties": {"collection_times": [{"days": "Mon-Fri", "time": "2:00pm"}, {"days": "Sat", "time": "8:00am"}, {"days": "Sun", "time": "Closed"}], "id": "1110300022", "name": "USPS COLLECTION BOX - BLUE BOX", "address": {"city": "LONG IS CITY", "state": "NY", "street": "4621 28TH AVE", "postcode": "11103"}}},
{"geometry": {"type": "Point", "coordinates": [-73.9189893195, 40.7657153351]}, "type": "Feature", "properties": {"collection_times": [{"days": "Mon-Fri", "time": "2:00pm"}, {"days": "Sat", "time": "8:00am"}, {"days": "Sun", "time": "Closed"}], "id": "1110300023", "name": "USPS COLLECTION BOX - BLUE BOX", "address": {"city": "LONG IS CITY", "state": "NY", "street": "3402 30TH AVE", "postcode": "11103"}}},
{"geometry": {"type": "Point", "coordinates": [-73.918052169, 40.76526694]}, "type": "Feature", "properties": {"collection_times": [{"days": "Mon-Fri", "time": "2:00pm"}, {"days": "Sat", "time": "8:00am"}, {"days": "Sun", "time": "Closed"}], "id": "1110300024", "name": "USPS COLLECTION BOX - BLUE BOX", "address": {"city": "LONG IS CITY", "state": "NY", "street": "3520 30TH AVE", "postcode": "11103"}}},
{"geometry": {"type": "Point", "coordinates": [-73.9172449379, 40.7648937712]}, "type": "Feature", "properties": {"collection_times": [{"days": "Mon-Fri", "time": "2:00pm"}, {"days": "Sat", "time": "8:00am"}, {"days": "Sun", "time": "Closed"}], "id": "1110300025", "name": "USPS COLLECTION BOX - BLUE BOX", "address": {"city": "LONG IS CITY", "state": "NY", "street": "3620 30TH AVE", "postcode": "11103"}}},
{"geometry": {"type": "Point", "coordinates": [-73.9149995956, 40.7637882627]}, "type": "Feature", "properties": {"collection_times": [{"days": "Mon-Fri", "time": "2:00pm"}, {"days": "Sat", "time": "8:00am"}, {"days": "Sun", "time": "Closed"}], "id": "1110300026", "name": "USPS COLLECTION BOX - BLUE BOX", "address": {"city": "LONG IS CITY", "state": "NY", "street": "3001 STEINWAY ST", "postcode": "11103"}}},
{"geometry": {"type": "Point", "coordinates": [-73.9123972944, 40.7627383712]}, "type": "Feature", "properties": {"collection_times": [{"days": "Mon-Fri", "time": "2:00pm"}, {"days": "Sat", "time": "8:00am"}, {"days": "Sun", "time": "Closed"}], "id": "1110300027", "name": "USPS COLLECTION BOX - BLUE BOX", "address": {"city": "LONG IS CITY", "state": "NY", "street": "4319 30TH AVE", "postcode": "11103"}}},
{"geometry": {"type": "Point", "coordinates": [-73.9109471962, 40.7619261492]}, "type": "Feature", "properties": {"collection_times": [{"days": "Mon-Fri", "time": "5:00pm"}, {"days": "Sat", "time": "1:00pm"}, {"days": "Sun", "time": "Closed"}], "id": "1110300028", "name": "USPS COLLECTION BOX - BLUE BOX", "address": {"city": "LONG IS CITY", "state": "NY", "street": "4508 30TH AVE", "postcode": "11103"}}},
{"geometry": {"type": "Point", "coordinates": [-73.9109471962, 40.7619261492]}, "type": "Feature", "properties": {"collection_times": [{"days": "Mon-Fri", "time": "5:00pm"}, {"days": "Sat", "time": "1:00pm"}, {"days": "Sun", "time": "Closed"}], "id": "1110300029", "name": "USPS COLLECTION BOX - BLUE BOX", "address": {"city": "LONG IS CITY", "state": "NY", "street": "4508 30TH AVE", "postcode": "11103"}}},
{"geometry": {"type": "Point", "coordinates": [-73.9092027404, 40.7612456646]}, "type": "Feature", "properties": {"collection_times": [{"days": "Mon-Fri", "time": "2:00pm"}, {"days": "Sat", "time": "8:00am"}, {"days": "Sun", "time": "Closed"}], "id": "1110300030", "name": "USPS COLLECTION BOX - BLUE BOX", "address": {"city": "LONG IS CITY", "state": "NY", "street": "4717 30TH AVE", "postcode": "11103"}}},
{"geometry": {"type": "Point", "coordinates": [-73.9186736554, 40.7620014686]}, "type": "Feature", "properties": {"collection_times": [{"days": "Mon-Fri", "time": "2:00pm"}, {"days": "Sat", "time": "8:00am"}, {"days": "Sun", "time": "Closed"}], "id": "1110300031", "name": "USPS COLLECTION BOX - BLUE BOX", "address": {"city": "LONG IS CITY", "state": "NY", "street": "3702 31ST AVE", "postcode": "11103"}}},
{"geometry": {"type": "Point", "coordinates": [-73.916921121, 40.761419113]}, "type": "Feature", "properties": {"collection_times": [{"days": "Mon-Fri", "time": "2:00pm"}, {"days": "Sat", "time": "8:00am"}, {"days": "Sun", "time": "Closed"}], "id": "1110300032", "name": "USPS COLLECTION BOX - BLUE BOX", "address": {"city": "LONG IS CITY", "state": "NY", "street": "3097 STEINWAY ST", "postcode": "11103"}}},
{"geometry": {"type": "Point", "coordinates": [-73.9154357418, 40.7606072906]}, "type": "Feature", "properties": {"collection_times": [{"days": "Mon-Fri", "time": "2:00pm"}, {"days": "Sat", "time": "8:00am"}, {"days": "Sun", "time": "Closed"}], "id": "1110300033", "name": "USPS COLLECTION BOX - BLUE BOX", "address": {"city": "LONG IS CITY", "state": "NY", "street": "4201 31ST AVE", "postcode": "11103"}}},
{"geometry": {"type": "Point", "coordinates": [-73.9122711635, 40.7590015447]}, "type": "Feature", "properties": {"collection_times": [{"days": "Mon-Fri", "time": "2:00pm"}, {"days": "Sat", "time": "8:00am"}, {"days": "Sun", "time": "Closed"}], "id": "1110300034", "name": "USPS COLLECTION BOX - BLUE BOX", "address": {"city": "LONG IS CITY", "state": "NY", "street": "4604 31ST AVE", "postcode": "11103"}}},
{"geometry": {"type": "Point", "coordinates": [-73.9106101494, 40.758359169]}, "type": "Feature", "properties": {"collection_times": [{"days": "Mon-Fri", "time": "2:00pm"}, {"days": "Sat", "time": "8:00am"}, {"days": "Sun", "time": "Closed"}], "id": "1110300035", "name": "USPS COLLECTION BOX - BLUE BOX", "address": {"city": "LONG IS CITY", "state": "NY", "street": "4801 31ST AVE", "postcode": "11103"}}},
{"geometry": {"type": "Point", "coordinates": [-73.9187604363, 40.7591610554]}, "type": "Feature", "properties": {"collection_times": [{"days": "Mon-Fri", "time": "2:00pm"}, {"days": "Sat", "time": "8:00am"}, {"days": "Sun", "time": "Closed"}], "id": "1110300036", "name": "USPS COLLECTION BOX - BLUE BOX", "address": {"city": "LONG IS CITY", "state": "NY", "street": "3191 STEINWAY ST", "postcode": "11103"}}},
{"geometry": {"type": "Point", "coordinates": [-73.9166610943, 40.7697985057]}, "type": "Feature", "properties": {"collection_times": [{"days": "Mon-Fri", "time": "2:00pm"}, {"days": "Sat", "time": "8:00am"}, {"days": "Sun", "time": "Closed"}], "id": "1110300037", "name": "USPS COLLECTION BOX - BLUE BOX", "address": {"city": "LONG IS CITY", "state": "NY", "street": "3310 ASTORIA BLVD", "postcode": "11103"}}},
{"geometry": {"type": "Point", "coordinates": [-73.9165869402, 40.7577753256]}, "type": "Feature", "properties": {"collection_times": [{"days": "Mon-Fri", "time": "5:00pm"}, {"days": "Sat", "time": "1:00pm"}, {"days": "Sun", "time": "Closed"}], "id": "1110300079", "name": "USPS COLLECTION BOX - PO LOBBY", "address": {"city": "LONG IS CITY", "state": "NY", "street": "4304 BROADWAY", "postcode": "11103"}}},
{"geometry": {"type": "Point", "coordinates": [-73.91071241, 40.76185461]}, "type": "Feature", "properties": {"collection_times": [{"days": "Mon-Fri", "time": "5:00pm"}, {"days": "Sat-Sun", "time": "Closed"}], "id": "1110300080", "name": "USPS COLLECTION BOX - PO LOBBY", "address": {"city": "LONG IS CITY", "state": "NY", "street": "4508 30TH AVE", "postcode": "11103"}}},
{"geometry": {"type": "Point", "coordinates": [-73.919440878, 40.741962535]}, "type": "Feature", "properties": {"collection_times": [{"days": "Mon-Fri", "time": "9:00am"}, {"days": "Sat", "time": "8:00am"}, {"days": "Sun", "time": "Closed"}], "id": "1110400002", "name": "USPS COLLECTION BOX - BLUE BOX", "address": {"city": "LONG IS CITY", "state": "NY", "street": "4544 GREENPOINT AVE", "postcode": "11104"}}},
{"geometry": {"type": "Point", "coordinates": [-73.9252189904, 40.7437049421]}, "type": "Feature", "properties": {"collection_times": [{"days": "Mon-Fri", "time": "9:00am"}, {"days": "Sat", "time": "8:00am"}, {"days": "Sun", "time": "Closed"}], "id": "1110400005", "name": "USPS COLLECTION BOX - BLUE BOX", "address": {"city": "LONG IS CITY", "state": "NY", "street": "3924 QUEENS BLVD", "postcode": "11104"}}},
{"geometry": {"type": "Point", "coordinates": [-73.9247994859, 40.7440821941]}, "type": "Feature", "properties": {"collection_times": [{"days": "Mon-Fri", "time": "9:00am"}, {"days": "Sat", "time": "8:00am"}, {"days": "Sun", "time": "Closed"}], "id": "1110400006", "name": "USPS COLLECTION BOX - BLUE BOX", "address": {"city": "LONG IS CITY", "state": "NY", "street": "3951 QUEENS BLVD", "postcode": "11104"}}},
{"geometry": {"type": "Point", "coordinates": [-73.923337352, 40.7434959703]}, "type": "Feature", "properties": {"collection_times": [{"days": "Mon-Fri", "time": "9:00am"}, {"days": "Sat", "time": "8:00am"}, {"days": "Sun", "time": "Closed"}], "id": "1110400008", "name": "USPS COLLECTION BOX - BLUE BOX", "address": {"city": "LONG IS CITY", "state": "NY", "street": "4102 QUEENS BLVD", "postcode": "11104"}}},
{"geometry": {"type": "Point", "coordinates": [-73.9222981312, 40.7433765753]}, "type": "Feature", "properties": {"collection_times": [{"days": "Mon-Fri", "time": "9:00am"}, {"days": "Sat", "time": "8:00am"}, {"days": "Sun", "time": "Closed"}], "id": "1110400009", "name": "USPS COLLECTION BOX - BLUE BOX", "address": {"city": "LONG IS CITY", "state": "NY", "street": "4220 QUEENS BLVD", "postcode": "11104"}}},
{"geometry": {"type": "Point", "coordinates": [-73.9214073212, 40.7436954358]}, "type": "Feature", "properties": {"collection_times": [{"days": "Mon-Fri", "time": "9:00am"}, {"days": "Sat", "time": "8:00am"}, {"days": "Sun", "time": "Closed"}], "id": "1110400010", "name": "USPS COLLECTION BOX - BLUE BOX", "address": {"city": "LONG IS CITY", "state": "NY", "street": "4301 QUEENS BLVD", "postcode": "11104"}}},
{"geometry": {"type": "Point", "coordinates": [-73.9203043286, 40.7435653279]}, "type": "Feature", "properties": {"collection_times": [{"days": "Mon-Fri", "time": "9:00am"}, {"days": "Sat", "time": "8:00am"}, {"days": "Sun", "time": "Closed"}], "id": "1110400011", "name": "USPS COLLECTION BOX - BLUE BOX", "address": {"city": "LONG IS CITY", "state": "NY", "street": "4423 QUEENS BLVD", "postcode": "11104"}}},
{"geometry": {"type": "Point", "coordinates": [-73.9184190568, 40.7433487362]}, "type": "Feature", "properties": {"collection_times": [{"days": "Mon-Fri", "time": "9:00am"}, {"days": "Sat", "time": "8:00am"}, {"days": "Sun", "time": "Closed"}], "id": "1110400012", "name": "USPS COLLECTION BOX - BLUE BOX", "address": {"city": "LONG IS CITY", "state": "NY", "street": "4625 QUEENS BLVD", "postcode": "11104"}}},
{"geometry": {"type": "Point", "coordinates": [-73.9245862539, 40.7473936075]}, "type": "Feature", "properties": {"collection_times": [{"days": "Mon-Fri", "time": "9:00am"}, {"days": "Sat", "time": "8:00am"}, {"days": "Sun", "time": "Closed"}], "id": "1110400014", "name": "USPS COLLECTION BOX - BLUE BOX", "address": {"city": "LONG IS CITY", "state": "NY", "street": "3925 SKILLMAN AVE", "postcode": "11104"}}},
{"geometry": {"type": "Point", "coordinates": [-73.9208894361, 40.7467940009]}, "type": "Feature", "properties": {"collection_times": [{"days": "Mon-Fri", "time": "9:00am"}, {"days": "Sat", "time": "8:00am"}, {"days": "Sun", "time": "Closed"}], "id": "1110400016", "name": "USPS COLLECTION BOX - BLUE BOX", "address": {"city": "LONG IS CITY", "state": "NY", "street": "4108 43RD ST", "postcode": "11104"}}},
{"geometry": {"type": "Point", "coordinates": [-73.9189049424, 40.7466176356]}, "type": "Feature", "properties": {"collection_times": [{"days": "Mon-Fri", "time": "9:00am"}, {"days": "Sat", "time": "8:00am"}, {"days": "Sun", "time": "Closed"}], "id": "1110400017", "name": "USPS COLLECTION BOX - BLUE BOX", "address": {"city": "LONG IS CITY", "state": "NY", "street": "4502 SKILLMAN AVE", "postcode": "11104"}}},
{"geometry": {"type": "Point", "coordinates": [-73.9177014049, 40.7465945672]}, "type": "Feature", "properties": {"collection_times": [{"days": "Mon-Fri", "time": "9:00am"}, {"days": "Sat", "time": "8:00am"}, {"days": "Sun", "time": "Closed"}], "id": "1110400018", "name": "USPS COLLECTION BOX - BLUE BOX", "address": {"city": "LONG IS CITY", "state": "NY", "street": "4631 SKILLMAN AVE", "postcode": "11104"}}},
{"geometry": {"type": "Point", "coordinates": [-73.9160963402, 40.7464089368]}, "type": "Feature", "properties": {"collection_times": [{"days": "Mon-Fri", "time": "9:00am"}, {"days": "Sat", "time": "8:00am"}, {"days": "Sun", "time": "Closed"}], "id": "1110400019", "name": "USPS COLLECTION BOX - BLUE BOX", "address": {"city": "LONG IS CITY", "state": "NY", "street": "4803 SKILLMAN AVE", "postcode": "11104"}}},
{"geometry": {"type": "Point", "coordinates": [-73.9155363955, 40.7491036699]}, "type": "Feature", "properties": {"collection_times": [{"days": "Mon-Fri", "time": "9:00am"}, {"days": "Sat", "time": "8:00am"}, {"days": "Sun", "time": "Closed"}], "id": "1110400022", "name": "USPS COLLECTION BOX - BLUE BOX", "address": {"city": "LONG IS CITY", "state": "NY", "street": "3903 48TH ST", "postcode": "11104"}}},
{"geometry": {"type": "Point", "coordinates": [-73.9127840765, 40.7488730045]}, "type": "Feature", "properties": {"collection_times": [{"days": "Mon-Fri", "time": "9:00am"}, {"days": "Sat", "time": "8:00am"}, {"days": "Sun", "time": "Closed"}], "id": "1110400023", "name": "USPS COLLECTION BOX - BLUE BOX", "address": {"city": "LONG IS CITY", "state": "NY", "street": "5101 39TH AVE", "postcode": "11104"}}},
{"geometry": {"type": "Point", "coordinates": [-73.9257455881, 40.7457202353]}, "type": "Feature", "properties": {"collection_times": [{"days": "Mon-Fri", "time": "9:00am"}, {"days": "Sat", "time": "8:00am"}, {"days": "Sun", "time": "Closed"}], "id": "1110400025", "name": "USPS COLLECTION BOX - BLUE BOX", "address": {"city": "LONG IS CITY", "state": "NY", "street": "4301 39TH ST", "postcode": "11104"}}},
{"geometry": {"type": "Point", "coordinates": [-73.9220102906, 40.7452750795]}, "type": "Feature", "properties": {"collection_times": [{"days": "Mon-Fri", "time": "9:00am"}, {"days": "Sat", "time": "8:00am"}, {"days": "Sun", "time": "Closed"}], "id": "1110400027", "name": "USPS COLLECTION BOX - BLUE BOX", "address": {"city": "LONG IS CITY", "state": "NY", "street": "4202 43RD AVE", "postcode": "11104"}}},
{"geometry": {"type": "Point", "coordinates": [-73.9201540726, 40.7450569044]}, "type": "Feature", "properties": {"collection_times": [{"days": "Mon-Fri", "time": "9:00am"}, {"days": "Sat", "time": "8:00am"}, {"days": "Sun", "time": "Closed"}], "id": "1110400028", "name": "USPS COLLECTION BOX - BLUE BOX", "address": {"city": "LONG IS CITY", "state": "NY", "street": "4402 43RD AVE", "postcode": "11104"}}},
{"geometry": {"type": "Point", "coordinates": [-73.9191023912, 40.7450510321]}, "type": "Feature", "properties": {"collection_times": [{"days": "Mon-Fri", "time": "9:00am"}, {"days": "Sat", "time": "8:00am"}, {"days": "Sun", "time": "Closed"}], "id": "1110400029", "name": "USPS COLLECTION BOX - BLUE BOX", "address": {"city": "LONG IS CITY", "state": "NY", "street": "4515 43RD AVE", "postcode": "11104"}}},
{"geometry": {"type": "Point", "coordinates": [-73.9162933823, 40.7447250708]}, "type": "Feature", "properties": {"collection_times": [{"days": "Mon-Fri", "time": "9:00am"}, {"days": "Sat", "time": "8:00am"}, {"days": "Sun", "time": "Closed"}], "id": "1110400030", "name": "USPS COLLECTION BOX - BLUE BOX", "address": {"city": "LONG IS CITY", "state": "NY", "street": "4819 43RD AVE", "postcode": "11104"}}},
{"geometry": {"type": "Point", "coordinates": [-73.9258812372, 40.7419997637]}, "type": "Feature", "properties": {"collection_times": [{"days": "Mon-Fri", "time": "9:00am"}, {"days": "Sat", "time": "8:00am"}, {"days": "Sun", "time": "Closed"}], "id": "1110400031", "name": "USPS COLLECTION BOX - BLUE BOX", "address": {"city": "LONG IS CITY", "state": "NY", "street": "3919 47TH AVE", "postcode": "11104"}}},
{"geometry": {"type": "Point", "coordinates": [-73.9217588965, 40.7415275358]}, "type": "Feature", "properties": {"collection_times": [{"days": "Mon-Fri", "time": "9:00am"}, {"days": "Sat", "time": "8:00am"}, {"days": "Sun", "time": "Closed"}], "id": "1110400032", "name": "USPS COLLECTION BOX - BLUE BOX", "address": {"city": "LONG IS CITY", "state": "NY", "street": "4309 47TH AVE", "postcode": "11104"}}},
{"geometry": {"type": "Point", "coordinates": [-73.9410288044, 40.7507220194]}, "type": "Feature", "properties": {"collection_times": [{"days": "Mon-Fri", "time": "9:00am"}, {"days": "Sat", "time": "8:00am"}, {"days": "Sun", "time": "Closed"}], "id": "1110400033", "name": "USPS COLLECTION BOX - BLUE BOX", "address": {"city": "LONG IS CITY", "state": "NY", "street": "3816 48TH AVE", "postcode": "11104"}}},
{"geometry": {"type": "Point", "coordinates": [-73.9240650201, 40.73979034]}, "type": "Feature", "properties": {"collection_times": [{"days": "Mon-Fri", "time": "9:00am"}, {"days": "Sat", "time": "8:00am"}, {"days": "Sun", "time": "Closed"}], "id": "1110400034", "name": "USPS COLLECTION BOX - BLUE BOX", "address": {"city": "LONG IS CITY", "state": "NY", "street": "4102 48TH AVE", "postcode": "11104"}}},
{"geometry": {"type": "Point", "coordinates": [-73.9243034954, 40.7380402705]}, "type": "Feature", "properties": {"collection_times": [{"days": "Mon-Fri", "time": "9:00am"}, {"days": "Sat", "time": "8:00am"}, {"days": "Sun", "time": "Closed"}], "id": "1110400035", "name": "USPS COLLECTION BOX - BLUE BOX", "address": {"city": "LONG IS CITY", "state": "NY", "street": "4115 50TH AVE", "postcode": "11104"}}},
{"geometry": {"type": "Point", "coordinates": [-73.9187210282, 40.7429568044]}, "type": "Feature", "properties": {"collection_times": [{"days": "Mon-Fri", "time": "9:00am"}, {"days": "Sat", "time": "8:00am"}, {"days": "Sun", "time": "Closed"}], "id": "1110400036", "name": "USPS COLLECTION BOX - BLUE BOX", "address": {"city": "LONG IS CITY", "state": "NY", "street": "4602 QUEENS BLVD", "postcode": "11104"}}},
{"geometry": {"type": "Point", "coordinates": [-73.9205489192, 40.743030547]}, "type": "Feature", "properties": {"collection_times": [{"days": "Mon-Fri", "time": "5:00pm"}, {"days": "Sat", "time": "1:00pm"}, {"days": "Sun", "time": "Closed"}], "id": "1110400037", "name": "USPS COLLECTION BOX - BLUE BOX", "address": {"city": "LONG IS CITY", "state": "NY", "street": "4515 44TH ST", "postcode": "11104"}}},
{"geometry": {"type": "Point", "coordinates": [-73.9205489192, 40.743030547]}, "type": "Feature", "properties": {"collection_times": [{"days": "Mon-Fri", "time": "5:00pm"}, {"days": "Sat", "time": "1:00pm"}, {"days": "Sun", "time": "Closed"}], "id": "1110400038", "name": "USPS COLLECTION BOX - BLUE BOX", "address": {"city": "LONG IS CITY", "state": "NY", "street": "4515 44TH ST", "postcode": "11104"}}},
{"geometry": {"type": "Point", "coordinates": [-73.9214668086, 40.7437242075]}, "type": "Feature", "properties": {"collection_times": [{"days": "Mon-Fri", "time": "5:00pm"}, {"days": "Sat", "time": "1:00pm"}, {"days": "Sun", "time": "Closed"}], "id": "1110400039", "name": "USPS COLLECTION BOX - EXPRESS", "address": {"city": "LONG IS CITY", "state": "NY", "street": "4515 44TH ST", "postcode": "11104"}}},
{"geometry": {"type": "Point", "coordinates": [-73.9109596615, 40.7499633476]}, "type": "Feature", "properties": {"collection_times": [{"days": "Mon-Fri", "time": "9:00am"}, {"days": "Sat", "time": "8:00am"}, {"days": "Sun", "time": "Closed"}], "id": "1110400074", "name": "USPS COLLECTION BOX - BLUE BOX", "address": {"city": "LONG IS CITY", "state": "NY", "street": "5235 BARNETT AVE", "postcode": "11104"}}},
{"geometry": {"type": "Point", "coordinates": [-73.9227405424, 40.7462955177]}, "type": "Feature", "properties": {"collection_times": [{"days": "Mon-Fri", "time": "9:00am"}, {"days": "Sat", "time": "8:00am"}, {"days": "Sun", "time": "Closed"}], "id": "1110400076", "name": "USPS COLLECTION BOX - BLUE BOX", "address": {"city": "LONG IS CITY", "state": "NY", "street": "4141 41ST ST", "postcode": "11104"}}},
{"geometry": {"type": "Point", "coordinates": [-73.9206658205, 40.7426840984]}, "type": "Feature", "properties": {"collection_times": [{"days": "Mon-Fri", "time": "5:00pm"}, {"days": "Sat", "time": "1:00pm"}, {"days": "Sun", "time": "Closed"}], "id": "1110400077", "name": "USPS COLLECTION BOX - APC", "address": {"city": "LONG IS CITY", "state": "NY", "street": "4515 44TH ST", "postcode": "11104"}}},
{"geometry": {"type": "Point", "coordinates": [-73.9205489192, 40.743030547]}, "type": "Feature", "properties": {"collection_times": [{"days": "Mon-Fri", "time": "5:00pm"}, {"days": "Sat", "time": "1:00pm"}, {"days": "Sun", "time": "Closed"}], "id": "1110400078", "name": "USPS COLLECTION BOX - PO LOBBY", "address": {"city": "LONG IS CITY", "state": "NY", "street": "4515 44TH ST", "postcode": "11104"}}},
{"geometry": {"type": "Point", "coordinates": [-73.9183082365, 40.7815871084]}, "type": "Feature", "properties": {"collection_times": [{"days": "Mon-Fri", "time": "9:00am"}, {"days": "Sat", "time": "8:00am"}, {"days": "Sun", "time": "Closed"}], "id": "1110500001", "name": "USPS COLLECTION BOX - BLUE BOX", "address": {"city": "LONG IS CITY", "state": "NY", "street": "1859 DITMARS BLVD", "postcode": "11105"}}},
{"geometry": {"type": "Point", "coordinates": [-73.916836752, 40.7803923103]}, "type": "Feature", "properties": {"collection_times": [{"days": "Mon-Fri", "time": "9:00am"}, {"days": "Sat", "time": "8:00am"}, {"days": "Sun", "time": "Closed"}], "id": "1110500002", "name": "USPS COLLECTION BOX - BLUE BOX", "address": {"city": "LONG IS CITY", "state": "NY", "street": "2102 DITMARS BLVD", "postcode": "11105"}}},
{"geometry": {"type": "Point", "coordinates": [-73.9130875507, 40.7777388472]}, "type": "Feature", "properties": {"collection_times": [{"days": "Mon-Fri", "time": "9:00am"}, {"days": "Sat", "time": "8:00am"}, {"days": "Sun", "time": "Closed"}], "id": "1110500004", "name": "USPS COLLECTION BOX - BLUE BOX", "address": {"city": "LONG IS CITY", "state": "NY", "street": "2702 DITMARS BLVD", "postcode": "11105"}}},
{"geometry": {"type": "Point", "coordinates": [-73.9108666599, 40.7760953194]}, "type": "Feature", "properties": {"collection_times": [{"days": "Mon-Fri", "time": "9:00am"}, {"days": "Sat", "time": "8:00am"}, {"days": "Sun", "time": "Closed"}], "id": "1110500005", "name": "USPS COLLECTION BOX - BLUE BOX", "address": {"city": "LONG IS CITY", "state": "NY", "street": "2202 31ST ST", "postcode": "11105"}}},
{"geometry": {"type": "Point", "coordinates": [-73.9095797662, 40.775268218]}, "type": "Feature", "properties": {"collection_times": [{"days": "Mon-Fri", "time": "9:00am"}, {"days": "Sat", "time": "8:00am"}, {"days": "Sun", "time": "Closed"}], "id": "1110500006", "name": "USPS COLLECTION BOX - BLUE BOX", "address": {"city": "LONG IS CITY", "state": "NY", "street": "3320 DITMARS BLVD", "postcode": "11105"}}},
{"geometry": {"type": "Point", "coordinates": [-73.9074140205, 40.7738899221]}, "type": "Feature", "properties": {"collection_times": [{"days": "Mon-Fri", "time": "9:00am"}, {"days": "Sat", "time": "8:00am"}, {"days": "Sun", "time": "Closed"}], "id": "1110500007", "name": "USPS COLLECTION BOX - BLUE BOX", "address": {"city": "LONG IS CITY", "state": "NY", "street": "3701 DITMARS BLVD", "postcode": "11105"}}},
{"geometry": {"type": "Point", "coordinates": [-73.9066772657, 40.7733611746]}, "type": "Feature", "properties": {"collection_times": [{"days": "Mon-Fri", "time": "9:00am"}, {"days": "Sat", "time": "8:00am"}, {"days": "Sun", "time": "Closed"}], "id": "1110500008", "name": "USPS COLLECTION BOX - BLUE BOX", "address": {"city": "LONG IS CITY", "state": "NY", "street": "3815 DITMARS BLVD", "postcode": "11105"}}},
{"geometry": {"type": "Point", "coordinates": [-73.9037691782, 40.7713098392]}, "type": "Feature", "properties": {"collection_times": [{"days": "Mon-Fri", "time": "9:00am"}, {"days": "Sat", "time": "8:00am"}, {"days": "Sun", "time": "Closed"}], "id": "1110500009", "name": "USPS COLLECTION BOX - BLUE BOX", "address": {"city": "LONG IS CITY", "state": "NY", "street": "4321 DITMARS BLVD", "postcode": "11105"}}},
{"geometry": {"type": "Point", "coordinates": [-73.9023691048, 40.7701692652]}, "type": "Feature", "properties": {"collection_times": [{"days": "Mon-Fri", "time": "9:00am"}, {"days": "Sat", "time": "8:00am"}, {"days": "Sun", "time": "Closed"}], "id": "1110500010", "name": "USPS COLLECTION BOX - BLUE BOX", "address": {"city": "LONG IS CITY", "state": "NY", "street": "4620 DITMARS BLVD", "postcode": "11105"}}},
{"geometry": {"type": "Point", "coordinates": [-73.9025704078, 40.7779756122]}, "type": "Feature", "properties": {"collection_times": [{"days": "Mon-Fri", "time": "9:00am"}, {"days": "Sat", "time": "8:00am"}, {"days": "Sun", "time": "Closed"}], "id": "1110500011", "name": "USPS COLLECTION BOX - BLUE BOX", "address": {"city": "LONG IS CITY", "state": "NY", "street": "1950 37TH ST", "postcode": "11105"}}},
{"geometry": {"type": "Point", "coordinates": [-73.8995895304, 40.7782150465]}, "type": "Feature", "properties": {"collection_times": [{"days": "Mon-Fri", "time": "9:00am"}, {"days": "Sat", "time": "8:00am"}, {"days": "Sun", "time": "Closed"}], "id": "1110500012", "name": "USPS COLLECTION BOX - BLUE BOX", "address": {"city": "LONG IS CITY", "state": "NY", "street": "1902 STEINWAY ST", "postcode": "11105"}}},
{"geometry": {"type": "Point", "coordinates": [-73.9166979536, 40.7842671888]}, "type": "Feature", "properties": {"collection_times": [{"days": "Mon-Fri", "time": "9:00am"}, {"days": "Sat", "time": "8:00am"}, {"days": "Sun", "time": "Closed"}], "id": "1110500015", "name": "USPS COLLECTION BOX - BLUE BOX", "address": {"city": "LONG IS CITY", "state": "NY", "street": "2075 SHORE BLVD", "postcode": "11105"}}},
{"geometry": {"type": "Point", "coordinates": [-73.9146150198, 40.7822209542]}, "type": "Feature", "properties": {"collection_times": [{"days": "Mon-Fri", "time": "9:00am"}, {"days": "Sat", "time": "8:00am"}, {"days": "Sun", "time": "Closed"}], "id": "1110500016", "name": "USPS COLLECTION BOX - BLUE BOX", "address": {"city": "LONG IS CITY", "state": "NY", "street": "2102 21ST AVE", "postcode": "11105"}}},
{"geometry": {"type": "Point", "coordinates": [-73.9118706426, 40.7808353031]}, "type": "Feature", "properties": {"collection_times": [{"days": "Mon-Fri", "time": "9:00am"}, {"days": "Sat", "time": "8:00am"}, {"days": "Sun", "time": "Closed"}], "id": "1110500017", "name": "USPS COLLECTION BOX - BLUE BOX", "address": {"city": "LONG IS CITY", "state": "NY", "street": "2075 CRESCENT ST", "postcode": "11105"}}},
{"geometry": {"type": "Point", "coordinates": [-73.9092867546, 40.7786150087]}, "type": "Feature", "properties": {"collection_times": [{"days": "Mon-Fri", "time": "9:00am"}, {"days": "Sat", "time": "8:00am"}, {"days": "Sun", "time": "Closed"}], "id": "1110500018", "name": "USPS COLLECTION BOX - BLUE BOX", "address": {"city": "LONG IS CITY", "state": "NY", "street": "2923 21ST AVE", "postcode": "11105"}}},
{"geometry": {"type": "Point", "coordinates": [-73.9039825246, 40.7746337506]}, "type": "Feature", "properties": {"collection_times": [{"days": "Mon-Fri", "time": "9:00am"}, {"days": "Sat", "time": "8:00am"}, {"days": "Sun", "time": "Closed"}], "id": "1110500019", "name": "USPS COLLECTION BOX - BLUE BOX", "address": {"city": "LONG IS CITY", "state": "NY", "street": "2102 STEINWAY ST", "postcode": "11105"}}},
{"geometry": {"type": "Point", "coordinates": [-73.902265546, 40.7735161521]}, "type": "Feature", "properties": {"collection_times": [{"days": "Mon-Fri", "time": "9:00am"}, {"days": "Sat", "time": "8:00am"}, {"days": "Sun", "time": "Closed"}], "id": "1110500020", "name": "USPS COLLECTION BOX - BLUE BOX", "address": {"city": "LONG IS CITY", "state": "NY", "street": "4220 21ST AVE", "postcode": "11105"}}},
{"geometry": {"type": "Point", "coordinates": [-73.8987177065, 40.7711597185]}, "type": "Feature", "properties": {"collection_times": [{"days": "Mon-Fri", "time": "9:00am"}, {"days": "Sat", "time": "8:00am"}, {"days": "Sun", "time": "Closed"}], "id": "1110500021", "name": "USPS COLLECTION BOX - BLUE BOX", "address": {"city": "LONG IS CITY", "state": "NY", "street": "4803 21ST AVE", "postcode": "11105"}}},
{"geometry": {"type": "Point", "coordinates": [-73.9152578936, 40.7759724548]}, "type": "Feature", "properties": {"collection_times": [{"days": "Mon-Fri", "time": "9:00am"}, {"days": "Sat", "time": "8:00am"}, {"days": "Sun", "time": "Closed"}], "id": "1110500023", "name": "USPS COLLECTION BOX - BLUE BOX", "address": {"city": "LONG IS CITY", "state": "NY", "street": "2702 23RD AVE", "postcode": "11105"}}},
{"geometry": {"type": "Point", "coordinates": [-73.9144478588, 40.7754111429]}, "type": "Feature", "properties": {"collection_times": [{"days": "Mon-Fri", "time": "9:00am"}, {"days": "Sat", "time": "8:00am"}, {"days": "Sun", "time": "Closed"}], "id": "1110500024", "name": "USPS COLLECTION BOX - BLUE BOX", "address": {"city": "LONG IS CITY", "state": "NY", "street": "2819 23RD AVE", "postcode": "11105"}}},
{"geometry": {"type": "Point", "coordinates": [-73.911079143, 40.7731148519]}, "type": "Feature", "properties": {"collection_times": [{"days": "Mon-Fri", "time": "9:00am"}, {"days": "Sat", "time": "8:00am"}, {"days": "Sun", "time": "Closed"}], "id": "1110500025", "name": "USPS COLLECTION BOX - BLUE BOX", "address": {"city": "LONG IS CITY", "state": "NY", "street": "3501 23RD AVE", "postcode": "11105"}}},
{"geometry": {"type": "Point", "coordinates": [-73.9088181377, 40.7715799843]}, "type": "Feature", "properties": {"collection_times": [{"days": "Mon-Fri", "time": "9:00am"}, {"days": "Sat", "time": "8:00am"}, {"days": "Sun", "time": "Closed"}], "id": "1110500026", "name": "USPS COLLECTION BOX - BLUE BOX", "address": {"city": "LONG IS CITY", "state": "NY", "street": "3819 23RD AVE", "postcode": "11105"}}},
{"geometry": {"type": "Point", "coordinates": [-73.9065823553, 40.7699956601]}, "type": "Feature", "properties": {"collection_times": [{"days": "Mon-Fri", "time": "9:00am"}, {"days": "Sat", "time": "8:00am"}, {"days": "Sun", "time": "Closed"}], "id": "1110500027", "name": "USPS COLLECTION BOX - BLUE BOX", "address": {"city": "LONG IS CITY", "state": "NY", "street": "4219 23RD AVE", "postcode": "11105"}}},
{"geometry": {"type": "Point", "coordinates": [-73.9116770605, 40.7752630881]}, "type": "Feature", "properties": {"collection_times": [{"days": "Mon-Fri", "time": "9:00am"}, {"days": "Sat", "time": "8:00am"}, {"days": "Sun", "time": "Closed"}], "id": "1110500028", "name": "USPS COLLECTION BOX - BLUE BOX", "address": {"city": "LONG IS CITY", "state": "NY", "street": "2239 31ST ST", "postcode": "11105"}}},
{"geometry": {"type": "Point", "coordinates": [-73.9090487829, 40.7759206983]}, "type": "Feature", "properties": {"collection_times": [{"days": "Mon-Fri", "time": "5:00pm"}, {"days": "Sat", "time": "1:00pm"}, {"days": "Sun", "time": "Closed"}], "id": "1110500029", "name": "USPS COLLECTION BOX - EXPRESS", "address": {"city": "LONG IS CITY", "state": "NY", "street": "2268 31ST ST", "postcode": "11105"}}},
{"geometry": {"type": "Point", "coordinates": [-73.9124272859, 40.774809243]}, "type": "Feature", "properties": {"collection_times": [{"days": "Mon-Fri", "time": "5:00pm"}, {"days": "Sat", "time": "1:00pm"}, {"days": "Sun", "time": "Closed"}], "id": "1110500030", "name": "USPS COLLECTION BOX - BLUE BOX", "address": {"city": "LONG IS CITY", "state": "NY", "street": "2268 31ST ST", "postcode": "11105"}}},
{"geometry": {"type": "Point", "coordinates": [-73.9124272859, 40.774809243]}, "type": "Feature", "properties": {"collection_times": [{"days": "Mon-Fri", "time": "5:00pm"}, {"days": "Sat", "time": "1:00pm"}, {"days": "Sun", "time": "Closed"}], "id": "1110500031", "name": "USPS COLLECTION BOX - BLUE BOX", "address": {"city": "LONG IS CITY", "state": "NY", "street": "2268 31ST ST", "postcode": "11105"}}},
{"geometry": {"type": "Point", "coordinates": [-73.9001239917, 40.7754430435]}, "type": "Feature", "properties": {"collection_times": [{"days": "Mon-Fri", "time": "9:00am"}, {"days": "Sat", "time": "8:00am"}, {"days": "Sun", "time": "Closed"}], "id": "1110500035", "name": "USPS COLLECTION BOX - BLUE BOX", "address": {"city": "LONG IS CITY", "state": "NY", "street": "4207 20TH AVE", "postcode": "11105"}}},
{"geometry": {"type": "Point", "coordinates": [-73.8982159198, 40.7739029525]}, "type": "Feature", "properties": {"collection_times": [{"days": "Mon-Fri", "time": "9:00am"}, {"days": "Sat", "time": "8:00am"}, {"days": "Sun", "time": "Closed"}], "id": "1110500036", "name": "USPS COLLECTION BOX - BLUE BOX", "address": {"city": "LONG IS CITY", "state": "NY", "street": "2002 46TH ST", "postcode": "11105"}}},
{"geometry": {"type": "Point", "coordinates": [-73.9172249991, 40.777520308]}, "type": "Feature", "properties": {"collection_times": [{"days": "Mon-Fri", "time": "9:00am"}, {"days": "Sat", "time": "8:00am"}, {"days": "Sun", "time": "Closed"}], "id": "1110500037", "name": "USPS COLLECTION BOX - BLUE BOX", "address": {"city": "LONG IS CITY", "state": "NY", "street": "2401 23RD AVE", "postcode": "11105"}}},
{"geometry": {"type": "Point", "coordinates": [-73.9125478931, 40.774648522]}, "type": "Feature", "properties": {"collection_times": [{"days": "Mon-Fri", "time": "5:00pm"}, {"days": "Sat", "time": "1:00pm"}, {"days": "Sun", "time": "Closed"}], "id": "1110500076", "name": "USPS COLLECTION BOX - APC", "address": {"city": "LONG IS CITY", "state": "NY", "street": "2268 31ST ST", "postcode": "11105"}}},
{"geometry": {"type": "Point", "coordinates": [-73.9124272859, 40.774809243]}, "type": "Feature", "properties": {"collection_times": [{"days": "Mon-Fri", "time": "5:00pm"}, {"days": "Sat", "time": "1:00pm"}, {"days": "Sun", "time": "Closed"}], "id": "1110500077", "name": "USPS COLLECTION BOX - PO LOBBY", "address": {"city": "LONG IS CITY", "state": "NY", "street": "2268 31ST ST", "postcode": "11105"}}},
{"geometry": {"type": "Point", "coordinates": [-73.9358895424, 40.767468118]}, "type": "Feature", "properties": {"collection_times": [{"days": "Mon-Fri", "time": "11:00am"}, {"days": "Sat", "time": "8:00am"}, {"days": "Sun", "time": "Closed"}], "id": "1110600001", "name": "USPS COLLECTION BOX - BLUE BOX", "address": {"city": "LONG IS CITY", "state": "NY", "street": "1106 BROADWAY", "postcode": "11106"}}},
{"geometry": {"type": "Point", "coordinates": [-73.9359182969, 40.7642934635]}, "type": "Feature", "properties": {"collection_times": [{"days": "Mon-Fri", "time": "5:00pm"}, {"days": "Sat", "time": "1:00pm"}, {"days": "Sun", "time": "Closed"}], "id": "1110600002", "name": "USPS COLLECTION BOX - EXPRESS", "address": {"city": "LONG IS CITY", "state": "NY", "street": "2117 BROADWAY", "postcode": "11106"}}},
{"geometry": {"type": "Point", "coordinates": [-73.9298304512, 40.7641276427]}, "type": "Feature", "properties": {"collection_times": [{"days": "Mon-Fri", "time": "11:00am"}, {"days": "Sat", "time": "8:00am"}, {"days": "Sun", "time": "Closed"}], "id": "1110600003", "name": "USPS COLLECTION BOX - BLUE BOX", "address": {"city": "LONG IS CITY", "state": "NY", "street": "2356 BROADWAY", "postcode": "11106"}}},
{"geometry": {"type": "Point", "coordinates": [-73.9282148997, 40.7633701803]}, "type": "Feature", "properties": {"collection_times": [{"days": "Mon-Fri", "time": "11:00am"}, {"days": "Sat", "time": "8:00am"}, {"days": "Sun", "time": "Closed"}], "id": "1110600004", "name": "USPS COLLECTION BOX - BLUE BOX", "address": {"city": "LONG IS CITY", "state": "NY", "street": "2541 BROADWAY", "postcode": "11106"}}},
{"geometry": {"type": "Point", "coordinates": [-73.9260028432, 40.762330691]}, "type": "Feature", "properties": {"collection_times": [{"days": "Mon-Fri", "time": "11:00am"}, {"days": "Sat", "time": "8:00am"}, {"days": "Sun", "time": "Closed"}], "id": "1110600005", "name": "USPS COLLECTION BOX - BLUE BOX", "address": {"city": "LONG IS CITY", "state": "NY", "street": "3017 BROADWAY", "postcode": "11106"}}},
{"geometry": {"type": "Point", "coordinates": [-73.9243772115, 40.7615723733]}, "type": "Feature", "properties": {"collection_times": [{"days": "Mon-Fri", "time": "11:00am"}, {"days": "Sat", "time": "8:00am"}, {"days": "Sun", "time": "Closed"}], "id": "1110600006", "name": "USPS COLLECTION BOX - BLUE BOX", "address": {"city": "LONG IS CITY", "state": "NY", "street": "3221 BROADWAY", "postcode": "11106"}}},
{"geometry": {"type": "Point", "coordinates": [-73.9213965684, 40.760043003]}, "type": "Feature", "properties": {"collection_times": [{"days": "Mon-Fri", "time": "11:00am"}, {"days": "Sat", "time": "8:00am"}, {"days": "Sun", "time": "Closed"}], "id": "1110600007", "name": "USPS COLLECTION BOX - BLUE BOX", "address": {"city": "LONG IS CITY", "state": "NY", "street": "3602 BROADWAY", "postcode": "11106"}}},
{"geometry": {"type": "Point", "coordinates": [-73.932368858, 40.7679390796]}, "type": "Feature", "properties": {"collection_times": [{"days": "Mon-Fri", "time": "11:00am"}, {"days": "Sat", "time": "8:00am"}, {"days": "Sun", "time": "Closed"}], "id": "1110600009", "name": "USPS COLLECTION BOX - BLUE BOX", "address": {"city": "LONG IS CITY", "state": "NY", "street": "3114 14TH ST", "postcode": "11106"}}},
{"geometry": {"type": "Point", "coordinates": [-73.929810819, 40.7672796179]}, "type": "Feature", "properties": {"collection_times": [{"days": "Mon-Fri", "time": "11:00am"}, {"days": "Sat", "time": "8:00am"}, {"days": "Sun", "time": "Closed"}], "id": "1110600010", "name": "USPS COLLECTION BOX - BLUE BOX", "address": {"city": "LONG IS CITY", "state": "NY", "street": "3101 21ST ST", "postcode": "11106"}}},
{"geometry": {"type": "Point", "coordinates": [-73.9265724204, 40.7655795923]}, "type": "Feature", "properties": {"collection_times": [{"days": "Mon-Fri", "time": "11:00am"}, {"days": "Sat", "time": "8:00am"}, {"days": "Sun", "time": "Closed"}], "id": "1110600011", "name": "USPS COLLECTION BOX - BLUE BOX", "address": {"city": "LONG IS CITY", "state": "NY", "street": "3104 CRESCENT ST", "postcode": "11106"}}},
{"geometry": {"type": "Point", "coordinates": [-73.9244914179, 40.7647646772]}, "type": "Feature", "properties": {"collection_times": [{"days": "Mon-Fri", "time": "11:00am"}, {"days": "Sat", "time": "8:00am"}, {"days": "Sun", "time": "Closed"}], "id": "1110600012", "name": "USPS COLLECTION BOX - BLUE BOX", "address": {"city": "LONG IS CITY", "state": "NY", "street": "2908 31ST AVE", "postcode": "11106"}}},
{"geometry": {"type": "Point", "coordinates": [-73.9234677434, 40.7642661241]}, "type": "Feature", "properties": {"collection_times": [{"days": "Mon-Fri", "time": "11:00am"}, {"days": "Sat", "time": "8:00am"}, {"days": "Sun", "time": "Closed"}], "id": "1110600013", "name": "USPS COLLECTION BOX - BLUE BOX", "address": {"city": "LONG IS CITY", "state": "NY", "street": "3102 31ST AVE", "postcode": "11106"}}},
{"geometry": {"type": "Point", "coordinates": [-73.9210833571, 40.7631287366]}, "type": "Feature", "properties": {"collection_times": [{"days": "Mon-Fri", "time": "11:00am"}, {"days": "Sat", "time": "8:00am"}, {"days": "Sun", "time": "Closed"}], "id": "1110600014", "name": "USPS COLLECTION BOX - BLUE BOX", "address": {"city": "LONG IS CITY", "state": "NY", "street": "3402 31ST AVE", "postcode": "11106"}}},
{"geometry": {"type": "Point", "coordinates": [-73.9327057086, 40.7638717606]}, "type": "Feature", "properties": {"collection_times": [{"days": "Mon-Fri", "time": "11:00am"}, {"days": "Sat", "time": "8:00am"}, {"days": "Sun", "time": "Closed"}], "id": "1110600015", "name": "USPS COLLECTION BOX - BLUE BOX", "address": {"city": "LONG IS CITY", "state": "NY", "street": "2110 33RD RD", "postcode": "11106"}}},
{"geometry": {"type": "Point", "coordinates": [-73.9392235, 40.7652092957]}, "type": "Feature", "properties": {"collection_times": [{"days": "Mon-Fri", "time": "11:00am"}, {"days": "Sat", "time": "8:00am"}, {"days": "Sun", "time": "Closed"}], "id": "1110600016", "name": "USPS COLLECTION BOX - BLUE BOX", "address": {"city": "LONG IS CITY", "state": "NY", "street": "919 34TH AVE", "postcode": "11106"}}},
{"geometry": {"type": "Point", "coordinates": [-73.9317010607, 40.7617557837]}, "type": "Feature", "properties": {"collection_times": [{"days": "Mon-Fri", "time": "11:00am"}, {"days": "Sat", "time": "8:00am"}, {"days": "Sun", "time": "Closed"}], "id": "1110600017", "name": "USPS COLLECTION BOX - BLUE BOX", "address": {"city": "LONG IS CITY", "state": "NY", "street": "1 34 AVE", "postcode": "11106"}}},
{"geometry": {"type": "Point", "coordinates": [-73.9299388164, 40.7619612583]}, "type": "Feature", "properties": {"collection_times": [{"days": "Mon-Fri", "time": "11:00am"}, {"days": "Sat", "time": "8:00am"}, {"days": "Sun", "time": "Closed"}], "id": "1110600018", "name": "USPS COLLECTION BOX - BLUE BOX", "address": {"city": "LONG IS CITY", "state": "NY", "street": "3352 CRESCENT ST", "postcode": "11106"}}},
{"geometry": {"type": "Point", "coordinates": [-73.9281738607, 40.7599985399]}, "type": "Feature", "properties": {"collection_times": [{"days": "Mon-Fri", "time": "11:00am"}, {"days": "Sat", "time": "8:00am"}, {"days": "Sun", "time": "Closed"}], "id": "1110600019", "name": "USPS COLLECTION BOX - BLUE BOX", "address": {"city": "LONG IS CITY", "state": "NY", "street": "3402 30TH ST", "postcode": "11106"}}},
{"geometry": {"type": "Point", "coordinates": [-73.9238698417, 40.759874698]}, "type": "Feature", "properties": {"collection_times": [{"days": "Mon-Fri", "time": "11:00am"}, {"days": "Sat", "time": "8:00am"}, {"days": "Sun", "time": "Closed"}], "id": "1110600020", "name": "USPS COLLECTION BOX - BLUE BOX", "address": {"city": "LONG IS CITY", "state": "NY", "street": "3286 34TH ST", "postcode": "11106"}}},
{"geometry": {"type": "Point", "coordinates": [-73.9407141292, 40.7646962296]}, "type": "Feature", "properties": {"collection_times": [{"days": "Mon-Fri", "time": "11:00am"}, {"days": "Sat", "time": "8:00am"}, {"days": "Sun", "time": "Closed"}], "id": "1110600021", "name": "USPS COLLECTION BOX - BLUE BOX", "address": {"city": "LONG IS CITY", "state": "NY", "street": "3461 VERNON BLVD", "postcode": "11106"}}},
{"geometry": {"type": "Point", "coordinates": [-73.9354231011, 40.7612287437]}, "type": "Feature", "properties": {"collection_times": [{"days": "Mon-Fri", "time": "11:00am"}, {"days": "Sat", "time": "8:00am"}, {"days": "Sun", "time": "Closed"}], "id": "1110600022", "name": "USPS COLLECTION BOX - BLUE BOX", "address": {"city": "LONG IS CITY", "state": "NY", "street": "3505 21ST ST", "postcode": "11106"}}},
{"geometry": {"type": "Point", "coordinates": [-73.9303035619, 40.7598959456]}, "type": "Feature", "properties": {"collection_times": [{"days": "Mon-Fri", "time": "11:00am"}, {"days": "Sat", "time": "8:00am"}, {"days": "Sun", "time": "Closed"}], "id": "1110600023", "name": "USPS COLLECTION BOX - BLUE BOX", "address": {"city": "LONG IS CITY", "state": "NY", "street": "3457 28TH ST", "postcode": "11106"}}},
{"geometry": {"type": "Point", "coordinates": [-73.9410288044, 40.7507220194]}, "type": "Feature", "properties": {"collection_times": [{"days": "Mon-Fri", "time": "11:00am"}, {"days": "Sat", "time": "8:00am"}, {"days": "Sun", "time": "Closed"}], "id": "1110600024", "name": "USPS COLLECTION BOX - BLUE BOX", "address": {"city": "LONG IS CITY", "state": "NY", "street": "3109 35TH AVE", "postcode": "11106"}}},
{"geometry": {"type": "Point", "coordinates": [-73.9256907063, 40.7560530433]}, "type": "Feature", "properties": {"collection_times": [{"days": "Mon-Fri", "time": "11:00am"}, {"days": "Sat", "time": "8:00am"}, {"days": "Sun", "time": "Closed"}], "id": "1110600025", "name": "USPS COLLECTION BOX - BLUE BOX", "address": {"city": "LONG IS CITY", "state": "NY", "street": "3535 35TH ST", "postcode": "11106"}}},
{"geometry": {"type": "Point", "coordinates": [-73.9391201103, 40.7607362137]}, "type": "Feature", "properties": {"collection_times": [{"days": "Mon-Fri", "time": "11:00am"}, {"days": "Sat", "time": "8:00am"}, {"days": "Sun", "time": "Closed"}], "id": "1110600026", "name": "USPS COLLECTION BOX - BLUE BOX", "address": {"city": "LONG IS CITY", "state": "NY", "street": "1202 36TH AVE", "postcode": "11106"}}},
{"geometry": {"type": "Point", "coordinates": [-73.9336717644, 40.7594419505]}, "type": "Feature", "properties": {"collection_times": [{"days": "Mon-Fri", "time": "11:00am"}, {"days": "Sat", "time": "8:00am"}, {"days": "Sun", "time": "Closed"}], "id": "1110600027", "name": "USPS COLLECTION BOX - BLUE BOX", "address": {"city": "LONG IS CITY", "state": "NY", "street": "3552 24TH ST", "postcode": "11106"}}},
{"geometry": {"type": "Point", "coordinates": [-73.9312919563, 40.7573780679]}, "type": "Feature", "properties": {"collection_times": [{"days": "Mon-Fri", "time": "11:00am"}, {"days": "Sat", "time": "8:00am"}, {"days": "Sun", "time": "Closed"}], "id": "1110600028", "name": "USPS COLLECTION BOX - BLUE BOX", "address": {"city": "LONG IS CITY", "state": "NY", "street": "2901 36TH AVE", "postcode": "11106"}}},
{"geometry": {"type": "Point", "coordinates": [-73.9295759239, 40.7565704823]}, "type": "Feature", "properties": {"collection_times": [{"days": "Mon-Fri", "time": "11:00am"}, {"days": "Sat", "time": "8:00am"}, {"days": "Sun", "time": "Closed"}], "id": "1110600030", "name": "USPS COLLECTION BOX - BLUE BOX", "address": {"city": "LONG IS CITY", "state": "NY", "street": "3115 36TH AVE", "postcode": "11106"}}},
{"geometry": {"type": "Point", "coordinates": [-73.9263572567, 40.7550588561]}, "type": "Feature", "properties": {"collection_times": [{"days": "Mon-Fri", "time": "11:00am"}, {"days": "Sat", "time": "8:00am"}, {"days": "Sun", "time": "Closed"}], "id": "1110600031", "name": "USPS COLLECTION BOX - BLUE BOX", "address": {"city": "LONG IS CITY", "state": "NY", "street": "3519 36TH AVE", "postcode": "11106"}}},
{"geometry": {"type": "Point", "coordinates": [-73.931505553, 40.76519709]}, "type": "Feature", "properties": {"collection_times": [{"days": "Mon-Fri", "time": "5:00pm"}, {"days": "Sat", "time": "1:00pm"}, {"days": "Sun", "time": "Closed"}], "id": "1110600033", "name": "USPS COLLECTION BOX - BLUE BOX", "address": {"city": "LONG IS CITY", "state": "NY", "street": "2117 BROADWAY", "postcode": "11106"}}},
{"geometry": {"type": "Point", "coordinates": [-73.931505553, 40.76519709]}, "type": "Feature", "properties": {"collection_times": [{"days": "Mon-Fri", "time": "5:00pm"}, {"days": "Sat", "time": "1:00pm"}, {"days": "Sun", "time": "Closed"}], "id": "1110600034", "name": "USPS COLLECTION BOX - BLUE BOX", "address": {"city": "LONG IS CITY", "state": "NY", "street": "2117 BROADWAY", "postcode": "11106"}}},
{"geometry": {"type": "Point", "coordinates": [-73.9303814874, 40.7569401091]}, "type": "Feature", "properties": {"collection_times": [{"days": "Mon-Fri", "time": "11:00am"}, {"days": "Sat", "time": "8:00am"}, {"days": "Sun", "time": "Closed"}], "id": "1110600083", "name": "USPS COLLECTION BOX - BLUE BOX", "address": {"city": "LONG IS CITY", "state": "NY", "street": "3015 36TH AVE", "postcode": "11106"}}},
{"geometry": {"type": "Point", "coordinates": [-73.9287365844, 40.7552222699]}, "type": "Feature", "properties": {"collection_times": [{"days": "Mon-Fri", "time": "11:00am"}, {"days": "Sat", "time": "8:00am"}, {"days": "Sun", "time": "Closed"}], "id": "1110600087", "name": "USPS COLLECTION BOX - BLUE BOX", "address": {"city": "LONG IS CITY", "state": "NY", "street": "3636 33RD ST", "postcode": "11106"}}},
{"geometry": {"type": "Point", "coordinates": [-73.931505553, 40.76519709]}, "type": "Feature", "properties": {"collection_times": [{"days": "Mon-Fri", "time": "5:00pm"}, {"days": "Sat", "time": "1:00pm"}, {"days": "Sun", "time": "Closed"}], "id": "1110600088", "name": "USPS COLLECTION BOX - PO LOBBY", "address": {"city": "LONG IS CITY", "state": "NY", "street": "2117 BROADWAY", "postcode": "11106"}}}
]}
