{"type": "FeatureCollection", "features": [
{"geometry": {"type": "Point", "coordinates": [-73.7519154359, 40.6052867674]}, "type": "Feature", "properties": {"collection_times": [{"days": "Mon-Fri", "time": "3:00pm"}, {"days": "Sat", "time": "9:30am"}, {"days": "Sun", "time": "Closed"}], "id": "1169100001", "name": "USPS COLLECTION BOX - BLUE BOX", "address": {"city": "FAR ROCKAWAY", "state": "NY", "street": "1600 CENTRAL AVE", "postcode": "11691"}}},
{"geometry": {"type": "Point", "coordinates": [-73.7546061168, 40.5950062183]}, "type": "Feature", "properties": {"collection_times": [{"days": "Mon-Sat", "time": "9:30am"}, {"days": "Sun", "time": "Closed"}], "id": "1169100002", "name": "USPS COLLECTION BOX - BLUE BOX", "address": {"city": "FAR ROCKAWAY", "state": "NY", "street": "2033 SEAGIRT BLVD", "postcode": "11691"}}},
{"geometry": {"type": "Point", "coordinates": [-73.7543153059, 40.5983382517]}, "type": "Feature", "properties": {"collection_times": [{"days": "Mon-Sat", "time": "9:30am"}, {"days": "Sun", "time": "Closed"}], "id": "1169100003", "name": "USPS COLLECTION BOX - BLUE BOX", "address": {"city": "FAR ROCKAWAY", "state": "NY", "street": "407 BEACH 20TH ST", "postcode": "11691"}}},
{"geometry": {"type": "Point", "coordinates": [-73.764577662, 40.6075419245]}, "type": "Feature", "properties": {"collection_times": [{"days": "Mon-Sat", "time": "9:30am"}, {"days": "Sun", "time": "Closed"}], "id": "1169100006", "name": "USPS COLLECTION BOX - BLUE BOX", "address": {"city": "FAR ROCKAWAY", "state": "NY", "street": "2526 WESTBOURNE AVE", "postcode": "11691"}}},
{"geometry": {"type": "Point", "coordinates": [-73.7669230576, 40.6111826902]}, "type": "Feature", "properties": {"collection_times": [{"days": "Mon-Sat", "time": "9:30am"}, {"days": "Sun", "time": "Closed"}], "id": "1169100007", "name": "USPS COLLECTION BOX - BLUE BOX", "address": {"city": "FAR ROCKAWAY", "state": "NY", "street": "1454 EGMONT PL", "postcode": "11691"}}},
{"geometry": {"type": "Point", "coordinates": [-73.754021095, 40.6047301643]}, "type": "Feature", "properties": {"collection_times": [{"days": "Mon-Fri", "time": "3:00pm"}, {"days": "Sat", "time": "9:30am"}, {"days": "Sun", "time": "Closed"}], "id": "1169100009", "name": "USPS COLLECTION BOX - BLUE BOX", "address": {"city": "FAR ROCKAWAY", "state": "NY", "street": "2115 MOTT AVE", "postcode": "11691"}}},
{"geometry": {"type": "Point", "coordinates": [-73.7535570439, 40.6046407872]}, "type": "Feature", "properties": {"collection_times": [{"days": "Mon-Sat", "time": "9:30am"}, {"days": "Sun", "time": "Closed"}], "id": "1169100011", "name": "USPS COLLECTION BOX - BLUE BOX", "address": {"city": "FAR ROCKAWAY", "state": "NY", "street": "2010 MOTT AVE", "postcode": "11691"}}},
{"geometry": {"type": "Point", "coordinates": [-73.7532442886, 40.5936554787]}, "type": "Feature", "properties": {"collection_times": [{"days": "Mon-Sat", "time": "9:30am"}, {"days": "Sun", "time": "Closed"}], "id": "1169100015", "name": "USPS COLLECTION BOX - BLUE BOX", "address": {"city": "FAR ROCKAWAY", "state": "NY", "street": "125 BEACH 19TH ST", "postcode": "11691"}}},
{"geometry": {"type": "Point", "coordinates": [-73.7477129287, 40.6033882065]}, "type": "Feature", "properties": {"collection_times": [{"days": "Mon-Sat", "time": "9:30am"}, {"days": "Sun", "time": "Closed"}], "id": "1169100018", "name": "USPS COLLECTION BOX - BLUE BOX", "address": {"city": "FAR ROCKAWAY", "state": "NY", "street": "1011 NEILSON ST", "postcode": "11691"}}},
{"geometry": {"type": "Point", "coordinates": [-73.7625963869, 40.6006018229]}, "type": "Feature", "properties": {"collection_times": [{"days": "Mon-Sat", "time": "9:30am"}, {"days": "Sun", "time": "Closed"}], "id": "1169100019", "name": "USPS COLLECTION BOX - BLUE BOX", "address": {"city": "FAR ROCKAWAY", "state": "NY", "street": "707 B 9 ST", "postcode": "11691"}}},
{"geometry": {"type": "Point", "coordinates": [-73.7443143103, 40.6061536547]}, "type": "Feature", "properties": {"collection_times": [{"days": "Mon-Sat", "time": "9:30am"}, {"days": "Sun", "time": "Closed"}], "id": "1169100020", "name": "USPS COLLECTION BOX - BLUE BOX", "address": {"city": "FAR ROCKAWAY", "state": "NY", "street": "732 EMPIRE AVE", "postcode": "11691"}}},
{"geometry": {"type": "Point", "coordinates": [-73.7625963869, 40.6006018229]}, "type": "Feature", "properties": {"collection_times": [{"days": "Mon-Sat", "time": "9:30am"}, {"days": "Sun", "time": "Closed"}], "id": "1169100022", "name": "USPS COLLECTION BOX - BLUE BOX", "address": {"city": "FAR ROCKAWAY", "state": "NY", "street": "711 SEAGRIT BLVD", "postcode": "11691"}}},
{"geometry": {"type": "Point", "coordinates": [-73.7410319487, 40.6015936519]}, "type": "Feature", "properties": {"collection_times": [{"days": "Mon-Sat", "time": "9:30am"}, {"days": "Sun", "time": "Closed"}], "id": "1169100024", "name": "USPS COLLECTION BOX - BLUE BOX", "address": {"city": "FAR ROCKAWAY", "state": "NY", "street": "605 READS LN", "postcode": "11691"}}},
{"geometry": {"type": "Point", "coordinates": [-73.7535741281, 40.6098486437]}, "type": "Feature", "properties": {"collection_times": [{"days": "Mon-Sat", "time": "9:30am"}, {"days": "Sun", "time": "Closed"}], "id": "1169100026", "name": "USPS COLLECTION BOX - BLUE BOX", "address": {"city": "FAR ROCKAWAY", "state": "NY", "street": "1460 BEACH CHANNEL DR", "postcode": "11691"}}},
{"geometry": {"type": "Point", "coordinates": [-73.7529469841, 40.5982009198]}, "type": "Feature", "properties": {"collection_times": [{"days": "Mon-Sat", "time": "9:30am"}, {"days": "Sun", "time": "Closed"}], "id": "1169100027", "name": "USPS COLLECTION BOX - BLUE BOX", "address": {"city": "FAR ROCKAWAY", "state": "NY", "street": "327 BEACH 19TH ST", "postcode": "11691"}}},
{"geometry": {"type": "Point", "coordinates": [-73.7520739791, 40.603862112]}, "type": "Feature", "properties": {"collection_times": [{"days": "Mon-Fri", "time": "3:00pm"}, {"days": "Sat", "time": "9:30am"}, {"days": "Sun", "time": "Closed"}], "id": "1169100030", "name": "USPS COLLECTION BOX - BLUE BOX", "address": {"city": "FAR ROCKAWAY", "state": "NY", "street": "1912 MOTT AVE", "postcode": "11691"}}},
{"geometry": {"type": "Point", "coordinates": [-73.7625963869, 40.6006018229]}, "type": "Feature", "properties": {"collection_times": [{"days": "Mon-Sat", "time": "9:30am"}, {"days": "Sun", "time": "Closed"}], "id": "1169100031", "name": "USPS COLLECTION BOX - BLUE BOX", "address": {"city": "FAR ROCKAWAY", "state": "NY", "street": "622 B 20 ST", "postcode": "11691"}}},
{"geometry": {"type": "Point", "coordinates": [-73.7625963869, 40.6006018229]}, "type": "Feature", "properties": {"collection_times": [{"days": "Mon-Sat", "time": "9:30am"}, {"days": "Sun", "time": "Closed"}], "id": "1169100032", "name": "USPS COLLECTION BOX - BLUE BOX", "address": {"city": "FAR ROCKAWAY", "state": "NY", "street": "1701 SEAGRIT BLVD", "postcode": "11691"}}},
{"geometry": {"type": "Point", "coordinates": [-73.7399383172, 40.5979789543]}, "type": "Feature", "properties": {"collection_times": [{"days": "Mon-Sat", "time": "9:30am"}, {"days": "Sun", "time": "Closed"}], "id": "1169100033", "name": "USPS COLLECTION BOX - BLUE BOX", "address": {"city": "FAR ROCKAWAY", "state": "NY", "street": "602 SEAGIRT BLVD", "postcode": "11691"}}},
{"geometry": {"type": "Point", "coordinates": [-73.7543385805, 40.5972722715]}, "type": "Feature", "properties": {"collection_times": [{"days": "Mon-Sat", "time": "9:30am"}, {"days": "Sun", "time": "Closed"}], "id": "1169100034", "name": "USPS COLLECTION BOX - BLUE BOX", "address": {"city": "FAR ROCKAWAY", "state": "NY", "street": "299 BEACH 20TH ST", "postcode": "11691"}}},
{"geometry": {"type": "Point", "coordinates": [-73.7708372152, 40.5960455561]}, "type": "Feature", "properties": {"collection_times": [{"days": "Mon-Fri", "time": "9:30am"}, {"days": "Sat", "time": "8:00am"}, {"days": "Sun", "time": "Closed"}], "id": "1169100037", "name": "USPS COLLECTION BOX - BLUE BOX", "address": {"city": "FAR ROCKAWAY", "state": "NY", "street": "3820 BEACH CHANNEL DR", "postcode": "11691"}}},
{"geometry": {"type": "Point", "coordinates": [-73.7603250876, 40.5957973097]}, "type": "Feature", "properties": {"collection_times": [{"days": "Mon-Fri", "time": "9:30am"}, {"days": "Sat", "time": "8:00am"}, {"days": "Sun", "time": "Closed"}], "id": "1169100039", "name": "USPS COLLECTION BOX - BLUE BOX", "address": {"city": "FAR ROCKAWAY", "state": "NY", "street": "224 BEACH 27TH ST", "postcode": "11691"}}},
{"geometry": {"type": "Point", "coordinates": [-73.7612775866, 40.5996504001]}, "type": "Feature", "properties": {"collection_times": [{"days": "Mon-Sat", "time": "9:30am"}, {"days": "Sun", "time": "Closed"}], "id": "1169100040", "name": "USPS COLLECTION BOX - BLUE BOX", "address": {"city": "FAR ROCKAWAY", "state": "NY", "street": "558 BEACH 25TH ST", "postcode": "11691"}}},
{"geometry": {"type": "Point", "coordinates": [-73.763984345, 40.5997364715]}, "type": "Feature", "properties": {"collection_times": [{"days": "Mon-Fri", "time": "9:30am"}, {"days": "Sat", "time": "8:00am"}, {"days": "Sun", "time": "Closed"}], "id": "1169100042", "name": "USPS COLLECTION BOX - BLUE BOX", "address": {"city": "FAR ROCKAWAY", "state": "NY", "street": "2902 BEACH CHANNEL DR", "postcode": "11691"}}},
{"geometry": {"type": "Point", "coordinates": [-73.7647483842, 40.596143984]}, "type": "Feature", "properties": {"collection_times": [{"days": "Mon-Fri", "time": "9:30am"}, {"days": "Sat", "time": "8:00am"}, {"days": "Sun", "time": "Closed"}], "id": "1169100044", "name": "USPS COLLECTION BOX - BLUE BOX", "address": {"city": "FAR ROCKAWAY", "state": "NY", "street": "333 BEACH 32ND ST", "postcode": "11691"}}},
{"geometry": {"type": "Point", "coordinates": [-73.7477036774, 40.5977735368]}, "type": "Feature", "properties": {"collection_times": [{"days": "Mon-Sat", "time": "9:30am"}, {"days": "Sun", "time": "Closed"}], "id": "1169100051", "name": "USPS COLLECTION BOX - BLUE BOX", "address": {"city": "FAR ROCKAWAY", "state": "NY", "street": "1301 NEW HAVEN AVE", "postcode": "11691"}}},
{"geometry": {"type": "Point", "coordinates": [-73.756723155, 40.6036000194]}, "type": "Feature", "properties": {"collection_times": [{"days": "Mon-Sat", "time": "9:30am"}, {"days": "Sun", "time": "Closed"}], "id": "1169100053", "name": "USPS COLLECTION BOX - BLUE BOX", "address": {"city": "FAR ROCKAWAY", "state": "NY", "street": "1065 BEACH CHANNEL DR", "postcode": "11691"}}},
{"geometry": {"type": "Point", "coordinates": [-73.7617435722, 40.6051301491]}, "type": "Feature", "properties": {"collection_times": [{"days": "Mon-Sat", "time": "9:30am"}, {"days": "Sun", "time": "Closed"}], "id": "1169100056", "name": "USPS COLLECTION BOX - BLUE BOX", "address": {"city": "FAR ROCKAWAY", "state": "NY", "street": "2382 HEALY AVE", "postcode": "11691"}}},
{"geometry": {"type": "Point", "coordinates": [-73.7625963869, 40.6006018229]}, "type": "Feature", "properties": {"collection_times": [{"days": "Mon-Sat", "time": "9:30am"}, {"days": "Sun", "time": "Closed"}], "id": "1169100058", "name": "USPS COLLECTION BOX - BLUE BOX", "address": {"city": "FAR ROCKAWAY", "state": "NY", "street": "1915 SEAGRIT BLVD", "postcode": "11691"}}},
{"geometry": {"type": "Point", "coordinates": [-73.7510038465, 40.6033273331]}, "type": "Feature", "properties": {"collection_times": [{"days": "Mon-Fri", "time": "5:00pm"}, {"days": "Sat", "time": "1:00pm"}, {"days": "Sun", "time": "Closed"}], "id": "1169100063", "name": "USPS COLLECTION BOX - BLUE BOX", "address": {"city": "FAR ROCKAWAY", "state": "NY", "street": "1836 MOTT AVE", "postcode": "11691"}}},
{"geometry": {"type": "Point", "coordinates": [-73.7541363018, 40.6008213216]}, "type": "Feature", "properties": {"collection_times": [{"days": "Mon-Fri", "time": "5:00pm"}, {"days": "Sat", "time": "1:00pm"}, {"days": "Sun", "time": "Closed"}], "id": "1169100064", "name": "USPS COLLECTION BOX - EXPRESS", "address": {"city": "FAR ROCKAWAY", "state": "NY", "street": "1836 MOTT AVE", "postcode": "11691"}}},
{"geometry": {"type": "Point", "coordinates": [-73.7510038465, 40.6033273331]}, "type": "Feature", "properties": {"collection_times": [{"days": "Mon-Fri", "time": "5:00pm"}, {"days": "Sat", "time": "1:00pm"}, {"days": "Sun", "time": "Closed"}], "id": "1169100067", "name": "USPS COLLECTION BOX - BLUE BOX", "address": {"city": "FAR ROCKAWAY", "state": "NY", "street": "1836 MOTT AVE", "postcode": "11691"}}},
{"geometry": {"type": "Point", "coordinates": [-73.7845781441, 40.5947015208]}, "type": "Feature", "properties": {"collection_times": [{"days": "Mon-Fri", "time": "9:30am"}, {"days": "Sat", "time": "8:00am"}, {"days": "Sun", "time": "Closed"}], "id": "1169200001", "name": "USPS COLLECTION BOX - BLUE BOX", "address": {"city": "FAR ROCKAWAY", "state": "NY", "street": "363 BEACH 54TH ST", "postcode": "11692"}}},
{"geometry": {"type": "Point", "coordinates": [-73.7954548819, 40.5931441224]}, "type": "Feature", "properties": {"collection_times": [{"days": "Mon-Fri", "time": "9:30am"}, {"days": "Sat", "time": "8:00am"}, {"days": "Sun", "time": "Closed"}], "id": "1169200012", "name": "USPS COLLECTION BOX - BLUE BOX", "address": {"city": "FAR ROCKAWAY", "state": "NY", "street": "231 ROXBURY BLVD", "postcode": "11692"}}},
{"geometry": {"type": "Point", "coordinates": [-73.7954548819, 40.5931441224]}, "type": "Feature", "properties": {"collection_times": [{"days": "Mon-Fri", "time": "1:00pm"}, {"days": "Sat", "time": "8:00am"}, {"days": "Sun", "time": "Closed"}], "id": "1169200014", "name": "USPS COLLECTION BOX - BLUE BOX", "address": {"city": "FAR ROCKAWAY", "state": "NY", "street": "20230 ROCKAWAY POINT BLVD", "postcode": "11692"}}},
{"geometry": {"type": "Point", "coordinates": [-73.7954548819, 40.5931441224]}, "type": "Feature", "properties": {"collection_times": [{"days": "Mon-Fri", "time": "9:30am"}, {"days": "Sat", "time": "8:00am"}, {"days": "Sun", "time": "Closed"}], "id": "1169200015", "name": "USPS COLLECTION BOX - BLUE BOX", "address": {"city": "FAR ROCKAWAY", "state": "NY", "street": "20425 ROCKAWAY POINT BLVD", "postcode": "11692"}}},
{"geometry": {"type": "Point", "coordinates": [-73.7891307929, 40.5933031523]}, "type": "Feature", "properties": {"collection_times": [{"days": "Mon-Fri", "time": "5:00pm"}, {"days": "Sat", "time": "1:00pm"}, {"days": "Sun", "time": "Closed"}], "id": "1169200020", "name": "USPS COLLECTION BOX - BLUE BOX", "address": {"city": "FAR ROCKAWAY", "state": "NY", "street": "329 BEACH 59TH ST", "postcode": "11692"}}},
{"geometry": {"type": "Point", "coordinates": [-73.7954548819, 40.5931441224]}, "type": "Feature", "properties": {"collection_times": [{"days": "Mon-Fri", "time": "9:30am"}, {"days": "Sat", "time": "8:00am"}, {"days": "Sun", "time": "Closed"}], "id": "1169200022", "name": "USPS COLLECTION BOX - BLUE BOX", "address": {"city": "FAR ROCKAWAY", "state": "NY", "street": "33 BEACH 209 ST", "postcode": "11692"}}},
{"geometry": {"type": "Point", "coordinates": [-73.7891307929, 40.5933031523]}, "type": "Feature", "properties": {"collection_times": [{"days": "Mon-Fri", "time": "4:00pm"}, {"days": "Sat", "time": "1:00pm"}, {"days": "Sun", "time": "Closed"}], "id": "1169200035", "name": "USPS COLLECTION BOX - PO LOBBY", "address": {"city": "FAR ROCKAWAY", "state": "NY", "street": "329 BEACH 59TH ST", "postcode": "11692"}}},
{"geometry": {"type": "Point", "coordinates": [-73.8112692361, 40.5875129675]}, "type": "Feature", "properties": {"collection_times": [{"days": "Mon-Fri", "time": "9:30am"}, {"days": "Sat", "time": "8:00am"}, {"days": "Sun", "time": "Closed"}], "id": "1169300005", "name": "USPS COLLECTION BOX - BLUE BOX", "address": {"city": "ROCKAWAY PARK", "state": "NY", "street": "8601 ROCKAWAY BEACH BLVD", "postcode": "11693"}}},
{"geometry": {"type": "Point", "coordinates": [-73.8195595872, 40.5845297528]}, "type": "Feature", "properties": {"collection_times": [{"days": "Mon-Fri", "time": "9:30am"}, {"days": "Sat", "time": "8:00am"}, {"days": "Sun", "time": "Closed"}], "id": "1169300007", "name": "USPS COLLECTION BOX - BLUE BOX", "address": {"city": "ROCKAWAY PARK", "state": "NY", "street": "9801 ROCKAWAY BEACH BLVD", "postcode": "11693"}}},
{"geometry": {"type": "Point", "coordinates": [-73.8251646335, 40.5833884533]}, "type": "Feature", "properties": {"collection_times": [{"days": "Mon-Fri", "time": "9:30am"}, {"days": "Sat", "time": "8:00am"}, {"days": "Sun", "time": "Closed"}], "id": "1169300008", "name": "USPS COLLECTION BOX - BLUE BOX", "address": {"city": "ROCKAWAY PARK", "state": "NY", "street": "10408 ROCKAWAY BEACH BLVD", "postcode": "11693"}}},
{"geometry": {"type": "Point", "coordinates": [-73.8193053506, 40.6076758467]}, "type": "Feature", "properties": {"collection_times": [{"days": "Mon-Fri", "time": "9:30am"}, {"days": "Sat", "time": "8:00am"}, {"days": "Sun", "time": "Closed"}], "id": "1169300014", "name": "USPS COLLECTION BOX - BLUE BOX", "address": {"city": "ROCKAWAY PARK", "state": "NY", "street": "728 CROSS BAY BLVD", "postcode": "11693"}}},
{"geometry": {"type": "Point", "coordinates": [-73.8195839051, 40.6070566096]}, "type": "Feature", "properties": {"collection_times": [{"days": "Mon-Fri", "time": "9:30am"}, {"days": "Sat", "time": "8:00am"}, {"days": "Sun", "time": "Closed"}], "id": "1169300015", "name": "USPS COLLECTION BOX - BLUE BOX", "address": {"city": "ROCKAWAY PARK", "state": "NY", "street": "811 CROSS BAY BLVD", "postcode": "11693"}}},
{"geometry": {"type": "Point", "coordinates": [-73.8201113557, 40.6036280509]}, "type": "Feature", "properties": {"collection_times": [{"days": "Mon-Fri", "time": "9:30am"}, {"days": "Sat", "time": "8:00am"}, {"days": "Sun", "time": "Closed"}], "id": "1169300016", "name": "USPS COLLECTION BOX - BLUE BOX", "address": {"city": "ROCKAWAY PARK", "state": "NY", "street": "1317 CROSS BAY BLVD", "postcode": "11693"}}},
{"geometry": {"type": "Point", "coordinates": [-73.8143516905, 40.5869370792]}, "type": "Feature", "properties": {"collection_times": [{"days": "Mon-Fri", "time": "4:00pm"}, {"days": "Sat", "time": "1:00pm"}, {"days": "Sun", "time": "Closed"}], "id": "1169300019", "name": "USPS COLLECTION BOX - BLUE BOX", "address": {"city": "ROCKAWAY PARK", "state": "NY", "street": "9014 ROCKAWAY BEACH BLVD", "postcode": "11693"}}},
{"geometry": {"type": "Point", "coordinates": [-73.8172798111, 40.5856048397]}, "type": "Feature", "properties": {"collection_times": [{"days": "Mon-Fri", "time": "9:30am"}, {"days": "Sat", "time": "8:00am"}, {"days": "Sun", "time": "Closed"}], "id": "1169300029", "name": "USPS COLLECTION BOX - BLUE BOX", "address": {"city": "ROCKAWAY PARK", "state": "NY", "street": "9501 ROCKAWAY BEACH BLVD", "postcode": "11693"}}},
{"geometry": {"type": "Point", "coordinates": [-73.8143516905, 40.5869370792]}, "type": "Feature", "properties": {"collection_times": [{"days": "Mon-Fri", "time": "5:00pm"}, {"days": "Sat", "time": "1:00pm"}, {"days": "Sun", "time": "Closed"}], "id": "1169300030", "name": "USPS COLLECTION BOX - PO LOBBY", "address": {"city": "ROCKAWAY PARK", "state": "NY", "street": "9014 ROCKAWAY BEACH BLVD", "postcode": "11693"}}},
{"geometry": {"type": "Point", "coordinates": [-73.8637866686, 40.5725849649]}, "type": "Feature", "properties": {"collection_times": [{"days": "Mon-Fri", "time": "9:30am"}, {"days": "Sat", "time": "8:00am"}, {"days": "Sun", "time": "Closed"}], "id": "1169400002", "name": "USPS COLLECTION BOX - BLUE BOX", "address": {"city": "FAR ROCKAWAY", "state": "NY", "street": "350 BEACH 147TH ST", "postcode": "11694"}}},
{"geometry": {"type": "Point", "coordinates": [-73.8589852205, 40.5744268988]}, "type": "Feature", "properties": {"collection_times": [{"days": "Mon-Fri", "time": "9:30am"}, {"days": "Sat", "time": "8:00am"}, {"days": "Sun", "time": "Closed"}], "id": "1169400005", "name": "USPS COLLECTION BOX - BLUE BOX", "address": {"city": "FAR ROCKAWAY", "state": "NY", "street": "14105 NEWPORT AVE", "postcode": "11694"}}},
{"geometry": {"type": "Point", "coordinates": [-73.8531851281, 40.576546038]}, "type": "Feature", "properties": {"collection_times": [{"days": "Mon-Fri", "time": "9:30am"}, {"days": "Sat", "time": "8:00am"}, {"days": "Sun", "time": "Closed"}], "id": "1169400007", "name": "USPS COLLECTION BOX - BLUE BOX", "address": {"city": "FAR ROCKAWAY", "state": "NY", "street": "402 BEACH 134TH ST", "postcode": "11694"}}},
{"geometry": {"type": "Point", "coordinates": [-73.7524857423, 40.6040134008]}, "type": "Feature", "properties": {"collection_times": [{"days": "Mon-Fri", "time": "9:30am"}, {"days": "Sat", "time": "8:00am"}, {"days": "Sun", "time": "Closed"}], "id": "1169400009", "name": "USPS COLLECTION BOX - BLUE BOX", "address": {"city": "FAR ROCKAWAY", "state": "NY", "street": "13016 ROCKAWAY BEACH BLVD", "postcode": "11694"}}},
{"geometry": {"type": "Point", "coordinates": [-73.8507774087, 40.5765692444]}, "type": "Feature", "properties": {"collection_times": [{"days": "Mon-Fri", "time": "9:30am"}, {"days": "Sat", "time": "8:00am"}, {"days": "Sun", "time": "Closed"}], "id": "1169400010", "name": "USPS COLLECTION BOX - BLUE BOX", "address": {"city": "FAR ROCKAWAY", "state": "NY", "street": "463 B 129 ST", "postcode": "11694"}}},
{"geometry": {"type": "Point", "coordinates": [-73.8507774087, 40.5765692444]}, "type": "Feature", "properties": {"collection_times": [{"days": "Mon-Fri", "time": "9:30am"}, {"days": "Sat", "time": "8:00am"}, {"days": "Sun", "time": "Closed"}], "id": "1169400012", "name": "USPS COLLECTION BOX - BLUE BOX", "address": {"city": "FAR ROCKAWAY", "state": "NY", "street": "408 B 125 ST", "postcode": "11694"}}},
{"geometry": {"type": "Point", "coordinates": [-73.8435910298, 40.5776641444]}, "type": "Feature", "properties": {"collection_times": [{"days": "Mon-Fri", "time": "9:30am"}, {"days": "Sat", "time": "8:00am"}, {"days": "Sun", "time": "Closed"}], "id": "1169400013", "name": "USPS COLLECTION BOX - BLUE BOX", "address": {"city": "FAR ROCKAWAY", "state": "NY", "street": "12311 ROCKAWAY BEACH BLVD", "postcode": "11694"}}},
{"geometry": {"type": "Point", "coordinates": [-73.8417324343, 40.5803394685]}, "type": "Feature", "properties": {"collection_times": [{"days": "Mon-Fri", "time": "9:30am"}, {"days": "Sat", "time": "8:00am"}, {"days": "Sun", "time": "Closed"}], "id": "1169400014", "name": "USPS COLLECTION BOX - BLUE BOX", "address": {"city": "FAR ROCKAWAY", "state": "NY", "street": "12018 NEWPORT AVE", "postcode": "11694"}}},
{"geometry": {"type": "Point", "coordinates": [-73.837265608, 40.5802128923]}, "type": "Feature", "properties": {"collection_times": [{"days": "Mon-Fri", "time": "1:00pm"}, {"days": "Sat", "time": "8:00am"}, {"days": "Sun", "time": "Closed"}], "id": "1169400016", "name": "USPS COLLECTION BOX - BLUE BOX", "address": {"city": "FAR ROCKAWAY", "state": "NY", "street": "234 BEACH 116TH ST", "postcode": "11694"}}},
{"geometry": {"type": "Point", "coordinates": [-73.8507774087, 40.5765692444]}, "type": "Feature", "properties": {"collection_times": [{"days": "Mon-Fri", "time": "9:30am"}, {"days": "Sat", "time": "8:00am"}, {"days": "Sun", "time": "Closed"}], "id": "1169400018", "name": "USPS COLLECTION BOX - BLUE BOX", "address": {"city": "FAR ROCKAWAY", "state": "NY", "street": "13401 CRANSTON AVE", "postcode": "11694"}}},
{"geometry": {"type": "Point", "coordinates": [-75.6107001075, 42.9370820155]}, "type": "Feature", "properties": {"collection_times": [{"days": "Mon-Fri", "time": "1:00pm"}, {"days": "Sat", "time": "8:00am"}, {"days": "Sun", "time": "Closed"}], "id": "1169400020", "name": "USPS COLLECTION BOX - BLUE BOX", "address": {"city": "FAR ROCKAWAY", "state": "NY", "street": "134 STEELE RD", "postcode": "11694"}}},
{"geometry": {"type": "Point", "coordinates": [-73.8482761208, 40.579883725]}, "type": "Feature", "properties": {"collection_times": [{"days": "Mon-Fri", "time": "9:30am"}, {"days": "Sat", "time": "8:00am"}, {"days": "Sun", "time": "Closed"}], "id": "1169400024", "name": "USPS COLLECTION BOX - BLUE BOX", "address": {"city": "FAR ROCKAWAY", "state": "NY", "street": "463 BEACH 127TH ST", "postcode": "11694"}}},
{"geometry": {"type": "Point", "coordinates": [-73.7524857423, 40.6040134008]}, "type": "Feature", "properties": {"collection_times": [{"days": "Mon-Fri", "time": "9:30am"}, {"days": "Sat", "time": "8:00am"}, {"days": "Sun", "time": "Closed"}], "id": "1169400067", "name": "USPS COLLECTION BOX - BLUE BOX", "address": {"city": "FAR ROCKAWAY", "state": "NY", "street": "13115 CRONSTON AVE", "postcode": "11694"}}},
{"geometry": {"type": "Point", "coordinates": [-73.8356636831, 40.5824899658]}, "type": "Feature", "properties": {"collection_times": [{"days": "Mon-Fri", "time": "5:00pm"}, {"days": "Sat", "time": "1:00pm"}, {"days": "Sun", "time": "Closed"}], "id": "1169400068", "name": "USPS COLLECTION BOX - BLUE BOX", "address": {"city": "FAR ROCKAWAY", "state": "NY", "street": "11325 BEACH CHANNEL DR", "postcode": "11694"}}},
{"geometry": {"type": "Point", "coordinates": [-73.835663683, 40.582489966]}, "type": "Feature", "properties": {"collection_times": [{"days": "Mon-Fri", "time": "5:00pm"}, {"days": "Sat", "time": "12:00pm"}, {"days": "Sun", "time": "Closed"}], "id": "1169400069", "name": "USPS COLLECTION BOX - PO LOBBY", "address": {"city": "FAR ROCKAWAY", "state": "NY", "street": "11325 BEACH CHANNEL DR", "postcode": "11694"}}}
]}
