{"type": "FeatureCollection", "features": [
{"geometry": {"type": "Point", "coordinates": [-73.5209835105, 40.7745050904]}, "type": "Feature", "properties": {"collection_times": [{"days": "Mon-Fri", "time": "5:00pm"}, {"days": "Sat", "time": "1:00pm"}, {"days": "Sun", "time": "Closed"}], "id": "1180100002", "name": "USPS COLLECTION BOX - BLUE BOX", "address": {"city": "HICKSVILLE", "state": "NY", "street": "60 BETHPAGE RD", "postcode": "11801"}}},
{"geometry": {"type": "Point", "coordinates": [-73.5139174366, 40.7597483986]}, "type": "Feature", "properties": {"collection_times": [{"days": "Mon-Sat", "time": "10:30am"}, {"days": "Sun", "time": "Closed"}], "id": "1180100009", "name": "USPS COLLECTION BOX - BLUE BOX", "address": {"city": "HICKSVILLE", "state": "NY", "street": "393 S BROADWAY", "postcode": "11801"}}},
{"geometry": {"type": "Point", "coordinates": [-73.5267289385, 40.7710902991]}, "type": "Feature", "properties": {"collection_times": [{"days": "Mon-Fri", "time": "5:00pm"}, {"days": "Sat", "time": "1:00pm"}, {"days": "Sun", "time": "Closed"}], "id": "1180100011", "name": "USPS COLLECTION BOX - BLUE BOX", "address": {"city": "HICKSVILLE", "state": "NY", "street": "87 N BROADWAY", "postcode": "11801"}}},
{"geometry": {"type": "Point", "coordinates": [-73.523630967, 40.7667761377]}, "type": "Feature", "properties": {"collection_times": [{"days": "Mon-Fri", "time": "5:00pm"}, {"days": "Sat", "time": "1:00pm"}, {"days": "Sun", "time": "Closed"}], "id": "1180100012", "name": "USPS COLLECTION BOX - BLUE BOX", "address": {"city": "HICKSVILLE", "state": "NY", "street": "9 W MARIE ST", "postcode": "11801"}}},
{"geometry": {"type": "Point", "coordinates": [-73.509935653, 40.7563021291]}, "type": "Feature", "properties": {"collection_times": [{"days": "Mon-Sat", "time": "10:00am"}, {"days": "Sun", "time": "Closed"}], "id": "1180100014", "name": "USPS COLLECTION BOX - BLUE BOX", "address": {"city": "HICKSVILLE", "state": "NY", "street": "501 S BROADWAY", "postcode": "11801"}}},
{"geometry": {"type": "Point", "coordinates": [-73.5294960558, 40.7741467183]}, "type": "Feature", "properties": {"collection_times": [{"days": "Mon-Fri", "time": "5:00pm"}, {"days": "Sat", "time": "1:00pm"}, {"days": "Sun", "time": "Closed"}], "id": "1180100015", "name": "USPS COLLECTION BOX - BLUE BOX", "address": {"city": "HICKSVILLE", "state": "NY", "street": "1100 BROADWAY MALL", "postcode": "11801"}}},
{"geometry": {"type": "Point", "coordinates": [-73.5294189872, 40.7764006019]}, "type": "Feature", "properties": {"collection_times": [{"days": "Mon-Sat", "time": "12:00pm"}, {"days": "Sun", "time": "Closed"}], "id": "1180100016", "name": "USPS COLLECTION BOX - BLUE BOX", "address": {"city": "HICKSVILLE", "state": "NY", "street": "960 S BROADWAY", "postcode": "11801"}}},
{"geometry": {"type": "Point", "coordinates": [-73.5265467628, 40.7703036314]}, "type": "Feature", "properties": {"collection_times": [{"days": "Mon-Fri", "time": "5:00pm"}, {"days": "Sat", "time": "1:00pm"}, {"days": "Sun", "time": "Closed"}], "id": "1180100018", "name": "USPS COLLECTION BOX - BLUE BOX", "address": {"city": "HICKSVILLE", "state": "NY", "street": "76 N BROADWAY", "postcode": "11801"}}},
{"geometry": {"type": "Point", "coordinates": [-73.5265467628, 40.7703036314]}, "type": "Feature", "properties": {"collection_times": [{"days": "Mon-Fri", "time": "5:00pm"}, {"days": "Sat", "time": "1:00pm"}, {"days": "Sun", "time": "Closed"}], "id": "1180100019", "name": "USPS COLLECTION BOX - BLUE BOX", "address": {"city": "HICKSVILLE", "state": "NY", "street": "76 N BROADWAY", "postcode": "11801"}}},
{"geometry": {"type": "Point", "coordinates": [-73.515030357, 40.760347425]}, "type": "Feature", "properties": {"collection_times": [{"days": "Mon-Fri", "time": "5:00pm"}, {"days": "Sat", "time": "1:00pm"}, {"days": "Sun", "time": "Closed"}], "id": "1180100022", "name": "USPS COLLECTION BOX - BLUE BOX", "address": {"city": "HICKSVILLE", "state": "NY", "street": "350 S BROADWAY", "postcode": "11801"}}},
{"geometry": {"type": "Point", "coordinates": [-73.5237922628, 40.7624604931]}, "type": "Feature", "properties": {"collection_times": [{"days": "Mon-Fri", "time": "5:00pm"}, {"days": "Sat", "time": "1:00pm"}, {"days": "Sun", "time": "Closed"}], "id": "1180100027", "name": "USPS COLLECTION BOX - BLUE BOX", "address": {"city": "HICKSVILLE", "state": "NY", "street": "99 RAILROAD STATION PLZ", "postcode": "11801"}}},
{"geometry": {"type": "Point", "coordinates": [-73.503796096, 40.7514744736]}, "type": "Feature", "properties": {"collection_times": [{"days": "Mon-Sat", "time": "10:00am"}, {"days": "Sun", "time": "Closed"}], "id": "1180100028", "name": "USPS COLLECTION BOX - BLUE BOX", "address": {"city": "HICKSVILLE", "state": "NY", "street": "50 HAZEL ST", "postcode": "11801"}}},
{"geometry": {"type": "Point", "coordinates": [-73.5185963717, 40.7494938656]}, "type": "Feature", "properties": {"collection_times": [{"days": "Mon-Fri", "time": "5:00pm"}, {"days": "Sat", "time": "1:00pm"}, {"days": "Sun", "time": "Closed"}], "id": "1180100030", "name": "USPS COLLECTION BOX - BLUE BOX", "address": {"city": "HICKSVILLE", "state": "NY", "street": "424 JERUSALEM AVE", "postcode": "11801"}}},
{"geometry": {"type": "Point", "coordinates": [-73.5244600232, 40.7647247969]}, "type": "Feature", "properties": {"collection_times": [{"days": "Mon-Fri", "time": "5:00pm"}, {"days": "Sat", "time": "1:00pm"}, {"days": "Sun", "time": "Closed"}], "id": "1180100033", "name": "USPS COLLECTION BOX - BLUE BOX", "address": {"city": "HICKSVILLE", "state": "NY", "street": "90 JERUSALEM AVE", "postcode": "11801"}}},
{"geometry": {"type": "Point", "coordinates": [-73.5237922628, 40.7624604931]}, "type": "Feature", "properties": {"collection_times": [{"days": "Mon-Fri", "time": "5:00pm"}, {"days": "Sat", "time": "1:00pm"}, {"days": "Sun", "time": "Closed"}], "id": "1180100038", "name": "USPS COLLECTION BOX - BLUE BOX", "address": {"city": "HICKSVILLE", "state": "NY", "street": "000 HICKSVILLE STATION LIRR", "postcode": "11801"}}},
{"geometry": {"type": "Point", "coordinates": [-73.522847314, 40.7640414532]}, "type": "Feature", "properties": {"collection_times": [{"days": "Mon-Fri", "time": "5:00pm"}, {"days": "Sat", "time": "1:00pm"}, {"days": "Sun", "time": "Closed"}], "id": "1180100043", "name": "USPS COLLECTION BOX - EXPRESS", "address": {"city": "HICKSVILLE", "state": "NY", "street": "102 NEW SOUTH RD", "postcode": "11801"}}},
{"geometry": {"type": "Point", "coordinates": [-73.5166336806, 40.7837732696]}, "type": "Feature", "properties": {"collection_times": [{"days": "Mon-Fri", "time": "5:00pm"}, {"days": "Sat", "time": "1:00pm"}, {"days": "Sun", "time": "Closed"}], "id": "1180100044", "name": "USPS COLLECTION BOX - BLUE BOX", "address": {"city": "HICKSVILLE", "state": "NY", "street": "180 MILLER PL", "postcode": "11801"}}},
{"geometry": {"type": "Point", "coordinates": [-73.5299540293, 40.7612948747]}, "type": "Feature", "properties": {"collection_times": [{"days": "Mon-Sat", "time": "11:30am"}, {"days": "Sun", "time": "Closed"}], "id": "1180100048", "name": "USPS COLLECTION BOX - BLUE BOX", "address": {"city": "HICKSVILLE", "state": "NY", "street": "234 W OLD COUNTRY RD", "postcode": "11801"}}},
{"geometry": {"type": "Point", "coordinates": [-73.5290304872, 40.7762976134]}, "type": "Feature", "properties": {"collection_times": [{"days": "Mon-Sat", "time": "10:00am"}, {"days": "Sun", "time": "Closed"}], "id": "1180100057", "name": "USPS COLLECTION BOX - BLUE BOX", "address": {"city": "HICKSVILLE", "state": "NY", "street": "195 N BROADWAY", "postcode": "11801"}}},
{"geometry": {"type": "Point", "coordinates": [-73.5406134087, 40.7481722946]}, "type": "Feature", "properties": {"collection_times": [{"days": "Mon-Fri", "time": "5:00pm"}, {"days": "Sat", "time": "1:00pm"}, {"days": "Sun", "time": "Closed"}], "id": "1180100058", "name": "USPS COLLECTION BOX - BLUE BOX", "address": {"city": "HICKSVILLE", "state": "NY", "street": "100 STEWART AVE", "postcode": "11801"}}},
{"geometry": {"type": "Point", "coordinates": [-73.5031169158, 40.7835071382]}, "type": "Feature", "properties": {"collection_times": [{"days": "Mon-Fri", "time": "5:00pm"}, {"days": "Sat", "time": "1:00pm"}, {"days": "Sun", "time": "Closed"}], "id": "1180100059", "name": "USPS COLLECTION BOX - BLUE BOX", "address": {"city": "HICKSVILLE", "state": "NY", "street": "400 S OYSTER BAY RD", "postcode": "11801"}}},
{"geometry": {"type": "Point", "coordinates": [-73.5033761796, 40.7856158137]}, "type": "Feature", "properties": {"collection_times": [{"days": "Mon-Fri", "time": "5:00pm"}, {"days": "Sat", "time": "1:00pm"}, {"days": "Sun", "time": "Closed"}], "id": "1180100061", "name": "USPS COLLECTION BOX - BLUE BOX", "address": {"city": "HICKSVILLE", "state": "NY", "street": "378 S OYSTER BAY RD", "postcode": "11801"}}},
{"geometry": {"type": "Point", "coordinates": [-73.5028151713, 40.7807709981]}, "type": "Feature", "properties": {"collection_times": [{"days": "Mon-Fri", "time": "5:00pm"}, {"days": "Sat", "time": "1:00pm"}, {"days": "Sun", "time": "Closed"}], "id": "1180100062", "name": "USPS COLLECTION BOX - BLUE BOX", "address": {"city": "HICKSVILLE", "state": "NY", "street": "442 S OYSTER BAY RD", "postcode": "11801"}}},
{"geometry": {"type": "Point", "coordinates": [-73.5332718845, 40.7676869262]}, "type": "Feature", "properties": {"collection_times": [{"days": "Mon-Fri", "time": "6:00pm"}, {"days": "Sat", "time": "5:00pm"}, {"days": "Sun", "time": "Closed"}], "id": "1180100065", "name": "USPS COLLECTION BOX - BLUE BOX", "address": {"city": "HICKSVILLE", "state": "NY", "street": "185 W JOHN ST", "postcode": "11801"}}},
{"geometry": {"type": "Point", "coordinates": [-73.5332718845, 40.7676869262]}, "type": "Feature", "properties": {"collection_times": [{"days": "Mon-Fri", "time": "6:00pm"}, {"days": "Sat", "time": "5:00pm"}, {"days": "Sun", "time": "Closed"}], "id": "1180100066", "name": "USPS COLLECTION BOX - BLUE BOX", "address": {"city": "HICKSVILLE", "state": "NY", "street": "185 W JOHN ST", "postcode": "11801"}}},
{"geometry": {"type": "Point", "coordinates": [-73.5409930795, 40.7664893259]}, "type": "Feature", "properties": {"collection_times": [{"days": "Mon-Sat", "time": "1:00pm"}, {"days": "Sun", "time": "Closed"}], "id": "1180100067", "name": "USPS COLLECTION BOX - BLUE BOX", "address": {"city": "HICKSVILLE", "state": "NY", "street": "2 KUHL AVE", "postcode": "11801"}}},
{"geometry": {"type": "Point", "coordinates": [-73.5237922628, 40.7624604931]}, "type": "Feature", "properties": {"collection_times": [{"days": "Mon-Sat", "time": "1:00pm"}, {"days": "Sun", "time": "Closed"}], "id": "1180100068", "name": "USPS COLLECTION BOX - BLUE BOX", "address": {"city": "HICKSVILLE", "state": "NY", "street": "195 CENTER ST", "postcode": "11801"}}},
{"geometry": {"type": "Point", "coordinates": [-73.5349853873, 40.7598624269]}, "type": "Feature", "properties": {"collection_times": [{"days": "Mon-Fri", "time": "5:00pm"}, {"days": "Sat", "time": "1:00pm"}, {"days": "Sun", "time": "Closed"}], "id": "1180100073", "name": "USPS COLLECTION BOX - BLUE BOX", "address": {"city": "HICKSVILLE", "state": "NY", "street": "303 W OLD COUNTRY RD", "postcode": "11801"}}},
{"geometry": {"type": "Point", "coordinates": [-73.5199041378, 40.7705430069]}, "type": "Feature", "properties": {"collection_times": [{"days": "Mon-Fri", "time": "5:00pm"}, {"days": "Sat", "time": "1:00pm"}, {"days": "Sun", "time": "Closed"}], "id": "1180100075", "name": "USPS COLLECTION BOX - BLUE BOX", "address": {"city": "HICKSVILLE", "state": "NY", "street": "27 WOODBURY RD", "postcode": "11801"}}},
{"geometry": {"type": "Point", "coordinates": [-73.5403187711, 40.7626002026]}, "type": "Feature", "properties": {"collection_times": [{"days": "Mon-Fri", "time": "5:00pm"}, {"days": "Sat", "time": "1:00pm"}, {"days": "Sun", "time": "Closed"}], "id": "1180100077", "name": "USPS COLLECTION BOX - BLUE BOX", "address": {"city": "HICKSVILLE", "state": "NY", "street": "270 DUFFY AVE", "postcode": "11801"}}},
{"geometry": {"type": "Point", "coordinates": [-73.5254030032, 40.766991097]}, "type": "Feature", "properties": {"collection_times": [{"days": "Mon-Fri", "time": "5:00pm"}, {"days": "Sat-Sun", "time": "Closed"}], "id": "1180100082", "name": "USPS COLLECTION BOX - BLUE BOX", "address": {"city": "HICKSVILLE", "state": "NY", "street": "20 JERUSALEM AVE", "postcode": "11801"}}},
{"geometry": {"type": "Point", "coordinates": [-73.5332718845, 40.7676869262]}, "type": "Feature", "properties": {"collection_times": [{"days": "Mon-Fri", "time": "6:00pm"}, {"days": "Sat", "time": "5:00pm"}, {"days": "Sun", "time": "Closed"}], "id": "1180100085", "name": "USPS COLLECTION BOX - BLUE BOX", "address": {"city": "HICKSVILLE", "state": "NY", "street": "185 W JOHN ST", "postcode": "11801"}}},
{"geometry": {"type": "Point", "coordinates": [-73.5332718845, 40.7676869262]}, "type": "Feature", "properties": {"collection_times": [{"days": "Mon-Fri", "time": "6:00pm"}, {"days": "Sat", "time": "5:00pm"}, {"days": "Sun", "time": "Closed"}], "id": "1180100086", "name": "USPS COLLECTION BOX - BLUE BOX", "address": {"city": "HICKSVILLE", "state": "NY", "street": "185 W JOHN ST", "postcode": "11801"}}},
{"geometry": {"type": "Point", "coordinates": [-73.5072077898, 40.7656206836]}, "type": "Feature", "properties": {"collection_times": [{"days": "Mon-Fri", "time": "5:00pm"}, {"days": "Sat", "time": "1:00pm"}, {"days": "Sun", "time": "Closed"}], "id": "1180100087", "name": "USPS COLLECTION BOX - BLUE BOX", "address": {"city": "HICKSVILLE", "state": "NY", "street": "102 NEW SOUTH RD", "postcode": "11801"}}},
{"geometry": {"type": "Point", "coordinates": [-73.5052630667, 40.7500030782]}, "type": "Feature", "properties": {"collection_times": [{"days": "Mon-Fri", "time": "5:00pm"}, {"days": "Sat", "time": "1:00pm"}, {"days": "Sun", "time": "Closed"}], "id": "1180100090", "name": "USPS COLLECTION BOX - BLUE BOX", "address": {"city": "HICKSVILLE", "state": "NY", "street": "33 BLOOMINGDALE RD", "postcode": "11801"}}},
{"geometry": {"type": "Point", "coordinates": [-73.5256625952, 40.7766819204]}, "type": "Feature", "properties": {"collection_times": [{"days": "Mon-Fri", "time": "5:00pm"}, {"days": "Sat", "time": "1:00pm"}, {"days": "Sun", "time": "Closed"}], "id": "1180100093", "name": "USPS COLLECTION BOX - BLUE BOX", "address": {"city": "HICKSVILLE", "state": "NY", "street": "120 BETHPAGE RD", "postcode": "11801"}}},
{"geometry": {"type": "Point", "coordinates": [-73.533073938, 40.767713964]}, "type": "Feature", "properties": {"collection_times": [{"days": "Mon-Fri", "time": "6:00pm"}, {"days": "Sat", "time": "5:00pm"}, {"days": "Sun", "time": "Closed"}], "id": "1180100094", "name": "USPS COLLECTION BOX - BLUE BOX", "address": {"city": "HICKSVILLE", "state": "NY", "street": "185 W JOHN ST", "postcode": "11801"}}},
{"geometry": {"type": "Point", "coordinates": [-73.5474886854, 40.757082882]}, "type": "Feature", "properties": {"collection_times": [{"days": "Mon-Fri", "time": "5:00pm"}, {"days": "Sat", "time": "1:00pm"}, {"days": "Sun", "time": "Closed"}], "id": "1180100096", "name": "USPS COLLECTION BOX - BLUE BOX", "address": {"city": "HICKSVILLE", "state": "NY", "street": "550 W OLD COUNTRY RD", "postcode": "11801"}}},
{"geometry": {"type": "Point", "coordinates": [-73.5273559067, 40.7641025605]}, "type": "Feature", "properties": {"collection_times": [{"days": "Mon-Fri", "time": "5:00pm"}, {"days": "Sat", "time": "1:00pm"}, {"days": "Sun", "time": "Closed"}], "id": "1180100098", "name": "USPS COLLECTION BOX - BLUE BOX", "address": {"city": "HICKSVILLE", "state": "NY", "street": "100 NEWBRIDGE RD", "postcode": "11801"}}},
{"geometry": {"type": "Point", "coordinates": [-73.5232672961, 40.7672206296]}, "type": "Feature", "properties": {"collection_times": [{"days": "Mon-Fri", "time": "5:00pm"}, {"days": "Sat", "time": "1:00pm"}, {"days": "Sun", "time": "Closed"}], "id": "1180100101", "name": "USPS COLLECTION BOX - BLUE BOX", "address": {"city": "HICKSVILLE", "state": "NY", "street": "89 BROADWAY", "postcode": "11801"}}},
{"geometry": {"type": "Point", "coordinates": [-73.5230168132, 40.7667523886]}, "type": "Feature", "properties": {"collection_times": [{"days": "Mon-Fri", "time": "5:00pm"}, {"days": "Sat", "time": "1:00pm"}, {"days": "Sun", "time": "Closed"}], "id": "1180100103", "name": "USPS COLLECTION BOX - BLUE BOX", "address": {"city": "HICKSVILLE", "state": "NY", "street": "183 BROADWAY", "postcode": "11801"}}},
{"geometry": {"type": "Point", "coordinates": [-73.5274467701, 40.7682203798]}, "type": "Feature", "properties": {"collection_times": [{"days": "Mon-Fri", "time": "5:00pm"}, {"days": "Sat", "time": "1:00pm"}, {"days": "Sun", "time": "Closed"}], "id": "1180100104", "name": "USPS COLLECTION BOX - BLUE BOX", "address": {"city": "HICKSVILLE", "state": "NY", "street": "25 W BARCLAY ST", "postcode": "11801"}}},
{"geometry": {"type": "Point", "coordinates": [-73.5274467701, 40.7682203798]}, "type": "Feature", "properties": {"collection_times": [{"days": "Mon-Fri", "time": "5:00pm"}, {"days": "Sat", "time": "1:00pm"}, {"days": "Sun", "time": "Closed"}], "id": "1180100105", "name": "USPS COLLECTION BOX - BLUE BOX", "address": {"city": "HICKSVILLE", "state": "NY", "street": "25 W BARCLAY ST", "postcode": "11801"}}},
{"geometry": {"type": "Point", "coordinates": [-73.5090087923, 40.7671124474]}, "type": "Feature", "properties": {"collection_times": [{"days": "Mon-Sat", "time": "11:00am"}, {"days": "Sun", "time": "Closed"}], "id": "1180100106", "name": "USPS COLLECTION BOX - BLUE BOX", "address": {"city": "HICKSVILLE", "state": "NY", "street": "175 E OLD COUNTRY RD", "postcode": "11801"}}},
{"geometry": {"type": "Point", "coordinates": [-73.533074255, 40.767713195]}, "type": "Feature", "properties": {"collection_times": [{"days": "Mon-Sat", "time": "5:00pm"}, {"days": "Sun", "time": "Closed"}], "id": "1180100130", "name": "USPS COLLECTION BOX - APC", "address": {"city": "HICKSVILLE", "state": "NY", "street": "185 W JOHN ST", "postcode": "11801"}}},
{"geometry": {"type": "Point", "coordinates": [-73.5332718845, 40.7676869262]}, "type": "Feature", "properties": {"collection_times": [{"days": "Mon-Sat", "time": "5:00pm"}, {"days": "Sun", "time": "Closed"}], "id": "1180100133", "name": "USPS COLLECTION BOX - PO LOBBY", "address": {"city": "HICKSVILLE", "state": "NY", "street": "185 W JOHN ST", "postcode": "11801"}}},
{"geometry": {"type": "Point", "coordinates": [-73.5330739384, 40.7677139639]}, "type": "Feature", "properties": {"collection_times": [{"days": "Mon-Sat", "time": "5:00pm"}, {"days": "Sun", "time": "Closed"}], "id": "1180100134", "name": "USPS COLLECTION BOX - APC", "address": {"city": "HICKSVILLE", "state": "NY", "street": "185 W JOHN ST", "postcode": "11801"}}},
{"geometry": {"type": "Point", "coordinates": [-73.4885666823, 40.7714286254]}, "type": "Feature", "properties": {"collection_times": [{"days": "Mon-Sat", "time": "1:00pm"}, {"days": "Sun", "time": "Closed"}], "id": "1180300001", "name": "USPS COLLECTION BOX - BLUE BOX", "address": {"city": "PLAINVIEW", "state": "NY", "street": "80 BARNUM AVE", "postcode": "11803"}}},
{"geometry": {"type": "Point", "coordinates": [-73.481136517, 40.7916524919]}, "type": "Feature", "properties": {"collection_times": [{"days": "Mon-Sat", "time": "1:00pm"}, {"days": "Sun", "time": "Closed"}], "id": "1180300002", "name": "USPS COLLECTION BOX - BLUE BOX", "address": {"city": "PLAINVIEW", "state": "NY", "street": "241 CENTRAL PARK RD", "postcode": "11803"}}},
{"geometry": {"type": "Point", "coordinates": [-73.478011408, 40.7812070435]}, "type": "Feature", "properties": {"collection_times": [{"days": "Mon-Sat", "time": "1:00pm"}, {"days": "Sun", "time": "Closed"}], "id": "1180300003", "name": "USPS COLLECTION BOX - BLUE BOX", "address": {"city": "PLAINVIEW", "state": "NY", "street": "109 CENTRAL PARK RD", "postcode": "11803"}}},
{"geometry": {"type": "Point", "coordinates": [-73.465714281, 40.7895338124]}, "type": "Feature", "properties": {"collection_times": [{"days": "Mon-Fri", "time": "5:00pm"}, {"days": "Sat", "time": "1:00pm"}, {"days": "Sun", "time": "Closed"}], "id": "1180300004", "name": "USPS COLLECTION BOX - BLUE BOX", "address": {"city": "PLAINVIEW", "state": "NY", "street": "20 S TERMINAL DR", "postcode": "11803"}}},
{"geometry": {"type": "Point", "coordinates": [-73.4637580024, 40.7877491856]}, "type": "Feature", "properties": {"collection_times": [{"days": "Mon-Fri", "time": "5:00pm"}, {"days": "Sat", "time": "1:00pm"}, {"days": "Sun", "time": "Closed"}], "id": "1180300007", "name": "USPS COLLECTION BOX - BLUE BOX", "address": {"city": "PLAINVIEW", "state": "NY", "street": "120 EXPRESS ST", "postcode": "11803"}}},
{"geometry": {"type": "Point", "coordinates": [-73.4640818739, 40.7928588823]}, "type": "Feature", "properties": {"collection_times": [{"days": "Mon-Fri", "time": "5:00pm"}, {"days": "Sat", "time": "1:00pm"}, {"days": "Sun", "time": "Closed"}], "id": "1180300009", "name": "USPS COLLECTION BOX - BLUE BOX", "address": {"city": "PLAINVIEW", "state": "NY", "street": "255 EXECUTIVE DR", "postcode": "11803"}}},
{"geometry": {"type": "Point", "coordinates": [-73.4640818739, 40.7928588823]}, "type": "Feature", "properties": {"collection_times": [{"days": "Mon-Fri", "time": "5:00pm"}, {"days": "Sat", "time": "1:00pm"}, {"days": "Sun", "time": "Closed"}], "id": "1180300010", "name": "USPS COLLECTION BOX - BLUE BOX", "address": {"city": "PLAINVIEW", "state": "NY", "street": "255 EXECUTIVE DR", "postcode": "11803"}}},
{"geometry": {"type": "Point", "coordinates": [-73.4664190707, 40.7969064213]}, "type": "Feature", "properties": {"collection_times": [{"days": "Mon-Fri", "time": "5:00pm"}, {"days": "Sat", "time": "1:00pm"}, {"days": "Sun", "time": "Closed"}], "id": "1180300013", "name": "USPS COLLECTION BOX - BLUE BOX", "address": {"city": "PLAINVIEW", "state": "NY", "street": "2 DUPONT ST", "postcode": "11803"}}},
{"geometry": {"type": "Point", "coordinates": [-73.4661590736, 40.7972431559]}, "type": "Feature", "properties": {"collection_times": [{"days": "Mon-Fri", "time": "5:00pm"}, {"days": "Sat", "time": "1:00pm"}, {"days": "Sun", "time": "Closed"}], "id": "1180300015", "name": "USPS COLLECTION BOX - BLUE BOX", "address": {"city": "PLAINVIEW", "state": "NY", "street": "1 DUPONT ST", "postcode": "11803"}}},
{"geometry": {"type": "Point", "coordinates": [-73.4640368257, 40.7959018796]}, "type": "Feature", "properties": {"collection_times": [{"days": "Mon-Fri", "time": "5:00pm"}, {"days": "Sat", "time": "1:00pm"}, {"days": "Sun", "time": "Closed"}], "id": "1180300017", "name": "USPS COLLECTION BOX - BLUE BOX", "address": {"city": "PLAINVIEW", "state": "NY", "street": "101 FAIRCHILD AVE", "postcode": "11803"}}},
{"geometry": {"type": "Point", "coordinates": [-73.4787847946, 40.7780094261]}, "type": "Feature", "properties": {"collection_times": [{"days": "Mon-Sat", "time": "1:00pm"}, {"days": "Sun", "time": "Closed"}], "id": "1180300021", "name": "USPS COLLECTION BOX - BLUE BOX", "address": {"city": "PLAINVIEW", "state": "NY", "street": "32 GARNET LN", "postcode": "11803"}}},
{"geometry": {"type": "Point", "coordinates": [-73.4731953135, 40.782798044]}, "type": "Feature", "properties": {"collection_times": [{"days": "Mon-Fri", "time": "5:00pm"}, {"days": "Sat", "time": "1:00pm"}, {"days": "Sun", "time": "Closed"}], "id": "1180300022", "name": "USPS COLLECTION BOX - BLUE BOX", "address": {"city": "PLAINVIEW", "state": "NY", "street": "146 MANETTO HILL RD", "postcode": "11803"}}},
{"geometry": {"type": "Point", "coordinates": [-73.4720312819, 40.781702624]}, "type": "Feature", "properties": {"collection_times": [{"days": "Mon-Fri", "time": "5:00pm"}, {"days": "Sat", "time": "1:00pm"}, {"days": "Sun", "time": "Closed"}], "id": "1180300023", "name": "USPS COLLECTION BOX - BLUE BOX", "address": {"city": "PLAINVIEW", "state": "NY", "street": "100 MANETTO HILL RD", "postcode": "11803"}}},
{"geometry": {"type": "Point", "coordinates": [-73.4759255828, 40.7898437476]}, "type": "Feature", "properties": {"collection_times": [{"days": "Mon-Sat", "time": "1:00pm"}, {"days": "Sun", "time": "Closed"}], "id": "1180300025", "name": "USPS COLLECTION BOX - BLUE BOX", "address": {"city": "PLAINVIEW", "state": "NY", "street": "2 MAIN PKWY", "postcode": "11803"}}},
{"geometry": {"type": "Point", "coordinates": [-73.4526643591, 40.7827677606]}, "type": "Feature", "properties": {"collection_times": [{"days": "Mon-Fri", "time": "5:00pm"}, {"days": "Sat", "time": "1:00pm"}, {"days": "Sun", "time": "Closed"}], "id": "1180300026", "name": "USPS COLLECTION BOX - BLUE BOX", "address": {"city": "PLAINVIEW", "state": "NY", "street": "120 NEWTOWN RD", "postcode": "11803"}}},
{"geometry": {"type": "Point", "coordinates": [-73.4870406652, 40.7726033036]}, "type": "Feature", "properties": {"collection_times": [{"days": "Mon-Fri", "time": "5:00pm"}, {"days": "Sat", "time": "1:00pm"}, {"days": "Sun", "time": "Closed"}], "id": "1180300030", "name": "USPS COLLECTION BOX - BLUE BOX", "address": {"city": "PLAINVIEW", "state": "NY", "street": "700 OLD COUNTRY RD", "postcode": "11803"}}},
{"geometry": {"type": "Point", "coordinates": [-73.4870406652, 40.7726033036]}, "type": "Feature", "properties": {"collection_times": [{"days": "Mon-Fri", "time": "5:00pm"}, {"days": "Sat", "time": "1:00pm"}, {"days": "Sun", "time": "Closed"}], "id": "1180300031", "name": "USPS COLLECTION BOX - BLUE BOX", "address": {"city": "PLAINVIEW", "state": "NY", "street": "700 OLD COUNTRY RD", "postcode": "11803"}}},
{"geometry": {"type": "Point", "coordinates": [-73.485489806, 40.7729227026]}, "type": "Feature", "properties": {"collection_times": [{"days": "Mon-Fri", "time": "5:00pm"}, {"days": "Sat", "time": "1:00pm"}, {"days": "Sun", "time": "Closed"}], "id": "1180300032", "name": "USPS COLLECTION BOX - BLUE BOX", "address": {"city": "PLAINVIEW", "state": "NY", "street": "777 OLD COUNTRY RD", "postcode": "11803"}}},
{"geometry": {"type": "Point", "coordinates": [-73.4654765062, 40.7763024163]}, "type": "Feature", "properties": {"collection_times": [{"days": "Mon-Fri", "time": "5:00pm"}, {"days": "Sat", "time": "1:00pm"}, {"days": "Sun", "time": "Closed"}], "id": "1180300035", "name": "USPS COLLECTION BOX - BLUE BOX", "address": {"city": "PLAINVIEW", "state": "NY", "street": "1117 OLD COUNTRY RD", "postcode": "11803"}}},
{"geometry": {"type": "Point", "coordinates": [-73.4739578455, 40.7753316871]}, "type": "Feature", "properties": {"collection_times": [{"days": "Mon-Fri", "time": "5:00pm"}, {"days": "Sat", "time": "1:00pm"}, {"days": "Sun", "time": "Closed"}], "id": "1180300038", "name": "USPS COLLECTION BOX - BLUE BOX", "address": {"city": "PLAINVIEW", "state": "NY", "street": "999 OLD COUNTRY RD", "postcode": "11803"}}},
{"geometry": {"type": "Point", "coordinates": [-73.4551275162, 40.7795323475]}, "type": "Feature", "properties": {"collection_times": [{"days": "Mon-Fri", "time": "5:00pm"}, {"days": "Sat", "time": "1:00pm"}, {"days": "Sun", "time": "Closed"}], "id": "1180300039", "name": "USPS COLLECTION BOX - BLUE BOX", "address": {"city": "PLAINVIEW", "state": "NY", "street": "15 E BETHPAGE RD", "postcode": "11803"}}},
{"geometry": {"type": "Point", "coordinates": [-73.4894997482, 40.7721459901]}, "type": "Feature", "properties": {"collection_times": [{"days": "Mon-Sat", "time": "1:00pm"}, {"days": "Sun", "time": "Closed"}], "id": "1180300041", "name": "USPS COLLECTION BOX - BLUE BOX", "address": {"city": "PLAINVIEW", "state": "NY", "street": "654 OLD COUNTRY RD", "postcode": "11803"}}},
{"geometry": {"type": "Point", "coordinates": [-73.4499919279, 40.7804015015]}, "type": "Feature", "properties": {"collection_times": [{"days": "Mon-Fri", "time": "5:00pm"}, {"days": "Sat", "time": "1:00pm"}, {"days": "Sun", "time": "Closed"}], "id": "1180300042", "name": "USPS COLLECTION BOX - BLUE BOX", "address": {"city": "PLAINVIEW", "state": "NY", "street": "1600 OLD COUNTRY RD", "postcode": "11803"}}},
{"geometry": {"type": "Point", "coordinates": [-73.4988572423, 40.7701616763]}, "type": "Feature", "properties": {"collection_times": [{"days": "Mon-Sat", "time": "1:00pm"}, {"days": "Sun", "time": "Closed"}], "id": "1180300044", "name": "USPS COLLECTION BOX - BLUE BOX", "address": {"city": "PLAINVIEW", "state": "NY", "street": "528 OLD COUNTRY RD", "postcode": "11803"}}},
{"geometry": {"type": "Point", "coordinates": [-73.4858374526, 40.7865980394]}, "type": "Feature", "properties": {"collection_times": [{"days": "Mon-Sat", "time": "1:00pm"}, {"days": "Sun", "time": "Closed"}], "id": "1180300046", "name": "USPS COLLECTION BOX - BLUE BOX", "address": {"city": "PLAINVIEW", "state": "NY", "street": "74 WALLACE DR", "postcode": "11803"}}},
{"geometry": {"type": "Point", "coordinates": [-73.5008369065, 40.7844134037]}, "type": "Feature", "properties": {"collection_times": [{"days": "Mon-Fri", "time": "5:00pm"}, {"days": "Sat", "time": "1:00pm"}, {"days": "Sun", "time": "Closed"}], "id": "1180300047", "name": "USPS COLLECTION BOX - BLUE BOX", "address": {"city": "PLAINVIEW", "state": "NY", "street": "444 WOODBURY RD", "postcode": "11803"}}},
{"geometry": {"type": "Point", "coordinates": [-73.5017294667, 40.7756872777]}, "type": "Feature", "properties": {"collection_times": [{"days": "Mon-Sat", "time": "1:00pm"}, {"days": "Sun", "time": "Closed"}], "id": "1180300048", "name": "USPS COLLECTION BOX - BLUE BOX", "address": {"city": "PLAINVIEW", "state": "NY", "street": "2 NASSAU AVE", "postcode": "11803"}}},
{"geometry": {"type": "Point", "coordinates": [-73.5026560049, 40.7806682847]}, "type": "Feature", "properties": {"collection_times": [{"days": "Mon-Fri", "time": "5:00pm"}, {"days": "Sat", "time": "1:00pm"}, {"days": "Sun", "time": "Closed"}], "id": "1180300049", "name": "USPS COLLECTION BOX - BLUE BOX", "address": {"city": "PLAINVIEW", "state": "NY", "street": "445 S OYSTER BAY RD", "postcode": "11803"}}},
{"geometry": {"type": "Point", "coordinates": [-73.4737678433, 40.781864154]}, "type": "Feature", "properties": {"collection_times": [{"days": "Mon-Sat", "time": "1:00pm"}, {"days": "Sun", "time": "Closed"}], "id": "1180300051", "name": "USPS COLLECTION BOX - BLUE BOX", "address": {"city": "PLAINVIEW", "state": "NY", "street": "OPP.88 PASADENA DR", "postcode": "11803"}}},
{"geometry": {"type": "Point", "coordinates": [-73.4670368291, 40.7912479199]}, "type": "Feature", "properties": {"collection_times": [{"days": "Mon-Fri", "time": "5:00pm"}, {"days": "Sat", "time": "1:00pm"}, {"days": "Sun", "time": "Closed"}], "id": "1180300054", "name": "USPS COLLECTION BOX - BLUE BOX", "address": {"city": "PLAINVIEW", "state": "NY", "street": "100 TERMINAL DR", "postcode": "11803"}}},
{"geometry": {"type": "Point", "coordinates": [-73.4708755309, 40.7939119435]}, "type": "Feature", "properties": {"collection_times": [{"days": "Mon-Fri", "time": "5:00pm"}, {"days": "Sat", "time": "1:00pm"}, {"days": "Sun", "time": "Closed"}], "id": "1180300058", "name": "USPS COLLECTION BOX - BLUE BOX", "address": {"city": "PLAINVIEW", "state": "NY", "street": "88 SUNNYSIDE BLVD", "postcode": "11803"}}},
{"geometry": {"type": "Point", "coordinates": [-73.4708755309, 40.7939119435]}, "type": "Feature", "properties": {"collection_times": [{"days": "Mon-Fri", "time": "5:00pm"}, {"days": "Sat", "time": "1:00pm"}, {"days": "Sun", "time": "Closed"}], "id": "1180300059", "name": "USPS COLLECTION BOX - BLUE BOX", "address": {"city": "PLAINVIEW", "state": "NY", "street": "88 SUNNYSIDE BLVD", "postcode": "11803"}}},
{"geometry": {"type": "Point", "coordinates": [-73.4941739078, 40.7903867258]}, "type": "Feature", "properties": {"collection_times": [{"days": "Mon-Sat", "time": "1:00pm"}, {"days": "Sun", "time": "Closed"}], "id": "1180300061", "name": "USPS COLLECTION BOX - BLUE BOX", "address": {"city": "PLAINVIEW", "state": "NY", "street": "557 WOODBURY RD", "postcode": "11803"}}},
{"geometry": {"type": "Point", "coordinates": [-73.4612178907, 40.7749761113]}, "type": "Feature", "properties": {"collection_times": [{"days": "Mon-Sat", "time": "1:00pm"}, {"days": "Sun", "time": "Closed"}], "id": "1180300064", "name": "USPS COLLECTION BOX - BLUE BOX", "address": {"city": "PLAINVIEW", "state": "NY", "street": "84 SANTA BARBARA DR", "postcode": "11803"}}},
{"geometry": {"type": "Point", "coordinates": [-73.4469828518, 40.7812057749]}, "type": "Feature", "properties": {"collection_times": [{"days": "Mon-Fri", "time": "5:30pm"}, {"days": "Sat", "time": "4:30pm"}, {"days": "Sun", "time": "Closed"}], "id": "1180300069", "name": "USPS COLLECTION BOX - BLUE BOX", "address": {"city": "PLAINVIEW", "state": "NY", "street": "1662 OLD COUNTRY RD", "postcode": "11803"}}},
{"geometry": {"type": "Point", "coordinates": [-73.4739654198, 40.7753868061]}, "type": "Feature", "properties": {"collection_times": [{"days": "Mon-Fri", "time": "5:00pm"}, {"days": "Sat", "time": "1:00pm"}, {"days": "Sun", "time": "Closed"}], "id": "1180300074", "name": "USPS COLLECTION BOX - BLUE BOX", "address": {"city": "PLAINVIEW", "state": "NY", "street": "998 OLD COUNTRY RD", "postcode": "11803"}}},
{"geometry": {"type": "Point", "coordinates": [-73.4722876128, 40.7758791952]}, "type": "Feature", "properties": {"collection_times": [{"days": "Mon-Fri", "time": "5:00pm"}, {"days": "Sat", "time": "1:00pm"}, {"days": "Sun", "time": "Closed"}], "id": "1180300076", "name": "USPS COLLECTION BOX - BLUE BOX", "address": {"city": "PLAINVIEW", "state": "NY", "street": "1028 OLD COUNTRY RD", "postcode": "11803"}}},
{"geometry": {"type": "Point", "coordinates": [-73.4802090772, 40.7651068927]}, "type": "Feature", "properties": {"collection_times": [{"days": "Mon-Sat", "time": "1:00pm"}, {"days": "Sun", "time": "Closed"}], "id": "1180300087", "name": "USPS COLLECTION BOX - BLUE BOX", "address": {"city": "PLAINVIEW", "state": "NY", "street": "105 GROHMANS LN", "postcode": "11803"}}},
{"geometry": {"type": "Point", "coordinates": [-73.4469828518, 40.7812057749]}, "type": "Feature", "properties": {"collection_times": [{"days": "Mon-Fri", "time": "5:00pm"}, {"days": "Sat", "time": "1:00pm"}, {"days": "Sun", "time": "Closed"}], "id": "1180300100", "name": "USPS COLLECTION BOX - APC", "address": {"city": "PLAINVIEW", "state": "NY", "street": "1662 OLD COUNTRY RD", "postcode": "11803"}}},
{"geometry": {"type": "Point", "coordinates": [-73.492928252, 40.7675863747]}, "type": "Feature", "properties": {"collection_times": [{"days": "Mon-Sat", "time": "1:00pm"}, {"days": "Sun", "time": "Closed"}], "id": "1180300101", "name": "USPS COLLECTION BOX - BLUE BOX", "address": {"city": "PLAINVIEW", "state": "NY", "street": "205 FLORAL AVE", "postcode": "11803"}}},
{"geometry": {"type": "Point", "coordinates": [-73.4469828518, 40.7812057749]}, "type": "Feature", "properties": {"collection_times": [{"days": "Mon-Fri", "time": "5:30pm"}, {"days": "Sat", "time": "4:30pm"}, {"days": "Sun", "time": "Closed"}], "id": "1180300103", "name": "USPS COLLECTION BOX - PO LOBBY", "address": {"city": "PLAINVIEW", "state": "NY", "street": "1662 OLD COUNTRY RD", "postcode": "11803"}}},
{"geometry": {"type": "Point", "coordinates": [-73.4553950442, 40.7656656023]}, "type": "Feature", "properties": {"collection_times": [{"days": "Mon-Sat", "time": "5:00pm"}, {"days": "Sun", "time": "Closed"}], "id": "1180400010", "name": "USPS COLLECTION BOX - BLUE BOX", "address": {"city": "OLD BETHPAGE", "state": "NY", "street": "696 OLD BETHPAGE RD", "postcode": "11804"}}},
{"geometry": {"type": "Point", "coordinates": [-73.4553950442, 40.7656656023]}, "type": "Feature", "properties": {"collection_times": [{"days": "Mon-Sat", "time": "5:00pm"}, {"days": "Sun", "time": "Closed"}], "id": "1180400011", "name": "USPS COLLECTION BOX - BLUE BOX", "address": {"city": "OLD BETHPAGE", "state": "NY", "street": "696 OLD BETHPAGE RD", "postcode": "11804"}}},
{"geometry": {"type": "Point", "coordinates": [-73.4559689894, 40.7652102597]}, "type": "Feature", "properties": {"collection_times": [{"days": "Mon-Sat", "time": "5:00pm"}, {"days": "Sun", "time": "Closed"}], "id": "1180400012", "name": "USPS COLLECTION BOX - EXPRESS", "address": {"city": "OLD BETHPAGE", "state": "NY", "street": "696 OLD BETHPAGE RD", "postcode": "11804"}}},
{"geometry": {"type": "Point", "coordinates": [-73.4555601644, 40.7655156247]}, "type": "Feature", "properties": {"collection_times": [{"days": "Mon-Sat", "time": "5:00pm"}, {"days": "Sun", "time": "Closed"}], "id": "1180400013", "name": "USPS COLLECTION BOX - PO LOBBY", "address": {"city": "OLD BETHPAGE", "state": "NY", "street": "699 OLD BETHPAGE RD", "postcode": "11804"}}}
]}
