{"type": "FeatureCollection", "features": [
{"geometry": {"type": "Point", "coordinates": [-72.649476144, 40.9297534874]}, "type": "Feature", "properties": {"collection_times": [{"days": "Mon-Sat", "time": "9:30am"}, {"days": "Sun", "time": "Closed"}], "id": "1190100002", "name": "USPS COLLECTION BOX - BLUE BOX", "address": {"city": "RIVERHEAD", "state": "NY", "street": "1186 E MAIN ST", "postcode": "11901"}}},
{"geometry": {"type": "Point", "coordinates": [-72.6637627394, 40.9185272068]}, "type": "Feature", "properties": {"collection_times": [{"days": "Mon-Fri", "time": "5:00pm"}, {"days": "Sat", "time": "1:00pm"}, {"days": "Sun", "time": "Closed"}], "id": "1190100003", "name": "USPS COLLECTION BOX - BLUE BOX", "address": {"city": "RIVERHEAD", "state": "NY", "street": "4 W 2ND ST", "postcode": "11901"}}},
{"geometry": {"type": "Point", "coordinates": [-72.6637627394, 40.9185272068]}, "type": "Feature", "properties": {"collection_times": [{"days": "Mon-Fri", "time": "5:00pm"}, {"days": "Sat", "time": "1:00pm"}, {"days": "Sun", "time": "Closed"}], "id": "1190100004", "name": "USPS COLLECTION BOX - BLUE BOX", "address": {"city": "RIVERHEAD", "state": "NY", "street": "4 W 2ND ST", "postcode": "11901"}}},
{"geometry": {"type": "Point", "coordinates": [-72.6579956943, 40.928161001]}, "type": "Feature", "properties": {"collection_times": [{"days": "Mon-Fri", "time": "5:00pm"}, {"days": "Sat", "time": "1:00pm"}, {"days": "Sun", "time": "Closed"}], "id": "1190100007", "name": "USPS COLLECTION BOX - EXPRESS", "address": {"city": "RIVERHEAD", "state": "NY", "street": "4 W 2ND ST", "postcode": "11901"}}},
{"geometry": {"type": "Point", "coordinates": [-72.658367594, 40.918037193]}, "type": "Feature", "properties": {"collection_times": [{"days": "Mon-Sat", "time": "1:00pm"}, {"days": "Sun", "time": "Closed"}], "id": "1190100013", "name": "USPS COLLECTION BOX - BLUE BOX", "address": {"city": "RIVERHEAD", "state": "NY", "street": "300 E MAIN ST", "postcode": "11901"}}},
{"geometry": {"type": "Point", "coordinates": [-72.660504007, 40.917470041]}, "type": "Feature", "properties": {"collection_times": [{"days": "Mon-Sat", "time": "1:00pm"}, {"days": "Sun", "time": "Closed"}], "id": "1190100014", "name": "USPS COLLECTION BOX - BLUE BOX", "address": {"city": "RIVERHEAD", "state": "NY", "street": "126 E MAIN ST", "postcode": "11901"}}},
{"geometry": {"type": "Point", "coordinates": [-72.6683604965, 40.9122776517]}, "type": "Feature", "properties": {"collection_times": [{"days": "Mon-Fri", "time": "4:30pm"}, {"days": "Sat-Sun", "time": "Closed"}], "id": "1190100015", "name": "USPS COLLECTION BOX - BLUE BOX", "address": {"city": "RIVERHEAD", "state": "NY", "street": "320 CENTER DR", "postcode": "11901"}}},
{"geometry": {"type": "Point", "coordinates": [-72.6579956943, 40.928161001]}, "type": "Feature", "properties": {"collection_times": [{"days": "Mon-Fri", "time": "4:30pm"}, {"days": "Sat-Sun", "time": "Closed"}], "id": "1190100016", "name": "USPS COLLECTION BOX - EXPRESS", "address": {"city": "RIVERHEAD", "state": "NY", "street": "320 CENTER DR", "postcode": "11901"}}},
{"geometry": {"type": "Point", "coordinates": [-72.6682315921, 40.9123655411]}, "type": "Feature", "properties": {"collection_times": [{"days": "Mon-Fri", "time": "4:30pm"}, {"days": "Sat-Sun", "time": "Closed"}], "id": "1190100021", "name": "USPS COLLECTION BOX - BLUE BOX", "address": {"city": "RIVERHEAD", "state": "NY", "street": "300 CENTER DR", "postcode": "11901"}}},
{"geometry": {"type": "Point", "coordinates": [-72.6675397568, 40.9345657325]}, "type": "Feature", "properties": {"collection_times": [{"days": "Mon-Sat", "time": "1:00pm"}, {"days": "Sun", "time": "Closed"}], "id": "1190100022", "name": "USPS COLLECTION BOX - BLUE BOX", "address": {"city": "RIVERHEAD", "state": "NY", "street": "755 ROUTE 58", "postcode": "11901"}}},
{"geometry": {"type": "Point", "coordinates": [-72.6555289595, 40.9192527059]}, "type": "Feature", "properties": {"collection_times": [{"days": "Mon-Sat", "time": "10:00am"}, {"days": "Sun", "time": "Closed"}], "id": "1190100026", "name": "USPS COLLECTION BOX - BLUE BOX", "address": {"city": "RIVERHEAD", "state": "NY", "street": "540 E MAIN ST", "postcode": "11901"}}},
{"geometry": {"type": "Point", "coordinates": [-72.6747240372, 40.9340902149]}, "type": "Feature", "properties": {"collection_times": [{"days": "Mon-Fri", "time": "4:30pm"}, {"days": "Sat", "time": "1:00pm"}, {"days": "Sun", "time": "Closed"}], "id": "1190100027", "name": "USPS COLLECTION BOX - BLUE BOX", "address": {"city": "RIVERHEAD", "state": "NY", "street": "1300 ROANOKE AVE", "postcode": "11901"}}},
{"geometry": {"type": "Point", "coordinates": [-72.6544599501, 40.9227338089]}, "type": "Feature", "properties": {"collection_times": [{"days": "Mon-Fri", "time": "5:00pm"}, {"days": "Sat", "time": "1:00pm"}, {"days": "Sun", "time": "Closed"}], "id": "1190100028", "name": "USPS COLLECTION BOX - BLUE BOX", "address": {"city": "RIVERHEAD", "state": "NY", "street": "200 HOWELL AVE", "postcode": "11901"}}},
{"geometry": {"type": "Point", "coordinates": [-72.667177942, 40.9210942277]}, "type": "Feature", "properties": {"collection_times": [{"days": "Mon-Fri", "time": "5:00pm"}, {"days": "Sat", "time": "1:00pm"}, {"days": "Sun", "time": "Closed"}], "id": "1190100029", "name": "USPS COLLECTION BOX - BLUE BOX", "address": {"city": "RIVERHEAD", "state": "NY", "street": "448 GRIFFING AVE", "postcode": "11901"}}},
{"geometry": {"type": "Point", "coordinates": [-72.6777096934, 40.9316020945]}, "type": "Feature", "properties": {"collection_times": [{"days": "Mon-Sat", "time": "1:00pm"}, {"days": "Sun", "time": "Closed"}], "id": "1190100033", "name": "USPS COLLECTION BOX - BLUE BOX", "address": {"city": "RIVERHEAD", "state": "NY", "street": "1096 ROUTE 58", "postcode": "11901"}}},
{"geometry": {"type": "Point", "coordinates": [-72.6676602356, 40.9127640117]}, "type": "Feature", "properties": {"collection_times": [{"days": "Mon-Fri", "time": "4:30pm"}, {"days": "Sat-Sun", "time": "Closed"}], "id": "1190100035", "name": "USPS COLLECTION BOX - BLUE BOX", "address": {"city": "RIVERHEAD", "state": "NY", "street": "210 CENTER DR", "postcode": "11901"}}},
{"geometry": {"type": "Point", "coordinates": [-72.6525899395, 40.9227386825]}, "type": "Feature", "properties": {"collection_times": [{"days": "Mon-Sat", "time": "11:30am"}, {"days": "Sun", "time": "Closed"}], "id": "1190100036", "name": "USPS COLLECTION BOX - BLUE BOX", "address": {"city": "RIVERHEAD", "state": "NY", "street": "808 E MAIN ST", "postcode": "11901"}}},
{"geometry": {"type": "Point", "coordinates": [-72.6720102548, 40.9207865703]}, "type": "Feature", "properties": {"collection_times": [{"days": "Mon-Sat", "time": "9:30am"}, {"days": "Sun", "time": "Closed"}], "id": "1190100037", "name": "USPS COLLECTION BOX - BLUE BOX", "address": {"city": "RIVERHEAD", "state": "NY", "street": "535 PULASKI ST", "postcode": "11901"}}},
{"geometry": {"type": "Point", "coordinates": [-72.6661629632, 40.9232720552]}, "type": "Feature", "properties": {"collection_times": [{"days": "Mon-Sat", "time": "9:30am"}, {"days": "Sun", "time": "Closed"}], "id": "1190100038", "name": "USPS COLLECTION BOX - BLUE BOX", "address": {"city": "RIVERHEAD", "state": "NY", "street": "633 ROANOKE AVE", "postcode": "11901"}}},
{"geometry": {"type": "Point", "coordinates": [-72.6516660063, 40.9365788833]}, "type": "Feature", "properties": {"collection_times": [{"days": "Mon-Fri", "time": "4:30pm"}, {"days": "Sat", "time": "1:00pm"}, {"days": "Sun", "time": "Closed"}], "id": "1190100039", "name": "USPS COLLECTION BOX - BLUE BOX", "address": {"city": "RIVERHEAD", "state": "NY", "street": "200 ROUTE 58", "postcode": "11901"}}},
{"geometry": {"type": "Point", "coordinates": [-72.6579956943, 40.928161001]}, "type": "Feature", "properties": {"collection_times": [{"days": "Mon-Fri", "time": "4:30pm"}, {"days": "Sat", "time": "1:00pm"}, {"days": "Sun", "time": "Closed"}], "id": "1190100041", "name": "USPS COLLECTION BOX - EXPRESS", "address": {"city": "RIVERHEAD", "state": "NY", "street": "1300 ROANOKE AVE", "postcode": "11901"}}},
{"geometry": {"type": "Point", "coordinates": [-72.6560735062, 40.9189116684]}, "type": "Feature", "properties": {"collection_times": [{"days": "Mon-Sat", "time": "1:00pm"}, {"days": "Sun", "time": "Closed"}], "id": "1190100043", "name": "USPS COLLECTION BOX - BLUE BOX", "address": {"city": "RIVERHEAD", "state": "NY", "street": "506 E MAIN ST", "postcode": "11901"}}},
{"geometry": {"type": "Point", "coordinates": [-72.6986044298, 40.9248004382]}, "type": "Feature", "properties": {"collection_times": [{"days": "Mon-Sat", "time": "1:00pm"}, {"days": "Sun", "time": "Closed"}], "id": "1190100044", "name": "USPS COLLECTION BOX - BLUE BOX", "address": {"city": "RIVERHEAD", "state": "NY", "street": "1570 OLD COUNTRY RD", "postcode": "11901"}}},
{"geometry": {"type": "Point", "coordinates": [-72.7156043891, 40.9178481273]}, "type": "Feature", "properties": {"collection_times": [{"days": "Mon-Sat", "time": "11:00am"}, {"days": "Sun", "time": "Closed"}], "id": "1190100046", "name": "USPS COLLECTION BOX - BLUE BOX", "address": {"city": "RIVERHEAD", "state": "NY", "street": "200 TANGER MALL DR", "postcode": "11901"}}},
{"geometry": {"type": "Point", "coordinates": [-72.6055919153, 40.9038431371]}, "type": "Feature", "properties": {"collection_times": [{"days": "Mon-Sat", "time": "12:00pm"}, {"days": "Sun", "time": "Closed"}], "id": "1190100049", "name": "USPS COLLECTION BOX - BLUE BOX", "address": {"city": "RIVERHEAD", "state": "NY", "street": "1446 FLANDERS RD", "postcode": "11901"}}},
{"geometry": {"type": "Point", "coordinates": [-72.6579956943, 40.928161001]}, "type": "Feature", "properties": {"collection_times": [{"days": "Mon-Fri", "time": "5:00pm"}, {"days": "Sat", "time": "1:00pm"}, {"days": "Sun", "time": "Closed"}], "id": "1190100112", "name": "USPS COLLECTION BOX - EXPRESS", "address": {"city": "RIVERHEAD", "state": "NY", "street": "1210 W MAIN ST", "postcode": "11901"}}},
{"geometry": {"type": "Point", "coordinates": [-72.6899618024, 40.916661739]}, "type": "Feature", "properties": {"collection_times": [{"days": "Mon-Fri", "time": "5:00pm"}, {"days": "Sat", "time": "1:00pm"}, {"days": "Sun", "time": "Closed"}], "id": "1190100113", "name": "USPS COLLECTION BOX - BLUE BOX", "address": {"city": "RIVERHEAD", "state": "NY", "street": "1210 W MAIN ST", "postcode": "11901"}}},
{"geometry": {"type": "Point", "coordinates": [-72.6899618024, 40.916661739]}, "type": "Feature", "properties": {"collection_times": [{"days": "Mon-Fri", "time": "5:00pm"}, {"days": "Sat", "time": "1:00pm"}, {"days": "Sun", "time": "Closed"}], "id": "1190100114", "name": "USPS COLLECTION BOX - BLUE BOX", "address": {"city": "RIVERHEAD", "state": "NY", "street": "1210 W MAIN ST", "postcode": "11901"}}},
{"geometry": {"type": "Point", "coordinates": [-72.6899618024, 40.916661739]}, "type": "Feature", "properties": {"collection_times": [{"days": "Mon-Fri", "time": "5:00pm"}, {"days": "Sat", "time": "1:00pm"}, {"days": "Sun", "time": "Closed"}], "id": "1190100115", "name": "USPS COLLECTION BOX - BLUE BOX", "address": {"city": "RIVERHEAD", "state": "NY", "street": "1210 W MAIN ST", "postcode": "11901"}}},
{"geometry": {"type": "Point", "coordinates": [-72.6899618024, 40.916661739]}, "type": "Feature", "properties": {"collection_times": [{"days": "Mon-Fri", "time": "5:00pm"}, {"days": "Sat", "time": "1:00pm"}, {"days": "Sun", "time": "Closed"}], "id": "1190100116", "name": "USPS COLLECTION BOX - PO LOBBY", "address": {"city": "RIVERHEAD", "state": "NY", "street": "1210 W MAIN ST", "postcode": "11901"}}},
{"geometry": {"type": "Point", "coordinates": [-72.1288056563, 40.9793347486]}, "type": "Feature", "properties": {"collection_times": [{"days": "Mon-Fri", "time": "5:00pm"}, {"days": "Sat", "time": "1:00pm"}, {"days": "Sun", "time": "Closed"}], "id": "1193000001", "name": "USPS COLLECTION BOX - BLUE BOX", "address": {"city": "AMAGANSETT", "state": "NY", "street": "501 MONTAUK HWY", "postcode": "11930"}}},
{"geometry": {"type": "Point", "coordinates": [-72.1288056563, 40.9793347486]}, "type": "Feature", "properties": {"collection_times": [{"days": "Mon-Fri", "time": "5:00pm"}, {"days": "Sat", "time": "1:00pm"}, {"days": "Sun", "time": "Closed"}], "id": "1193000002", "name": "USPS COLLECTION BOX - BLUE BOX", "address": {"city": "AMAGANSETT", "state": "NY", "street": "501 MONTAUK HWY", "postcode": "11930"}}},
{"geometry": {"type": "Point", "coordinates": [-72.1272272024, 40.9786021698]}, "type": "Feature", "properties": {"collection_times": [{"days": "Mon-Fri", "time": "5:00pm"}, {"days": "Sat", "time": "1:00pm"}, {"days": "Sun", "time": "Closed"}], "id": "1193000003", "name": "USPS COLLECTION BOX - EXPRESS", "address": {"city": "AMAGANSETT", "state": "NY", "street": "501 MONTAUK HWY", "postcode": "11930"}}},
{"geometry": {"type": "Point", "coordinates": [-72.1288056563, 40.9793347486]}, "type": "Feature", "properties": {"collection_times": [{"days": "Mon-Fri", "time": "5:00pm"}, {"days": "Sat", "time": "1:00pm"}, {"days": "Sun", "time": "Closed"}], "id": "1193000005", "name": "USPS COLLECTION BOX - PO LOBBY", "address": {"city": "AMAGANSETT", "state": "NY", "street": "501 MONTAUK HWY", "postcode": "11930"}}},
{"geometry": {"type": "Point", "coordinates": [-72.6362441613, 40.9381137144]}, "type": "Feature", "properties": {"collection_times": [{"days": "Mon-Fri", "time": "5:00pm"}, {"days": "Sat", "time": "1:00pm"}, {"days": "Sun", "time": "Closed"}], "id": "1193100001", "name": "USPS COLLECTION BOX - BLUE BOX", "address": {"city": "AQUEBOGUE", "state": "NY", "street": "212 LINDA AVE", "postcode": "11931"}}},
{"geometry": {"type": "Point", "coordinates": [-72.6362441613, 40.9381137144]}, "type": "Feature", "properties": {"collection_times": [{"days": "Mon-Fri", "time": "5:00pm"}, {"days": "Sat", "time": "1:00pm"}, {"days": "Sun", "time": "Closed"}], "id": "1193100004", "name": "USPS COLLECTION BOX - PO LOBBY", "address": {"city": "AQUEBOGUE", "state": "NY", "street": "212 LINDA AVE", "postcode": "11931"}}},
{"geometry": {"type": "Point", "coordinates": [-72.3023220758, 40.9369087393]}, "type": "Feature", "properties": {"collection_times": [{"days": "Mon-Fri", "time": "5:00pm"}, {"days": "Sat", "time": "1:00pm"}, {"days": "Sun", "time": "Closed"}], "id": "1193200001", "name": "USPS COLLECTION BOX - BLUE BOX", "address": {"city": "BRIDGEHAMPTON", "state": "NY", "street": "000 MAIN ST", "postcode": "11932"}}},
{"geometry": {"type": "Point", "coordinates": [-72.3067683694, 40.9353845826]}, "type": "Feature", "properties": {"collection_times": [{"days": "Mon-Fri", "time": "5:00pm"}, {"days": "Sat", "time": "1:00pm"}, {"days": "Sun", "time": "Closed"}], "id": "1193200002", "name": "USPS COLLECTION BOX - BLUE BOX", "address": {"city": "BRIDGEHAMPTON", "state": "NY", "street": "2322 MAIN ST", "postcode": "11932"}}},
{"geometry": {"type": "Point", "coordinates": [-72.3067683694, 40.9353845826]}, "type": "Feature", "properties": {"collection_times": [{"days": "Mon-Fri", "time": "5:00pm"}, {"days": "Sat", "time": "1:00pm"}, {"days": "Sun", "time": "Closed"}], "id": "1193200006", "name": "USPS COLLECTION BOX - PO LOBBY", "address": {"city": "BRIDGEHAMPTON", "state": "NY", "street": "2322 MONTAUK HWY", "postcode": "11932"}}},
{"geometry": {"type": "Point", "coordinates": [-72.7448841505, 40.9264068964]}, "type": "Feature", "properties": {"collection_times": [{"days": "Mon-Fri", "time": "5:00pm"}, {"days": "Sat", "time": "1:00pm"}, {"days": "Sun", "time": "Closed"}], "id": "1193300002", "name": "USPS COLLECTION BOX - BLUE BOX", "address": {"city": "CALVERTON", "state": "NY", "street": "3690 MIDDLE COUNTRY RD", "postcode": "11933"}}},
{"geometry": {"type": "Point", "coordinates": [-72.7448841505, 40.9264068964]}, "type": "Feature", "properties": {"collection_times": [{"days": "Mon-Fri", "time": "5:00pm"}, {"days": "Sat", "time": "1:00pm"}, {"days": "Sun", "time": "Closed"}], "id": "1193300006", "name": "USPS COLLECTION BOX - PO LOBBY", "address": {"city": "CALVERTON", "state": "NY", "street": "3690 MIDDLE COUNTRY RD", "postcode": "11933"}}},
{"geometry": {"type": "Point", "coordinates": [-72.7898779947, 40.8014935275]}, "type": "Feature", "properties": {"collection_times": [{"days": "Mon-Fri", "time": "5:00pm"}, {"days": "Sat", "time": "1:00pm"}, {"days": "Sun", "time": "Closed"}], "id": "1193400001", "name": "USPS COLLECTION BOX - BLUE BOX", "address": {"city": "CENTER MORICHES", "state": "NY", "street": "35 RAILROAD AVE", "postcode": "11934"}}},
{"geometry": {"type": "Point", "coordinates": [-72.7898779947, 40.8014935275]}, "type": "Feature", "properties": {"collection_times": [{"days": "Mon-Fri", "time": "5:00pm"}, {"days": "Sat", "time": "1:00pm"}, {"days": "Sun", "time": "Closed"}], "id": "1193400002", "name": "USPS COLLECTION BOX - BLUE BOX", "address": {"city": "CENTER MORICHES", "state": "NY", "street": "35 RAILROAD AVE", "postcode": "11934"}}},
{"geometry": {"type": "Point", "coordinates": [-72.7931193023, 40.8003141174]}, "type": "Feature", "properties": {"collection_times": [{"days": "Mon-Sat", "time": "1:00pm"}, {"days": "Sun", "time": "Closed"}], "id": "1193400003", "name": "USPS COLLECTION BOX - BLUE BOX", "address": {"city": "CENTER MORICHES", "state": "NY", "street": "366 MAIN ST", "postcode": "11934"}}},
{"geometry": {"type": "Point", "coordinates": [-72.807611163, 40.8023667544]}, "type": "Feature", "properties": {"collection_times": [{"days": "Mon-Sat", "time": "11:00am"}, {"days": "Sun", "time": "Closed"}], "id": "1193400004", "name": "USPS COLLECTION BOX - BLUE BOX", "address": {"city": "CENTER MORICHES", "state": "NY", "street": "812 MONTAUK HWY", "postcode": "11934"}}},
{"geometry": {"type": "Point", "coordinates": [-72.7992399319, 40.8003957416]}, "type": "Feature", "properties": {"collection_times": [{"days": "Mon-Sat", "time": "11:30am"}, {"days": "Sun", "time": "Closed"}], "id": "1193400005", "name": "USPS COLLECTION BOX - BLUE BOX", "address": {"city": "CENTER MORICHES", "state": "NY", "street": "552 MAIN ST", "postcode": "11934"}}},
{"geometry": {"type": "Point", "coordinates": [-72.7949589576, 40.8003309392]}, "type": "Feature", "properties": {"collection_times": [{"days": "Mon-Fri", "time": "5:00pm"}, {"days": "Sat", "time": "1:00pm"}, {"days": "Sun", "time": "Closed"}], "id": "1193400012", "name": "USPS COLLECTION BOX - EXPRESS", "address": {"city": "CENTER MORICHES", "state": "NY", "street": "35 RAILROAD AVE", "postcode": "11934"}}},
{"geometry": {"type": "Point", "coordinates": [-72.7898779947, 40.8014935275]}, "type": "Feature", "properties": {"collection_times": [{"days": "Mon-Fri", "time": "5:00pm"}, {"days": "Sat", "time": "3:00pm"}, {"days": "Sun", "time": "Closed"}], "id": "1193400016", "name": "USPS COLLECTION BOX - PO LOBBY", "address": {"city": "CENTER MORICHES", "state": "NY", "street": "35 RAILROAD AVE", "postcode": "11934"}}},
{"geometry": {"type": "Point", "coordinates": [-72.4864395565, 41.0107104671]}, "type": "Feature", "properties": {"collection_times": [{"days": "Mon-Fri", "time": "5:00pm"}, {"days": "Sat", "time": "1:00pm"}, {"days": "Sun", "time": "Closed"}], "id": "1193500001", "name": "USPS COLLECTION BOX - BLUE BOX", "address": {"city": "CUTCHOGUE", "state": "NY", "street": "240 GRIFFING ST", "postcode": "11935"}}},
{"geometry": {"type": "Point", "coordinates": [-72.4816509386, 41.0175645313]}, "type": "Feature", "properties": {"collection_times": [{"days": "Mon-Sat", "time": "1:00pm"}, {"days": "Sun", "time": "Closed"}], "id": "1193500003", "name": "USPS COLLECTION BOX - BLUE BOX", "address": {"city": "CUTCHOGUE", "state": "NY", "street": "31525 MAIN RD", "postcode": "11935"}}},
{"geometry": {"type": "Point", "coordinates": [-72.4864395565, 41.0107104671]}, "type": "Feature", "properties": {"collection_times": [{"days": "Mon-Fri", "time": "5:00pm"}, {"days": "Sat", "time": "1:00pm"}, {"days": "Sun", "time": "Closed"}], "id": "1193500006", "name": "USPS COLLECTION BOX - PO LOBBY", "address": {"city": "CUTCHOGUE", "state": "NY", "street": "240 GRIFFING ST", "postcode": "11935"}}},
{"geometry": {"type": "Point", "coordinates": [-72.1705259712, 40.9931052462]}, "type": "Feature", "properties": {"collection_times": [{"days": "Mon-Sat", "time": "1:00pm"}, {"days": "Sun", "time": "Closed"}], "id": "1193700002", "name": "USPS COLLECTION BOX - BLUE BOX", "address": {"city": "EAST HAMPTON", "state": "NY", "street": "291 SPRINGSFIREPLACE RD", "postcode": "11937"}}},
{"geometry": {"type": "Point", "coordinates": [-72.1717047165, 40.9677530226]}, "type": "Feature", "properties": {"collection_times": [{"days": "Mon-Sat", "time": "1:00pm"}, {"days": "Sun", "time": "Closed"}], "id": "1193700006", "name": "USPS COLLECTION BOX - BLUE BOX", "address": {"city": "EAST HAMPTON", "state": "NY", "street": "159 PANTIGO RD", "postcode": "11937"}}},
{"geometry": {"type": "Point", "coordinates": [-72.19603627, 40.9588029213]}, "type": "Feature", "properties": {"collection_times": [{"days": "Mon-Sat", "time": "1:00pm"}, {"days": "Sun", "time": "Closed"}], "id": "1193700011", "name": "USPS COLLECTION BOX - BLUE BOX", "address": {"city": "EAST HAMPTON", "state": "NY", "street": "58 BUELL LN", "postcode": "11937"}}},
{"geometry": {"type": "Point", "coordinates": [-72.1868236206, 40.9898798669]}, "type": "Feature", "properties": {"collection_times": [{"days": "Mon-Sat", "time": "1:00pm"}, {"days": "Sun", "time": "Closed"}], "id": "1193700013", "name": "USPS COLLECTION BOX - BLUE BOX", "address": {"city": "EAST HAMPTON", "state": "NY", "street": "000 METHODIST LN", "postcode": "11937"}}},
{"geometry": {"type": "Point", "coordinates": [-72.1870338254, 40.9642320093]}, "type": "Feature", "properties": {"collection_times": [{"days": "Mon-Fri", "time": "4:30pm"}, {"days": "Sat", "time": "1:00pm"}, {"days": "Sun", "time": "Closed"}], "id": "1193700014", "name": "USPS COLLECTION BOX - BLUE BOX", "address": {"city": "EAST HAMPTON", "state": "NY", "street": "46 NEWTOWN LN", "postcode": "11937"}}},
{"geometry": {"type": "Point", "coordinates": [-72.1852356619, 40.9638547827]}, "type": "Feature", "properties": {"collection_times": [{"days": "Mon-Sat", "time": "1:00pm"}, {"days": "Sun", "time": "Closed"}], "id": "1193700015", "name": "USPS COLLECTION BOX - BLUE BOX", "address": {"city": "EAST HAMPTON", "state": "NY", "street": "1 MAIN ST", "postcode": "11937"}}},
{"geometry": {"type": "Point", "coordinates": [-72.1868236206, 40.9898798669]}, "type": "Feature", "properties": {"collection_times": [{"days": "Mon-Sat", "time": "1:00pm"}, {"days": "Sun", "time": "Closed"}], "id": "1193700021", "name": "USPS COLLECTION BOX - BLUE BOX", "address": {"city": "EAST HAMPTON", "state": "NY", "street": "000 METHODIST LN", "postcode": "11937"}}},
{"geometry": {"type": "Point", "coordinates": [-72.184598655, 40.9958735667]}, "type": "Feature", "properties": {"collection_times": [{"days": "Mon-Sat", "time": "1:00pm"}, {"days": "Sun", "time": "Closed"}], "id": "1193700023", "name": "USPS COLLECTION BOX - EXPRESS", "address": {"city": "EAST HAMPTON", "state": "NY", "street": "000 METHODIST LN", "postcode": "11937"}}},
{"geometry": {"type": "Point", "coordinates": [-72.1700003993, 40.9691838756]}, "type": "Feature", "properties": {"collection_times": [{"days": "Mon-Sat", "time": "1:00pm"}, {"days": "Sun", "time": "Closed"}], "id": "1193700025", "name": "USPS COLLECTION BOX - BLUE BOX", "address": {"city": "EAST HAMPTON", "state": "NY", "street": "300 PANTIGO PL", "postcode": "11937"}}},
{"geometry": {"type": "Point", "coordinates": [-72.1590450163, 41.0165743947]}, "type": "Feature", "properties": {"collection_times": [{"days": "Mon-Sat", "time": "1:00pm"}, {"days": "Sun", "time": "Closed"}], "id": "1193700026", "name": "USPS COLLECTION BOX - BLUE BOX", "address": {"city": "EAST HAMPTON", "state": "NY", "street": "716 SPRINGS FIREPLACE RD", "postcode": "11937"}}},
{"geometry": {"type": "Point", "coordinates": [-72.184598655, 40.9958735667]}, "type": "Feature", "properties": {"collection_times": [{"days": "Mon-Fri", "time": "4:30pm"}, {"days": "Sat", "time": "1:00pm"}, {"days": "Sun", "time": "Closed"}], "id": "1193700028", "name": "USPS COLLECTION BOX - EXPRESS", "address": {"city": "EAST HAMPTON", "state": "NY", "street": "12 GAY RD", "postcode": "11937"}}},
{"geometry": {"type": "Point", "coordinates": [-72.1906513139, 40.9582202119]}, "type": "Feature", "properties": {"collection_times": [{"days": "Mon-Sat", "time": "1:00pm"}, {"days": "Sun", "time": "Closed"}], "id": "1193700034", "name": "USPS COLLECTION BOX - BLUE BOX", "address": {"city": "EAST HAMPTON", "state": "NY", "street": "153 MAIN ST", "postcode": "11937"}}},
{"geometry": {"type": "Point", "coordinates": [-72.1814751012, 40.9654055046]}, "type": "Feature", "properties": {"collection_times": [{"days": "Mon-Fri", "time": "4:30pm"}, {"days": "Sat", "time": "1:00pm"}, {"days": "Sun", "time": "Closed"}], "id": "1193700039", "name": "USPS COLLECTION BOX - PO LOBBY", "address": {"city": "EAST HAMPTON", "state": "NY", "street": "12 GAY RD", "postcode": "11937"}}},
{"geometry": {"type": "Point", "coordinates": [-72.340844516, 41.1271680454]}, "type": "Feature", "properties": {"collection_times": [{"days": "Mon-Fri", "time": "4:30pm"}, {"days": "Sat", "time": "11:45am"}, {"days": "Sun", "time": "Closed"}], "id": "1193900002", "name": "USPS COLLECTION BOX - BLUE BOX", "address": {"city": "EAST MARION", "state": "NY", "street": "9165 MAIN RD", "postcode": "11939"}}},
{"geometry": {"type": "Point", "coordinates": [-72.340844516, 41.1271680454]}, "type": "Feature", "properties": {"collection_times": [{"days": "Mon-Fri", "time": "4:30pm"}, {"days": "Sat", "time": "11:45am"}, {"days": "Sun", "time": "Closed"}], "id": "1193900004", "name": "USPS COLLECTION BOX - PO LOBBY", "address": {"city": "EAST MARION", "state": "NY", "street": "9165 MAIN RD", "postcode": "11939"}}},
{"geometry": {"type": "Point", "coordinates": [-72.7606996253, 40.8047679228]}, "type": "Feature", "properties": {"collection_times": [{"days": "Mon-Fri", "time": "5:00pm"}, {"days": "Sat", "time": "3:00pm"}, {"days": "Sun", "time": "Closed"}], "id": "1194000002", "name": "USPS COLLECTION BOX - BLUE BOX", "address": {"city": "EAST MORICHES", "state": "NY", "street": "3 ATLANTIC AVE", "postcode": "11940"}}},
{"geometry": {"type": "Point", "coordinates": [-72.7606996253, 40.8047679228]}, "type": "Feature", "properties": {"collection_times": [{"days": "Mon-Fri", "time": "5:00pm"}, {"days": "Sat", "time": "3:00pm"}, {"days": "Sun", "time": "Closed"}], "id": "1194000004", "name": "USPS COLLECTION BOX - PO LOBBY", "address": {"city": "EAST MORICHES", "state": "NY", "street": "3 ATLANTIC AVE", "postcode": "11940"}}},
{"geometry": {"type": "Point", "coordinates": [-72.7355257213, 40.8288767717]}, "type": "Feature", "properties": {"collection_times": [{"days": "Mon-Fri", "time": "5:00pm"}, {"days": "Sat", "time": "3:00pm"}, {"days": "Sun", "time": "Closed"}], "id": "1194100001", "name": "USPS COLLECTION BOX - BLUE BOX", "address": {"city": "EASTPORT", "state": "NY", "street": "24 EASTPORT MANOR RD", "postcode": "11941"}}},
{"geometry": {"type": "Point", "coordinates": [-72.7355257213, 40.8288767717]}, "type": "Feature", "properties": {"collection_times": [{"days": "Mon-Fri", "time": "5:00pm"}, {"days": "Sat", "time": "3:00pm"}, {"days": "Sun", "time": "Closed"}], "id": "1194100005", "name": "USPS COLLECTION BOX - PO LOBBY", "address": {"city": "EASTPORT", "state": "NY", "street": "24 EASTPORT MANOR RD", "postcode": "11941"}}},
{"geometry": {"type": "Point", "coordinates": [-72.5783601999, 40.8428355774]}, "type": "Feature", "properties": {"collection_times": [{"days": "Mon-Fri", "time": "5:00pm"}, {"days": "Sat", "time": "1:00pm"}, {"days": "Sun", "time": "Closed"}], "id": "1194200002", "name": "USPS COLLECTION BOX - BLUE BOX", "address": {"city": "EAST QUOGUE", "state": "NY", "street": "6 BAY AVE", "postcode": "11942"}}},
{"geometry": {"type": "Point", "coordinates": [-72.5783601999, 40.8428355774]}, "type": "Feature", "properties": {"collection_times": [{"days": "Mon-Fri", "time": "5:00pm"}, {"days": "Sat", "time": "1:00pm"}, {"days": "Sun", "time": "Closed"}], "id": "1194200006", "name": "USPS COLLECTION BOX - PO LOBBY", "address": {"city": "EAST QUOGUE", "state": "NY", "street": "6 BAY AVE", "postcode": "11942"}}},
{"geometry": {"type": "Point", "coordinates": [-72.3741100801, 41.1067436965]}, "type": "Feature", "properties": {"collection_times": [{"days": "Mon-Sat", "time": "1:00pm"}, {"days": "Sun", "time": "Closed"}], "id": "1194400002", "name": "USPS COLLECTION BOX - BLUE BOX", "address": {"city": "GREENPORT", "state": "NY", "street": "187 CLARK ST", "postcode": "11944"}}},
{"geometry": {"type": "Point", "coordinates": [-72.3670695333, 41.0969753837]}, "type": "Feature", "properties": {"collection_times": [{"days": "Mon-Sat", "time": "1:00pm"}, {"days": "Sun", "time": "Closed"}], "id": "1194400003", "name": "USPS COLLECTION BOX - BLUE BOX", "address": {"city": "GREENPORT", "state": "NY", "street": "311 6TH ST", "postcode": "11944"}}},
{"geometry": {"type": "Point", "coordinates": [-72.3632556735, 41.1029658879]}, "type": "Feature", "properties": {"collection_times": [{"days": "Mon-Sat", "time": "1:00pm"}, {"days": "Sun", "time": "Closed"}], "id": "1194400005", "name": "USPS COLLECTION BOX - BLUE BOX", "address": {"city": "GREENPORT", "state": "NY", "street": "224 SOUTH ST", "postcode": "11944"}}},
{"geometry": {"type": "Point", "coordinates": [-72.3620502384, 41.1062083784]}, "type": "Feature", "properties": {"collection_times": [{"days": "Mon-Sat", "time": "1:00pm"}, {"days": "Sun", "time": "Closed"}], "id": "1194400006", "name": "USPS COLLECTION BOX - BLUE BOX", "address": {"city": "GREENPORT", "state": "NY", "street": "539 1ST ST", "postcode": "11944"}}},
{"geometry": {"type": "Point", "coordinates": [-72.365030112, 41.1109260188]}, "type": "Feature", "properties": {"collection_times": [{"days": "Mon-Sat", "time": "1:00pm"}, {"days": "Sun", "time": "Closed"}], "id": "1194400007", "name": "USPS COLLECTION BOX - BLUE BOX", "address": {"city": "GREENPORT", "state": "NY", "street": "912 MAIN ST", "postcode": "11944"}}},
{"geometry": {"type": "Point", "coordinates": [-72.3613936961, 41.1109792519]}, "type": "Feature", "properties": {"collection_times": [{"days": "Mon-Sat", "time": "1:00pm"}, {"days": "Sun", "time": "Closed"}], "id": "1194400008", "name": "USPS COLLECTION BOX - BLUE BOX", "address": {"city": "GREENPORT", "state": "NY", "street": "201 MANOR PL", "postcode": "11944"}}},
{"geometry": {"type": "Point", "coordinates": [-72.3620762635, 41.1080845513]}, "type": "Feature", "properties": {"collection_times": [{"days": "Mon-Sat", "time": "1:00pm"}, {"days": "Sun", "time": "Closed"}], "id": "1194400009", "name": "USPS COLLECTION BOX - BLUE BOX", "address": {"city": "GREENPORT", "state": "NY", "street": "8 BROAD ST", "postcode": "11944"}}},
{"geometry": {"type": "Point", "coordinates": [-72.359298611, 41.103074063]}, "type": "Feature", "properties": {"collection_times": [{"days": "Mon-Sat", "time": "1:00pm"}, {"days": "Sun", "time": "Closed"}], "id": "1194400010", "name": "USPS COLLECTION BOX - BLUE BOX", "address": {"city": "GREENPORT", "state": "NY", "street": "230 MAIN ST", "postcode": "11944"}}},
{"geometry": {"type": "Point", "coordinates": [-72.3607902568, 41.1020957654]}, "type": "Feature", "properties": {"collection_times": [{"days": "Mon-Fri", "time": "5:00pm"}, {"days": "Sat", "time": "1:00pm"}, {"days": "Sun", "time": "Closed"}], "id": "1194400012", "name": "USPS COLLECTION BOX - BLUE BOX", "address": {"city": "GREENPORT", "state": "NY", "street": "131 FRONT ST", "postcode": "11944"}}},
{"geometry": {"type": "Point", "coordinates": [-72.3607902568, 41.1020957654]}, "type": "Feature", "properties": {"collection_times": [{"days": "Mon-Fri", "time": "5:00pm"}, {"days": "Sat", "time": "1:00pm"}, {"days": "Sun", "time": "Closed"}], "id": "1194400026", "name": "USPS COLLECTION BOX - PO LOBBY", "address": {"city": "GREENPORT", "state": "NY", "street": "131 FRONT ST", "postcode": "11944"}}},
{"geometry": {"type": "Point", "coordinates": [-72.5201981899, 40.8742525177]}, "type": "Feature", "properties": {"collection_times": [{"days": "Mon-Fri", "time": "5:00pm"}, {"days": "Sat", "time": "1:00pm"}, {"days": "Sun", "time": "Closed"}], "id": "1194600001", "name": "USPS COLLECTION BOX - EXPRESS", "address": {"city": "HAMPTON BAYS", "state": "NY", "street": "16 PONQUOGUE AVE", "postcode": "11946"}}},
{"geometry": {"type": "Point", "coordinates": [-72.5370716897, 40.8741487387]}, "type": "Feature", "properties": {"collection_times": [{"days": "Mon-Sat", "time": "9:30am"}, {"days": "Sun", "time": "Closed"}], "id": "1194600006", "name": "USPS COLLECTION BOX - BLUE BOX", "address": {"city": "HAMPTON BAYS", "state": "NY", "street": "188 MONTAUK HWY", "postcode": "11946"}}},
{"geometry": {"type": "Point", "coordinates": [-72.5053124838, 40.8836358321]}, "type": "Feature", "properties": {"collection_times": [{"days": "Mon-Sat", "time": "11:00am"}, {"days": "Sun", "time": "Closed"}], "id": "1194600007", "name": "USPS COLLECTION BOX - BLUE BOX", "address": {"city": "HAMPTON BAYS", "state": "NY", "street": "250 W MONTAUK HWY", "postcode": "11946"}}},
{"geometry": {"type": "Point", "coordinates": [-72.5227528478, 40.8773945406]}, "type": "Feature", "properties": {"collection_times": [{"days": "Mon-Fri", "time": "5:00pm"}, {"days": "Sat", "time": "1:00pm"}, {"days": "Sun", "time": "Closed"}], "id": "1194600009", "name": "USPS COLLECTION BOX - BLUE BOX", "address": {"city": "HAMPTON BAYS", "state": "NY", "street": "16 PONQUOGUE AVE", "postcode": "11946"}}},
{"geometry": {"type": "Point", "coordinates": [-72.5227528478, 40.8773945406]}, "type": "Feature", "properties": {"collection_times": [{"days": "Mon-Fri", "time": "5:00pm"}, {"days": "Sat", "time": "1:00pm"}, {"days": "Sun", "time": "Closed"}], "id": "1194600013", "name": "USPS COLLECTION BOX - BLUE BOX", "address": {"city": "HAMPTON BAYS", "state": "NY", "street": "16 PONQUOGUE AVE", "postcode": "11946"}}},
{"geometry": {"type": "Point", "coordinates": [-72.5227528478, 40.8773945406]}, "type": "Feature", "properties": {"collection_times": [{"days": "Mon-Fri", "time": "5:00pm"}, {"days": "Sat", "time": "1:00pm"}, {"days": "Sun", "time": "Closed"}], "id": "1194600017", "name": "USPS COLLECTION BOX - BLUE BOX", "address": {"city": "HAMPTON BAYS", "state": "NY", "street": "16 PONQUOGUE AVE", "postcode": "11946"}}},
{"geometry": {"type": "Point", "coordinates": [-72.5810019521, 40.9497299032]}, "type": "Feature", "properties": {"collection_times": [{"days": "Mon-Fri", "time": "5:00pm"}, {"days": "Sat", "time": "1:00pm"}, {"days": "Sun", "time": "Closed"}], "id": "1194700001", "name": "USPS COLLECTION BOX - BLUE BOX", "address": {"city": "JAMESPORT", "state": "NY", "street": "000 MAIN ROAD ROUTE 25", "postcode": "11947"}}},
{"geometry": {"type": "Point", "coordinates": [-72.586866351, 40.9475374622]}, "type": "Feature", "properties": {"collection_times": [{"days": "Mon-Fri", "time": "5:00pm"}, {"days": "Sat", "time": "1:00pm"}, {"days": "Sun", "time": "Closed"}], "id": "1194700004", "name": "USPS COLLECTION BOX - PO LOBBY", "address": {"city": "JAMESPORT", "state": "NY", "street": "1451 ROUTE 25", "postcode": "11947"}}},
{"geometry": {"type": "Point", "coordinates": [-72.5608825955, 40.9690427188]}, "type": "Feature", "properties": {"collection_times": [{"days": "Mon-Fri", "time": "5:00pm"}, {"days": "Sat", "time": "1:00pm"}, {"days": "Sun", "time": "Closed"}], "id": "1194800001", "name": "USPS COLLECTION BOX - BLUE BOX", "address": {"city": "LAUREL", "state": "NY", "street": "2168 MAIN RD", "postcode": "11948"}}},
{"geometry": {"type": "Point", "coordinates": [-72.5608825955, 40.9690427188]}, "type": "Feature", "properties": {"collection_times": [{"days": "Mon-Fri", "time": "5:00pm"}, {"days": "Sat", "time": "1:00pm"}, {"days": "Sun", "time": "Closed"}], "id": "1194800005", "name": "USPS COLLECTION BOX - PO LOBBY", "address": {"city": "LAUREL", "state": "NY", "street": "2168 ROUTE 25", "postcode": "11948"}}},
{"geometry": {"type": "Point", "coordinates": [-72.8077359432, 40.873405603]}, "type": "Feature", "properties": {"collection_times": [{"days": "Mon-Fri", "time": "5:00pm"}, {"days": "Sat", "time": "1:00pm"}, {"days": "Sun", "time": "Closed"}], "id": "1194900002", "name": "USPS COLLECTION BOX - BLUE BOX", "address": {"city": "MANORVILLE", "state": "NY", "street": "525 EASTPORT MANOR RD", "postcode": "11949"}}},
{"geometry": {"type": "Point", "coordinates": [-72.8077359432, 40.873405603]}, "type": "Feature", "properties": {"collection_times": [{"days": "Mon-Fri", "time": "5:00pm"}, {"days": "Sat", "time": "3:00pm"}, {"days": "Sun", "time": "Closed"}], "id": "1194900006", "name": "USPS COLLECTION BOX - PO LOBBY", "address": {"city": "MANORVILLE", "state": "NY", "street": "525 EASTPORT MANOR RD", "postcode": "11949"}}},
{"geometry": {"type": "Point", "coordinates": [-72.8477466534, 40.8051204334]}, "type": "Feature", "properties": {"collection_times": [{"days": "Mon-Fri", "time": "5:00pm"}, {"days": "Sat", "time": "3:00pm"}, {"days": "Sun", "time": "Closed"}], "id": "1195000002", "name": "USPS COLLECTION BOX - BLUE BOX", "address": {"city": "MASTIC", "state": "NY", "street": "1450 MONTAUK HWY", "postcode": "11950"}}},
{"geometry": {"type": "Point", "coordinates": [-72.8474379341, 40.8052016903]}, "type": "Feature", "properties": {"collection_times": [{"days": "Mon-Fri", "time": "5:00pm"}, {"days": "Sat", "time": "3:00pm"}, {"days": "Sun", "time": "Closed"}], "id": "1195000004", "name": "USPS COLLECTION BOX - EXPRESS", "address": {"city": "MASTIC", "state": "NY", "street": "1450 MONTAUK HWY", "postcode": "11950"}}},
{"geometry": {"type": "Point", "coordinates": [-72.8477466534, 40.8051204334]}, "type": "Feature", "properties": {"collection_times": [{"days": "Mon-Fri", "time": "5:00pm"}, {"days": "Sat", "time": "3:00pm"}, {"days": "Sun", "time": "Closed"}], "id": "1195000006", "name": "USPS COLLECTION BOX - PO LOBBY", "address": {"city": "MASTIC", "state": "NY", "street": "1450 MONTAUK HWY", "postcode": "11950"}}},
{"geometry": {"type": "Point", "coordinates": [-72.8518628409, 40.768276858]}, "type": "Feature", "properties": {"collection_times": [{"days": "Mon-Fri", "time": "5:00pm"}, {"days": "Sat", "time": "3:30pm"}, {"days": "Sun", "time": "Closed"}], "id": "1195100002", "name": "USPS COLLECTION BOX - BLUE BOX", "address": {"city": "MASTIC BEACH", "state": "NY", "street": "110 MASTIC RD", "postcode": "11951"}}},
{"geometry": {"type": "Point", "coordinates": [-72.8446658206, 40.764654099]}, "type": "Feature", "properties": {"collection_times": [{"days": "Mon-Fri", "time": "5:00pm"}, {"days": "Sat", "time": "3:30pm"}, {"days": "Sun", "time": "Closed"}], "id": "1195100004", "name": "USPS COLLECTION BOX - EXPRESS", "address": {"city": "MASTIC BEACH", "state": "NY", "street": "110 MASTIC RD", "postcode": "11951"}}},
{"geometry": {"type": "Point", "coordinates": [-72.8518628409, 40.768276858]}, "type": "Feature", "properties": {"collection_times": [{"days": "Mon-Fri", "time": "4:45pm"}, {"days": "Sat", "time": "3:15pm"}, {"days": "Sun", "time": "Closed"}], "id": "1195100006", "name": "USPS COLLECTION BOX - PO LOBBY", "address": {"city": "MASTIC BEACH", "state": "NY", "street": "110 MASTIC RD", "postcode": "11951"}}},
{"geometry": {"type": "Point", "coordinates": [-72.534590544, 40.9917892695]}, "type": "Feature", "properties": {"collection_times": [{"days": "Mon-Fri", "time": "5:00pm"}, {"days": "Sat", "time": "3:00pm"}, {"days": "Sun", "time": "Closed"}], "id": "1195200003", "name": "USPS COLLECTION BOX - BLUE BOX", "address": {"city": "MATTITUCK", "state": "NY", "street": "140 LOVE LN", "postcode": "11952"}}},
{"geometry": {"type": "Point", "coordinates": [-72.534590544, 40.9917892695]}, "type": "Feature", "properties": {"collection_times": [{"days": "Mon-Fri", "time": "5:00pm"}, {"days": "Sat", "time": "3:00pm"}, {"days": "Sun", "time": "Closed"}], "id": "1195200006", "name": "USPS COLLECTION BOX - PO LOBBY", "address": {"city": "MATTITUCK", "state": "NY", "street": "140 LOVE LN", "postcode": "11952"}}},
{"geometry": {"type": "Point", "coordinates": [-72.9421539192, 40.8801149222]}, "type": "Feature", "properties": {"collection_times": [{"days": "Mon-Sat", "time": "11:00am"}, {"days": "Sun", "time": "Closed"}], "id": "1195300001", "name": "USPS COLLECTION BOX - BLUE BOX", "address": {"city": "MIDDLE ISLAND", "state": "NY", "street": "399 ARTIST LAKE DR", "postcode": "11953"}}},
{"geometry": {"type": "Point", "coordinates": [-72.9477788741, 40.8817961863]}, "type": "Feature", "properties": {"collection_times": [{"days": "Mon-Fri", "time": "5:00pm"}, {"days": "Sat", "time": "3:00pm"}, {"days": "Sun", "time": "Closed"}], "id": "1195300003", "name": "USPS COLLECTION BOX - BLUE BOX", "address": {"city": "MIDDLE ISLAND", "state": "NY", "street": "780 MIDDLE COUNTRY RD", "postcode": "11953"}}},
{"geometry": {"type": "Point", "coordinates": [-72.9477788741, 40.8817961863]}, "type": "Feature", "properties": {"collection_times": [{"days": "Mon-Fri", "time": "5:00pm"}, {"days": "Sat", "time": "3:00pm"}, {"days": "Sun", "time": "Closed"}], "id": "1195300004", "name": "USPS COLLECTION BOX - BLUE BOX", "address": {"city": "MIDDLE ISLAND", "state": "NY", "street": "780 MIDDLE COUNTRY RD", "postcode": "11953"}}},
{"geometry": {"type": "Point", "coordinates": [-72.9477788741, 40.8817961863]}, "type": "Feature", "properties": {"collection_times": [{"days": "Mon-Fri", "time": "4:45pm"}, {"days": "Sat", "time": "2:45pm"}, {"days": "Sun", "time": "Closed"}], "id": "1195300008", "name": "USPS COLLECTION BOX - PO LOBBY", "address": {"city": "MIDDLE ISLAND", "state": "NY", "street": "780 MIDDLE COUNTRY RD", "postcode": "11953"}}},
{"geometry": {"type": "Point", "coordinates": [-71.927044154, 41.0426566333]}, "type": "Feature", "properties": {"collection_times": [{"days": "Mon-Sat", "time": "12:30pm"}, {"days": "Sun", "time": "Closed"}], "id": "1195400002", "name": "USPS COLLECTION BOX - BLUE BOX", "address": {"city": "MONTAUK", "state": "NY", "street": "000 WEST LAKE DR", "postcode": "11954"}}},
{"geometry": {"type": "Point", "coordinates": [-71.944395383, 41.034545099]}, "type": "Feature", "properties": {"collection_times": [{"days": "Mon-Sat", "time": "1:00pm"}, {"days": "Sun", "time": "Closed"}], "id": "1195400003", "name": "USPS COLLECTION BOX - BLUE BOX", "address": {"city": "MONTAUK", "state": "NY", "street": "742 MONTAUK HWY", "postcode": "11954"}}},
{"geometry": {"type": "Point", "coordinates": [-71.9435193565, 41.0362032328]}, "type": "Feature", "properties": {"collection_times": [{"days": "Mon-Fri", "time": "4:45pm"}, {"days": "Sat", "time": "3:00pm"}, {"days": "Sun", "time": "Closed"}], "id": "1195400004", "name": "USPS COLLECTION BOX - BLUE BOX", "address": {"city": "MONTAUK", "state": "NY", "street": "73 S EUCLID AVE", "postcode": "11954"}}},
{"geometry": {"type": "Point", "coordinates": [-71.9435193565, 41.0362032328]}, "type": "Feature", "properties": {"collection_times": [{"days": "Mon-Fri", "time": "4:45pm"}, {"days": "Sat", "time": "3:00pm"}, {"days": "Sun", "time": "Closed"}], "id": "1195400008", "name": "USPS COLLECTION BOX - PO LOBBY", "address": {"city": "MONTAUK", "state": "NY", "street": "73 S EUCLID AVE", "postcode": "11954"}}},
{"geometry": {"type": "Point", "coordinates": [-72.827604412, 40.807864032]}, "type": "Feature", "properties": {"collection_times": [{"days": "Mon-Fri", "time": "5:00pm"}, {"days": "Sat", "time": "1:00pm"}, {"days": "Sun", "time": "Closed"}], "id": "1195500001", "name": "USPS COLLECTION BOX - BLUE BOX", "address": {"city": "MORICHES", "state": "NY", "street": "290 MONTAUK HWY", "postcode": "11955"}}},
{"geometry": {"type": "Point", "coordinates": [-72.8243730781, 40.8078330046]}, "type": "Feature", "properties": {"collection_times": [{"days": "Mon-Sat", "time": "11:30am"}, {"days": "Sun", "time": "Closed"}], "id": "1195500004", "name": "USPS COLLECTION BOX - BLUE BOX", "address": {"city": "MORICHES", "state": "NY", "street": "225 MONTAUK HWY", "postcode": "11955"}}},
{"geometry": {"type": "Point", "coordinates": [-72.8203389634, 40.8188964365]}, "type": "Feature", "properties": {"collection_times": [{"days": "Mon-Sat", "time": "11:00am"}, {"days": "Sun", "time": "Closed"}], "id": "1195500005", "name": "USPS COLLECTION BOX - BLUE BOX", "address": {"city": "MORICHES", "state": "NY", "street": "50 CLUBHOUSE CT", "postcode": "11955"}}},
{"geometry": {"type": "Point", "coordinates": [-72.8270277381, 40.8079046619]}, "type": "Feature", "properties": {"collection_times": [{"days": "Mon-Fri", "time": "5:00pm"}, {"days": "Sat", "time": "1:00pm"}, {"days": "Sun", "time": "Closed"}], "id": "1195500007", "name": "USPS COLLECTION BOX - PO LOBBY", "address": {"city": "MORICHES", "state": "NY", "street": "290 MONTAUK HWY", "postcode": "11955"}}},
{"geometry": {"type": "Point", "coordinates": [-72.4717596182, 40.9913620173]}, "type": "Feature", "properties": {"collection_times": [{"days": "Mon-Fri", "time": "5:00pm"}, {"days": "Sat", "time": "12:00pm"}, {"days": "Sun", "time": "Closed"}], "id": "1195600001", "name": "USPS COLLECTION BOX - BLUE BOX", "address": {"city": "NEW SUFFOLK", "state": "NY", "street": "375 1ST ST", "postcode": "11956"}}},
{"geometry": {"type": "Point", "coordinates": [-72.4717596182, 40.9913620173]}, "type": "Feature", "properties": {"collection_times": [{"days": "Mon-Fri", "time": "5:00pm"}, {"days": "Sat", "time": "12:00pm"}, {"days": "Sun", "time": "Closed"}], "id": "1195600003", "name": "USPS COLLECTION BOX - PO LOBBY", "address": {"city": "NEW SUFFOLK", "state": "NY", "street": "375 1ST ST", "postcode": "11956"}}},
{"geometry": {"type": "Point", "coordinates": [-72.3031877732, 41.140154144]}, "type": "Feature", "properties": {"collection_times": [{"days": "Mon-Fri", "time": "4:30pm"}, {"days": "Sat", "time": "11:30am"}, {"days": "Sun", "time": "Closed"}], "id": "1195700001", "name": "USPS COLLECTION BOX - BLUE BOX", "address": {"city": "ORIENT", "state": "NY", "street": "980 VILLAGE LN", "postcode": "11957"}}},
{"geometry": {"type": "Point", "coordinates": [-72.3031877732, 41.140154144]}, "type": "Feature", "properties": {"collection_times": [{"days": "Mon-Fri", "time": "4:30pm"}, {"days": "Sat", "time": "11:30am"}, {"days": "Sun", "time": "Closed"}], "id": "1195700004", "name": "USPS COLLECTION BOX - PO LOBBY", "address": {"city": "ORIENT", "state": "NY", "street": "980 VILLAGE LN", "postcode": "11957"}}},
{"geometry": {"type": "Point", "coordinates": [-72.4609332262, 41.0462702554]}, "type": "Feature", "properties": {"collection_times": [{"days": "Mon-Fri", "time": "5:00pm"}, {"days": "Sat", "time": "1:00pm"}, {"days": "Sun", "time": "Closed"}], "id": "1195800001", "name": "USPS COLLECTION BOX - BLUE BOX", "address": {"city": "PECONIC", "state": "NY", "street": "2575 PECONIC LN", "postcode": "11958"}}},
{"geometry": {"type": "Point", "coordinates": [-72.4609332262, 41.0462702554]}, "type": "Feature", "properties": {"collection_times": [{"days": "Mon-Fri", "time": "5:00pm"}, {"days": "Sat", "time": "1:00pm"}, {"days": "Sun", "time": "Closed"}], "id": "1195800004", "name": "USPS COLLECTION BOX - PO LOBBY", "address": {"city": "PECONIC", "state": "NY", "street": "2575 PECONIC LN", "postcode": "11958"}}},
{"geometry": {"type": "Point", "coordinates": [-72.6075768017, 40.8178261407]}, "type": "Feature", "properties": {"collection_times": [{"days": "Mon-Fri", "time": "5:00pm"}, {"days": "Sat", "time": "1:00pm"}, {"days": "Sun", "time": "Closed"}], "id": "1195900002", "name": "USPS COLLECTION BOX - BLUE BOX", "address": {"city": "QUOGUE", "state": "NY", "street": "6 MIDLAND ST", "postcode": "11959"}}},
{"geometry": {"type": "Point", "coordinates": [-72.6075768017, 40.8178261407]}, "type": "Feature", "properties": {"collection_times": [{"days": "Mon-Fri", "time": "5:00pm"}, {"days": "Sat", "time": "1:00pm"}, {"days": "Sun", "time": "Closed"}], "id": "1195900004", "name": "USPS COLLECTION BOX - PO LOBBY", "address": {"city": "QUOGUE", "state": "NY", "street": "6 MIDLAND ST", "postcode": "11959"}}},
{"geometry": {"type": "Point", "coordinates": [-72.7075413276, 40.8075775212]}, "type": "Feature", "properties": {"collection_times": [{"days": "Mon-Fri", "time": "4:30pm"}, {"days": "Sat", "time": "1:00pm"}, {"days": "Sun", "time": "Closed"}], "id": "1196000002", "name": "USPS COLLECTION BOX - BLUE BOX", "address": {"city": "REMSENBURG", "state": "NY", "street": "137 MAIN ST", "postcode": "11960"}}},
{"geometry": {"type": "Point", "coordinates": [-72.7075413276, 40.8075775212]}, "type": "Feature", "properties": {"collection_times": [{"days": "Mon-Fri", "time": "5:00pm"}, {"days": "Sat", "time": "1:30pm"}, {"days": "Sun", "time": "Closed"}], "id": "1196000004", "name": "USPS COLLECTION BOX - PO LOBBY", "address": {"city": "REMSENBURG", "state": "NY", "street": "137 MAIN ST", "postcode": "11960"}}},
{"geometry": {"type": "Point", "coordinates": [-72.8984325976, 40.8927226143]}, "type": "Feature", "properties": {"collection_times": [{"days": "Mon-Fri", "time": "5:00pm"}, {"days": "Sat", "time": "3:30pm"}, {"days": "Sun", "time": "Closed"}], "id": "1196100001", "name": "USPS COLLECTION BOX - BLUE BOX", "address": {"city": "RIDGE", "state": "NY", "street": "1700 ROUTE 25", "postcode": "11961"}}},
{"geometry": {"type": "Point", "coordinates": [-72.8984325976, 40.8927226143]}, "type": "Feature", "properties": {"collection_times": [{"days": "Mon-Fri", "time": "5:00pm"}, {"days": "Sat", "time": "3:30pm"}, {"days": "Sun", "time": "Closed"}], "id": "1196100002", "name": "USPS COLLECTION BOX - BLUE BOX", "address": {"city": "RIDGE", "state": "NY", "street": "1700 ROUTE 25", "postcode": "11961"}}},
{"geometry": {"type": "Point", "coordinates": [-72.8797958818, 40.8904874306]}, "type": "Feature", "properties": {"collection_times": [{"days": "Mon-Fri", "time": "9:00am"}, {"days": "Sat", "time": "1:00pm"}, {"days": "Sun", "time": "Closed"}], "id": "1196100005", "name": "USPS COLLECTION BOX - BLUE BOX", "address": {"city": "RIDGE", "state": "NY", "street": "000 LEISURE GLEN REC BLDG", "postcode": "11961"}}},
{"geometry": {"type": "Point", "coordinates": [-72.8945314741, 40.9249360192]}, "type": "Feature", "properties": {"collection_times": [{"days": "Mon-Fri", "time": "9:00am"}, {"days": "Sat", "time": "1:00pm"}, {"days": "Sun", "time": "Closed"}], "id": "1196100006", "name": "USPS COLLECTION BOX - BLUE BOX", "address": {"city": "RIDGE", "state": "NY", "street": "402 BRIDGWATER DR", "postcode": "11961"}}},
{"geometry": {"type": "Point", "coordinates": [-72.8984325976, 40.8927226143]}, "type": "Feature", "properties": {"collection_times": [{"days": "Mon-Fri", "time": "5:00pm"}, {"days": "Sat", "time": "3:30pm"}, {"days": "Sun", "time": "Closed"}], "id": "1196100011", "name": "USPS COLLECTION BOX - PO LOBBY", "address": {"city": "RIDGE", "state": "NY", "street": "1700 ROUTE 25", "postcode": "11961"}}},
{"geometry": {"type": "Point", "coordinates": [-72.2782760815, 40.9261817971]}, "type": "Feature", "properties": {"collection_times": [{"days": "Mon-Fri", "time": "3:45pm"}, {"days": "Sat", "time": "1:00pm"}, {"days": "Sun", "time": "Closed"}], "id": "1196200001", "name": "USPS COLLECTION BOX - BLUE BOX", "address": {"city": "SAGAPONACK", "state": "NY", "street": "542 SAGG MAIN ST", "postcode": "11962"}}},
{"geometry": {"type": "Point", "coordinates": [-72.2784926696, 40.9279762639]}, "type": "Feature", "properties": {"collection_times": [{"days": "Mon-Fri", "time": "3:45pm"}, {"days": "Sat", "time": "1:00pm"}, {"days": "Sun", "time": "Closed"}], "id": "1196200003", "name": "USPS COLLECTION BOX - PO LOBBY", "address": {"city": "SAGAPONACK", "state": "NY", "street": "542 MAIN ST", "postcode": "11962"}}},
{"geometry": {"type": "Point", "coordinates": [-72.2966657304, 41.0020322801]}, "type": "Feature", "properties": {"collection_times": [{"days": "Mon-Fri", "time": "5:00pm"}, {"days": "Sat", "time": "3:00pm"}, {"days": "Sun", "time": "Closed"}], "id": "1196300002", "name": "USPS COLLECTION BOX - BLUE BOX", "address": {"city": "SAG HARBOR", "state": "NY", "street": "21 LONG ISLAND AVE", "postcode": "11963"}}},
{"geometry": {"type": "Point", "coordinates": [-72.3057617963, 40.9701366384]}, "type": "Feature", "properties": {"collection_times": [{"days": "Mon-Sat", "time": "10:00am"}, {"days": "Sun", "time": "Closed"}], "id": "1196300005", "name": "USPS COLLECTION BOX - BLUE BOX", "address": {"city": "SAG HARBOR", "state": "NY", "street": "3500 NOYAC RD", "postcode": "11963"}}},
{"geometry": {"type": "Point", "coordinates": [-72.2955357835, 41.0014288456]}, "type": "Feature", "properties": {"collection_times": [{"days": "Mon-Fri", "time": "4:00pm"}, {"days": "Sat", "time": "3:00pm"}, {"days": "Sun", "time": "Closed"}], "id": "1196300007", "name": "USPS COLLECTION BOX - BLUE BOX", "address": {"city": "SAG HARBOR", "state": "NY", "street": "34 MAIN ST", "postcode": "11963"}}},
{"geometry": {"type": "Point", "coordinates": [-72.2966657304, 41.0020322801]}, "type": "Feature", "properties": {"collection_times": [{"days": "Mon-Fri", "time": "5:00pm"}, {"days": "Sat", "time": "3:00pm"}, {"days": "Sun", "time": "Closed"}], "id": "1196300009", "name": "USPS COLLECTION BOX - PO LOBBY", "address": {"city": "SAG HARBOR", "state": "NY", "street": "21 LONG ISLAND AVE", "postcode": "11963"}}},
{"geometry": {"type": "Point", "coordinates": [-72.3391315914, 41.0696537634]}, "type": "Feature", "properties": {"collection_times": [{"days": "Mon-Fri", "time": "4:00pm"}, {"days": "Sat", "time": "1:00pm"}, {"days": "Sun", "time": "Closed"}], "id": "1196400001", "name": "USPS COLLECTION BOX - BLUE BOX", "address": {"city": "SHELTER ISLAND", "state": "NY", "street": "45 N FERRY RD", "postcode": "11964"}}},
{"geometry": {"type": "Point", "coordinates": [-72.3391315914, 41.0696537634]}, "type": "Feature", "properties": {"collection_times": [{"days": "Mon-Fri", "time": "4:00pm"}, {"days": "Sat", "time": "1:00pm"}, {"days": "Sun", "time": "Closed"}], "id": "1196400002", "name": "USPS COLLECTION BOX - BLUE BOX", "address": {"city": "SHELTER ISLAND", "state": "NY", "street": "45 N FERRY RD", "postcode": "11964"}}},
{"geometry": {"type": "Point", "coordinates": [-72.3347983796, 41.0624706148]}, "type": "Feature", "properties": {"collection_times": [{"days": "Mon-Fri", "time": "4:00pm"}, {"days": "Sat", "time": "1:00pm"}, {"days": "Sun", "time": "Closed"}], "id": "1196400004", "name": "USPS COLLECTION BOX - PO LOBBY", "address": {"city": "SHELTER ISLAND", "state": "NY", "street": "1000 STATE RD", "postcode": "11964"}}},
{"geometry": {"type": "Point", "coordinates": [-72.354824725, 41.0830779818]}, "type": "Feature", "properties": {"collection_times": [{"days": "Mon-Fri", "time": "4:00pm"}, {"days": "Sat", "time": "1:00pm"}, {"days": "Sun", "time": "Closed"}], "id": "1196500001", "name": "USPS COLLECTION BOX - BLUE BOX", "address": {"city": "SHELTER IS HT", "state": "NY", "street": "6 GRAND AVE", "postcode": "11965"}}},
{"geometry": {"type": "Point", "coordinates": [-72.354824725, 41.0830779818]}, "type": "Feature", "properties": {"collection_times": [{"days": "Mon-Fri", "time": "4:00pm"}, {"days": "Sat", "time": "1:00pm"}, {"days": "Sun", "time": "Closed"}], "id": "1196500002", "name": "USPS COLLECTION BOX - BLUE BOX", "address": {"city": "SHELTER IS HT", "state": "NY", "street": "6 GRAND AVE", "postcode": "11965"}}},
{"geometry": {"type": "Point", "coordinates": [-72.354824725, 41.0830779818]}, "type": "Feature", "properties": {"collection_times": [{"days": "Mon-Fri", "time": "4:00pm"}, {"days": "Sat", "time": "1:00pm"}, {"days": "Sun", "time": "Closed"}], "id": "1196500005", "name": "USPS COLLECTION BOX - PO LOBBY", "address": {"city": "SHELTER IS HT", "state": "NY", "street": "6 GRAND AVE", "postcode": "11965"}}},
{"geometry": {"type": "Point", "coordinates": [-72.8743528544, 40.7986180509]}, "type": "Feature", "properties": {"collection_times": [{"days": "Mon-Sat", "time": "1:00pm"}, {"days": "Sun", "time": "Closed"}], "id": "1196700001", "name": "USPS COLLECTION BOX - BLUE BOX", "address": {"city": "SHIRLEY", "state": "NY", "street": "425 WM FLOYD PKW", "postcode": "11967"}}},
{"geometry": {"type": "Point", "coordinates": [-72.8595677442, 40.8025894732]}, "type": "Feature", "properties": {"collection_times": [{"days": "Mon-Sat", "time": "10:00am"}, {"days": "Sun", "time": "Closed"}], "id": "1196700003", "name": "USPS COLLECTION BOX - BLUE BOX", "address": {"city": "SHIRLEY", "state": "NY", "street": "999 MONTAUK HWY", "postcode": "11967"}}},
{"geometry": {"type": "Point", "coordinates": [-72.8850236459, 40.8365641811]}, "type": "Feature", "properties": {"collection_times": [{"days": "Mon-Sat", "time": "1:00pm"}, {"days": "Sun", "time": "Closed"}], "id": "1196700005", "name": "USPS COLLECTION BOX - BLUE BOX", "address": {"city": "SHIRLEY", "state": "NY", "street": "451 GLEN DR", "postcode": "11967"}}},
{"geometry": {"type": "Point", "coordinates": [-72.8743528544, 40.7986180509]}, "type": "Feature", "properties": {"collection_times": [{"days": "Mon-Sat", "time": "1:00pm"}, {"days": "Sun", "time": "Closed"}], "id": "1196700006", "name": "USPS COLLECTION BOX - BLUE BOX", "address": {"city": "SHIRLEY", "state": "NY", "street": "1500 WM FLOYD PKWY", "postcode": "11967"}}},
{"geometry": {"type": "Point", "coordinates": [-72.8704162069, 40.8007837521]}, "type": "Feature", "properties": {"collection_times": [{"days": "Mon-Fri", "time": "5:00pm"}, {"days": "Sat", "time": "3:30pm"}, {"days": "Sun", "time": "Closed"}], "id": "1196700009", "name": "USPS COLLECTION BOX - BLUE BOX", "address": {"city": "SHIRLEY", "state": "NY", "street": "800 MONTAUK HWY", "postcode": "11967"}}},
{"geometry": {"type": "Point", "coordinates": [-72.8679030182, 40.7724303098]}, "type": "Feature", "properties": {"collection_times": [{"days": "Mon-Sat", "time": "1:00pm"}, {"days": "Sun", "time": "Closed"}], "id": "1196700010", "name": "USPS COLLECTION BOX - BLUE BOX", "address": {"city": "SHIRLEY", "state": "NY", "street": "2 CORACI BLVD", "postcode": "11967"}}},
{"geometry": {"type": "Point", "coordinates": [-72.8704162069, 40.8007837521]}, "type": "Feature", "properties": {"collection_times": [{"days": "Mon-Fri", "time": "5:00pm"}, {"days": "Sat", "time": "3:30pm"}, {"days": "Sun", "time": "Closed"}], "id": "1196700014", "name": "USPS COLLECTION BOX - PO LOBBY", "address": {"city": "SHIRLEY", "state": "NY", "street": "800 MONTAUK HWY", "postcode": "11967"}}},
{"geometry": {"type": "Point", "coordinates": [-72.412441439, 40.9071134568]}, "type": "Feature", "properties": {"collection_times": [{"days": "Mon-Sat", "time": "1:00pm"}, {"days": "Sun", "time": "Closed"}], "id": "1196800003", "name": "USPS COLLECTION BOX - BLUE BOX", "address": {"city": "SOUTHAMPTON", "state": "NY", "street": "000 LITTLE PLAINS RD& MEETINGHOUSE", "postcode": "11968"}}},
{"geometry": {"type": "Point", "coordinates": [-72.3958858633, 40.8839077572]}, "type": "Feature", "properties": {"collection_times": [{"days": "Mon-Sat", "time": "1:00pm"}, {"days": "Sun", "time": "Closed"}], "id": "1196800004", "name": "USPS COLLECTION BOX - BLUE BOX", "address": {"city": "SOUTHAMPTON", "state": "NY", "street": "91 HILL ST", "postcode": "11968"}}},
{"geometry": {"type": "Point", "coordinates": [-72.412441439, 40.9071134568]}, "type": "Feature", "properties": {"collection_times": [{"days": "Mon-Sat", "time": "1:00pm"}, {"days": "Sun", "time": "Closed"}], "id": "1196800005", "name": "USPS COLLECTION BOX - BLUE BOX", "address": {"city": "SOUTHAMPTON", "state": "NY", "street": "000 HILL ST & HALSEY ST", "postcode": "11968"}}},
{"geometry": {"type": "Point", "coordinates": [-72.4039372454, 40.8885038658]}, "type": "Feature", "properties": {"collection_times": [{"days": "Mon-Sat", "time": "9:30am"}, {"days": "Sun", "time": "Closed"}], "id": "1196800006", "name": "USPS COLLECTION BOX - BLUE BOX", "address": {"city": "SOUTHAMPTON", "state": "NY", "street": "63 ARMANDE ST", "postcode": "11968"}}},
{"geometry": {"type": "Point", "coordinates": [-72.412441439, 40.9071134568]}, "type": "Feature", "properties": {"collection_times": [{"days": "Mon-Sat", "time": "1:00pm"}, {"days": "Sun", "time": "Closed"}], "id": "1196800007", "name": "USPS COLLECTION BOX - BLUE BOX", "address": {"city": "SOUTHAMPTON", "state": "NY", "street": "000 LAYTON AVE. & ELM ST", "postcode": "11968"}}},
{"geometry": {"type": "Point", "coordinates": [-72.412441439, 40.9071134568]}, "type": "Feature", "properties": {"collection_times": [{"days": "Mon-Sat", "time": "1:00pm"}, {"days": "Sun", "time": "Closed"}], "id": "1196800008", "name": "USPS COLLECTION BOX - BLUE BOX", "address": {"city": "SOUTHAMPTON", "state": "NY", "street": "000 WOOLEY ST & JOHN ST ST", "postcode": "11968"}}},
{"geometry": {"type": "Point", "coordinates": [-72.3921297031, 40.8833054896]}, "type": "Feature", "properties": {"collection_times": [{"days": "Mon-Fri", "time": "5:00pm"}, {"days": "Sat", "time": "1:00pm"}, {"days": "Sun", "time": "Closed"}], "id": "1196800009", "name": "USPS COLLECTION BOX - BLUE BOX", "address": {"city": "SOUTHAMPTON", "state": "NY", "street": "101 JOBS LN", "postcode": "11968"}}},
{"geometry": {"type": "Point", "coordinates": [-72.3897269213, 40.8841440397]}, "type": "Feature", "properties": {"collection_times": [{"days": "Mon-Fri", "time": "5:00pm"}, {"days": "Sat", "time": "1:00pm"}, {"days": "Sun", "time": "Closed"}], "id": "1196800010", "name": "USPS COLLECTION BOX - BLUE BOX", "address": {"city": "SOUTHAMPTON", "state": "NY", "street": "9 JOBS LN", "postcode": "11968"}}},
{"geometry": {"type": "Point", "coordinates": [-72.3894724101, 40.8852316437]}, "type": "Feature", "properties": {"collection_times": [{"days": "Mon-Fri", "time": "5:00pm"}, {"days": "Sat", "time": "1:00pm"}, {"days": "Sun", "time": "Closed"}], "id": "1196800011", "name": "USPS COLLECTION BOX - BLUE BOX", "address": {"city": "SOUTHAMPTON", "state": "NY", "street": "41 MAIN ST", "postcode": "11968"}}},
{"geometry": {"type": "Point", "coordinates": [-72.389477142, 40.8857651582]}, "type": "Feature", "properties": {"collection_times": [{"days": "Mon-Fri", "time": "5:00pm"}, {"days": "Sat", "time": "1:00pm"}, {"days": "Sun", "time": "Closed"}], "id": "1196800012", "name": "USPS COLLECTION BOX - BLUE BOX", "address": {"city": "SOUTHAMPTON", "state": "NY", "street": "60 MAIN ST", "postcode": "11968"}}},
{"geometry": {"type": "Point", "coordinates": [-72.412441439, 40.9071134568]}, "type": "Feature", "properties": {"collection_times": [{"days": "Mon-Fri", "time": "5:00pm"}, {"days": "Sat", "time": "1:00pm"}, {"days": "Sun", "time": "Closed"}], "id": "1196800015", "name": "USPS COLLECTION BOX - BLUE BOX", "address": {"city": "SOUTHAMPTON", "state": "NY", "street": "000 HAMPTON RD & MAIN ST", "postcode": "11968"}}},
{"geometry": {"type": "Point", "coordinates": [-72.4118397982, 40.9192168719]}, "type": "Feature", "properties": {"collection_times": [{"days": "Mon-Sat", "time": "1:00pm"}, {"days": "Sun", "time": "Closed"}], "id": "1196800016", "name": "USPS COLLECTION BOX - BLUE BOX", "address": {"city": "SOUTHAMPTON", "state": "NY", "street": "1282 N SEA RD", "postcode": "11968"}}},
{"geometry": {"type": "Point", "coordinates": [-72.412441439, 40.9071134568]}, "type": "Feature", "properties": {"collection_times": [{"days": "Mon-Sat", "time": "1:00pm"}, {"days": "Sun", "time": "Closed"}], "id": "1196800018", "name": "USPS COLLECTION BOX - BLUE BOX", "address": {"city": "SOUTHAMPTON", "state": "NY", "street": "138 OLD TOWN RD", "postcode": "11968"}}},
{"geometry": {"type": "Point", "coordinates": [-72.3810971069, 40.902313105]}, "type": "Feature", "properties": {"collection_times": [{"days": "Mon-Fri", "time": "5:00pm"}, {"days": "Sat", "time": "1:00pm"}, {"days": "Sun", "time": "Closed"}], "id": "1196800019", "name": "USPS COLLECTION BOX - BLUE BOX", "address": {"city": "SOUTHAMPTON", "state": "NY", "street": "33 FLYING POINT RD", "postcode": "11968"}}},
{"geometry": {"type": "Point", "coordinates": [-72.3847791003, 40.9008174902]}, "type": "Feature", "properties": {"collection_times": [{"days": "Mon-Fri", "time": "5:00pm"}, {"days": "Sat", "time": "1:00pm"}, {"days": "Sun", "time": "Closed"}], "id": "1196800020", "name": "USPS COLLECTION BOX - BLUE BOX", "address": {"city": "SOUTHAMPTON", "state": "NY", "street": "395 COUNTY ROAD 39A", "postcode": "11968"}}},
{"geometry": {"type": "Point", "coordinates": [-72.4056681899, 40.9051715769]}, "type": "Feature", "properties": {"collection_times": [{"days": "Mon-Fri", "time": "5:00pm"}, {"days": "Sat", "time": "3:00pm"}, {"days": "Sun", "time": "Closed"}], "id": "1196800021", "name": "USPS COLLECTION BOX - EXPRESS", "address": {"city": "SOUTHAMPTON", "state": "NY", "street": "123 N SEA RD", "postcode": "11968"}}},
{"geometry": {"type": "Point", "coordinates": [-72.3944503262, 40.8909625628]}, "type": "Feature", "properties": {"collection_times": [{"days": "Mon-Fri", "time": "5:00pm"}, {"days": "Sat", "time": "3:00pm"}, {"days": "Sun", "time": "Closed"}], "id": "1196800023", "name": "USPS COLLECTION BOX - BLUE BOX", "address": {"city": "SOUTHAMPTON", "state": "NY", "street": "123 N SEA RD", "postcode": "11968"}}},
{"geometry": {"type": "Point", "coordinates": [-72.3944503262, 40.8909625628]}, "type": "Feature", "properties": {"collection_times": [{"days": "Mon-Fri", "time": "5:00pm"}, {"days": "Sat", "time": "3:00pm"}, {"days": "Sun", "time": "Closed"}], "id": "1196800024", "name": "USPS COLLECTION BOX - BLUE BOX", "address": {"city": "SOUTHAMPTON", "state": "NY", "street": "123 N SEA RD", "postcode": "11968"}}},
{"geometry": {"type": "Point", "coordinates": [-72.385268174, 40.8879832063]}, "type": "Feature", "properties": {"collection_times": [{"days": "Mon-Fri", "time": "5:00pm"}, {"days": "Sat", "time": "1:00pm"}, {"days": "Sun", "time": "Closed"}], "id": "1196800026", "name": "USPS COLLECTION BOX - BLUE BOX", "address": {"city": "SOUTHAMPTON", "state": "NY", "street": "116 HAMPTON RD", "postcode": "11968"}}},
{"geometry": {"type": "Point", "coordinates": [-72.3911439311, 40.8863838458]}, "type": "Feature", "properties": {"collection_times": [{"days": "Mon-Fri", "time": "5:00pm"}, {"days": "Sat", "time": "1:00pm"}, {"days": "Sun", "time": "Closed"}], "id": "1196800027", "name": "USPS COLLECTION BOX - BLUE BOX", "address": {"city": "SOUTHAMPTON", "state": "NY", "street": "38 NUGENT ST", "postcode": "11968"}}},
{"geometry": {"type": "Point", "coordinates": [-72.4056681899, 40.9051715769]}, "type": "Feature", "properties": {"collection_times": [{"days": "Mon-Fri", "time": "5:00pm"}, {"days": "Sat", "time": "1:00pm"}, {"days": "Sun", "time": "Closed"}], "id": "1196800028", "name": "USPS COLLECTION BOX - EXPRESS", "address": {"city": "SOUTHAMPTON", "state": "NY", "street": "116 HAMPTON RD", "postcode": "11968"}}},
{"geometry": {"type": "Point", "coordinates": [-72.412441439, 40.9071134568]}, "type": "Feature", "properties": {"collection_times": [{"days": "Mon-Fri", "time": "4:30pm"}, {"days": "Sat", "time": "1:00pm"}, {"days": "Sun", "time": "Closed"}], "id": "1196800029", "name": "USPS COLLECTION BOX - BLUE BOX", "address": {"city": "SOUTHAMPTON", "state": "NY", "street": "2102 MONTAUK HWY", "postcode": "11968"}}},
{"geometry": {"type": "Point", "coordinates": [-72.4056681899, 40.9051715769]}, "type": "Feature", "properties": {"collection_times": [{"days": "Mon-Fri", "time": "5:00pm"}, {"days": "Sat", "time": "1:00pm"}, {"days": "Sun", "time": "Closed"}], "id": "1196800030", "name": "USPS COLLECTION BOX - EXPRESS", "address": {"city": "SOUTHAMPTON", "state": "NY", "street": "33 FLYING POINT RD", "postcode": "11968"}}},
{"geometry": {"type": "Point", "coordinates": [-72.4056681899, 40.9051715769]}, "type": "Feature", "properties": {"collection_times": [{"days": "Mon-Sat", "time": "1:00pm"}, {"days": "Sun", "time": "Closed"}], "id": "1196800031", "name": "USPS COLLECTION BOX - EXPRESS", "address": {"city": "SOUTHAMPTON", "state": "NY", "street": "1282 N SEA RD", "postcode": "11968"}}},
{"geometry": {"type": "Point", "coordinates": [-72.3807575514, 40.891509607]}, "type": "Feature", "properties": {"collection_times": [{"days": "Mon-Fri", "time": "5:00pm"}, {"days": "Sat", "time": "1:00pm"}, {"days": "Sun", "time": "Closed"}], "id": "1196800034", "name": "USPS COLLECTION BOX - BLUE BOX", "address": {"city": "SOUTHAMPTON", "state": "NY", "street": "300 HAMPTON RD", "postcode": "11968"}}},
{"geometry": {"type": "Point", "coordinates": [-72.4056681899, 40.9051715769]}, "type": "Feature", "properties": {"collection_times": [{"days": "Mon-Fri", "time": "5:00pm"}, {"days": "Sat", "time": "1:00pm"}, {"days": "Sun", "time": "Closed"}], "id": "1196800035", "name": "USPS COLLECTION BOX - EXPRESS", "address": {"city": "SOUTHAMPTON", "state": "NY", "street": "300 HAMPTON RD", "postcode": "11968"}}},
{"geometry": {"type": "Point", "coordinates": [-72.3944503262, 40.8909625628]}, "type": "Feature", "properties": {"collection_times": [{"days": "Mon-Fri", "time": "5:00pm"}, {"days": "Sat", "time": "3:00pm"}, {"days": "Sun", "time": "Closed"}], "id": "1196800046", "name": "USPS COLLECTION BOX - BLUE BOX", "address": {"city": "SOUTHAMPTON", "state": "NY", "street": "123 N SEA RD", "postcode": "11968"}}},
{"geometry": {"type": "Point", "coordinates": [-72.3944503262, 40.8909625628]}, "type": "Feature", "properties": {"collection_times": [{"days": "Mon-Fri", "time": "5:00pm"}, {"days": "Sat", "time": "3:00pm"}, {"days": "Sun", "time": "Closed"}], "id": "1196800048", "name": "USPS COLLECTION BOX - PO LOBBY", "address": {"city": "SOUTHAMPTON", "state": "NY", "street": "123 N SEA RD", "postcode": "11968"}}},
{"geometry": {"type": "Point", "coordinates": [-72.5743114754, 40.9372426238]}, "type": "Feature", "properties": {"collection_times": [{"days": "Mon-Fri", "time": "4:00pm"}, {"days": "Sat", "time": "12:00pm"}, {"days": "Sun", "time": "Closed"}], "id": "1197000000", "name": "USPS COLLECTION BOX - BLUE BOX", "address": {"city": "SOUTH JAMESPORT", "state": "NY", "street": "70 2ND ST", "postcode": "11970"}}},
{"geometry": {"type": "Point", "coordinates": [-72.5743114754, 40.9372426238]}, "type": "Feature", "properties": {"collection_times": [{"days": "Mon-Fri", "time": "4:00pm"}, {"days": "Sat", "time": "12:00pm"}, {"days": "Sun", "time": "Closed"}], "id": "1197000002", "name": "USPS COLLECTION BOX - PO LOBBY", "address": {"city": "SOUTH JAMESPORT", "state": "NY", "street": "70 2 ND ST", "postcode": "11970"}}},
{"geometry": {"type": "Point", "coordinates": [-72.4296145927, 41.0653276944]}, "type": "Feature", "properties": {"collection_times": [{"days": "Mon-Fri", "time": "5:00pm"}, {"days": "Sat", "time": "3:00pm"}, {"days": "Sun", "time": "Closed"}], "id": "1197100002", "name": "USPS COLLECTION BOX - BLUE BOX", "address": {"city": "SOUTHOLD", "state": "NY", "street": "710 TRAVELER ST", "postcode": "11971"}}},
{"geometry": {"type": "Point", "coordinates": [-72.4283160507, 41.0641671998]}, "type": "Feature", "properties": {"collection_times": [{"days": "Mon-Sat", "time": "1:00pm"}, {"days": "Sun", "time": "Closed"}], "id": "1197100004", "name": "USPS COLLECTION BOX - BLUE BOX", "address": {"city": "SOUTHOLD", "state": "NY", "street": "53895 ROUTE 25", "postcode": "11971"}}},
{"geometry": {"type": "Point", "coordinates": [-72.4296145927, 41.0653276944]}, "type": "Feature", "properties": {"collection_times": [{"days": "Mon-Fri", "time": "5:00pm"}, {"days": "Sat", "time": "1:00pm"}, {"days": "Sun", "time": "Closed"}], "id": "1197100007", "name": "USPS COLLECTION BOX - PO LOBBY", "address": {"city": "SOUTHOLD", "state": "NY", "street": "710 TRAVELER ST", "postcode": "11971"}}},
{"geometry": {"type": "Point", "coordinates": [-72.7006093176, 40.8191498151]}, "type": "Feature", "properties": {"collection_times": [{"days": "Mon-Fri", "time": "4:30pm"}, {"days": "Sat", "time": "12:30pm"}, {"days": "Sun", "time": "Closed"}], "id": "1197200002", "name": "USPS COLLECTION BOX - BLUE BOX", "address": {"city": "SPEONK", "state": "NY", "street": "323 MONTAUK HWY", "postcode": "11972"}}},
{"geometry": {"type": "Point", "coordinates": [-72.7006093176, 40.8191498151]}, "type": "Feature", "properties": {"collection_times": [{"days": "Mon-Fri", "time": "4:30pm"}, {"days": "Sat", "time": "12:30pm"}, {"days": "Sun", "time": "Closed"}], "id": "1197200004", "name": "USPS COLLECTION BOX - PO LOBBY", "address": {"city": "SPEONK", "state": "NY", "street": "323 MONTAUK HWY", "postcode": "11972"}}},
{"geometry": {"type": "Point", "coordinates": [-72.2469821397, 40.9476771886]}, "type": "Feature", "properties": {"collection_times": [{"days": "Mon-Fri", "time": "5:00pm"}, {"days": "Sat", "time": "1:00pm"}, {"days": "Sun", "time": "Closed"}], "id": "1197500001", "name": "USPS COLLECTION BOX - BLUE BOX", "address": {"city": "WAINSCOTT", "state": "NY", "street": "357 MONTAUK HWY", "postcode": "11975"}}},
{"geometry": {"type": "Point", "coordinates": [-72.2469821397, 40.9476771886]}, "type": "Feature", "properties": {"collection_times": [{"days": "Mon-Fri", "time": "5:00pm"}, {"days": "Sat", "time": "1:00pm"}, {"days": "Sun", "time": "Closed"}], "id": "1197500003", "name": "USPS COLLECTION BOX - BLUE BOX", "address": {"city": "WAINSCOTT", "state": "NY", "street": "357 MONTAUK HWY", "postcode": "11975"}}},
{"geometry": {"type": "Point", "coordinates": [-72.3546449152, 40.9096940522]}, "type": "Feature", "properties": {"collection_times": [{"days": "Mon-Fri", "time": "4:30pm"}, {"days": "Sat", "time": "1:00pm"}, {"days": "Sun", "time": "Closed"}], "id": "1197600002", "name": "USPS COLLECTION BOX - BLUE BOX", "address": {"city": "WATER MILL", "state": "NY", "street": "670 MONTAUK HWY", "postcode": "11976"}}},
{"geometry": {"type": "Point", "coordinates": [-72.350447515, 40.9181327283]}, "type": "Feature", "properties": {"collection_times": [{"days": "Mon-Fri", "time": "4:30pm"}, {"days": "Sat", "time": "1:00pm"}, {"days": "Sun", "time": "Closed"}], "id": "1197600003", "name": "USPS COLLECTION BOX - EXPRESS", "address": {"city": "WATER MILL", "state": "NY", "street": "670 MONTAUK HWY", "postcode": "11976"}}},
{"geometry": {"type": "Point", "coordinates": [-72.3546449152, 40.9096940522]}, "type": "Feature", "properties": {"collection_times": [{"days": "Mon-Fri", "time": "4:30pm"}, {"days": "Sat", "time": "1:00pm"}, {"days": "Sun", "time": "Closed"}], "id": "1197600005", "name": "USPS COLLECTION BOX - PO LOBBY", "address": {"city": "WATER MILL", "state": "NY", "street": "670 MONTAUK HWY", "postcode": "11976"}}},
{"geometry": {"type": "Point", "coordinates": [-72.6579354836, 40.8221397103]}, "type": "Feature", "properties": {"collection_times": [{"days": "Mon-Fri", "time": "5:00pm"}, {"days": "Sat", "time": "1:00pm"}, {"days": "Sun", "time": "Closed"}], "id": "1197700002", "name": "USPS COLLECTION BOX - BLUE BOX", "address": {"city": "WESTHAMPTON", "state": "NY", "street": "408 MILL RD", "postcode": "11977"}}},
{"geometry": {"type": "Point", "coordinates": [-72.6579354836, 40.8221397103]}, "type": "Feature", "properties": {"collection_times": [{"days": "Mon-Fri", "time": "5:00pm"}, {"days": "Sat", "time": "1:00pm"}, {"days": "Sun", "time": "Closed"}], "id": "1197700004", "name": "USPS COLLECTION BOX - PO LOBBY", "address": {"city": "WESTHAMPTON", "state": "NY", "street": "408 MILL RD", "postcode": "11977"}}},
{"geometry": {"type": "Point", "coordinates": [-72.6450165073, 40.8108534967]}, "type": "Feature", "properties": {"collection_times": [{"days": "Mon-Sat", "time": "1:00pm"}, {"days": "Sun", "time": "Closed"}], "id": "1197800001", "name": "USPS COLLECTION BOX - BLUE BOX", "address": {"city": "W HAMPTON BCH", "state": "NY", "street": "70 SUNSET AVE", "postcode": "11978"}}},
{"geometry": {"type": "Point", "coordinates": [-72.646796742, 40.8203593571]}, "type": "Feature", "properties": {"collection_times": [{"days": "Mon-Sat", "time": "1:00pm"}, {"days": "Sun", "time": "Closed"}], "id": "1197800004", "name": "USPS COLLECTION BOX - BLUE BOX", "address": {"city": "W HAMPTON BCH", "state": "NY", "street": "87 OAK ST", "postcode": "11978"}}},
{"geometry": {"type": "Point", "coordinates": [-72.6407364432, 40.8100865414]}, "type": "Feature", "properties": {"collection_times": [{"days": "Mon-Fri", "time": "5:00pm"}, {"days": "Sat", "time": "1:00pm"}, {"days": "Sun", "time": "Closed"}], "id": "1197800008", "name": "USPS COLLECTION BOX - BLUE BOX", "address": {"city": "W HAMPTON BCH", "state": "NY", "street": "170 MAIN ST", "postcode": "11978"}}},
{"geometry": {"type": "Point", "coordinates": [-72.6461077592, 40.8140741915]}, "type": "Feature", "properties": {"collection_times": [{"days": "Mon-Fri", "time": "5:00pm"}, {"days": "Sat", "time": "1:00pm"}, {"days": "Sun", "time": "Closed"}], "id": "1197800010", "name": "USPS COLLECTION BOX - EXPRESS", "address": {"city": "W HAMPTON BCH", "state": "NY", "street": "170 MAIN ST", "postcode": "11978"}}},
{"geometry": {"type": "Point", "coordinates": [-72.6407364432, 40.8100865414]}, "type": "Feature", "properties": {"collection_times": [{"days": "Mon-Fri", "time": "5:00pm"}, {"days": "Sat", "time": "1:00pm"}, {"days": "Sun", "time": "Closed"}], "id": "1197800014", "name": "USPS COLLECTION BOX - PO LOBBY", "address": {"city": "W HAMPTON BCH", "state": "NY", "street": "170 MAIN ST", "postcode": "11978"}}},
{"geometry": {"type": "Point", "coordinates": [-72.919908905, 40.8307746781]}, "type": "Feature", "properties": {"collection_times": [{"days": "Mon-Sat", "time": "1:00pm"}, {"days": "Sun", "time": "Closed"}], "id": "1198000001", "name": "USPS COLLECTION BOX - BLUE BOX", "address": {"city": "YAPHANK", "state": "NY", "street": "1 CLUBHOUSE RD", "postcode": "11980"}}},
{"geometry": {"type": "Point", "coordinates": [-72.9343694443, 40.8422447716]}, "type": "Feature", "properties": {"collection_times": [{"days": "Mon-Fri", "time": "5:00pm"}, {"days": "Sat", "time": "1:00pm"}, {"days": "Sun", "time": "Closed"}], "id": "1198000003", "name": "USPS COLLECTION BOX - BLUE BOX", "address": {"city": "YAPHANK", "state": "NY", "street": "5 E MAIN ST", "postcode": "11980"}}},
{"geometry": {"type": "Point", "coordinates": [-72.9343694443, 40.8422447716]}, "type": "Feature", "properties": {"collection_times": [{"days": "Mon-Fri", "time": "5:00pm"}, {"days": "Sat", "time": "1:00pm"}, {"days": "Sun", "time": "Closed"}], "id": "1198000006", "name": "USPS COLLECTION BOX - PO LOBBY", "address": {"city": "YAPHANK", "state": "NY", "street": "5 E MAIN ST", "postcode": "11980"}}}
]}
