{"type": "FeatureCollection", "features": [
{"geometry": {"type": "Point", "coordinates": [-73.925693679, 42.4687263188]}, "type": "Feature", "properties": {"collection_times": [{"days": "Mon-Fri,Sun", "time": "Closed"}, {"days": "Sat", "time": "11:15am"}], "id": "1200700001", "name": "USPS COLLECTION BOX - BLUE BOX", "address": {"city": "ALCOVE", "state": "NY", "street": "83 COUNTY ROUTE 111", "postcode": "12007"}}},
{"geometry": {"type": "Point", "coordinates": [-73.9255406028, 42.4688649884]}, "type": "Feature", "properties": {"collection_times": [{"days": "Mon-Fri", "time": "2:00pm"}, {"days": "Sat", "time": "11:15am"}, {"days": "Sun", "time": "Closed"}], "id": "1200700002", "name": "USPS COLLECTION BOX - PO LOBBY", "address": {"city": "ALCOVE", "state": "NY", "street": "83 COUNTY ROUTE 111", "postcode": "12007"}}},
{"geometry": {"type": "Point", "coordinates": [-74.0318879053, 42.7007341458]}, "type": "Feature", "properties": {"collection_times": [{"days": "Mon-Fri", "time": "4:45pm"}, {"days": "Sat", "time": "12:00pm"}, {"days": "Sun", "time": "Closed"}], "id": "1200900001", "name": "USPS COLLECTION BOX - BLUE BOX", "address": {"city": "ALTAMONT", "state": "NY", "street": "108 PARK ST", "postcode": "12009"}}},
{"geometry": {"type": "Point", "coordinates": [-73.9311792737, 42.7138888754]}, "type": "Feature", "properties": {"collection_times": [{"days": "Mon-Sat", "time": "9:00am"}, {"days": "Sun", "time": "Closed"}], "id": "1200900003", "name": "USPS COLLECTION BOX - BLUE BOX", "address": {"city": "ALTAMONT", "state": "NY", "street": "2568 WESTERN AVE", "postcode": "12009"}}},
{"geometry": {"type": "Point", "coordinates": [-74.0318879053, 42.7007341458]}, "type": "Feature", "properties": {"collection_times": [{"days": "Mon-Fri", "time": "4:45pm"}, {"days": "Sat", "time": "12:00pm"}, {"days": "Sun", "time": "Closed"}], "id": "1200900005", "name": "USPS COLLECTION BOX - PO LOBBY", "address": {"city": "ALTAMONT", "state": "NY", "street": "108 PARK ST", "postcode": "12009"}}},
{"geometry": {"type": "Point", "coordinates": [-73.9344783323, 42.7156867471]}, "type": "Feature", "properties": {"collection_times": [{"days": "Mon-Sat", "time": "9:00am"}, {"days": "Sun", "time": "Closed"}], "id": "1200900006", "name": "USPS COLLECTION BOX - BLUE BOX", "address": {"city": "ALTAMONT", "state": "NY", "street": "5239 WESTERN TPKE", "postcode": "12009"}}},
{"geometry": {"type": "Point", "coordinates": [-74.0242484663, 42.7008847174]}, "type": "Feature", "properties": {"collection_times": [{"days": "Mon-Sat", "time": "10:00am"}, {"days": "Sun", "time": "Closed"}], "id": "1200900007", "name": "USPS COLLECTION BOX - BLUE BOX", "address": {"city": "ALTAMONT", "state": "NY", "street": "15 VAN EVERA DR", "postcode": "12009"}}},
{"geometry": {"type": "Point", "coordinates": [-74.1926461139, 42.9383101607]}, "type": "Feature", "properties": {"collection_times": [{"days": "Mon-Sat", "time": "9:00am"}, {"days": "Sun", "time": "Closed"}], "id": "1201000009", "name": "USPS COLLECTION BOX - BLUE BOX", "address": {"city": "AMSTERDAM", "state": "NY", "street": "39 MARKET ST", "postcode": "12010"}}},
{"geometry": {"type": "Point", "coordinates": [-74.1694126011, 42.9086486055]}, "type": "Feature", "properties": {"collection_times": [{"days": "Mon-Sat", "time": "9:00am"}, {"days": "Sun", "time": "Closed"}], "id": "1201000015", "name": "USPS COLLECTION BOX - BLUE BOX", "address": {"city": "AMSTERDAM", "state": "NY", "street": "2500 RIVERFRONT CTR", "postcode": "12010"}}},
{"geometry": {"type": "Point", "coordinates": [-74.1868685423, 42.9666313812]}, "type": "Feature", "properties": {"collection_times": [{"days": "Mon-Sat", "time": "10:45am"}, {"days": "Sun", "time": "Closed"}], "id": "1201000019", "name": "USPS COLLECTION BOX - BLUE BOX", "address": {"city": "AMSTERDAM", "state": "NY", "street": "4901 STATE HIGHWAY 30", "postcode": "12010"}}},
{"geometry": {"type": "Point", "coordinates": [-74.1734916423, 42.9356733451]}, "type": "Feature", "properties": {"collection_times": [{"days": "Mon-Sat", "time": "10:00am"}, {"days": "Sun", "time": "Closed"}], "id": "1201000033", "name": "USPS COLLECTION BOX - BLUE BOX", "address": {"city": "AMSTERDAM", "state": "NY", "street": "401 VROOMAN AVE", "postcode": "12010"}}},
{"geometry": {"type": "Point", "coordinates": [-74.1489996599, 42.9704109351]}, "type": "Feature", "properties": {"collection_times": [{"days": "Mon-Sat", "time": "9:00am"}, {"days": "Sun", "time": "Closed"}], "id": "1201000034", "name": "USPS COLLECTION BOX - BLUE BOX", "address": {"city": "AMSTERDAM", "state": "NY", "street": "61 CHURCH ST", "postcode": "12010"}}},
{"geometry": {"type": "Point", "coordinates": [-74.1915316397, 42.936759791]}, "type": "Feature", "properties": {"collection_times": [{"days": "Mon-Fri", "time": "5:00pm"}, {"days": "Sat", "time": "4:15pm"}, {"days": "Sun", "time": "Closed"}], "id": "1201000037", "name": "USPS COLLECTION BOX - BLUE BOX", "address": {"city": "AMSTERDAM", "state": "NY", "street": "10 CHURCH ST", "postcode": "12010"}}},
{"geometry": {"type": "Point", "coordinates": [-75.6107001075, 42.9370820155]}, "type": "Feature", "properties": {"collection_times": [{"days": "Mon-Fri", "time": "5:00pm"}, {"days": "Sat", "time": "4:15pm"}, {"days": "Sun", "time": "Closed"}], "id": "1201000038", "name": "USPS COLLECTION BOX - BLUE BOX", "address": {"city": "AMSTERDAM", "state": "NY", "street": "10 CHURCH ST", "postcode": "12010"}}},
{"geometry": {"type": "Point", "coordinates": [-74.170761373, 42.9473444183]}, "type": "Feature", "properties": {"collection_times": [{"days": "Mon-Sat", "time": "9:30am"}, {"days": "Sun", "time": "Closed"}], "id": "1201000042", "name": "USPS COLLECTION BOX - BLUE BOX", "address": {"city": "AMSTERDAM", "state": "NY", "street": "36 MCNEIR AVE", "postcode": "12010"}}},
{"geometry": {"type": "Point", "coordinates": [-74.192944252, 42.9403148229]}, "type": "Feature", "properties": {"collection_times": [{"days": "Mon-Sat", "time": "9:00am"}, {"days": "Sun", "time": "Closed"}], "id": "1201000043", "name": "USPS COLLECTION BOX - BLUE BOX", "address": {"city": "AMSTERDAM", "state": "NY", "street": "1 KIMBALL ST", "postcode": "12010"}}},
{"geometry": {"type": "Point", "coordinates": [-74.1790811234, 42.9373590617]}, "type": "Feature", "properties": {"collection_times": [{"days": "Mon-Sat", "time": "9:00am"}, {"days": "Sun", "time": "Closed"}], "id": "1201000054", "name": "USPS COLLECTION BOX - BLUE BOX", "address": {"city": "AMSTERDAM", "state": "NY", "street": "161 CHURCH ST", "postcode": "12010"}}},
{"geometry": {"type": "Point", "coordinates": [-74.2006653927, 42.9459556245]}, "type": "Feature", "properties": {"collection_times": [{"days": "Mon-Sat", "time": "9:30am"}, {"days": "Sun", "time": "Closed"}], "id": "1201000057", "name": "USPS COLLECTION BOX - BLUE BOX", "address": {"city": "AMSTERDAM", "state": "NY", "street": "191 GUY PARK AVE", "postcode": "12010"}}},
{"geometry": {"type": "Point", "coordinates": [-74.2157067159, 42.9535372085]}, "type": "Feature", "properties": {"collection_times": [{"days": "Mon-Sat", "time": "9:30am"}, {"days": "Sun", "time": "Closed"}], "id": "1201000060", "name": "USPS COLLECTION BOX - BLUE BOX", "address": {"city": "AMSTERDAM", "state": "NY", "street": "427 GUY PARK AVE", "postcode": "12010"}}},
{"geometry": {"type": "Point", "coordinates": [-74.1858701249, 42.9593384392]}, "type": "Feature", "properties": {"collection_times": [{"days": "Mon-Sat", "time": "11:00am"}, {"days": "Sun", "time": "Closed"}], "id": "1201000073", "name": "USPS COLLECTION BOX - BLUE BOX", "address": {"city": "AMSTERDAM", "state": "NY", "street": "5010 STATE HIGHWAY 30", "postcode": "12010"}}},
{"geometry": {"type": "Point", "coordinates": [-74.1755891942, 42.9450114925]}, "type": "Feature", "properties": {"collection_times": [{"days": "Mon-Sat", "time": "9:00am"}, {"days": "Sun", "time": "Closed"}], "id": "1201000074", "name": "USPS COLLECTION BOX - BLUE BOX", "address": {"city": "AMSTERDAM", "state": "NY", "street": "141 SANFORD FARMS SHOPPING CTR", "postcode": "12010"}}},
{"geometry": {"type": "Point", "coordinates": [-74.1915316397, 42.936759791]}, "type": "Feature", "properties": {"collection_times": [{"days": "Mon-Fri", "time": "5:00pm"}, {"days": "Sat", "time": "4:15pm"}, {"days": "Sun", "time": "Closed"}], "id": "1201000075", "name": "USPS COLLECTION BOX - PO LOBBY", "address": {"city": "AMSTERDAM", "state": "NY", "street": "10 CHURCH ST", "postcode": "12010"}}},
{"geometry": {"type": "Point", "coordinates": [-75.6107001075, 42.9370820155]}, "type": "Feature", "properties": {"collection_times": [{"days": "Mon-Fri", "time": "5:00pm"}, {"days": "Sat", "time": "4:15pm"}, {"days": "Sun", "time": "Closed"}], "id": "1201000077", "name": "USPS COLLECTION BOX - BLUE BOX", "address": {"city": "AMSTERDAM", "state": "NY", "street": "10 CHURCH ST", "postcode": "12010"}}},
{"geometry": {"type": "Point", "coordinates": [-73.806404097, 42.2641737864]}, "type": "Feature", "properties": {"collection_times": [{"days": "Mon-Fri", "time": "5:00pm"}, {"days": "Sat", "time": "11:00am"}, {"days": "Sun", "time": "Closed"}], "id": "1201500001", "name": "USPS COLLECTION BOX - BLUE BOX", "address": {"city": "ATHENS", "state": "NY", "street": "64 N WASHINGTON ST", "postcode": "12015"}}},
{"geometry": {"type": "Point", "coordinates": [-73.8087570024, 42.2602913151]}, "type": "Feature", "properties": {"collection_times": [{"days": "Mon-Sat", "time": "9:00am"}, {"days": "Sun", "time": "Closed"}], "id": "1201500004", "name": "USPS COLLECTION BOX - BLUE BOX", "address": {"city": "ATHENS", "state": "NY", "street": "1 N WASHINGTON ST", "postcode": "12015"}}},
{"geometry": {"type": "Point", "coordinates": [-73.7966765121, 42.3079651494]}, "type": "Feature", "properties": {"collection_times": [{"days": "Mon-Sat", "time": "8:45am"}, {"days": "Sun", "time": "Closed"}], "id": "1201500007", "name": "USPS COLLECTION BOX - BLUE BOX", "address": {"city": "ATHENS", "state": "NY", "street": "250 TOMMY TRL", "postcode": "12015"}}},
{"geometry": {"type": "Point", "coordinates": [-73.8119974341, 42.295081693]}, "type": "Feature", "properties": {"collection_times": [{"days": "Mon-Sat", "time": "9:30am"}, {"days": "Sun", "time": "Closed"}], "id": "1201500008", "name": "USPS COLLECTION BOX - BLUE BOX", "address": {"city": "ATHENS", "state": "NY", "street": "1 PINE POINT RD", "postcode": "12015"}}},
{"geometry": {"type": "Point", "coordinates": [-73.806404097, 42.2641737864]}, "type": "Feature", "properties": {"collection_times": [{"days": "Mon-Fri", "time": "4:30pm"}, {"days": "Sat", "time": "11:00am"}, {"days": "Sun", "time": "Closed"}], "id": "1201500015", "name": "USPS COLLECTION BOX - PO LOBBY", "address": {"city": "ATHENS", "state": "NY", "street": "64 N WASHINGTON ST", "postcode": "12015"}}},
{"geometry": {"type": "Point", "coordinates": [-73.473391904, 42.309884333]}, "type": "Feature", "properties": {"collection_times": [{"days": "Mon-Fri", "time": "4:30pm"}, {"days": "Sat", "time": "11:15am"}, {"days": "Sun", "time": "Closed"}], "id": "1201700001", "name": "USPS COLLECTION BOX - BLUE BOX", "address": {"city": "AUSTERLITZ", "state": "NY", "street": "6 E HILL RD", "postcode": "12017"}}},
{"geometry": {"type": "Point", "coordinates": [-73.473391904, 42.309884333]}, "type": "Feature", "properties": {"collection_times": [{"days": "Mon-Fri", "time": "11:45am"}, {"days": "Sat", "time": "11:15am"}, {"days": "Sun", "time": "Closed"}], "id": "1201700002", "name": "USPS COLLECTION BOX - PO LOBBY", "address": {"city": "AUSTERLITZ", "state": "NY", "street": "6 E HILL RD", "postcode": "12017"}}},
{"geometry": {"type": "Point", "coordinates": [-73.5470900282, 42.6354147006]}, "type": "Feature", "properties": {"collection_times": [{"days": "Mon-Fri", "time": "5:00pm"}, {"days": "Sat", "time": "12:00pm"}, {"days": "Sun", "time": "Closed"}], "id": "1201800002", "name": "USPS COLLECTION BOX - BLUE BOX", "address": {"city": "AVERILL PARK", "state": "NY", "street": "2951 ROUTE 43", "postcode": "12018"}}},
{"geometry": {"type": "Point", "coordinates": [-73.5470900282, 42.6354147006]}, "type": "Feature", "properties": {"collection_times": [{"days": "Mon-Fri", "time": "5:00pm"}, {"days": "Sat", "time": "12:00pm"}, {"days": "Sun", "time": "Closed"}], "id": "1201800003", "name": "USPS COLLECTION BOX - PO LOBBY", "address": {"city": "AVERILL PARK", "state": "NY", "street": "2951 NY 43", "postcode": "12018"}}},
{"geometry": {"type": "Point", "coordinates": [-73.5470900282, 42.6354147006]}, "type": "Feature", "properties": {"collection_times": [{"days": "Mon-Fri", "time": "5:00pm"}, {"days": "Sat", "time": "12:00pm"}, {"days": "Sun", "time": "Closed"}], "id": "1201800004", "name": "USPS COLLECTION BOX - PO LOBBY", "address": {"city": "AVERILL PARK", "state": "NY", "street": "2951 NY 43", "postcode": "12018"}}},
{"geometry": {"type": "Point", "coordinates": [-73.8518249894, 43.002386316]}, "type": "Feature", "properties": {"collection_times": [{"days": "Mon-Sat", "time": "9:00am"}, {"days": "Sun", "time": "Closed"}], "id": "1202000001", "name": "USPS COLLECTION BOX - BLUE BOX", "address": {"city": "BALLSTON SPA", "state": "NY", "street": "87 FRONT ST", "postcode": "12020"}}},
{"geometry": {"type": "Point", "coordinates": [-73.8513707332, 42.9994845176]}, "type": "Feature", "properties": {"collection_times": [{"days": "Mon-Sat", "time": "9:00am"}, {"days": "Sun", "time": "Closed"}], "id": "1202000003", "name": "USPS COLLECTION BOX - BLUE BOX", "address": {"city": "BALLSTON SPA", "state": "NY", "street": "30 REMSEN ST", "postcode": "12020"}}},
{"geometry": {"type": "Point", "coordinates": [-73.8460355882, 43.0144323871]}, "type": "Feature", "properties": {"collection_times": [{"days": "Mon-Sat", "time": "9:30am"}, {"days": "Sun", "time": "Closed"}], "id": "1202000012", "name": "USPS COLLECTION BOX - BLUE BOX", "address": {"city": "BALLSTON SPA", "state": "NY", "street": "2033 DOUBLEDAY AVE", "postcode": "12020"}}},
{"geometry": {"type": "Point", "coordinates": [-73.850232515, 43.043610799]}, "type": "Feature", "properties": {"collection_times": [{"days": "Mon-Sat", "time": "11:45am"}, {"days": "Sun", "time": "Closed"}], "id": "1202000014", "name": "USPS COLLECTION BOX - BLUE BOX", "address": {"city": "BALLSTON SPA", "state": "NY", "street": "344 ROWLAND ST", "postcode": "12020"}}},
{"geometry": {"type": "Point", "coordinates": [-73.8448228741, 43.0477019368]}, "type": "Feature", "properties": {"collection_times": [{"days": "Mon-Sat", "time": "10:30am"}, {"days": "Sun", "time": "Closed"}], "id": "1202000015", "name": "USPS COLLECTION BOX - BLUE BOX", "address": {"city": "BALLSTON SPA", "state": "NY", "street": "418 GEYSER RD", "postcode": "12020"}}},
{"geometry": {"type": "Point", "coordinates": [-73.7984510639, 42.9697863328]}, "type": "Feature", "properties": {"collection_times": [{"days": "Mon-Sat", "time": "11:00am"}, {"days": "Sun", "time": "Closed"}], "id": "1202000016", "name": "USPS COLLECTION BOX - BLUE BOX", "address": {"city": "BALLSTON SPA", "state": "NY", "street": "100 SARATOGA BLVD", "postcode": "12020"}}},
{"geometry": {"type": "Point", "coordinates": [-73.7895930671, 42.9705978427]}, "type": "Feature", "properties": {"collection_times": [{"days": "Mon-Fri", "time": "5:00pm"}, {"days": "Sat", "time": "4:00pm"}, {"days": "Sun", "time": "Closed"}], "id": "1202000019", "name": "USPS COLLECTION BOX - BLUE BOX", "address": {"city": "BALLSTON SPA", "state": "NY", "street": "12 HEMPHILL PL", "postcode": "12020"}}},
{"geometry": {"type": "Point", "coordinates": [-73.7895930671, 42.9705978427]}, "type": "Feature", "properties": {"collection_times": [{"days": "Mon-Fri", "time": "5:00pm"}, {"days": "Sat", "time": "4:00pm"}, {"days": "Sun", "time": "Closed"}], "id": "1202000020", "name": "USPS COLLECTION BOX - BLUE BOX", "address": {"city": "BALLSTON SPA", "state": "NY", "street": "12 HEMPHILL PL", "postcode": "12020"}}},
{"geometry": {"type": "Point", "coordinates": [-73.8488139007, 43.0025661531]}, "type": "Feature", "properties": {"collection_times": [{"days": "Mon-Fri", "time": "5:00pm"}, {"days": "Sat", "time": "4:00pm"}, {"days": "Sun", "time": "Closed"}], "id": "1202000021", "name": "USPS COLLECTION BOX - BLUE BOX", "address": {"city": "BALLSTON SPA", "state": "NY", "street": "1 FRONT ST", "postcode": "12020"}}},
{"geometry": {"type": "Point", "coordinates": [-73.8488139007, 43.0025661531]}, "type": "Feature", "properties": {"collection_times": [{"days": "Mon-Fri", "time": "5:00pm"}, {"days": "Sat", "time": "4:00pm"}, {"days": "Sun", "time": "Closed"}], "id": "1202000022", "name": "USPS COLLECTION BOX - BLUE BOX", "address": {"city": "BALLSTON SPA", "state": "NY", "street": "1 FRONT ST", "postcode": "12020"}}},
{"geometry": {"type": "Point", "coordinates": [-73.7918820977, 42.9733661348]}, "type": "Feature", "properties": {"collection_times": [{"days": "Mon-Sat", "time": "11:00am"}, {"days": "Sun", "time": "Closed"}], "id": "1202000027", "name": "USPS COLLECTION BOX - BLUE BOX", "address": {"city": "BALLSTON SPA", "state": "NY", "street": "2 KENDALL WAY", "postcode": "12020"}}},
{"geometry": {"type": "Point", "coordinates": [-73.7895930671, 42.9705978427]}, "type": "Feature", "properties": {"collection_times": [{"days": "Mon-Fri", "time": "4:30pm"}, {"days": "Sat", "time": "4:00pm"}, {"days": "Sun", "time": "Closed"}], "id": "1202000028", "name": "USPS COLLECTION BOX - PO LOBBY", "address": {"city": "BALLSTON SPA", "state": "NY", "street": "12 HEMPHILL PL", "postcode": "12020"}}},
{"geometry": {"type": "Point", "coordinates": [-73.8488139007, 43.0025661531]}, "type": "Feature", "properties": {"collection_times": [{"days": "Mon-Fri", "time": "5:00pm"}, {"days": "Sat", "time": "4:00pm"}, {"days": "Sun", "time": "Closed"}], "id": "1202000029", "name": "USPS COLLECTION BOX - PO LOBBY", "address": {"city": "BALLSTON SPA", "state": "NY", "street": "1 FRONT ST", "postcode": "12020"}}},
{"geometry": {"type": "Point", "coordinates": [-73.8517331885, 43.045309892]}, "type": "Feature", "properties": {"collection_times": [{"days": "Mon-Sat", "time": "11:45am"}, {"days": "Sun", "time": "Closed"}], "id": "1202000032", "name": "USPS COLLECTION BOX - BLUE BOX", "address": {"city": "BALLSTON SPA", "state": "NY", "street": "1 TRIEBLE AVE", "postcode": "12020"}}},
{"geometry": {"type": "Point", "coordinates": [-73.3714419151, 42.6922487811]}, "type": "Feature", "properties": {"collection_times": [{"days": "Mon-Fri", "time": "4:15pm"}, {"days": "Sat", "time": "12:00pm"}, {"days": "Sun", "time": "Closed"}], "id": "1202200001", "name": "USPS COLLECTION BOX - BLUE BOX", "address": {"city": "BERLIN", "state": "NY", "street": "18246 NY 22", "postcode": "12022"}}},
{"geometry": {"type": "Point", "coordinates": [-73.3714419151, 42.6922487811]}, "type": "Feature", "properties": {"collection_times": [{"days": "Mon-Fri", "time": "4:00pm"}, {"days": "Sat", "time": "12:00pm"}, {"days": "Sun", "time": "Closed"}], "id": "1202200002", "name": "USPS COLLECTION BOX - PO LOBBY", "address": {"city": "BERLIN", "state": "NY", "street": "18246 NY 22", "postcode": "12022"}}},
{"geometry": {"type": "Point", "coordinates": [-74.13522876, 42.624716357]}, "type": "Feature", "properties": {"collection_times": [{"days": "Mon-Fri", "time": "3:00pm"}, {"days": "Sat", "time": "11:15am"}, {"days": "Sun", "time": "Closed"}], "id": "1202300001", "name": "USPS COLLECTION BOX - PO LOBBY", "address": {"city": "BERNE", "state": "NY", "street": "1654 HELDERBERG TRL", "postcode": "12023"}}},
{"geometry": {"type": "Point", "coordinates": [-74.1352595915, 42.6247041902]}, "type": "Feature", "properties": {"collection_times": [{"days": "Mon-Fri", "time": "4:45pm"}, {"days": "Sat", "time": "11:15am"}, {"days": "Sun", "time": "Closed"}], "id": "1202300003", "name": "USPS COLLECTION BOX - BLUE BOX", "address": {"city": "BERNE", "state": "NY", "street": "1654 HELDERBERG TRL", "postcode": "12023"}}},
{"geometry": {"type": "Point", "coordinates": [-73.5400559889, 42.481275053]}, "type": "Feature", "properties": {"collection_times": [{"days": "Mon-Sat", "time": "10:45am"}, {"days": "Sun", "time": "Closed"}], "id": "1202400001", "name": "USPS COLLECTION BOX - BLUE BOX", "address": {"city": "BRAINARD", "state": "NY", "street": "2045 STATE ROUTE 20", "postcode": "12024"}}},
{"geometry": {"type": "Point", "coordinates": [-73.5400559889, 42.481275053]}, "type": "Feature", "properties": {"collection_times": [{"days": "Mon-Fri", "time": "10:00am"}, {"days": "Sat", "time": "10:45am"}, {"days": "Sun", "time": "Closed"}], "id": "1202400002", "name": "USPS COLLECTION BOX - PO LOBBY", "address": {"city": "BRAINARD", "state": "NY", "street": "2045 STATE ROUTE 20", "postcode": "12024"}}},
{"geometry": {"type": "Point", "coordinates": [-74.1971258169, 43.0585737335]}, "type": "Feature", "properties": {"collection_times": [{"days": "Mon-Fri", "time": "4:45pm"}, {"days": "Sat", "time": "12:00pm"}, {"days": "Sun", "time": "Closed"}], "id": "1202500002", "name": "USPS COLLECTION BOX - PO LOBBY", "address": {"city": "BROADALBIN", "state": "NY", "street": "10 CENTER ST", "postcode": "12025"}}},
{"geometry": {"type": "Point", "coordinates": [-74.1971258169, 43.0585737335]}, "type": "Feature", "properties": {"collection_times": [{"days": "Mon-Fri", "time": "4:45pm"}, {"days": "Sat", "time": "12:00pm"}, {"days": "Sun", "time": "Closed"}], "id": "1202500004", "name": "USPS COLLECTION BOX - BLUE BOX", "address": {"city": "BROADALBIN", "state": "NY", "street": "10 CENTER ST", "postcode": "12025"}}},
{"geometry": {"type": "Point", "coordinates": [-73.9010756978, 42.9129942734]}, "type": "Feature", "properties": {"collection_times": [{"days": "Mon-Sat", "time": "9:30am"}, {"days": "Sun", "time": "Closed"}], "id": "1202700003", "name": "USPS COLLECTION BOX - BLUE BOX", "address": {"city": "BURNT HILLS", "state": "NY", "street": "43 ROUND LAKE RD", "postcode": "12027"}}},
{"geometry": {"type": "Point", "coordinates": [-73.8901185541, 42.9181087704]}, "type": "Feature", "properties": {"collection_times": [{"days": "Mon-Fri", "time": "4:30pm"}, {"days": "Sat", "time": "12:00pm"}, {"days": "Sun", "time": "Closed"}], "id": "1202700004", "name": "USPS COLLECTION BOX - BLUE BOX", "address": {"city": "BURNT HILLS", "state": "NY", "street": "845 ROUTE 50", "postcode": "12027"}}},
{"geometry": {"type": "Point", "coordinates": [-73.9059265998, 42.9269199008]}, "type": "Feature", "properties": {"collection_times": [{"days": "Mon-Sat", "time": "9:30am"}, {"days": "Sun", "time": "Closed"}], "id": "1202700007", "name": "USPS COLLECTION BOX - BLUE BOX", "address": {"city": "BURNT HILLS", "state": "NY", "street": "322 USHERS RD", "postcode": "12027"}}},
{"geometry": {"type": "Point", "coordinates": [-73.8901185541, 42.9181087704]}, "type": "Feature", "properties": {"collection_times": [{"days": "Mon-Fri", "time": "4:30pm"}, {"days": "Sat", "time": "1:30pm"}, {"days": "Sun", "time": "Closed"}], "id": "1202700008", "name": "USPS COLLECTION BOX - PO LOBBY", "address": {"city": "BURNT HILLS", "state": "NY", "street": "845 ROUTE 50", "postcode": "12027"}}},
{"geometry": {"type": "Point", "coordinates": [-73.4563181678, 42.4161941643]}, "type": "Feature", "properties": {"collection_times": [{"days": "Mon-Fri", "time": "4:30pm"}, {"days": "Sat", "time": "11:00am"}, {"days": "Sun", "time": "Closed"}], "id": "1202900001", "name": "USPS COLLECTION BOX - BLUE BOX", "address": {"city": "CANAAN", "state": "NY", "street": "1961 RTE 295", "postcode": "12029"}}},
{"geometry": {"type": "Point", "coordinates": [-73.455479281, 42.4158261]}, "type": "Feature", "properties": {"collection_times": [{"days": "Mon-Fri", "time": "3:15pm"}, {"days": "Sat", "time": "11:00am"}, {"days": "Sun", "time": "Closed"}], "id": "1202900003", "name": "USPS COLLECTION BOX - PO LOBBY", "address": {"city": "CANAAN", "state": "NY", "street": "1961 STATE ROUTE 295", "postcode": "12029"}}},
{"geometry": {"type": "Point", "coordinates": [-74.4441105759, 42.756907279]}, "type": "Feature", "properties": {"collection_times": [{"days": "Mon-Sat", "time": "12:00pm"}, {"days": "Sun", "time": "Closed"}], "id": "1203100001", "name": "USPS COLLECTION BOX - PO LOBBY", "address": {"city": "CARLISLE", "state": "NY", "street": "2429 HIGHWAY ROUTE 20", "postcode": "12031"}}},
{"geometry": {"type": "Point", "coordinates": [-74.4817764329, 43.1382281548]}, "type": "Feature", "properties": {"collection_times": [{"days": "Mon-Fri", "time": "4:00pm"}, {"days": "Sat", "time": "11:30am"}, {"days": "Sun", "time": "Closed"}], "id": "1203200001", "name": "USPS COLLECTION BOX - BLUE BOX", "address": {"city": "CAROGA LAKE", "state": "NY", "street": "2089 STATE HIGHWAY 10", "postcode": "12032"}}},
{"geometry": {"type": "Point", "coordinates": [-74.4817764329, 43.1382281548]}, "type": "Feature", "properties": {"collection_times": [{"days": "Mon-Fri", "time": "4:00pm"}, {"days": "Sat", "time": "11:30am"}, {"days": "Sun", "time": "Closed"}], "id": "1203200002", "name": "USPS COLLECTION BOX - PO LOBBY", "address": {"city": "CAROGA LAKE", "state": "NY", "street": "2089 STATE HIGHWAY 10", "postcode": "12032"}}},
{"geometry": {"type": "Point", "coordinates": [-73.7576330648, 42.528510699]}, "type": "Feature", "properties": {"collection_times": [{"days": "Mon-Fri", "time": "5:00pm"}, {"days": "Sat", "time": "12:00pm"}, {"days": "Sun", "time": "Closed"}], "id": "1203300002", "name": "USPS COLLECTION BOX - BLUE BOX", "address": {"city": "CASTLETON", "state": "NY", "street": "108 S MAIN ST", "postcode": "12033"}}},
{"geometry": {"type": "Point", "coordinates": [-73.7576330648, 42.528510699]}, "type": "Feature", "properties": {"collection_times": [{"days": "Mon-Fri", "time": "5:00pm"}, {"days": "Sat", "time": "12:00pm"}, {"days": "Sun", "time": "Closed"}], "id": "1203300012", "name": "USPS COLLECTION BOX - PO LOBBY", "address": {"city": "CASTLETON", "state": "NY", "street": "108 S MAIN ST", "postcode": "12033"}}},
{"geometry": {"type": "Point", "coordinates": [-73.7576330648, 42.528510699]}, "type": "Feature", "properties": {"collection_times": [{"days": "Mon-Fri", "time": "5:00pm"}, {"days": "Sat", "time": "12:00pm"}, {"days": "Sun", "time": "Closed"}], "id": "1203300013", "name": "USPS COLLECTION BOX - PO LOBBY", "address": {"city": "CASTLETON", "state": "NY", "street": "108 S MAIN ST", "postcode": "12033"}}},
{"geometry": {"type": "Point", "coordinates": [-74.3374911584, 42.7115463907]}, "type": "Feature", "properties": {"collection_times": [{"days": "Mon-Fri", "time": "4:00pm"}, {"days": "Sat", "time": "10:30am"}, {"days": "Sun", "time": "Closed"}], "id": "1203500001", "name": "USPS COLLECTION BOX - BLUE BOX", "address": {"city": "CENTRAL BRIDGE", "state": "NY", "street": "126 S MAIN ST STE 1", "postcode": "12035"}}},
{"geometry": {"type": "Point", "coordinates": [-74.3374911584, 42.7115463907]}, "type": "Feature", "properties": {"collection_times": [{"days": "Mon-Fri", "time": "3:00pm"}, {"days": "Sat", "time": "10:30am"}, {"days": "Sun", "time": "Closed"}], "id": "1203500002", "name": "USPS COLLECTION BOX - PO LOBBY", "address": {"city": "CENTRAL BRIDGE", "state": "NY", "street": "126 S MAIN ST STE 1", "postcode": "12035"}}},
{"geometry": {"type": "Point", "coordinates": [-74.6663525677, 42.5450602949]}, "type": "Feature", "properties": {"collection_times": [{"days": "Mon-Fri", "time": "4:30pm"}, {"days": "Sat", "time": "10:30am"}, {"days": "Sun", "time": "Closed"}], "id": "1203600001", "name": "USPS COLLECTION BOX - BLUE BOX", "address": {"city": "CHARLOTTEVILLE", "state": "NY", "street": "632 CHARLOTTE VALLEY RD", "postcode": "12036"}}},
{"geometry": {"type": "Point", "coordinates": [-74.6663525677, 42.5450602949]}, "type": "Feature", "properties": {"collection_times": [{"days": "Mon-Fri", "time": "12:00pm"}, {"days": "Sat", "time": "10:30am"}, {"days": "Sun", "time": "Closed"}], "id": "1203600002", "name": "USPS COLLECTION BOX - PO LOBBY", "address": {"city": "CHARLOTTEVILLE", "state": "NY", "street": "632 CHARLOTTE VALLEY RD", "postcode": "12036"}}},
{"geometry": {"type": "Point", "coordinates": [-73.6018417303, 42.3625498243]}, "type": "Feature", "properties": {"collection_times": [{"days": "Mon-Sat", "time": "9:00am"}, {"days": "Sun", "time": "Closed"}], "id": "1203700002", "name": "USPS COLLECTION BOX - BLUE BOX", "address": {"city": "CHATHAM", "state": "NY", "street": "76 KINDERHOOK ST", "postcode": "12037"}}},
{"geometry": {"type": "Point", "coordinates": [-73.5950990607, 42.3635304058]}, "type": "Feature", "properties": {"collection_times": [{"days": "Mon-Fri", "time": "9:00am"}, {"days": "Sat", "time": "9:30am"}, {"days": "Sun", "time": "Closed"}], "id": "1203700003", "name": "USPS COLLECTION BOX - BLUE BOX", "address": {"city": "CHATHAM", "state": "NY", "street": "77 MAIN ST", "postcode": "12037"}}},
{"geometry": {"type": "Point", "coordinates": [-73.6022620514, 42.3531535938]}, "type": "Feature", "properties": {"collection_times": [{"days": "Mon-Sat", "time": "11:00am"}, {"days": "Sun", "time": "Closed"}], "id": "1203700008", "name": "USPS COLLECTION BOX - BLUE BOX", "address": {"city": "CHATHAM", "state": "NY", "street": "161 HUDSON AVE", "postcode": "12037"}}},
{"geometry": {"type": "Point", "coordinates": [-73.6035988973, 42.3572439972]}, "type": "Feature", "properties": {"collection_times": [{"days": "Mon-Sat", "time": "9:00am"}, {"days": "Sun", "time": "Closed"}], "id": "1203700011", "name": "USPS COLLECTION BOX - BLUE BOX", "address": {"city": "CHATHAM", "state": "NY", "street": "41 CHURCH ST", "postcode": "12037"}}},
{"geometry": {"type": "Point", "coordinates": [-73.5948603958, 42.3623271513]}, "type": "Feature", "properties": {"collection_times": [{"days": "Mon-Fri", "time": "5:00pm"}, {"days": "Sat", "time": "12:00pm"}, {"days": "Sun", "time": "Closed"}], "id": "1203700013", "name": "USPS COLLECTION BOX - BLUE BOX", "address": {"city": "CHATHAM", "state": "NY", "street": "12 THOMAS ST", "postcode": "12037"}}},
{"geometry": {"type": "Point", "coordinates": [-73.6041521812, 42.3504980454]}, "type": "Feature", "properties": {"collection_times": [{"days": "Mon-Sat", "time": "10:00am"}, {"days": "Sun", "time": "Closed"}], "id": "1203700014", "name": "USPS COLLECTION BOX - BLUE BOX", "address": {"city": "CHATHAM", "state": "NY", "street": "15 DARDESS DR", "postcode": "12037"}}},
{"geometry": {"type": "Point", "coordinates": [-73.5953346437, 42.3624788593]}, "type": "Feature", "properties": {"collection_times": [{"days": "Mon-Fri", "time": "5:15pm"}, {"days": "Sat", "time": "12:00pm"}, {"days": "Sun", "time": "Closed"}], "id": "1203700016", "name": "USPS COLLECTION BOX - PO LOBBY", "address": {"city": "CHATHAM", "state": "NY", "street": "35 RAILROAD AVE", "postcode": "12037"}}},
{"geometry": {"type": "Point", "coordinates": [-73.3571592194, 42.6312971163]}, "type": "Feature", "properties": {"collection_times": [{"days": "Mon-Fri", "time": "5:00pm"}, {"days": "Sat", "time": "11:30am"}, {"days": "Sun", "time": "Closed"}], "id": "1204000001", "name": "USPS COLLECTION BOX - BLUE BOX", "address": {"city": "CHERRY PLAIN", "state": "NY", "street": "65 CHERRY PLAIN SQ", "postcode": "12040"}}},
{"geometry": {"type": "Point", "coordinates": [-73.357157789, 42.63130222]}, "type": "Feature", "properties": {"collection_times": [{"days": "Mon-Fri", "time": "5:00pm"}, {"days": "Sat", "time": "11:30am"}, {"days": "Sun", "time": "Closed"}], "id": "1204000002", "name": "USPS COLLECTION BOX - PO LOBBY", "address": {"city": "CHERRY PLAIN", "state": "NY", "street": "65 CHERRY PLAIN SQ", "postcode": "12040"}}},
{"geometry": {"type": "Point", "coordinates": [-73.9552747509, 42.5750400239]}, "type": "Feature", "properties": {"collection_times": [{"days": "Mon-Fri", "time": "4:45pm"}, {"days": "Sat", "time": "11:15am"}, {"days": "Sun", "time": "Closed"}], "id": "1204100001", "name": "USPS COLLECTION BOX - BLUE BOX", "address": {"city": "CLARKSVILLE", "state": "NY", "street": "1967 DELAWARE TPKE", "postcode": "12041"}}},
{"geometry": {"type": "Point", "coordinates": [-73.9552747509, 42.5750400239]}, "type": "Feature", "properties": {"collection_times": [{"days": "Mon-Fri", "time": "4:45pm"}, {"days": "Sat", "time": "11:15am"}, {"days": "Sun", "time": "Closed"}], "id": "1204100002", "name": "USPS COLLECTION BOX - PO LOBBY", "address": {"city": "CLARKSVILLE", "state": "NY", "street": "1967 DELAWARE TNPK", "postcode": "12041"}}},
{"geometry": {"type": "Point", "coordinates": [-73.8503985613, 42.3659056353]}, "type": "Feature", "properties": {"collection_times": [{"days": "Mon-Fri", "time": "4:45pm"}, {"days": "Sat", "time": "11:00am"}, {"days": "Sun", "time": "Closed"}], "id": "1204200001", "name": "USPS COLLECTION BOX - BLUE BOX", "address": {"city": "CLIMAX", "state": "NY", "street": "58 COUNTY ROUTE 26", "postcode": "12042"}}},
{"geometry": {"type": "Point", "coordinates": [-73.8503985613, 42.3659056353]}, "type": "Feature", "properties": {"collection_times": [{"days": "Mon-Fri", "time": "12:00pm"}, {"days": "Sat", "time": "11:00am"}, {"days": "Sun", "time": "Closed"}], "id": "1204200002", "name": "USPS COLLECTION BOX - PO LOBBY", "address": {"city": "CLIMAX", "state": "NY", "street": "58 COUNTY ROUTE 26", "postcode": "12042"}}},
{"geometry": {"type": "Point", "coordinates": [-74.4839805159, 42.6788789789]}, "type": "Feature", "properties": {"collection_times": [{"days": "Mon-Fri", "time": "5:00pm"}, {"days": "Sat", "time": "1:30pm"}, {"days": "Sun", "time": "Closed"}], "id": "1204300001", "name": "USPS COLLECTION BOX - BLUE BOX", "address": {"city": "COBLESKILL", "state": "NY", "street": "111 UNION ST", "postcode": "12043"}}},
{"geometry": {"type": "Point", "coordinates": [-74.4839805159, 42.6788789789]}, "type": "Feature", "properties": {"collection_times": [{"days": "Mon-Fri", "time": "5:00pm"}, {"days": "Sat", "time": "1:30pm"}, {"days": "Sun", "time": "Closed"}], "id": "1204300002", "name": "USPS COLLECTION BOX - BLUE BOX", "address": {"city": "COBLESKILL", "state": "NY", "street": "111 UNION ST", "postcode": "12043"}}},
{"geometry": {"type": "Point", "coordinates": [-74.4728950075, 42.6802133566]}, "type": "Feature", "properties": {"collection_times": [{"days": "Mon-Sat", "time": "9:00am"}, {"days": "Sun", "time": "Closed"}], "id": "1204300012", "name": "USPS COLLECTION BOX - BLUE BOX", "address": {"city": "COBLESKILL", "state": "NY", "street": "813 E MAIN ST", "postcode": "12043"}}},
{"geometry": {"type": "Point", "coordinates": [-74.4703256206, 42.6816542007]}, "type": "Feature", "properties": {"collection_times": [{"days": "Mon-Sat", "time": "9:00am"}, {"days": "Sun", "time": "Closed"}], "id": "1204300013", "name": "USPS COLLECTION BOX - BLUE BOX", "address": {"city": "COBLESKILL", "state": "NY", "street": "115 PLAZA LN", "postcode": "12043"}}},
{"geometry": {"type": "Point", "coordinates": [-74.4568895727, 42.6818233638]}, "type": "Feature", "properties": {"collection_times": [{"days": "Mon-Sat", "time": "10:00am"}, {"days": "Sun", "time": "Closed"}], "id": "1204300016", "name": "USPS COLLECTION BOX - BLUE BOX", "address": {"city": "COBLESKILL", "state": "NY", "street": "123 MERCHANT PL", "postcode": "12043"}}},
{"geometry": {"type": "Point", "coordinates": [-74.4839805159, 42.6788789789]}, "type": "Feature", "properties": {"collection_times": [{"days": "Mon-Fri", "time": "5:00pm"}, {"days": "Sat", "time": "1:30pm"}, {"days": "Sun", "time": "Closed"}], "id": "1204300018", "name": "USPS COLLECTION BOX - PO LOBBY", "address": {"city": "COBLESKILL", "state": "NY", "street": "111 UNION ST", "postcode": "12043"}}},
{"geometry": {"type": "Point", "coordinates": [-74.4839805159, 42.6788789789]}, "type": "Feature", "properties": {"collection_times": [{"days": "Mon-Fri", "time": "5:00pm"}, {"days": "Sat", "time": "1:30pm"}, {"days": "Sun", "time": "Closed"}], "id": "1204300019", "name": "USPS COLLECTION BOX - PO LOBBY", "address": {"city": "COBLESKILL", "state": "NY", "street": "111 UNION ST", "postcode": "12043"}}},
{"geometry": {"type": "Point", "coordinates": [-73.7925255758, 42.4743196636]}, "type": "Feature", "properties": {"collection_times": [{"days": "Mon-Fri", "time": "4:00pm"}, {"days": "Sat", "time": "9:30am"}, {"days": "Sun", "time": "Closed"}], "id": "1204500001", "name": "USPS COLLECTION BOX - BLUE BOX", "address": {"city": "COEYMANS", "state": "NY", "street": "96 MAIN ST", "postcode": "12045"}}},
{"geometry": {"type": "Point", "coordinates": [-73.7925255758, 42.4743196636]}, "type": "Feature", "properties": {"collection_times": [{"days": "Mon-Fri", "time": "11:30am"}, {"days": "Sat", "time": "10:00am"}, {"days": "Sun", "time": "Closed"}], "id": "1204500003", "name": "USPS COLLECTION BOX - PO LOBBY", "address": {"city": "COEYMANS", "state": "NY", "street": "96 MAIN ST", "postcode": "12045"}}},
{"geometry": {"type": "Point", "coordinates": [-73.8939241331, 42.4710248081]}, "type": "Feature", "properties": {"collection_times": [{"days": "Mon-Fri", "time": "4:00pm"}, {"days": "Sat", "time": "11:00am"}, {"days": "Sun", "time": "Closed"}], "id": "1204600001", "name": "USPS COLLECTION BOX - BLUE BOX", "address": {"city": "COEYMANS HOLLOW", "state": "NY", "street": "1273 ROUTE 143", "postcode": "12046"}}},
{"geometry": {"type": "Point", "coordinates": [-73.8939241331, 42.4710248081]}, "type": "Feature", "properties": {"collection_times": [{"days": "Mon-Fri", "time": "4:00pm"}, {"days": "Sat", "time": "11:00am"}, {"days": "Sun", "time": "Closed"}], "id": "1204600002", "name": "USPS COLLECTION BOX - PO LOBBY", "address": {"city": "COEYMANS HOLLOW", "state": "NY", "street": "1273 ROUTE 143", "postcode": "12046"}}},
{"geometry": {"type": "Point", "coordinates": [-73.7213623599, 42.7722700403]}, "type": "Feature", "properties": {"collection_times": [{"days": "Mon-Sat", "time": "12:00pm"}, {"days": "Sun", "time": "Closed"}], "id": "1204700024", "name": "USPS COLLECTION BOX - BLUE BOX", "address": {"city": "COHOES", "state": "NY", "street": "6 SUNSET CT", "postcode": "12047"}}},
{"geometry": {"type": "Point", "coordinates": [-73.7000105519, 42.7744029411]}, "type": "Feature", "properties": {"collection_times": [{"days": "Mon-Fri", "time": "5:00pm"}, {"days": "Sat", "time": "3:00pm"}, {"days": "Sun", "time": "Closed"}], "id": "1204700036", "name": "USPS COLLECTION BOX - BLUE BOX", "address": {"city": "COHOES", "state": "NY", "street": "101 MOHAWK ST", "postcode": "12047"}}},
{"geometry": {"type": "Point", "coordinates": [-73.7000105519, 42.7744029411]}, "type": "Feature", "properties": {"collection_times": [{"days": "Mon-Fri", "time": "5:00pm"}, {"days": "Sat", "time": "3:00pm"}, {"days": "Sun", "time": "Closed"}], "id": "1204700060", "name": "USPS COLLECTION BOX - PO LOBBY", "address": {"city": "COHOES", "state": "NY", "street": "101 MOHAWK ST", "postcode": "12047"}}},
{"geometry": {"type": "Point", "coordinates": [-73.7681232406, 42.3453315014]}, "type": "Feature", "properties": {"collection_times": [{"days": "Mon-Fri", "time": "4:30pm"}, {"days": "Sat", "time": "11:30am"}, {"days": "Sun", "time": "Closed"}], "id": "1205000001", "name": "USPS COLLECTION BOX - BLUE BOX", "address": {"city": "COLUMBIAVILLE", "state": "NY", "street": "1227 ROUTE 9", "postcode": "12050"}}},
{"geometry": {"type": "Point", "coordinates": [-73.7962368463, 42.3518726239]}, "type": "Feature", "properties": {"collection_times": [{"days": "Mon-Fri", "time": "5:00pm"}, {"days": "Sat", "time": "12:00pm"}, {"days": "Sun", "time": "Closed"}], "id": "1205100001", "name": "USPS COLLECTION BOX - BLUE BOX", "address": {"city": "COXSACKIE", "state": "NY", "street": "27 REED ST", "postcode": "12051"}}},
{"geometry": {"type": "Point", "coordinates": [-73.813324095, 42.3448427513]}, "type": "Feature", "properties": {"collection_times": [{"days": "Mon-Sat", "time": "10:00am"}, {"days": "Sun", "time": "Closed"}], "id": "1205100004", "name": "USPS COLLECTION BOX - BLUE BOX", "address": {"city": "COXSACKIE", "state": "NY", "street": "44 HOPE PLZ", "postcode": "12051"}}},
{"geometry": {"type": "Point", "coordinates": [-73.8188593313, 42.3610829311]}, "type": "Feature", "properties": {"collection_times": [{"days": "Mon-Sat", "time": "9:00am"}, {"days": "Sun", "time": "Closed"}], "id": "1205100005", "name": "USPS COLLECTION BOX - BLUE BOX", "address": {"city": "COXSACKIE", "state": "NY", "street": "100 BETHANY VLG", "postcode": "12051"}}},
{"geometry": {"type": "Point", "coordinates": [-73.8045231922, 42.3535865568]}, "type": "Feature", "properties": {"collection_times": [{"days": "Mon-Sat", "time": "10:00am"}, {"days": "Sun", "time": "Closed"}], "id": "1205100011", "name": "USPS COLLECTION BOX - BLUE BOX", "address": {"city": "COXSACKIE", "state": "NY", "street": "97 MANSION ST", "postcode": "12051"}}},
{"geometry": {"type": "Point", "coordinates": [-73.8198791004, 42.3615876924]}, "type": "Feature", "properties": {"collection_times": [{"days": "Mon-Sat", "time": "10:00am"}, {"days": "Sun", "time": "Closed"}], "id": "1205100012", "name": "USPS COLLECTION BOX - BLUE BOX", "address": {"city": "COXSACKIE", "state": "NY", "street": "273 MANSION ST", "postcode": "12051"}}},
{"geometry": {"type": "Point", "coordinates": [-73.7962368463, 42.3518726239]}, "type": "Feature", "properties": {"collection_times": [{"days": "Mon-Fri", "time": "4:45pm"}, {"days": "Sat", "time": "12:00pm"}, {"days": "Sun", "time": "Closed"}], "id": "1205100015", "name": "USPS COLLECTION BOX - PO LOBBY", "address": {"city": "COXSACKIE", "state": "NY", "street": "27 REED ST", "postcode": "12051"}}},
{"geometry": {"type": "Point", "coordinates": [-73.4785573096, 42.7586790643]}, "type": "Feature", "properties": {"collection_times": [{"days": "Mon-Fri", "time": "4:30pm"}, {"days": "Sat", "time": "11:30am"}, {"days": "Sun", "time": "Closed"}], "id": "1205200001", "name": "USPS COLLECTION BOX - BLUE BOX", "address": {"city": "CROPSEYVILLE", "state": "NY", "street": "3991 NY2", "postcode": "12052"}}},
{"geometry": {"type": "Point", "coordinates": [-73.4785573096, 42.7586790643]}, "type": "Feature", "properties": {"collection_times": [{"days": "Mon-Fri", "time": "4:45pm"}, {"days": "Sat", "time": "11:45am"}, {"days": "Sun", "time": "Closed"}], "id": "1205200002", "name": "USPS COLLECTION BOX - PO LOBBY", "address": {"city": "CROPSEYVILLE", "state": "NY", "street": "3991 NY2", "postcode": "12052"}}},
{"geometry": {"type": "Point", "coordinates": [-74.1870108165, 42.7444417518]}, "type": "Feature", "properties": {"collection_times": [{"days": "Mon-Fri", "time": "4:45pm"}, {"days": "Sat", "time": "10:30am"}, {"days": "Sun", "time": "Closed"}], "id": "1205300001", "name": "USPS COLLECTION BOX - BLUE BOX", "address": {"city": "DELANSON", "state": "NY", "street": "126 RAILROAD AVE", "postcode": "12053"}}},
{"geometry": {"type": "Point", "coordinates": [-74.1870108165, 42.7444417518]}, "type": "Feature", "properties": {"collection_times": [{"days": "Mon-Fri", "time": "5:00pm"}, {"days": "Sat", "time": "10:45am"}, {"days": "Sun", "time": "Closed"}], "id": "1205300003", "name": "USPS COLLECTION BOX - PO LOBBY", "address": {"city": "DELANSON", "state": "NY", "street": "126 RAILROAD AVE", "postcode": "12053"}}},
{"geometry": {"type": "Point", "coordinates": [-73.8118634526, 42.6226280972]}, "type": "Feature", "properties": {"collection_times": [{"days": "Mon-Sat", "time": "9:00am"}, {"days": "Sun", "time": "Closed"}], "id": "1205400003", "name": "USPS COLLECTION BOX - BLUE BOX", "address": {"city": "DELMAR", "state": "NY", "street": "209 KENWOOD AVE", "postcode": "12054"}}},
{"geometry": {"type": "Point", "coordinates": [-73.8172459159, 42.6218781012]}, "type": "Feature", "properties": {"collection_times": [{"days": "Mon-Sat", "time": "9:00am"}, {"days": "Sun", "time": "Closed"}], "id": "1205400004", "name": "USPS COLLECTION BOX - BLUE BOX", "address": {"city": "DELMAR", "state": "NY", "street": "261 KENWOOD AVE", "postcode": "12054"}}},
{"geometry": {"type": "Point", "coordinates": [-73.8394009841, 42.6198754313]}, "type": "Feature", "properties": {"collection_times": [{"days": "Mon-Fri", "time": "2:45pm"}, {"days": "Sat", "time": "2:00pm"}, {"days": "Sun", "time": "Closed"}], "id": "1205400011", "name": "USPS COLLECTION BOX - BLUE BOX", "address": {"city": "DELMAR", "state": "NY", "street": "445 DELAWARE AVE", "postcode": "12054"}}},
{"geometry": {"type": "Point", "coordinates": [-73.8020638205, 42.6257984272]}, "type": "Feature", "properties": {"collection_times": [{"days": "Mon-Sat", "time": "10:00am"}, {"days": "Sun", "time": "Closed"}], "id": "1205400013", "name": "USPS COLLECTION BOX - BLUE BOX", "address": {"city": "DELMAR", "state": "NY", "street": "125 ROCKEFELLER RD", "postcode": "12054"}}},
{"geometry": {"type": "Point", "coordinates": [-73.8384693827, 42.6099396793]}, "type": "Feature", "properties": {"collection_times": [{"days": "Mon-Sat", "time": "12:00pm"}, {"days": "Sun", "time": "Closed"}], "id": "1205400014", "name": "USPS COLLECTION BOX - BLUE BOX", "address": {"city": "DELMAR", "state": "NY", "street": "95 MURRAY AVE", "postcode": "12054"}}},
{"geometry": {"type": "Point", "coordinates": [-73.8080365804, 42.6298086581]}, "type": "Feature", "properties": {"collection_times": [{"days": "Mon-Fri", "time": "3:00pm"}, {"days": "Sat", "time": "2:00pm"}, {"days": "Sun", "time": "Closed"}], "id": "1205400015", "name": "USPS COLLECTION BOX - BLUE BOX", "address": {"city": "DELMAR", "state": "NY", "street": "88 DELAWARE AVE", "postcode": "12054"}}},
{"geometry": {"type": "Point", "coordinates": [-73.8212277558, 42.6264135659]}, "type": "Feature", "properties": {"collection_times": [{"days": "Mon-Sat", "time": "9:00am"}, {"days": "Sun", "time": "Closed"}], "id": "1205400023", "name": "USPS COLLECTION BOX - BLUE BOX", "address": {"city": "DELMAR", "state": "NY", "street": "256 DELAWARE AVE", "postcode": "12054"}}},
{"geometry": {"type": "Point", "coordinates": [-73.8118125854, 42.6288800353]}, "type": "Feature", "properties": {"collection_times": [{"days": "Mon-Sat", "time": "10:00am"}, {"days": "Sun", "time": "Closed"}], "id": "1205400025", "name": "USPS COLLECTION BOX - BLUE BOX", "address": {"city": "DELMAR", "state": "NY", "street": "180 DELAWARE AVE", "postcode": "12054"}}},
{"geometry": {"type": "Point", "coordinates": [-73.8117077539, 42.629409007]}, "type": "Feature", "properties": {"collection_times": [{"days": "Mon-Fri", "time": "3:00pm"}, {"days": "Sat", "time": "2:00pm"}, {"days": "Sun", "time": "Closed"}], "id": "1205400026", "name": "USPS COLLECTION BOX - BLUE BOX", "address": {"city": "DELMAR", "state": "NY", "street": "2 NORMANSKILL BLVD", "postcode": "12054"}}},
{"geometry": {"type": "Point", "coordinates": [-73.8170341662, 42.6315759988]}, "type": "Feature", "properties": {"collection_times": [{"days": "Mon-Sat", "time": "11:00am"}, {"days": "Sun", "time": "Closed"}], "id": "1205400028", "name": "USPS COLLECTION BOX - BLUE BOX", "address": {"city": "DELMAR", "state": "NY", "street": "29 BURHANS PL", "postcode": "12054"}}},
{"geometry": {"type": "Point", "coordinates": [-73.8318152385, 42.6225807788]}, "type": "Feature", "properties": {"collection_times": [{"days": "Mon-Fri", "time": "5:00pm"}, {"days": "Sat", "time": "2:30pm"}, {"days": "Sun", "time": "Closed"}], "id": "1205400029", "name": "USPS COLLECTION BOX - BLUE BOX", "address": {"city": "DELMAR", "state": "NY", "street": "357 DELAWARE AVE", "postcode": "12054"}}},
{"geometry": {"type": "Point", "coordinates": [-73.8316153184, 42.6226541223]}, "type": "Feature", "properties": {"collection_times": [{"days": "Mon-Fri", "time": "5:00pm"}, {"days": "Sat", "time": "2:30pm"}, {"days": "Sun", "time": "Closed"}], "id": "1205400030", "name": "USPS COLLECTION BOX - BLUE BOX", "address": {"city": "DELMAR", "state": "NY", "street": "360 DELAWARE AVE", "postcode": "12054"}}},
{"geometry": {"type": "Point", "coordinates": [-73.8318152385, 42.6225807788]}, "type": "Feature", "properties": {"collection_times": [{"days": "Mon-Fri", "time": "5:00pm"}, {"days": "Sat", "time": "2:30pm"}, {"days": "Sun", "time": "Closed"}], "id": "1205400031", "name": "USPS COLLECTION BOX - BLUE BOX", "address": {"city": "DELMAR", "state": "NY", "street": "357 DELAWARE AVE", "postcode": "12054"}}},
{"geometry": {"type": "Point", "coordinates": [-73.845052015, 42.608866728]}, "type": "Feature", "properties": {"collection_times": [{"days": "Mon-Sat", "time": "9:00am"}, {"days": "Sun", "time": "Closed"}], "id": "1205400032", "name": "USPS COLLECTION BOX - BLUE BOX", "address": {"city": "DELMAR", "state": "NY", "street": "1 JUNIPER DR", "postcode": "12054"}}},
{"geometry": {"type": "Point", "coordinates": [-73.8280841859, 42.6239281691]}, "type": "Feature", "properties": {"collection_times": [{"days": "Mon-Sat", "time": "9:00am"}, {"days": "Sun", "time": "Closed"}], "id": "1205400037", "name": "USPS COLLECTION BOX - BLUE BOX", "address": {"city": "DELMAR", "state": "NY", "street": "318 DELAWARE AVE", "postcode": "12054"}}},
{"geometry": {"type": "Point", "coordinates": [-73.8318152385, 42.6225807788]}, "type": "Feature", "properties": {"collection_times": [{"days": "Mon-Fri", "time": "5:15pm"}, {"days": "Sat", "time": "1:15pm"}, {"days": "Sun", "time": "Closed"}], "id": "1205400038", "name": "USPS COLLECTION BOX - PO LOBBY", "address": {"city": "DELMAR", "state": "NY", "street": "357 DELAWARE AVE", "postcode": "12054"}}},
{"geometry": {"type": "Point", "coordinates": [-73.8106331753, 42.6289675743]}, "type": "Feature", "properties": {"collection_times": [{"days": "Mon-Fri", "time": "3:00pm"}, {"days": "Sat", "time": "2:00pm"}, {"days": "Sun", "time": "Closed"}], "id": "1205400040", "name": "USPS COLLECTION BOX - BLUE BOX", "address": {"city": "DELMAR", "state": "NY", "street": "159 DELAWARE AVE", "postcode": "12054"}}},
{"geometry": {"type": "Point", "coordinates": [-74.1362071416, 42.7609810629]}, "type": "Feature", "properties": {"collection_times": [{"days": "Mon-Fri", "time": "4:45pm"}, {"days": "Sat", "time": "11:45am"}, {"days": "Sun", "time": "Closed"}], "id": "1205600001", "name": "USPS COLLECTION BOX - BLUE BOX", "address": {"city": "DUANESBURG", "state": "NY", "street": "7000 DUANESBURG RD", "postcode": "12056"}}},
{"geometry": {"type": "Point", "coordinates": [-74.1362071416, 42.7609810629]}, "type": "Feature", "properties": {"collection_times": [{"days": "Mon-Fri", "time": "4:45pm"}, {"days": "Sat", "time": "11:45am"}, {"days": "Sun", "time": "Closed"}], "id": "1205600002", "name": "USPS COLLECTION BOX - PO LOBBY", "address": {"city": "DUANESBURG", "state": "NY", "street": "7000 DUANESBURG RD", "postcode": "12056"}}},
{"geometry": {"type": "Point", "coordinates": [-74.1362071416, 42.7609810629]}, "type": "Feature", "properties": {"collection_times": [{"days": "Mon-Fri", "time": "4:45pm"}, {"days": "Sat", "time": "11:45am"}, {"days": "Sun", "time": "Closed"}], "id": "1205600003", "name": "USPS COLLECTION BOX - PO LOBBY", "address": {"city": "DUANESBURG", "state": "NY", "street": "7000 DUANESBURG RD", "postcode": "12056"}}},
{"geometry": {"type": "Point", "coordinates": [-73.3962935171, 42.9499315495]}, "type": "Feature", "properties": {"collection_times": [{"days": "Mon-Fri", "time": "4:00pm"}, {"days": "Sat", "time": "11:00am"}, {"days": "Sun", "time": "Closed"}], "id": "1205700001", "name": "USPS COLLECTION BOX - BLUE BOX", "address": {"city": "EAGLE BRIDGE", "state": "NY", "street": "3902 ROUTE 67", "postcode": "12057"}}},
{"geometry": {"type": "Point", "coordinates": [-73.3962935171, 42.9499315495]}, "type": "Feature", "properties": {"collection_times": [{"days": "Mon-Fri", "time": "2:45pm"}, {"days": "Sat", "time": "11:00am"}, {"days": "Sun", "time": "Closed"}], "id": "1205700003", "name": "USPS COLLECTION BOX - PO LOBBY", "address": {"city": "EAGLE BRIDGE", "state": "NY", "street": "3902 ROUTE 67", "postcode": "12057"}}},
{"geometry": {"type": "Point", "coordinates": [-73.9005703931, 42.3555707209]}, "type": "Feature", "properties": {"collection_times": [{"days": "Mon-Fri", "time": "4:30pm"}, {"days": "Sat", "time": "11:00am"}, {"days": "Sun", "time": "Closed"}], "id": "1205800001", "name": "USPS COLLECTION BOX - BLUE BOX", "address": {"city": "EARLTON", "state": "NY", "street": "1504 ROUTE 81", "postcode": "12058"}}},
{"geometry": {"type": "Point", "coordinates": [-73.9005703931, 42.3555707209]}, "type": "Feature", "properties": {"collection_times": [{"days": "Mon-Fri", "time": "4:45pm"}, {"days": "Sat", "time": "11:00am"}, {"days": "Sun", "time": "Closed"}], "id": "1205800002", "name": "USPS COLLECTION BOX - PO LOBBY", "address": {"city": "EARLTON", "state": "NY", "street": "1504 ROUTE 81", "postcode": "12058"}}},
{"geometry": {"type": "Point", "coordinates": [-74.0734156798, 42.6161939834]}, "type": "Feature", "properties": {"collection_times": [{"days": "Mon-Fri", "time": "4:45pm"}, {"days": "Sat", "time": "11:15am"}, {"days": "Sun", "time": "Closed"}], "id": "1205900001", "name": "USPS COLLECTION BOX - BLUE BOX", "address": {"city": "EAST BERNE", "state": "NY", "street": "873 HELDERBERG TRL", "postcode": "12059"}}},
{"geometry": {"type": "Point", "coordinates": [-74.0734156798, 42.6161939834]}, "type": "Feature", "properties": {"collection_times": [{"days": "Mon-Fri", "time": "4:45pm"}, {"days": "Sat", "time": "11:15am"}, {"days": "Sun", "time": "Closed"}], "id": "1205900002", "name": "USPS COLLECTION BOX - BLUE BOX", "address": {"city": "EAST BERNE", "state": "NY", "street": "873 HELDERBERG TRL", "postcode": "12059"}}},
{"geometry": {"type": "Point", "coordinates": [-74.0734156798, 42.6161939834]}, "type": "Feature", "properties": {"collection_times": [{"days": "Mon-Fri", "time": "3:00pm"}, {"days": "Sat", "time": "11:15am"}, {"days": "Sun", "time": "Closed"}], "id": "1205900003", "name": "USPS COLLECTION BOX - PO LOBBY", "address": {"city": "EAST BERNE", "state": "NY", "street": "873 HELDERBERG TRL", "postcode": "12059"}}},
{"geometry": {"type": "Point", "coordinates": [-73.5269633156, 42.4106537718]}, "type": "Feature", "properties": {"collection_times": [{"days": "Mon-Fri", "time": "4:45pm"}, {"days": "Sat", "time": "11:00am"}, {"days": "Sun", "time": "Closed"}], "id": "1206000001", "name": "USPS COLLECTION BOX - BLUE BOX", "address": {"city": "EAST CHATHAM", "state": "NY", "street": "1111 STATE ROUTE 295", "postcode": "12060"}}},
{"geometry": {"type": "Point", "coordinates": [-73.5269633156, 42.4106537718]}, "type": "Feature", "properties": {"collection_times": [{"days": "Mon-Fri", "time": "3:15pm"}, {"days": "Sat", "time": "11:00am"}, {"days": "Sun", "time": "Closed"}], "id": "1206000002", "name": "USPS COLLECTION BOX - PO LOBBY", "address": {"city": "EAST CHATHAM", "state": "NY", "street": "1111 STATE ROUTE 295", "postcode": "12060"}}},
{"geometry": {"type": "Point", "coordinates": [-73.698357357, 42.5897820586]}, "type": "Feature", "properties": {"collection_times": [{"days": "Mon-Fri", "time": "5:00pm"}, {"days": "Sat", "time": "3:00pm"}, {"days": "Sun", "time": "Closed"}], "id": "1206100004", "name": "USPS COLLECTION BOX - BLUE BOX", "address": {"city": "EAST GREENBUSH", "state": "NY", "street": "10 GREENWOOD DR", "postcode": "12061"}}},
{"geometry": {"type": "Point", "coordinates": [-73.698357357, 42.5897820586]}, "type": "Feature", "properties": {"collection_times": [{"days": "Mon-Fri", "time": "5:00pm"}, {"days": "Sat", "time": "3:00pm"}, {"days": "Sun", "time": "Closed"}], "id": "1206100005", "name": "USPS COLLECTION BOX - BLUE BOX", "address": {"city": "EAST GREENBUSH", "state": "NY", "street": "10 GREENWOOD DR", "postcode": "12061"}}},
{"geometry": {"type": "Point", "coordinates": [-73.7096818231, 42.5985229423]}, "type": "Feature", "properties": {"collection_times": [{"days": "Mon-Fri", "time": "8:30am"}, {"days": "Sat", "time": "8:00am"}, {"days": "Sun", "time": "Closed"}], "id": "1206100007", "name": "USPS COLLECTION BOX - BLUE BOX", "address": {"city": "EAST GREENBUSH", "state": "NY", "street": "596 COLUMBIA TPKE", "postcode": "12061"}}},
{"geometry": {"type": "Point", "coordinates": [-73.698357357, 42.5897820586]}, "type": "Feature", "properties": {"collection_times": [{"days": "Mon-Fri", "time": "5:00pm"}, {"days": "Sat", "time": "3:00pm"}, {"days": "Sun", "time": "Closed"}], "id": "1206100009", "name": "USPS COLLECTION BOX - PO LOBBY", "address": {"city": "EAST GREENBUSH", "state": "NY", "street": "10 GREENWOOD DR", "postcode": "12061"}}},
{"geometry": {"type": "Point", "coordinates": [-73.698357357, 42.5897820586]}, "type": "Feature", "properties": {"collection_times": [{"days": "Mon-Fri", "time": "5:00pm"}, {"days": "Sat", "time": "3:00pm"}, {"days": "Sun", "time": "Closed"}], "id": "1206100010", "name": "USPS COLLECTION BOX - PO LOBBY", "address": {"city": "EAST GREENBUSH", "state": "NY", "street": "10 GREENWOOD DR", "postcode": "12061"}}},
{"geometry": {"type": "Point", "coordinates": [-73.6533991132, 42.5977865279]}, "type": "Feature", "properties": {"collection_times": [{"days": "Mon-Sat", "time": "9:00am"}, {"days": "Sun", "time": "Closed"}], "id": "1206100011", "name": "USPS COLLECTION BOX - BLUE BOX", "address": {"city": "EAST GREENBUSH", "state": "NY", "street": "1 FORREST POINTE DR", "postcode": "12061"}}},
{"geometry": {"type": "Point", "coordinates": [-73.5090228776, 42.5129669565]}, "type": "Feature", "properties": {"collection_times": [{"days": "Mon-Fri", "time": "4:30pm"}, {"days": "Sat", "time": "10:30am"}, {"days": "Sun", "time": "Closed"}], "id": "1206200001", "name": "USPS COLLECTION BOX - BLUE BOX", "address": {"city": "EAST NASSAU", "state": "NY", "street": "6466 ROUTE 66 N", "postcode": "12062"}}},
{"geometry": {"type": "Point", "coordinates": [-73.5090228776, 42.5129669565]}, "type": "Feature", "properties": {"collection_times": [{"days": "Mon-Fri", "time": "11:30am"}, {"days": "Sat", "time": "10:45am"}, {"days": "Sun", "time": "Closed"}], "id": "1206200002", "name": "USPS COLLECTION BOX - PO LOBBY", "address": {"city": "EAST NASSAU", "state": "NY", "street": "6466 ROUTE 66", "postcode": "12062"}}},
{"geometry": {"type": "Point", "coordinates": [-73.6306892856, 42.5584563572]}, "type": "Feature", "properties": {"collection_times": [{"days": "Mon-Fri", "time": "4:45pm"}, {"days": "Sat", "time": "11:15am"}, {"days": "Sun", "time": "Closed"}], "id": "1206300001", "name": "USPS COLLECTION BOX - BLUE BOX", "address": {"city": "EAST SCHODACK", "state": "NY", "street": "1649 COLUMBIA TPKE", "postcode": "12063"}}},
{"geometry": {"type": "Point", "coordinates": [-73.6306892856, 42.5584563572]}, "type": "Feature", "properties": {"collection_times": [{"days": "Mon-Fri", "time": "5:00pm"}, {"days": "Sat", "time": "11:30am"}, {"days": "Sun", "time": "Closed"}], "id": "1206300002", "name": "USPS COLLECTION BOX - PO LOBBY", "address": {"city": "EAST SCHODACK", "state": "NY", "street": "1649 COLUMBIA TPKE", "postcode": "12063"}}},
{"geometry": {"type": "Point", "coordinates": [-73.6306892856, 42.5584563572]}, "type": "Feature", "properties": {"collection_times": [{"days": "Mon-Fri", "time": "5:00pm"}, {"days": "Sat", "time": "12:00pm"}, {"days": "Sun", "time": "Closed"}], "id": "1206300003", "name": "USPS COLLECTION BOX - PO LOBBY", "address": {"city": "EAST SCHODACK", "state": "NY", "street": "1649 COLUMBIA TPKE", "postcode": "12063"}}},
{"geometry": {"type": "Point", "coordinates": [-74.6739151078, 42.6220636276]}, "type": "Feature", "properties": {"collection_times": [{"days": "Mon-Fri", "time": "5:00pm"}, {"days": "Sat", "time": "11:00am"}, {"days": "Sun", "time": "Closed"}], "id": "1206400001", "name": "USPS COLLECTION BOX - BLUE BOX", "address": {"city": "EAST WORCESTER", "state": "NY", "street": "70 MAIN ST", "postcode": "12064"}}},
{"geometry": {"type": "Point", "coordinates": [-74.6731188988, 42.6226234114]}, "type": "Feature", "properties": {"collection_times": [{"days": "Mon-Fri", "time": "12:00pm"}, {"days": "Sat", "time": "11:15am"}, {"days": "Sun", "time": "Closed"}], "id": "1206400002", "name": "USPS COLLECTION BOX - PO LOBBY", "address": {"city": "EAST WORCESTER", "state": "NY", "street": "70 MAIN ST", "postcode": "12064"}}},
{"geometry": {"type": "Point", "coordinates": [-73.7966771112, 42.8122081061]}, "type": "Feature", "properties": {"collection_times": [{"days": "Mon-Sat", "time": "10:00am"}, {"days": "Sun", "time": "Closed"}], "id": "1206500002", "name": "USPS COLLECTION BOX - BLUE BOX", "address": {"city": "CLIFTON PARK", "state": "NY", "street": "1 FOXWOOD DR", "postcode": "12065"}}},
{"geometry": {"type": "Point", "coordinates": [-73.7388961777, 42.8340358768]}, "type": "Feature", "properties": {"collection_times": [{"days": "Mon-Sat", "time": "10:00am"}, {"days": "Sun", "time": "Closed"}], "id": "1206500004", "name": "USPS COLLECTION BOX - BLUE BOX", "address": {"city": "CLIFTON PARK", "state": "NY", "street": "1471 ROUTE 9", "postcode": "12065"}}},
{"geometry": {"type": "Point", "coordinates": [-73.7617822008, 42.8529256582]}, "type": "Feature", "properties": {"collection_times": [{"days": "Mon-Sat", "time": "10:00am"}, {"days": "Sun", "time": "Closed"}], "id": "1206500006", "name": "USPS COLLECTION BOX - BLUE BOX", "address": {"city": "CLIFTON PARK", "state": "NY", "street": "131A EASTWOOD DR", "postcode": "12065"}}},
{"geometry": {"type": "Point", "coordinates": [-73.7825213384, 42.8575187952]}, "type": "Feature", "properties": {"collection_times": [{"days": "Mon-Sat", "time": "10:00am"}, {"days": "Sun", "time": "Closed"}], "id": "1206500008", "name": "USPS COLLECTION BOX - BLUE BOX", "address": {"city": "CLIFTON PARK", "state": "NY", "street": "19 CLIFTON COUNTRY RD", "postcode": "12065"}}},
{"geometry": {"type": "Point", "coordinates": [-73.7334805916, 42.8425141437]}, "type": "Feature", "properties": {"collection_times": [{"days": "Mon-Sat", "time": "10:00am"}, {"days": "Sun", "time": "Closed"}], "id": "1206500011", "name": "USPS COLLECTION BOX - BLUE BOX", "address": {"city": "CLIFTON PARK", "state": "NY", "street": "101 YORKTOWN DR", "postcode": "12065"}}},
{"geometry": {"type": "Point", "coordinates": [-73.8184702841, 42.86980527]}, "type": "Feature", "properties": {"collection_times": [{"days": "Mon-Sat", "time": "10:00am"}, {"days": "Sun", "time": "Closed"}], "id": "1206500014", "name": "USPS COLLECTION BOX - BLUE BOX", "address": {"city": "CLIFTON PARK", "state": "NY", "street": "1018 ROUTE 146", "postcode": "12065"}}},
{"geometry": {"type": "Point", "coordinates": [-73.7808462685, 42.8647939928]}, "type": "Feature", "properties": {"collection_times": [{"days": "Mon-Sat", "time": "10:00am"}, {"days": "Sun", "time": "Closed"}], "id": "1206500017", "name": "USPS COLLECTION BOX - BLUE BOX", "address": {"city": "CLIFTON PARK", "state": "NY", "street": "15 PARK AVE", "postcode": "12065"}}},
{"geometry": {"type": "Point", "coordinates": [-73.7891218495, 42.8636446078]}, "type": "Feature", "properties": {"collection_times": [{"days": "Mon-Fri", "time": "10:30am"}, {"days": "Sat", "time": "10:00am"}, {"days": "Sun", "time": "Closed"}], "id": "1206500019", "name": "USPS COLLECTION BOX - BLUE BOX", "address": {"city": "CLIFTON PARK", "state": "NY", "street": "400 CLIFTON CORPORATE PKWY", "postcode": "12065"}}},
{"geometry": {"type": "Point", "coordinates": [-73.7813926602, 42.8574800837]}, "type": "Feature", "properties": {"collection_times": [{"days": "Mon-Sat", "time": "10:30am"}, {"days": "Sun", "time": "Closed"}], "id": "1206500023", "name": "USPS COLLECTION BOX - BLUE BOX", "address": {"city": "CLIFTON PARK", "state": "NY", "street": "22 CLIFTON COUNTRY RD", "postcode": "12065"}}},
{"geometry": {"type": "Point", "coordinates": [-73.807239266, 42.8454396012]}, "type": "Feature", "properties": {"collection_times": [{"days": "Mon-Sat", "time": "10:00am"}, {"days": "Sun", "time": "Closed"}], "id": "1206500025", "name": "USPS COLLECTION BOX - BLUE BOX", "address": {"city": "CLIFTON PARK", "state": "NY", "street": "1 BARNEY RD", "postcode": "12065"}}},
{"geometry": {"type": "Point", "coordinates": [-73.7773092212, 42.8665778949]}, "type": "Feature", "properties": {"collection_times": [{"days": "Mon-Fri", "time": "4:00pm"}, {"days": "Sat", "time": "10:00am"}, {"days": "Sun", "time": "Closed"}], "id": "1206500027", "name": "USPS COLLECTION BOX - BLUE BOX", "address": {"city": "CLIFTON PARK", "state": "NY", "street": "634 PLANK RD", "postcode": "12065"}}},
{"geometry": {"type": "Point", "coordinates": [-73.7336260955, 42.8253257499]}, "type": "Feature", "properties": {"collection_times": [{"days": "Mon-Sat", "time": "10:00am"}, {"days": "Sun", "time": "Closed"}], "id": "1206500028", "name": "USPS COLLECTION BOX - BLUE BOX", "address": {"city": "CLIFTON PARK", "state": "NY", "street": "1407 ROUTE 9", "postcode": "12065"}}},
{"geometry": {"type": "Point", "coordinates": [-73.7700777931, 42.8604619971]}, "type": "Feature", "properties": {"collection_times": [{"days": "Mon-Sat", "time": "10:00am"}, {"days": "Sun", "time": "Closed"}], "id": "1206500030", "name": "USPS COLLECTION BOX - BLUE BOX", "address": {"city": "CLIFTON PARK", "state": "NY", "street": "54 CROSSING BLVD", "postcode": "12065"}}},
{"geometry": {"type": "Point", "coordinates": [-73.799694217, 42.8675726635]}, "type": "Feature", "properties": {"collection_times": [{"days": "Mon-Sat", "time": "10:30am"}, {"days": "Sun", "time": "Closed"}], "id": "1206500031", "name": "USPS COLLECTION BOX - BLUE BOX", "address": {"city": "CLIFTON PARK", "state": "NY", "street": "100 SOLOMON AVE", "postcode": "12065"}}},
{"geometry": {"type": "Point", "coordinates": [-73.7895998269, 42.8527222451]}, "type": "Feature", "properties": {"collection_times": [{"days": "Mon-Sat", "time": "10:00am"}, {"days": "Sun", "time": "Closed"}], "id": "1206500032", "name": "USPS COLLECTION BOX - BLUE BOX", "address": {"city": "CLIFTON PARK", "state": "NY", "street": "49 PINE RDG # 2", "postcode": "12065"}}},
{"geometry": {"type": "Point", "coordinates": [-73.7874172889, 42.8643604766]}, "type": "Feature", "properties": {"collection_times": [{"days": "Mon-Fri", "time": "4:00pm"}, {"days": "Sat", "time": "10:00am"}, {"days": "Sun", "time": "Closed"}], "id": "1206500033", "name": "USPS COLLECTION BOX - BLUE BOX", "address": {"city": "CLIFTON PARK", "state": "NY", "street": "855 ROUTE 146", "postcode": "12065"}}},
{"geometry": {"type": "Point", "coordinates": [-73.7738478833, 42.8744930734]}, "type": "Feature", "properties": {"collection_times": [{"days": "Mon-Fri", "time": "6:00pm"}, {"days": "Sat", "time": "3:30pm"}, {"days": "Sun", "time": "Closed"}], "id": "1206500034", "name": "USPS COLLECTION BOX - PO LOBBY", "address": {"city": "CLIFTON PARK", "state": "NY", "street": "1764 ROUTE 9", "postcode": "12065"}}},
{"geometry": {"type": "Point", "coordinates": [-73.7738397057, 42.8833601978]}, "type": "Feature", "properties": {"collection_times": [{"days": "Mon-Sat", "time": "10:00am"}, {"days": "Sun", "time": "Closed"}], "id": "1206500036", "name": "USPS COLLECTION BOX - BLUE BOX", "address": {"city": "CLIFTON PARK", "state": "NY", "street": "1B OAKBROOK COMMONS", "postcode": "12065"}}},
{"geometry": {"type": "Point", "coordinates": [-73.8006138498, 42.8676420123]}, "type": "Feature", "properties": {"collection_times": [{"days": "Mon-Sat", "time": "10:30am"}, {"days": "Sun", "time": "Closed"}], "id": "1206500037", "name": "USPS COLLECTION BOX - BLUE BOX", "address": {"city": "CLIFTON PARK", "state": "NY", "street": "926 ROUTE 146 LOUDON SQUARE APTS", "postcode": "12065"}}},
{"geometry": {"type": "Point", "coordinates": [-73.7652513205, 42.8210529021]}, "type": "Feature", "properties": {"collection_times": [{"days": "Mon-Fri", "time": "5:00pm"}, {"days": "Sat", "time": "3:30pm"}, {"days": "Sun", "time": "Closed"}], "id": "1206500041", "name": "USPS COLLECTION BOX - PO LOBBY", "address": {"city": "CLIFTON PARK", "state": "NY", "street": "2 PROGRESS DR", "postcode": "12065"}}},
{"geometry": {"type": "Point", "coordinates": [-73.7619236799, 42.8722150473]}, "type": "Feature", "properties": {"collection_times": [{"days": "Mon-Fri", "time": "4:00pm"}, {"days": "Sat", "time": "10:00am"}, {"days": "Sun", "time": "Closed"}], "id": "1206500042", "name": "USPS COLLECTION BOX - BLUE BOX", "address": {"city": "CLIFTON PARK", "state": "NY", "street": "3 HALFMOON EXECUTIVE DR", "postcode": "12065"}}},
{"geometry": {"type": "Point", "coordinates": [-73.7390076586, 42.8376978137]}, "type": "Feature", "properties": {"collection_times": [{"days": "Mon-Sat", "time": "10:30am"}, {"days": "Sun", "time": "Closed"}], "id": "1206500043", "name": "USPS COLLECTION BOX - BLUE BOX", "address": {"city": "CLIFTON PARK", "state": "NY", "street": "215 GUIDEBOARD RD", "postcode": "12065"}}},
{"geometry": {"type": "Point", "coordinates": [-73.7391339954, 42.8420566427]}, "type": "Feature", "properties": {"collection_times": [{"days": "Mon-Sat", "time": "9:30am"}, {"days": "Sun", "time": "Closed"}], "id": "1206500044", "name": "USPS COLLECTION BOX - BLUE BOX", "address": {"city": "CLIFTON PARK", "state": "NY", "street": "1700 LOOKOUT LN", "postcode": "12065"}}},
{"geometry": {"type": "Point", "coordinates": [-73.7619236799, 42.8722150473]}, "type": "Feature", "properties": {"collection_times": [{"days": "Mon-Fri", "time": "4:00pm"}, {"days": "Sat", "time": "10:00am"}, {"days": "Sun", "time": "Closed"}], "id": "1206500045", "name": "USPS COLLECTION BOX - BLUE BOX", "address": {"city": "CLIFTON PARK", "state": "NY", "street": "3 HALFMOON EXECUTIVE DR", "postcode": "12065"}}},
{"geometry": {"type": "Point", "coordinates": [-73.7619236799, 42.8722150473]}, "type": "Feature", "properties": {"collection_times": [{"days": "Mon-Fri", "time": "4:00pm"}, {"days": "Sat", "time": "10:00am"}, {"days": "Sun", "time": "Closed"}], "id": "1206500046", "name": "USPS COLLECTION BOX - BLUE BOX", "address": {"city": "CLIFTON PARK", "state": "NY", "street": "3 HALFMOON EXECUTIVE DR", "postcode": "12065"}}},
{"geometry": {"type": "Point", "coordinates": [-73.7652513205, 42.8210529021]}, "type": "Feature", "properties": {"collection_times": [{"days": "Mon-Fri", "time": "5:00pm"}, {"days": "Sat", "time": "3:30pm"}, {"days": "Sun", "time": "Closed"}], "id": "1206500050", "name": "USPS COLLECTION BOX - BLUE BOX", "address": {"city": "CLIFTON PARK", "state": "NY", "street": "2 PROGRESS DR", "postcode": "12065"}}},
{"geometry": {"type": "Point", "coordinates": [-73.7674952127, 42.8613954997]}, "type": "Feature", "properties": {"collection_times": [{"days": "Mon-Sat", "time": "10:00am"}, {"days": "Sun", "time": "Closed"}], "id": "1206500052", "name": "USPS COLLECTION BOX - BLUE BOX", "address": {"city": "CLIFTON PARK", "state": "NY", "street": "1688 ROUTE 9", "postcode": "12065"}}},
{"geometry": {"type": "Point", "coordinates": [-73.8201861719, 42.8593397083]}, "type": "Feature", "properties": {"collection_times": [{"days": "Mon-Fri", "time": "4:00pm"}, {"days": "Sat", "time": "10:00am"}, {"days": "Sun", "time": "Closed"}], "id": "1206500054", "name": "USPS COLLECTION BOX - BLUE BOX", "address": {"city": "CLIFTON PARK", "state": "NY", "street": "1 TOWN HALL PLZ", "postcode": "12065"}}},
{"geometry": {"type": "Point", "coordinates": [-73.773898533, 42.874259116]}, "type": "Feature", "properties": {"collection_times": [{"days": "Mon-Fri", "time": "5:30pm"}, {"days": "Sat", "time": "3:30pm"}, {"days": "Sun", "time": "Closed"}], "id": "1206500055", "name": "USPS COLLECTION BOX - BLUE BOX", "address": {"city": "CLIFTON PARK", "state": "NY", "street": "1764 ROUTE 9", "postcode": "12065"}}},
{"geometry": {"type": "Point", "coordinates": [-73.7652513205, 42.8210529021]}, "type": "Feature", "properties": {"collection_times": [{"days": "Mon-Fri", "time": "5:00pm"}, {"days": "Sat", "time": "3:30pm"}, {"days": "Sun", "time": "Closed"}], "id": "1206500056", "name": "USPS COLLECTION BOX - BLUE BOX", "address": {"city": "CLIFTON PARK", "state": "NY", "street": "2 PROGRESS DR", "postcode": "12065"}}},
{"geometry": {"type": "Point", "coordinates": [-73.7769011004, 42.867816453]}, "type": "Feature", "properties": {"collection_times": [{"days": "Mon-Fri", "time": "4:00pm"}, {"days": "Sat", "time": "10:00am"}, {"days": "Sun", "time": "Closed"}], "id": "1206500058", "name": "USPS COLLECTION BOX - BLUE BOX", "address": {"city": "CLIFTON PARK", "state": "NY", "street": "646 PLANK RD", "postcode": "12065"}}},
{"geometry": {"type": "Point", "coordinates": [-73.7581653963, 42.8498059027]}, "type": "Feature", "properties": {"collection_times": [{"days": "Mon-Fri", "time": "4:00pm"}, {"days": "Sat", "time": "10:00am"}, {"days": "Sun", "time": "Closed"}], "id": "1206500059", "name": "USPS COLLECTION BOX - BLUE BOX", "address": {"city": "CLIFTON PARK", "state": "NY", "street": "21 CORPORATE DR", "postcode": "12065"}}},
{"geometry": {"type": "Point", "coordinates": [-73.7831725461, 42.8614752074]}, "type": "Feature", "properties": {"collection_times": [{"days": "Mon-Sat", "time": "10:00am"}, {"days": "Sun", "time": "Closed"}], "id": "1206500061", "name": "USPS COLLECTION BOX - BLUE BOX", "address": {"city": "CLIFTON PARK", "state": "NY", "street": "5 SOUTHSIDE DR", "postcode": "12065"}}},
{"geometry": {"type": "Point", "coordinates": [-73.7865938725, 42.863986311]}, "type": "Feature", "properties": {"collection_times": [{"days": "Mon-Fri", "time": "4:00pm"}, {"days": "Sat", "time": "10:00am"}, {"days": "Sun", "time": "Closed"}], "id": "1206500063", "name": "USPS COLLECTION BOX - BLUE BOX", "address": {"city": "CLIFTON PARK", "state": "NY", "street": "5 MUNICIPAL PLZ", "postcode": "12065"}}},
{"geometry": {"type": "Point", "coordinates": [-73.7581653963, 42.8498059027]}, "type": "Feature", "properties": {"collection_times": [{"days": "Mon-Fri", "time": "4:00pm"}, {"days": "Sat", "time": "10:00am"}, {"days": "Sun", "time": "Closed"}], "id": "1206500064", "name": "USPS COLLECTION BOX - BLUE BOX", "address": {"city": "CLIFTON PARK", "state": "NY", "street": "21 CORPORATE DR", "postcode": "12065"}}},
{"geometry": {"type": "Point", "coordinates": [-73.7478287011, 42.8405196751]}, "type": "Feature", "properties": {"collection_times": [{"days": "Mon-Fri", "time": "4:00pm"}, {"days": "Sat", "time": "10:00am"}, {"days": "Sun", "time": "Closed"}], "id": "1206500065", "name": "USPS COLLECTION BOX - BLUE BOX", "address": {"city": "CLIFTON PARK", "state": "NY", "street": "3 EXECUTIVE PARK DR", "postcode": "12065"}}},
{"geometry": {"type": "Point", "coordinates": [-73.7790462183, 42.8521424714]}, "type": "Feature", "properties": {"collection_times": [{"days": "Mon-Sat", "time": "10:00am"}, {"days": "Sun", "time": "Closed"}], "id": "1206500066", "name": "USPS COLLECTION BOX - BLUE BOX", "address": {"city": "CLIFTON PARK", "state": "NY", "street": "22 CLIFTON COUNTRY RD", "postcode": "12065"}}},
{"geometry": {"type": "Point", "coordinates": [-73.7790462183, 42.8521424714]}, "type": "Feature", "properties": {"collection_times": [{"days": "Mon-Sat", "time": "10:00am"}, {"days": "Sun", "time": "Closed"}], "id": "1206500067", "name": "USPS COLLECTION BOX - BLUE BOX", "address": {"city": "CLIFTON PARK", "state": "NY", "street": "843 ROUTE 146", "postcode": "12065"}}},
{"geometry": {"type": "Point", "coordinates": [-74.2579501806, 42.7606202604]}, "type": "Feature", "properties": {"collection_times": [{"days": "Mon-Fri", "time": "4:00pm"}, {"days": "Sat", "time": "11:00am"}, {"days": "Sun", "time": "Closed"}], "id": "1206600002", "name": "USPS COLLECTION BOX - BLUE BOX", "address": {"city": "ESPERANCE", "state": "NY", "street": "170 MAIN ST", "postcode": "12066"}}},
{"geometry": {"type": "Point", "coordinates": [-74.2579501806, 42.7606202604]}, "type": "Feature", "properties": {"collection_times": [{"days": "Mon-Fri", "time": "2:15pm"}, {"days": "Sat", "time": "11:15am"}, {"days": "Sun", "time": "Closed"}], "id": "1206600003", "name": "USPS COLLECTION BOX - PO LOBBY", "address": {"city": "ESPERANCE", "state": "NY", "street": "170 MAIN ST", "postcode": "12066"}}},
{"geometry": {"type": "Point", "coordinates": [-73.8766115286, 42.5787710765]}, "type": "Feature", "properties": {"collection_times": [{"days": "Mon-Fri", "time": "4:30pm"}, {"days": "Sat", "time": "10:45am"}, {"days": "Sun", "time": "Closed"}], "id": "1206700001", "name": "USPS COLLECTION BOX - BLUE BOX", "address": {"city": "FEURA BUSH", "state": "NY", "street": "1380 INDIAN FIELDS RD", "postcode": "12067"}}},
{"geometry": {"type": "Point", "coordinates": [-73.8766115286, 42.5787710765]}, "type": "Feature", "properties": {"collection_times": [{"days": "Mon-Fri", "time": "2:30pm"}, {"days": "Sat", "time": "11:00am"}, {"days": "Sun", "time": "Closed"}], "id": "1206700002", "name": "USPS COLLECTION BOX - PO LOBBY", "address": {"city": "FEURA BUSH", "state": "NY", "street": "1380 INDIAN FIELDS RD", "postcode": "12067"}}},
{"geometry": {"type": "Point", "coordinates": [-74.3747803909, 42.9545096007]}, "type": "Feature", "properties": {"collection_times": [{"days": "Mon-Fri", "time": "4:45pm"}, {"days": "Sat", "time": "11:30am"}, {"days": "Sun", "time": "Closed"}], "id": "1206800001", "name": "USPS COLLECTION BOX - BLUE BOX", "address": {"city": "FONDA", "state": "NY", "street": "1 W MAIN ST", "postcode": "12068"}}},
{"geometry": {"type": "Point", "coordinates": [-74.3747803909, 42.9545096007]}, "type": "Feature", "properties": {"collection_times": [{"days": "Mon-Fri", "time": "4:45pm"}, {"days": "Sat", "time": "11:30am"}, {"days": "Sun", "time": "Closed"}], "id": "1206800002", "name": "USPS COLLECTION BOX - BLUE BOX", "address": {"city": "FONDA", "state": "NY", "street": "1 W MAIN ST", "postcode": "12068"}}},
{"geometry": {"type": "Point", "coordinates": [-74.3747803909, 42.9545096007]}, "type": "Feature", "properties": {"collection_times": [{"days": "Mon-Fri", "time": "5:00pm"}, {"days": "Sat", "time": "11:45am"}, {"days": "Sun", "time": "Closed"}], "id": "1206800003", "name": "USPS COLLECTION BOX - PO LOBBY", "address": {"city": "FONDA", "state": "NY", "street": "1 W MAIN ST", "postcode": "12068"}}},
{"geometry": {"type": "Point", "coordinates": [-74.233117506, 42.9566744156]}, "type": "Feature", "properties": {"collection_times": [{"days": "Mon-Fri", "time": "4:45pm"}, {"days": "Sat", "time": "10:45am"}, {"days": "Sun", "time": "Closed"}], "id": "1207000001", "name": "USPS COLLECTION BOX - BLUE BOX", "address": {"city": "FORT JOHNSON", "state": "NY", "street": "5 E MAIN ST", "postcode": "12070"}}},
{"geometry": {"type": "Point", "coordinates": [-74.23322111, 42.956716403]}, "type": "Feature", "properties": {"collection_times": [{"days": "Mon-Fri", "time": "4:00pm"}, {"days": "Sat", "time": "10:45am"}, {"days": "Sun", "time": "Closed"}], "id": "1207000002", "name": "USPS COLLECTION BOX - PO LOBBY", "address": {"city": "FORT JOHNSON", "state": "NY", "street": "5 E MAIN ST", "postcode": "12070"}}},
{"geometry": {"type": "Point", "coordinates": [-74.4104667626, 42.538220169]}, "type": "Feature", "properties": {"collection_times": [{"days": "Mon-Fri", "time": "4:30pm"}, {"days": "Sat", "time": "11:45am"}, {"days": "Sun", "time": "Closed"}], "id": "1207100001", "name": "USPS COLLECTION BOX - BLUE BOX", "address": {"city": "FULTONHAM", "state": "NY", "street": "3431 STATE ROUTE 30", "postcode": "12071"}}},
{"geometry": {"type": "Point", "coordinates": [-74.4104667626, 42.538220169]}, "type": "Feature", "properties": {"collection_times": [{"days": "Mon-Fri", "time": "12:00pm"}, {"days": "Sat", "time": "11:45am"}, {"days": "Sun", "time": "Closed"}], "id": "1207100002", "name": "USPS COLLECTION BOX - PO LOBBY", "address": {"city": "FULTONHAM", "state": "NY", "street": "3431 STATE ROUTE 30", "postcode": "12071"}}},
{"geometry": {"type": "Point", "coordinates": [-74.3706364856, 42.9475585338]}, "type": "Feature", "properties": {"collection_times": [{"days": "Mon-Fri", "time": "4:45pm"}, {"days": "Sat", "time": "11:00am"}, {"days": "Sun", "time": "Closed"}], "id": "1207200004", "name": "USPS COLLECTION BOX - PO LOBBY", "address": {"city": "FULTONVILLE", "state": "NY", "street": "26 MAIN ST", "postcode": "12072"}}},
{"geometry": {"type": "Point", "coordinates": [-74.3706364856, 42.9475585338]}, "type": "Feature", "properties": {"collection_times": [{"days": "Mon-Fri", "time": "4:45pm"}, {"days": "Sat", "time": "11:00am"}, {"days": "Sun", "time": "Closed"}], "id": "1207200005", "name": "USPS COLLECTION BOX - BLUE BOX", "address": {"city": "FULTONVILLE", "state": "NY", "street": "26 MAIN ST", "postcode": "12072"}}},
{"geometry": {"type": "Point", "coordinates": [-74.2351736354, 42.6617431652]}, "type": "Feature", "properties": {"collection_times": [{"days": "Mon-Fri", "time": "4:45pm"}, {"days": "Sat", "time": "10:45am"}, {"days": "Sun", "time": "Closed"}], "id": "1207300001", "name": "USPS COLLECTION BOX - BLUE BOX", "address": {"city": "GALLUPVILLE", "state": "NY", "street": "859 SUITE 2 RT 443", "postcode": "12073"}}},
{"geometry": {"type": "Point", "coordinates": [-74.2351736354, 42.6617431652]}, "type": "Feature", "properties": {"collection_times": [{"days": "Mon-Fri", "time": "12:00pm"}, {"days": "Sat", "time": "10:45am"}, {"days": "Sun", "time": "Closed"}], "id": "1207300002", "name": "USPS COLLECTION BOX - PO LOBBY", "address": {"city": "GALLUPVILLE", "state": "NY", "street": "859 SUITE 2 RT 443", "postcode": "12073"}}},
{"geometry": {"type": "Point", "coordinates": [-74.0307457508, 43.0126241811]}, "type": "Feature", "properties": {"collection_times": [{"days": "Mon-Fri", "time": "4:45pm"}, {"days": "Sat", "time": "12:00pm"}, {"days": "Sun", "time": "Closed"}], "id": "1207400002", "name": "USPS COLLECTION BOX - BLUE BOX", "address": {"city": "GALWAY", "state": "NY", "street": "5101 SACANDAGA RD", "postcode": "12074"}}},
{"geometry": {"type": "Point", "coordinates": [-74.0307457508, 43.0126241811]}, "type": "Feature", "properties": {"collection_times": [{"days": "Mon-Fri", "time": "4:45pm"}, {"days": "Sat", "time": "12:00pm"}, {"days": "Sun", "time": "Closed"}], "id": "1207400004", "name": "USPS COLLECTION BOX - PO LOBBY", "address": {"city": "GALWAY", "state": "NY", "street": "5101 SACANDAGA RD", "postcode": "12074"}}},
{"geometry": {"type": "Point", "coordinates": [-73.6123972614, 42.3312284248]}, "type": "Feature", "properties": {"collection_times": [{"days": "Mon-Fri", "time": "4:30pm"}, {"days": "Sat", "time": "11:30am"}, {"days": "Sun", "time": "Closed"}], "id": "1207500001", "name": "USPS COLLECTION BOX - BLUE BOX", "address": {"city": "GHENT", "state": "NY", "street": "2354 ROUTE 66", "postcode": "12075"}}},
{"geometry": {"type": "Point", "coordinates": [-73.6123972614, 42.3312284248]}, "type": "Feature", "properties": {"collection_times": [{"days": "Mon-Fri", "time": "4:30pm"}, {"days": "Sat", "time": "12:00pm"}, {"days": "Sun", "time": "Closed"}], "id": "1207500002", "name": "USPS COLLECTION BOX - PO LOBBY", "address": {"city": "GHENT", "state": "NY", "street": "2354 ROUTE 66", "postcode": "12075"}}},
{"geometry": {"type": "Point", "coordinates": [-74.4463920939, 42.397442596]}, "type": "Feature", "properties": {"collection_times": [{"days": "Mon-Fri", "time": "3:45pm"}, {"days": "Sat", "time": "11:00am"}, {"days": "Sun", "time": "Closed"}], "id": "1207600001", "name": "USPS COLLECTION BOX - BLUE BOX", "address": {"city": "GILBOA", "state": "NY", "street": "373 STATE ROUTE 990V STE 2", "postcode": "12076"}}},
{"geometry": {"type": "Point", "coordinates": [-74.446392094, 42.397442596]}, "type": "Feature", "properties": {"collection_times": [{"days": "Mon-Fri", "time": "3:00pm"}, {"days": "Sat", "time": "11:00am"}, {"days": "Sun", "time": "Closed"}], "id": "1207600002", "name": "USPS COLLECTION BOX - PO LOBBY", "address": {"city": "GILBOA", "state": "NY", "street": "373 STATE ROUTE 990V STE 2", "postcode": "12076"}}},
{"geometry": {"type": "Point", "coordinates": [-73.795011834, 42.6017018157]}, "type": "Feature", "properties": {"collection_times": [{"days": "Mon-Fri", "time": "4:45pm"}, {"days": "Sat", "time": "12:00pm"}, {"days": "Sun", "time": "Closed"}], "id": "1207700001", "name": "USPS COLLECTION BOX - BLUE BOX", "address": {"city": "GLENMONT", "state": "NY", "street": "402 FEURA BUSH RD", "postcode": "12077"}}},
{"geometry": {"type": "Point", "coordinates": [-73.795011834, 42.6017018157]}, "type": "Feature", "properties": {"collection_times": [{"days": "Mon-Fri", "time": "5:00pm"}, {"days": "Sat", "time": "12:30pm"}, {"days": "Sun", "time": "Closed"}], "id": "1207700004", "name": "USPS COLLECTION BOX - PO LOBBY", "address": {"city": "GLENMONT", "state": "NY", "street": "402 FEURA BUSH RD", "postcode": "12077"}}},
{"geometry": {"type": "Point", "coordinates": [-73.790606863, 42.6012047103]}, "type": "Feature", "properties": {"collection_times": [{"days": "Mon-Sat", "time": "9:00am"}, {"days": "Sun", "time": "Closed"}], "id": "1207700005", "name": "USPS COLLECTION BOX - BLUE BOX", "address": {"city": "GLENMONT", "state": "NY", "street": "329 GLENMONT RD", "postcode": "12077"}}},
{"geometry": {"type": "Point", "coordinates": [-74.3436828396, 43.0531895886]}, "type": "Feature", "properties": {"collection_times": [{"days": "Mon-Fri", "time": "5:00pm"}, {"days": "Sat", "time": "4:00pm"}, {"days": "Sun", "time": "Closed"}], "id": "1207800001", "name": "USPS COLLECTION BOX - BLUE BOX", "address": {"city": "GLOVERSVILLE", "state": "NY", "street": "115 N MAIN ST", "postcode": "12078"}}},
{"geometry": {"type": "Point", "coordinates": [-74.3436828396, 43.0531895886]}, "type": "Feature", "properties": {"collection_times": [{"days": "Mon-Fri", "time": "5:00pm"}, {"days": "Sat", "time": "4:00pm"}, {"days": "Sun", "time": "Closed"}], "id": "1207800004", "name": "USPS COLLECTION BOX - BLUE BOX", "address": {"city": "GLOVERSVILLE", "state": "NY", "street": "115 N MAIN ST", "postcode": "12078"}}},
{"geometry": {"type": "Point", "coordinates": [-74.3436828396, 43.0531895886]}, "type": "Feature", "properties": {"collection_times": [{"days": "Mon-Fri", "time": "5:00pm"}, {"days": "Sat", "time": "4:00pm"}, {"days": "Sun", "time": "Closed"}], "id": "1207800005", "name": "USPS COLLECTION BOX - BLUE BOX", "address": {"city": "GLOVERSVILLE", "state": "NY", "street": "115 N MAIN ST", "postcode": "12078"}}},
{"geometry": {"type": "Point", "coordinates": [-74.3436828396, 43.0531895886]}, "type": "Feature", "properties": {"collection_times": [{"days": "Mon-Fri", "time": "5:00pm"}, {"days": "Sat", "time": "4:00pm"}, {"days": "Sun", "time": "Closed"}], "id": "1207800006", "name": "USPS COLLECTION BOX - PO LOBBY", "address": {"city": "GLOVERSVILLE", "state": "NY", "street": "115 N MAIN ST", "postcode": "12078"}}},
{"geometry": {"type": "Point", "coordinates": [-74.339656208, 43.067520049]}, "type": "Feature", "properties": {"collection_times": [{"days": "Mon-Fri", "time": "3:15pm"}, {"days": "Sat", "time": "3:00pm"}, {"days": "Sun", "time": "Closed"}], "id": "1207800008", "name": "USPS COLLECTION BOX - BLUE BOX", "address": {"city": "GLOVERSVILLE", "state": "NY", "street": "5 FRONTAGE RD", "postcode": "12078"}}},
{"geometry": {"type": "Point", "coordinates": [-74.3672341816, 43.1224014483]}, "type": "Feature", "properties": {"collection_times": [{"days": "Mon-Sat", "time": "12:00pm"}, {"days": "Sun", "time": "Closed"}], "id": "1207800010", "name": "USPS COLLECTION BOX - BLUE BOX", "address": {"city": "GLOVERSVILLE", "state": "NY", "street": "31 ARTERIAL PLZ", "postcode": "12078"}}},
{"geometry": {"type": "Point", "coordinates": [-74.3229873039, 43.0596522611]}, "type": "Feature", "properties": {"collection_times": [{"days": "Mon-Sat", "time": "12:00pm"}, {"days": "Sun", "time": "Closed"}], "id": "1207800011", "name": "USPS COLLECTION BOX - BLUE BOX", "address": {"city": "GLOVERSVILLE", "state": "NY", "street": "233 5TH AVE EXT", "postcode": "12078"}}},
{"geometry": {"type": "Point", "coordinates": [-74.3308995299, 43.0680790694]}, "type": "Feature", "properties": {"collection_times": [{"days": "Mon-Fri", "time": "3:30pm"}, {"days": "Sat", "time": "3:00pm"}, {"days": "Sun", "time": "Closed"}], "id": "1207800012", "name": "USPS COLLECTION BOX - BLUE BOX", "address": {"city": "GLOVERSVILLE", "state": "NY", "street": "99 E STATE ST", "postcode": "12078"}}},
{"geometry": {"type": "Point", "coordinates": [-74.3499036289, 43.0442657504]}, "type": "Feature", "properties": {"collection_times": [{"days": "Mon-Fri", "time": "3:30pm"}, {"days": "Sat", "time": "9:30am"}, {"days": "Sun", "time": "Closed"}], "id": "1207800023", "name": "USPS COLLECTION BOX - BLUE BOX", "address": {"city": "GLOVERSVILLE", "state": "NY", "street": "199 S MAIN ST", "postcode": "12078"}}},
{"geometry": {"type": "Point", "coordinates": [-74.3450374412, 43.0514287912]}, "type": "Feature", "properties": {"collection_times": [{"days": "Mon-Fri", "time": "3:15pm"}, {"days": "Sat", "time": "3:00pm"}, {"days": "Sun", "time": "Closed"}], "id": "1207800025", "name": "USPS COLLECTION BOX - BLUE BOX", "address": {"city": "GLOVERSVILLE", "state": "NY", "street": "21 N MAIN ST", "postcode": "12078"}}},
{"geometry": {"type": "Point", "coordinates": [-74.3450374412, 43.0514287912]}, "type": "Feature", "properties": {"collection_times": [{"days": "Mon-Fri", "time": "3:15pm"}, {"days": "Sat", "time": "3:00pm"}, {"days": "Sun", "time": "Closed"}], "id": "1207800026", "name": "USPS COLLECTION BOX - BLUE BOX", "address": {"city": "GLOVERSVILLE", "state": "NY", "street": "21 N MAIN ST", "postcode": "12078"}}},
{"geometry": {"type": "Point", "coordinates": [-74.3455437254, 43.0505489527]}, "type": "Feature", "properties": {"collection_times": [{"days": "Mon-Fri", "time": "3:30pm"}, {"days": "Sat", "time": "3:00pm"}, {"days": "Sun", "time": "Closed"}], "id": "1207800028", "name": "USPS COLLECTION BOX - BLUE BOX", "address": {"city": "GLOVERSVILLE", "state": "NY", "street": "2 N MAIN ST", "postcode": "12078"}}},
{"geometry": {"type": "Point", "coordinates": [-74.3469238526, 43.0504230741]}, "type": "Feature", "properties": {"collection_times": [{"days": "Mon-Fri", "time": "3:15pm"}, {"days": "Sat", "time": "3:00pm"}, {"days": "Sun", "time": "Closed"}], "id": "1207800029", "name": "USPS COLLECTION BOX - BLUE BOX", "address": {"city": "GLOVERSVILLE", "state": "NY", "street": "29 W FULTON ST", "postcode": "12078"}}},
{"geometry": {"type": "Point", "coordinates": [-74.340240294, 43.0627817818]}, "type": "Feature", "properties": {"collection_times": [{"days": "Mon-Fri", "time": "3:00pm"}, {"days": "Sat", "time": "9:00am"}, {"days": "Sun", "time": "Closed"}], "id": "1207800030", "name": "USPS COLLECTION BOX - BLUE BOX", "address": {"city": "GLOVERSVILLE", "state": "NY", "street": "358 N MAIN ST", "postcode": "12078"}}},
{"geometry": {"type": "Point", "coordinates": [-73.4762172767, 42.76507828]}, "type": "Feature", "properties": {"collection_times": [{"days": "Mon-Fri", "time": "4:30pm"}, {"days": "Sat", "time": "11:30am"}, {"days": "Sun", "time": "Closed"}], "id": "1208200001", "name": "USPS COLLECTION BOX - BLUE BOX", "address": {"city": "GRAFTON", "state": "NY", "street": "6 ROXBOROUGH RD", "postcode": "12082"}}},
{"geometry": {"type": "Point", "coordinates": [-73.4762172767, 42.76507828]}, "type": "Feature", "properties": {"collection_times": [{"days": "Mon-Fri", "time": "1:00pm"}, {"days": "Sat", "time": "12:00pm"}, {"days": "Sun", "time": "Closed"}], "id": "1208200002", "name": "USPS COLLECTION BOX - PO LOBBY", "address": {"city": "GRAFTON", "state": "NY", "street": "6 ROXBOROUGH RD", "postcode": "12082"}}},
{"geometry": {"type": "Point", "coordinates": [-74.0241024833, 42.4155493353]}, "type": "Feature", "properties": {"collection_times": [{"days": "Mon-Fri", "time": "4:25pm"}, {"days": "Sat", "time": "11:45am"}, {"days": "Sun", "time": "Closed"}], "id": "1208300001", "name": "USPS COLLECTION BOX - BLUE BOX", "address": {"city": "GREENVILLE", "state": "NY", "street": "4912 ROUTE 81", "postcode": "12083"}}},
{"geometry": {"type": "Point", "coordinates": [-74.0241024833, 42.4155493353]}, "type": "Feature", "properties": {"collection_times": [{"days": "Mon-Fri", "time": "4:25pm"}, {"days": "Sat", "time": "11:45am"}, {"days": "Sun", "time": "Closed"}], "id": "1208300004", "name": "USPS COLLECTION BOX - PO LOBBY", "address": {"city": "GREENVILLE", "state": "NY", "street": "4912 RTE 81", "postcode": "12083"}}},
{"geometry": {"type": "Point", "coordinates": [-74.0241024833, 42.4155493353]}, "type": "Feature", "properties": {"collection_times": [{"days": "Mon-Fri", "time": "4:25pm"}, {"days": "Sat", "time": "11:45am"}, {"days": "Sun", "time": "Closed"}], "id": "1208300005", "name": "USPS COLLECTION BOX - PO LOBBY", "address": {"city": "GREENVILLE", "state": "NY", "street": "4912 STATE ROUTE 81", "postcode": "12083"}}},
{"geometry": {"type": "Point", "coordinates": [-73.9089999772, 42.6938203897]}, "type": "Feature", "properties": {"collection_times": [{"days": "Mon-Sat", "time": "10:00am"}, {"days": "Sun", "time": "Closed"}], "id": "1208400003", "name": "USPS COLLECTION BOX - BLUE BOX", "address": {"city": "GUILDERLAND", "state": "NY", "street": "7 WINDING BROOK DR", "postcode": "12084"}}},
{"geometry": {"type": "Point", "coordinates": [-73.8912480677, 42.695334743]}, "type": "Feature", "properties": {"collection_times": [{"days": "Mon-Sat", "time": "9:30am"}, {"days": "Sun", "time": "Closed"}], "id": "1208400004", "name": "USPS COLLECTION BOX - BLUE BOX", "address": {"city": "GUILDERLAND", "state": "NY", "street": "800 BRANDYWINE PKWY", "postcode": "12084"}}},
{"geometry": {"type": "Point", "coordinates": [-73.8922579511, 42.6930558875]}, "type": "Feature", "properties": {"collection_times": [{"days": "Mon-Sat", "time": "10:30am"}, {"days": "Sun", "time": "Closed"}], "id": "1208400005", "name": "USPS COLLECTION BOX - BLUE BOX", "address": {"city": "GUILDERLAND", "state": "NY", "street": "101 HERITAGE RD", "postcode": "12084"}}},
{"geometry": {"type": "Point", "coordinates": [-73.8918681504, 42.6985728798]}, "type": "Feature", "properties": {"collection_times": [{"days": "Mon-Sat", "time": "9:30am"}, {"days": "Sun", "time": "Closed"}], "id": "1208400006", "name": "USPS COLLECTION BOX - BLUE BOX", "address": {"city": "GUILDERLAND", "state": "NY", "street": "2080 WESTERN AVE", "postcode": "12084"}}},
{"geometry": {"type": "Point", "coordinates": [-73.8891946631, 42.6978843977]}, "type": "Feature", "properties": {"collection_times": [{"days": "Mon-Sat", "time": "9:30am"}, {"days": "Sun", "time": "Closed"}], "id": "1208400007", "name": "USPS COLLECTION BOX - BLUE BOX", "address": {"city": "GUILDERLAND", "state": "NY", "street": "2050 WESTERN AVE", "postcode": "12084"}}},
{"geometry": {"type": "Point", "coordinates": [-73.8943523642, 42.6989857325]}, "type": "Feature", "properties": {"collection_times": [{"days": "Mon-Sat", "time": "9:30am"}, {"days": "Sun", "time": "Closed"}], "id": "1208400009", "name": "USPS COLLECTION BOX - BLUE BOX", "address": {"city": "GUILDERLAND", "state": "NY", "street": "2120 WESTERN AVE", "postcode": "12084"}}},
{"geometry": {"type": "Point", "coordinates": [-73.904217059, 42.70101569]}, "type": "Feature", "properties": {"collection_times": [{"days": "Mon-Sat", "time": "9:30am"}, {"days": "Sun", "time": "Closed"}], "id": "1208400012", "name": "USPS COLLECTION BOX - BLUE BOX", "address": {"city": "GUILDERLAND", "state": "NY", "street": "2228 WESTERN AVE", "postcode": "12084"}}},
{"geometry": {"type": "Point", "coordinates": [-73.886488053, 42.6991099431]}, "type": "Feature", "properties": {"collection_times": [{"days": "Mon-Fri", "time": "5:15pm"}, {"days": "Sat", "time": "1:45pm"}, {"days": "Sun", "time": "Closed"}], "id": "1208400014", "name": "USPS COLLECTION BOX - PO LOBBY", "address": {"city": "GUILDERLAND", "state": "NY", "street": "11 NEW KARNER RD", "postcode": "12084"}}},
{"geometry": {"type": "Point", "coordinates": [-73.886488053, 42.6991099431]}, "type": "Feature", "properties": {"collection_times": [{"days": "Mon-Fri", "time": "5:15pm"}, {"days": "Sat", "time": "1:45pm"}, {"days": "Sun", "time": "Closed"}], "id": "1208400017", "name": "USPS COLLECTION BOX - PO LOBBY", "address": {"city": "GUILDERLAND", "state": "NY", "street": "11 NEW KARNER RD", "postcode": "12084"}}},
{"geometry": {"type": "Point", "coordinates": [-73.886488053, 42.6991099431]}, "type": "Feature", "properties": {"collection_times": [{"days": "Mon-Fri", "time": "5:15pm"}, {"days": "Sat", "time": "1:45pm"}, {"days": "Sun", "time": "Closed"}], "id": "1208400018", "name": "USPS COLLECTION BOX - BLUE BOX", "address": {"city": "GUILDERLAND", "state": "NY", "street": "11 NEW KARNER RD", "postcode": "12084"}}},
{"geometry": {"type": "Point", "coordinates": [-73.886488053, 42.6991099431]}, "type": "Feature", "properties": {"collection_times": [{"days": "Mon-Fri", "time": "5:15pm"}, {"days": "Sat", "time": "1:45pm"}, {"days": "Sun", "time": "Closed"}], "id": "1208400019", "name": "USPS COLLECTION BOX - BLUE BOX", "address": {"city": "GUILDERLAND", "state": "NY", "street": "11 NEW KARNER RD", "postcode": "12084"}}},
{"geometry": {"type": "Point", "coordinates": [-73.886488053, 42.6991099431]}, "type": "Feature", "properties": {"collection_times": [{"days": "Mon-Fri", "time": "5:15pm"}, {"days": "Sat", "time": "1:45pm"}, {"days": "Sun", "time": "Closed"}], "id": "1208400020", "name": "USPS COLLECTION BOX - BLUE BOX", "address": {"city": "GUILDERLAND", "state": "NY", "street": "11 NEW KARNER RD", "postcode": "12084"}}},
{"geometry": {"type": "Point", "coordinates": [-73.9638193267, 42.7022895279]}, "type": "Feature", "properties": {"collection_times": [{"days": "Mon-Fri", "time": "4:55pm"}, {"days": "Sat", "time": "11:25am"}, {"days": "Sun", "time": "Closed"}], "id": "1208500001", "name": "USPS COLLECTION BOX - BLUE BOX", "address": {"city": "GUILDERLAND CTR", "state": "NY", "street": "457 PARK GUILDERLAND PLZ", "postcode": "12085"}}},
{"geometry": {"type": "Point", "coordinates": [-73.9638193267, 42.7022895279]}, "type": "Feature", "properties": {"collection_times": [{"days": "Mon-Fri", "time": "4:00pm"}, {"days": "Sat", "time": "11:25am"}, {"days": "Sun", "time": "Closed"}], "id": "1208500002", "name": "USPS COLLECTION BOX - PO LOBBY", "address": {"city": "GUILDERLAND CTR", "state": "NY", "street": "457 ROUTE 146", "postcode": "12085"}}},
{"geometry": {"type": "Point", "coordinates": [-74.1510367599, 42.9742208403]}, "type": "Feature", "properties": {"collection_times": [{"days": "Mon-Fri", "time": "4:00pm"}, {"days": "Sat", "time": "10:45am"}, {"days": "Sun", "time": "Closed"}], "id": "1208600001", "name": "USPS COLLECTION BOX - BLUE BOX", "address": {"city": "HAGAMAN", "state": "NY", "street": "127 S PAWLING ST", "postcode": "12086"}}},
{"geometry": {"type": "Point", "coordinates": [-74.1510367599, 42.9742208403]}, "type": "Feature", "properties": {"collection_times": [{"days": "Mon-Fri", "time": "4:15pm"}, {"days": "Sat", "time": "11:00am"}, {"days": "Sun", "time": "Closed"}], "id": "1208600002", "name": "USPS COLLECTION BOX - PO LOBBY", "address": {"city": "HAGAMAN", "state": "NY", "street": "127 S PAWLING ST", "postcode": "12086"}}},
{"geometry": {"type": "Point", "coordinates": [-73.8179418138, 42.4247061113]}, "type": "Feature", "properties": {"collection_times": [{"days": "Mon-Fri", "time": "4:15pm"}, {"days": "Sat", "time": "10:00am"}, {"days": "Sun", "time": "Closed"}], "id": "1208700001", "name": "USPS COLLECTION BOX - BLUE BOX", "address": {"city": "HANNACROIX", "state": "NY", "street": "13591 US ROUTE 9W", "postcode": "12087"}}},
{"geometry": {"type": "Point", "coordinates": [-73.817941814, 42.424706111]}, "type": "Feature", "properties": {"collection_times": [{"days": "Mon-Fri", "time": "2:30pm"}, {"days": "Sat", "time": "10:30am"}, {"days": "Sun", "time": "Closed"}], "id": "1208700002", "name": "USPS COLLECTION BOX - PO LOBBY", "address": {"city": "HANNACROIX", "state": "NY", "street": "13591 US ROUTE 9W", "postcode": "12087"}}},
{"geometry": {"type": "Point", "coordinates": [-73.3506052759, 42.9007796045]}, "type": "Feature", "properties": {"collection_times": [{"days": "Mon-Fri", "time": "5:00pm"}, {"days": "Sat", "time": "3:30pm"}, {"days": "Sun", "time": "Closed"}], "id": "1209000010", "name": "USPS COLLECTION BOX - BLUE BOX", "address": {"city": "HOOSICK FALLS", "state": "NY", "street": "35 MAIN ST", "postcode": "12090"}}},
{"geometry": {"type": "Point", "coordinates": [-73.3506052759, 42.9007796045]}, "type": "Feature", "properties": {"collection_times": [{"days": "Mon-Fri", "time": "5:00pm"}, {"days": "Sat", "time": "3:30pm"}, {"days": "Sun", "time": "Closed"}], "id": "1209000012", "name": "USPS COLLECTION BOX - PO LOBBY", "address": {"city": "HOOSICK FALLS", "state": "NY", "street": "35 MAIN ST", "postcode": "12090"}}},
{"geometry": {"type": "Point", "coordinates": [-74.391816183, 42.6824633446]}, "type": "Feature", "properties": {"collection_times": [{"days": "Mon-Fri", "time": "4:00pm"}, {"days": "Sat", "time": "10:45am"}, {"days": "Sun", "time": "Closed"}], "id": "1209200001", "name": "USPS COLLECTION BOX - BLUE BOX", "address": {"city": "HOWES CAVE", "state": "NY", "street": "2929 ROUTE 7", "postcode": "12092"}}},
{"geometry": {"type": "Point", "coordinates": [-74.391816183, 42.6824633446]}, "type": "Feature", "properties": {"collection_times": [{"days": "Mon-Fri", "time": "3:00pm"}, {"days": "Sat", "time": "10:30am"}, {"days": "Sun", "time": "Closed"}], "id": "1209200002", "name": "USPS COLLECTION BOX - PO LOBBY", "address": {"city": "HOWES CAVE", "state": "NY", "street": "2929 ROUTE 7", "postcode": "12092"}}},
{"geometry": {"type": "Point", "coordinates": [-74.6130756448, 42.480598495]}, "type": "Feature", "properties": {"collection_times": [{"days": "Mon-Fri", "time": "4:00pm"}, {"days": "Sat", "time": "10:30am"}, {"days": "Sun", "time": "Closed"}], "id": "1209300001", "name": "USPS COLLECTION BOX - BLUE BOX", "address": {"city": "JEFFERSON", "state": "NY", "street": "102 PARK AVE", "postcode": "12093"}}},
{"geometry": {"type": "Point", "coordinates": [-74.6130756448, 42.480598495]}, "type": "Feature", "properties": {"collection_times": [{"days": "Mon-Fri", "time": "4:00pm"}, {"days": "Sat", "time": "10:30am"}, {"days": "Sun", "time": "Closed"}], "id": "1209300002", "name": "USPS COLLECTION BOX - PO LOBBY", "address": {"city": "JEFFERSON", "state": "NY", "street": "102 PARK AVE", "postcode": "12093"}}},
{"geometry": {"type": "Point", "coordinates": [-73.5105862804, 42.9164407983]}, "type": "Feature", "properties": {"collection_times": [{"days": "Mon-Fri", "time": "4:45pm"}, {"days": "Sat", "time": "10:30am"}, {"days": "Sun", "time": "Closed"}], "id": "1209400001", "name": "USPS COLLECTION BOX - BLUE BOX", "address": {"city": "JOHNSONVILLE", "state": "NY", "street": "2442 NY 67", "postcode": "12094"}}},
{"geometry": {"type": "Point", "coordinates": [-73.5105862804, 42.9164407983]}, "type": "Feature", "properties": {"collection_times": [{"days": "Mon-Fri", "time": "11:30am"}, {"days": "Sat", "time": "10:15am"}, {"days": "Sun", "time": "Closed"}], "id": "1209400002", "name": "USPS COLLECTION BOX - PO LOBBY", "address": {"city": "JOHNSONVILLE", "state": "NY", "street": "2442 NY 67", "postcode": "12094"}}},
{"geometry": {"type": "Point", "coordinates": [-74.36110425, 43.0157501565]}, "type": "Feature", "properties": {"collection_times": [{"days": "Mon-Sat", "time": "12:00pm"}, {"days": "Sun", "time": "Closed"}], "id": "1209500004", "name": "USPS COLLECTION BOX - BLUE BOX", "address": {"city": "JOHNSTOWN", "state": "NY", "street": "240 N COMRIE AVE", "postcode": "12095"}}},
{"geometry": {"type": "Point", "coordinates": [-74.3739954597, 43.0069655645]}, "type": "Feature", "properties": {"collection_times": [{"days": "Mon-Fri", "time": "5:00pm"}, {"days": "Sat", "time": "3:30pm"}, {"days": "Sun", "time": "Closed"}], "id": "1209500006", "name": "USPS COLLECTION BOX - BLUE BOX", "address": {"city": "JOHNSTOWN", "state": "NY", "street": "15 CHURCH ST", "postcode": "12095"}}},
{"geometry": {"type": "Point", "coordinates": [-74.3739954597, 43.0069655645]}, "type": "Feature", "properties": {"collection_times": [{"days": "Mon-Fri", "time": "5:00pm"}, {"days": "Sat", "time": "3:30pm"}, {"days": "Sun", "time": "Closed"}], "id": "1209500008", "name": "USPS COLLECTION BOX - BLUE BOX", "address": {"city": "JOHNSTOWN", "state": "NY", "street": "15 CHURCH ST", "postcode": "12095"}}},
{"geometry": {"type": "Point", "coordinates": [-74.3698734771, 43.0064888176]}, "type": "Feature", "properties": {"collection_times": [{"days": "Mon-Fri", "time": "3:30pm"}, {"days": "Sat-Sun", "time": "Closed"}], "id": "1209500012", "name": "USPS COLLECTION BOX - BLUE BOX", "address": {"city": "JOHNSTOWN", "state": "NY", "street": "41 E MAIN ST", "postcode": "12095"}}},
{"geometry": {"type": "Point", "coordinates": [-74.3725398666, 43.0064142912]}, "type": "Feature", "properties": {"collection_times": [{"days": "Mon-Fri", "time": "3:30pm"}, {"days": "Sat", "time": "9:00am"}, {"days": "Sun", "time": "Closed"}], "id": "1209500026", "name": "USPS COLLECTION BOX - BLUE BOX", "address": {"city": "JOHNSTOWN", "state": "NY", "street": "44 W MAIN ST", "postcode": "12095"}}},
{"geometry": {"type": "Point", "coordinates": [-74.3742504253, 43.0071039563]}, "type": "Feature", "properties": {"collection_times": [{"days": "Mon-Fri", "time": "5:15pm"}, {"days": "Sat", "time": "3:30pm"}, {"days": "Sun", "time": "Closed"}], "id": "1209500027", "name": "USPS COLLECTION BOX - PO LOBBY", "address": {"city": "JOHNSTOWN", "state": "NY", "street": "14 N WILLIAM ST", "postcode": "12095"}}},
{"geometry": {"type": "Point", "coordinates": [-74.3606843172, 43.0133806403]}, "type": "Feature", "properties": {"collection_times": [{"days": "Mon-Sat", "time": "11:00am"}, {"days": "Sun", "time": "Closed"}], "id": "1209500040", "name": "USPS COLLECTION BOX - BLUE BOX", "address": {"city": "JOHNSTOWN", "state": "NY", "street": "198 N COMRIE AVE", "postcode": "12095"}}}
]}
