{"type": "FeatureCollection", "features": [
{"geometry": {"type": "Point", "coordinates": [-73.6976960829, 42.394777188]}, "type": "Feature", "properties": {"collection_times": [{"days": "Mon-Fri", "time": "4:30pm"}, {"days": "Sat", "time": "11:45am"}, {"days": "Sun", "time": "Closed"}], "id": "1210600001", "name": "USPS COLLECTION BOX - BLUE BOX", "address": {"city": "KINDERHOOK", "state": "NY", "street": "3 HUDSON ST", "postcode": "12106"}}},
{"geometry": {"type": "Point", "coordinates": [-73.6976960829, 42.394777188]}, "type": "Feature", "properties": {"collection_times": [{"days": "Mon-Fri", "time": "5:15pm"}, {"days": "Sat", "time": "11:45am"}, {"days": "Sun", "time": "Closed"}], "id": "1210600002", "name": "USPS COLLECTION BOX - PO LOBBY", "address": {"city": "KINDERHOOK", "state": "NY", "street": "3 HUDSON ST", "postcode": "12106"}}},
{"geometry": {"type": "Point", "coordinates": [-74.4695989001, 43.5568732427]}, "type": "Feature", "properties": {"collection_times": [{"days": "Mon-Fri", "time": "4:00pm"}, {"days": "Sat", "time": "1:30pm"}, {"days": "Sun", "time": "Closed"}], "id": "1210800001", "name": "USPS COLLECTION BOX - BLUE BOX", "address": {"city": "LAKE PLEASANT", "state": "NY", "street": "1 N ROUTE 8", "postcode": "12108"}}},
{"geometry": {"type": "Point", "coordinates": [-74.4695989001, 43.5568732427]}, "type": "Feature", "properties": {"collection_times": [{"days": "Mon-Fri", "time": "4:15pm"}, {"days": "Sat", "time": "1:30pm"}, {"days": "Sun", "time": "Closed"}], "id": "1210800004", "name": "USPS COLLECTION BOX - PO LOBBY", "address": {"city": "LAKE PLEASANT", "state": "NY", "street": "1 ROUTE 8", "postcode": "12108"}}},
{"geometry": {"type": "Point", "coordinates": [-73.7689571156, 42.7482707699]}, "type": "Feature", "properties": {"collection_times": [{"days": "Mon-Fri", "time": "4:45pm"}, {"days": "Sat", "time": "10:00am"}, {"days": "Sun", "time": "Closed"}], "id": "1211000014", "name": "USPS COLLECTION BOX - BLUE BOX", "address": {"city": "LATHAM", "state": "NY", "street": "4 AVIS DR", "postcode": "12110"}}},
{"geometry": {"type": "Point", "coordinates": [-73.7943586458, 42.7389551449]}, "type": "Feature", "properties": {"collection_times": [{"days": "Mon-Fri", "time": "4:45pm"}, {"days": "Sat", "time": "10:00am"}, {"days": "Sun", "time": "Closed"}], "id": "1211000015", "name": "USPS COLLECTION BOX - BLUE BOX", "address": {"city": "LATHAM", "state": "NY", "street": "776 WATERVLIET SHAKER RD", "postcode": "12110"}}},
{"geometry": {"type": "Point", "coordinates": [-73.7770273003, 42.7533425958]}, "type": "Feature", "properties": {"collection_times": [{"days": "Mon-Sat", "time": "11:00am"}, {"days": "Sun", "time": "Closed"}], "id": "1211000019", "name": "USPS COLLECTION BOX - BLUE BOX", "address": {"city": "LATHAM", "state": "NY", "street": "3 MOUNTAINVIEW TER", "postcode": "12110"}}},
{"geometry": {"type": "Point", "coordinates": [-73.7579971562, 42.7239012419]}, "type": "Feature", "properties": {"collection_times": [{"days": "Mon-Fri", "time": "5:00pm"}, {"days": "Sat", "time": "11:30am"}, {"days": "Sun", "time": "Closed"}], "id": "1211000021", "name": "USPS COLLECTION BOX - BLUE BOX", "address": {"city": "LATHAM", "state": "NY", "street": "552 NEW LOUDON RD", "postcode": "12110"}}},
{"geometry": {"type": "Point", "coordinates": [-73.7727514261, 42.7453784476]}, "type": "Feature", "properties": {"collection_times": [{"days": "Mon-Sat", "time": "11:00am"}, {"days": "Sun", "time": "Closed"}], "id": "1211000022", "name": "USPS COLLECTION BOX - BLUE BOX", "address": {"city": "LATHAM", "state": "NY", "street": "173 DOORSTONE DR", "postcode": "12110"}}},
{"geometry": {"type": "Point", "coordinates": [-73.823786496, 42.7610035391]}, "type": "Feature", "properties": {"collection_times": [{"days": "Mon-Fri", "time": "4:15pm"}, {"days": "Sat", "time": "10:00am"}, {"days": "Sun", "time": "Closed"}], "id": "1211000025", "name": "USPS COLLECTION BOX - BLUE BOX", "address": {"city": "LATHAM", "state": "NY", "street": "21 BRITISH AMERICAN BLVD", "postcode": "12110"}}},
{"geometry": {"type": "Point", "coordinates": [-73.7517563547, 42.7452867711]}, "type": "Feature", "properties": {"collection_times": [{"days": "Mon-Sat", "time": "9:00am"}, {"days": "Sun", "time": "Closed"}], "id": "1211000031", "name": "USPS COLLECTION BOX - BLUE BOX", "address": {"city": "LATHAM", "state": "NY", "street": "41 LATHAM VILLAGE LN", "postcode": "12110"}}},
{"geometry": {"type": "Point", "coordinates": [-73.7466457419, 42.7438376216]}, "type": "Feature", "properties": {"collection_times": [{"days": "Mon-Sat", "time": "9:00am"}, {"days": "Sun", "time": "Closed"}], "id": "1211000032", "name": "USPS COLLECTION BOX - BLUE BOX", "address": {"city": "LATHAM", "state": "NY", "street": "1 GLENWOOD DR", "postcode": "12110"}}},
{"geometry": {"type": "Point", "coordinates": [-73.7581713111, 42.741203172]}, "type": "Feature", "properties": {"collection_times": [{"days": "Mon-Sat", "time": "9:30am"}, {"days": "Sun", "time": "Closed"}], "id": "1211000036", "name": "USPS COLLECTION BOX - BLUE BOX", "address": {"city": "LATHAM", "state": "NY", "street": "93 PARK AVE", "postcode": "12110"}}},
{"geometry": {"type": "Point", "coordinates": [-73.7576638217, 42.7713319539]}, "type": "Feature", "properties": {"collection_times": [{"days": "Mon-Fri", "time": "4:45pm"}, {"days": "Sat", "time": "10:00am"}, {"days": "Sun", "time": "Closed"}], "id": "1211000040", "name": "USPS COLLECTION BOX - BLUE BOX", "address": {"city": "LATHAM", "state": "NY", "street": "11 CENTURY HILL DR", "postcode": "12110"}}},
{"geometry": {"type": "Point", "coordinates": [-73.7667788421, 42.7520910086]}, "type": "Feature", "properties": {"collection_times": [{"days": "Mon-Sat", "time": "9:00am"}, {"days": "Sun", "time": "Closed"}], "id": "1211000045", "name": "USPS COLLECTION BOX - BLUE BOX", "address": {"city": "LATHAM", "state": "NY", "street": "579 TROY SCHENECTADY RD", "postcode": "12110"}}},
{"geometry": {"type": "Point", "coordinates": [-73.7579971562, 42.7239012419]}, "type": "Feature", "properties": {"collection_times": [{"days": "Mon-Fri", "time": "5:00pm"}, {"days": "Sat", "time": "11:30am"}, {"days": "Sun", "time": "Closed"}], "id": "1211000052", "name": "USPS COLLECTION BOX - PO LOBBY", "address": {"city": "LATHAM", "state": "NY", "street": "552 NEW LOUDON RD", "postcode": "12110"}}},
{"geometry": {"type": "Point", "coordinates": [-73.7780769616, 42.738004451]}, "type": "Feature", "properties": {"collection_times": [{"days": "Mon-Fri", "time": "6:00pm"}, {"days": "Sat", "time": "4:00pm"}, {"days": "Sun", "time": "Closed"}], "id": "1211000056", "name": "USPS COLLECTION BOX - PO LOBBY", "address": {"city": "LATHAM", "state": "NY", "street": "685 WATERVLIET SHAKER RD", "postcode": "12110"}}},
{"geometry": {"type": "Point", "coordinates": [-73.7780769616, 42.738004451]}, "type": "Feature", "properties": {"collection_times": [{"days": "Mon-Fri", "time": "5:45pm"}, {"days": "Sat", "time": "3:45pm"}, {"days": "Sun", "time": "Closed"}], "id": "1211000057", "name": "USPS COLLECTION BOX - BLUE BOX", "address": {"city": "LATHAM", "state": "NY", "street": "685 WATERVLIET SHAKER RD", "postcode": "12110"}}},
{"geometry": {"type": "Point", "coordinates": [-73.7780769616, 42.738004451]}, "type": "Feature", "properties": {"collection_times": [{"days": "Mon-Fri", "time": "6:00pm"}, {"days": "Sat", "time": "4:00pm"}, {"days": "Sun", "time": "Closed"}], "id": "1211000064", "name": "USPS COLLECTION BOX - PO LOBBY", "address": {"city": "LATHAM", "state": "NY", "street": "685 WATERVLIET SHAKER RD", "postcode": "12110"}}},
{"geometry": {"type": "Point", "coordinates": [-73.7840745636, 42.7589522883]}, "type": "Feature", "properties": {"collection_times": [{"days": "Mon-Fri", "time": "2:45pm"}, {"days": "Sat-Sun", "time": "Closed"}], "id": "1211000065", "name": "USPS COLLECTION BOX - BLUE BOX", "address": {"city": "LATHAM", "state": "NY", "street": "800 TROY SCHENECTADY RD", "postcode": "12110"}}},
{"geometry": {"type": "Point", "coordinates": [-73.8222798486, 42.7712679694]}, "type": "Feature", "properties": {"collection_times": [{"days": "Mon-Sat", "time": "10:00am"}, {"days": "Sun", "time": "Closed"}], "id": "1211000066", "name": "USPS COLLECTION BOX - BLUE BOX", "address": {"city": "LATHAM", "state": "NY", "street": "1202 TROY SCHENECTADY RD", "postcode": "12110"}}},
{"geometry": {"type": "Point", "coordinates": [-73.7771418311, 42.7565445551]}, "type": "Feature", "properties": {"collection_times": [{"days": "Mon-Fri", "time": "4:00pm"}, {"days": "Sat", "time": "9:00am"}, {"days": "Sun", "time": "Closed"}], "id": "1211000067", "name": "USPS COLLECTION BOX - BLUE BOX", "address": {"city": "LATHAM", "state": "NY", "street": "713 TROY SCHENECTADY RD", "postcode": "12110"}}},
{"geometry": {"type": "Point", "coordinates": [-73.7550762783, 42.7653080444]}, "type": "Feature", "properties": {"collection_times": [{"days": "Mon-Fri", "time": "4:45pm"}, {"days": "Sat", "time": "10:00am"}, {"days": "Sun", "time": "Closed"}], "id": "1211000069", "name": "USPS COLLECTION BOX - BLUE BOX", "address": {"city": "LATHAM", "state": "NY", "street": "950 NEW LOUDON RD", "postcode": "12110"}}},
{"geometry": {"type": "Point", "coordinates": [-73.7550762783, 42.7653080444]}, "type": "Feature", "properties": {"collection_times": [{"days": "Mon-Fri", "time": "4:45pm"}, {"days": "Sat", "time": "10:00am"}, {"days": "Sun", "time": "Closed"}], "id": "1211000070", "name": "USPS COLLECTION BOX - BLUE BOX", "address": {"city": "LATHAM", "state": "NY", "street": "950 NEW LOUDON RD", "postcode": "12110"}}},
{"geometry": {"type": "Point", "coordinates": [-73.823786496, 42.7610035391]}, "type": "Feature", "properties": {"collection_times": [{"days": "Mon-Fri", "time": "4:15pm"}, {"days": "Sat", "time": "10:00am"}, {"days": "Sun", "time": "Closed"}], "id": "1211000071", "name": "USPS COLLECTION BOX - BLUE BOX", "address": {"city": "LATHAM", "state": "NY", "street": "21 BRITISH AMERICAN BLVD", "postcode": "12110"}}},
{"geometry": {"type": "Point", "coordinates": [-73.797357191, 42.7628198363]}, "type": "Feature", "properties": {"collection_times": [{"days": "Mon-Sat", "time": "12:00pm"}, {"days": "Sun", "time": "Closed"}], "id": "1211000072", "name": "USPS COLLECTION BOX - BLUE BOX", "address": {"city": "LATHAM", "state": "NY", "street": "952 TROY SCHENECTADY RD", "postcode": "12110"}}},
{"geometry": {"type": "Point", "coordinates": [-73.8216692096, 42.7710009024]}, "type": "Feature", "properties": {"collection_times": [{"days": "Mon-Fri", "time": "11:00am"}, {"days": "Sat-Sun", "time": "Closed"}], "id": "1211000073", "name": "USPS COLLECTION BOX - BLUE BOX", "address": {"city": "LATHAM", "state": "NY", "street": "1187 TROY SCHENECTADY RD", "postcode": "12110"}}},
{"geometry": {"type": "Point", "coordinates": [-73.7689571156, 42.7482707699]}, "type": "Feature", "properties": {"collection_times": [{"days": "Mon-Fri", "time": "4:45pm"}, {"days": "Sat", "time": "10:00am"}, {"days": "Sun", "time": "Closed"}], "id": "1211000074", "name": "USPS COLLECTION BOX - BLUE BOX", "address": {"city": "LATHAM", "state": "NY", "street": "4 AVIS DR", "postcode": "12110"}}},
{"geometry": {"type": "Point", "coordinates": [-73.7689571156, 42.7482707699]}, "type": "Feature", "properties": {"collection_times": [{"days": "Mon-Fri", "time": "4:00pm"}, {"days": "Sat", "time": "9:00am"}, {"days": "Sun", "time": "Closed"}], "id": "1211000075", "name": "USPS COLLECTION BOX - BLUE BOX", "address": {"city": "LATHAM", "state": "NY", "street": "711 TROY SCHENECTADY RD", "postcode": "12110"}}},
{"geometry": {"type": "Point", "coordinates": [-73.5916374411, 42.4661234927]}, "type": "Feature", "properties": {"collection_times": [{"days": "Mon-Fri", "time": "4:30pm"}, {"days": "Sat", "time": "11:00am"}, {"days": "Sun", "time": "Closed"}], "id": "1211500001", "name": "USPS COLLECTION BOX - BLUE BOX", "address": {"city": "MALDEN BRIDGE", "state": "NY", "street": "4691 STATE ROUTE 66", "postcode": "12115"}}},
{"geometry": {"type": "Point", "coordinates": [-73.5825870778, 42.4705528074]}, "type": "Feature", "properties": {"collection_times": [{"days": "Mon-Fri", "time": "12:00pm"}, {"days": "Sat", "time": "10:45am"}, {"days": "Sun", "time": "Closed"}], "id": "1211500002", "name": "USPS COLLECTION BOX - PO LOBBY", "address": {"city": "MALDEN BRIDGE", "state": "NY", "street": "4691 ROUTE 66", "postcode": "12115"}}},
{"geometry": {"type": "Point", "coordinates": [-74.9215567245, 42.5403101167]}, "type": "Feature", "properties": {"collection_times": [{"days": "Mon-Fri", "time": "4:30pm"}, {"days": "Sat", "time": "11:15am"}, {"days": "Sun", "time": "Closed"}], "id": "1211600001", "name": "USPS COLLECTION BOX - BLUE BOX", "address": {"city": "MARYLAND", "state": "NY", "street": "7501 STATE HIGHWAY 7", "postcode": "12116"}}},
{"geometry": {"type": "Point", "coordinates": [-74.8967151658, 42.5342862852]}, "type": "Feature", "properties": {"collection_times": [{"days": "Mon-Fri", "time": "11:30am"}, {"days": "Sat", "time": "11:15am"}, {"days": "Sun", "time": "Closed"}], "id": "1211600002", "name": "USPS COLLECTION BOX - PO LOBBY", "address": {"city": "MARYLAND", "state": "NY", "street": "7501 ROUTE 7", "postcode": "12116"}}},
{"geometry": {"type": "Point", "coordinates": [-74.2648965069, 43.1053416289]}, "type": "Feature", "properties": {"collection_times": [{"days": "Mon-Fri", "time": "4:30pm"}, {"days": "Sat", "time": "11:30am"}, {"days": "Sun", "time": "Closed"}], "id": "1211700001", "name": "USPS COLLECTION BOX - BLUE BOX", "address": {"city": "MAYFIELD", "state": "NY", "street": "13 N SCHOOL ST", "postcode": "12117"}}},
{"geometry": {"type": "Point", "coordinates": [-74.2648965069, 43.1053416289]}, "type": "Feature", "properties": {"collection_times": [{"days": "Mon-Fri", "time": "5:00pm"}, {"days": "Sat", "time": "11:30am"}, {"days": "Sun", "time": "Closed"}], "id": "1211700004", "name": "USPS COLLECTION BOX - PO LOBBY", "address": {"city": "MAYFIELD", "state": "NY", "street": "13 N SCHOOL ST", "postcode": "12117"}}},
{"geometry": {"type": "Point", "coordinates": [-73.686950006, 42.902874346]}, "type": "Feature", "properties": {"collection_times": [{"days": "Mon-Fri", "time": "9:30am"}, {"days": "Sat", "time": "8:30am"}, {"days": "Sun", "time": "Closed"}], "id": "1211800007", "name": "USPS COLLECTION BOX - BLUE BOX", "address": {"city": "MECHANICVILLE", "state": "NY", "street": "3 PARK PLZ", "postcode": "12118"}}},
{"geometry": {"type": "Point", "coordinates": [-73.6853921267, 42.9040682305]}, "type": "Feature", "properties": {"collection_times": [{"days": "Mon-Fri", "time": "1:30pm"}, {"days": "Sat", "time": "8:30am"}, {"days": "Sun", "time": "Closed"}], "id": "1211800021", "name": "USPS COLLECTION BOX - BLUE BOX", "address": {"city": "MECHANICVILLE", "state": "NY", "street": "42 N MAIN ST", "postcode": "12118"}}},
{"geometry": {"type": "Point", "coordinates": [-73.6878136437, 42.8968545467]}, "type": "Feature", "properties": {"collection_times": [{"days": "Mon-Fri", "time": "10:00am"}, {"days": "Sat", "time": "9:00am"}, {"days": "Sun", "time": "Closed"}], "id": "1211800023", "name": "USPS COLLECTION BOX - BLUE BOX", "address": {"city": "MECHANICVILLE", "state": "NY", "street": "180 N MAIN ST", "postcode": "12118"}}},
{"geometry": {"type": "Point", "coordinates": [-73.6870399885, 42.9027019129]}, "type": "Feature", "properties": {"collection_times": [{"days": "Mon-Fri", "time": "5:00pm"}, {"days": "Sat", "time": "3:00pm"}, {"days": "Sun", "time": "Closed"}], "id": "1211800030", "name": "USPS COLLECTION BOX - BLUE BOX", "address": {"city": "MECHANICVILLE", "state": "NY", "street": "18 S MAIN ST", "postcode": "12118"}}},
{"geometry": {"type": "Point", "coordinates": [-73.6870399885, 42.9027019129]}, "type": "Feature", "properties": {"collection_times": [{"days": "Mon-Fri", "time": "4:30pm"}, {"days": "Sat", "time": "3:00pm"}, {"days": "Sun", "time": "Closed"}], "id": "1211800041", "name": "USPS COLLECTION BOX - PO LOBBY", "address": {"city": "MECHANICVILLE", "state": "NY", "street": "18 S MAIN ST", "postcode": "12118"}}},
{"geometry": {"type": "Point", "coordinates": [-74.130904052, 42.4364677471]}, "type": "Feature", "properties": {"collection_times": [{"days": "Mon-Fri", "time": "4:00pm"}, {"days": "Sat", "time": "11:00am"}, {"days": "Sun", "time": "Closed"}], "id": "1212000001", "name": "USPS COLLECTION BOX - BLUE BOX", "address": {"city": "MEDUSA", "state": "NY", "street": "19 COUNTY ROUTE 351", "postcode": "12120"}}},
{"geometry": {"type": "Point", "coordinates": [-74.130904052, 42.4364677471]}, "type": "Feature", "properties": {"collection_times": [{"days": "Mon-Fri", "time": "12:00pm"}, {"days": "Sat", "time": "11:15am"}, {"days": "Sun", "time": "Closed"}], "id": "1212000002", "name": "USPS COLLECTION BOX - PO LOBBY", "address": {"city": "MEDUSA", "state": "NY", "street": "19 COUNTY ROUTE 351", "postcode": "12120"}}},
{"geometry": {"type": "Point", "coordinates": [-73.6231057883, 42.8446138958]}, "type": "Feature", "properties": {"collection_times": [{"days": "Mon-Fri", "time": "4:45pm"}, {"days": "Sat", "time": "11:00am"}, {"days": "Sun", "time": "Closed"}], "id": "1212100001", "name": "USPS COLLECTION BOX - BLUE BOX", "address": {"city": "MELROSE", "state": "NY", "street": "807 NY 40", "postcode": "12121"}}},
{"geometry": {"type": "Point", "coordinates": [-73.6231057883, 42.8446138958]}, "type": "Feature", "properties": {"collection_times": [{"days": "Mon-Fri", "time": "4:45pm"}, {"days": "Sat", "time": "11:00am"}, {"days": "Sun", "time": "Closed"}], "id": "1212100002", "name": "USPS COLLECTION BOX - PO LOBBY", "address": {"city": "MELROSE", "state": "NY", "street": "807 NY 40", "postcode": "12121"}}},
{"geometry": {"type": "Point", "coordinates": [-74.3342013495, 42.5979302799]}, "type": "Feature", "properties": {"collection_times": [{"days": "Mon-Fri", "time": "4:45pm"}, {"days": "Sat", "time": "11:45am"}, {"days": "Sun", "time": "Closed"}], "id": "1212200002", "name": "USPS COLLECTION BOX - BLUE BOX", "address": {"city": "MIDDLEBURGH", "state": "NY", "street": "300 MAIN ST", "postcode": "12122"}}},
{"geometry": {"type": "Point", "coordinates": [-74.3342013495, 42.5979302799]}, "type": "Feature", "properties": {"collection_times": [{"days": "Mon-Fri", "time": "4:45pm"}, {"days": "Sat", "time": "11:45am"}, {"days": "Sun", "time": "Closed"}], "id": "1212200003", "name": "USPS COLLECTION BOX - PO LOBBY", "address": {"city": "MIDDLEBURGH", "state": "NY", "street": "300 MAIN ST", "postcode": "12122"}}},
{"geometry": {"type": "Point", "coordinates": [-73.6124390473, 42.5135095963]}, "type": "Feature", "properties": {"collection_times": [{"days": "Mon-Fri", "time": "4:45pm"}, {"days": "Sat", "time": "10:45am"}, {"days": "Sun", "time": "Closed"}], "id": "1212300001", "name": "USPS COLLECTION BOX - BLUE BOX", "address": {"city": "NASSAU", "state": "NY", "street": "10 FAIRGROUNDS ST", "postcode": "12123"}}},
{"geometry": {"type": "Point", "coordinates": [-73.6102635858, 42.5162363167]}, "type": "Feature", "properties": {"collection_times": [{"days": "Mon-Sat", "time": "1:30pm"}, {"days": "Sun", "time": "Closed"}], "id": "1212300003", "name": "USPS COLLECTION BOX - BLUE BOX", "address": {"city": "NASSAU", "state": "NY", "street": "1 ALBANY AVE", "postcode": "12123"}}},
{"geometry": {"type": "Point", "coordinates": [-73.6124390473, 42.5135095963]}, "type": "Feature", "properties": {"collection_times": [{"days": "Mon-Fri", "time": "4:45pm"}, {"days": "Sat", "time": "10:45am"}, {"days": "Sun", "time": "Closed"}], "id": "1212300004", "name": "USPS COLLECTION BOX - PO LOBBY", "address": {"city": "NASSAU", "state": "NY", "street": "10 FAIRGROUNDS ST", "postcode": "12123"}}},
{"geometry": {"type": "Point", "coordinates": [-73.7893469271, 42.4455835127]}, "type": "Feature", "properties": {"collection_times": [{"days": "Mon-Fri", "time": "4:45pm"}, {"days": "Sat", "time": "1:00pm"}, {"days": "Sun", "time": "Closed"}], "id": "1212400001", "name": "USPS COLLECTION BOX - BLUE BOX", "address": {"city": "NEW BALTIMORE", "state": "NY", "street": "849 ROUTE 144", "postcode": "12124"}}},
{"geometry": {"type": "Point", "coordinates": [-73.7895851527, 42.4462056594]}, "type": "Feature", "properties": {"collection_times": [{"days": "Mon-Fri", "time": "5:00pm"}, {"days": "Sat", "time": "1:00pm"}, {"days": "Sun", "time": "Closed"}], "id": "1212400002", "name": "USPS COLLECTION BOX - PO LOBBY", "address": {"city": "NEW BALTIMORE", "state": "NY", "street": "849 STATE ROUTE 144", "postcode": "12124"}}},
{"geometry": {"type": "Point", "coordinates": [-73.3913975461, 42.4673159917]}, "type": "Feature", "properties": {"collection_times": [{"days": "Mon-Fri", "time": "4:00pm"}, {"days": "Sat", "time": "10:00am"}, {"days": "Sun", "time": "Closed"}], "id": "1212500001", "name": "USPS COLLECTION BOX - BLUE BOX", "address": {"city": "NEW LEBANON", "state": "NY", "street": "502 ROUTE 20", "postcode": "12125"}}},
{"geometry": {"type": "Point", "coordinates": [-73.3742625884, 42.4784471505]}, "type": "Feature", "properties": {"collection_times": [{"days": "Mon-Sat", "time": "9:30am"}, {"days": "Sun", "time": "Closed"}], "id": "1212500002", "name": "USPS COLLECTION BOX - BLUE BOX", "address": {"city": "NEW LEBANON", "state": "NY", "street": "14755 STATE ROUTE 22", "postcode": "12125"}}},
{"geometry": {"type": "Point", "coordinates": [-73.3913975461, 42.4673159917]}, "type": "Feature", "properties": {"collection_times": [{"days": "Mon-Fri", "time": "5:00pm"}, {"days": "Sat", "time": "12:00pm"}, {"days": "Sun", "time": "Closed"}], "id": "1212500003", "name": "USPS COLLECTION BOX - PO LOBBY", "address": {"city": "NEW LEBANON", "state": "NY", "street": "502 ROUTE 20", "postcode": "12125"}}},
{"geometry": {"type": "Point", "coordinates": [-73.6612885732, 42.4409701471]}, "type": "Feature", "properties": {"collection_times": [{"days": "Mon-Fri", "time": "4:45pm"}, {"days": "Sat", "time": "11:45am"}, {"days": "Sun", "time": "Closed"}], "id": "1213000002", "name": "USPS COLLECTION BOX - BLUE BOX", "address": {"city": "NIVERVILLE", "state": "NY", "street": "845 MAIN ST", "postcode": "12130"}}},
{"geometry": {"type": "Point", "coordinates": [-73.6612885732, 42.4409701471]}, "type": "Feature", "properties": {"collection_times": [{"days": "Mon-Fri", "time": "4:45pm"}, {"days": "Sat", "time": "11:45am"}, {"days": "Sun", "time": "Closed"}], "id": "1213000003", "name": "USPS COLLECTION BOX - PO LOBBY", "address": {"city": "NIVERVILLE", "state": "NY", "street": "845 MAIN ST", "postcode": "12130"}}},
{"geometry": {"type": "Point", "coordinates": [-74.4673472296, 42.4453239514]}, "type": "Feature", "properties": {"collection_times": [{"days": "Mon-Fri", "time": "4:00pm"}, {"days": "Sat", "time": "11:30am"}, {"days": "Sun", "time": "Closed"}], "id": "1213100001", "name": "USPS COLLECTION BOX - BLUE BOX", "address": {"city": "NORTH BLENHEIM", "state": "NY", "street": "1748 STATE ROUTE 30", "postcode": "12131"}}},
{"geometry": {"type": "Point", "coordinates": [-74.4554286374, 42.468786188]}, "type": "Feature", "properties": {"collection_times": [{"days": "Mon-Fri", "time": "11:00am"}, {"days": "Sat", "time": "11:30am"}, {"days": "Sun", "time": "Closed"}], "id": "1213100002", "name": "USPS COLLECTION BOX - PO LOBBY", "address": {"city": "NORTH BLENHEIM", "state": "NY", "street": "1748 STATE ROUTE 30", "postcode": "12131"}}},
{"geometry": {"type": "Point", "coordinates": [-73.6320603431, 42.4753503795]}, "type": "Feature", "properties": {"collection_times": [{"days": "Mon-Fri", "time": "5:00pm"}, {"days": "Sat", "time": "11:45am"}, {"days": "Sun", "time": "Closed"}], "id": "1213200002", "name": "USPS COLLECTION BOX - BLUE BOX", "address": {"city": "NORTH CHATHAM", "state": "NY", "street": "4241 ROUTE 203", "postcode": "12132"}}},
{"geometry": {"type": "Point", "coordinates": [-73.6320603431, 42.4753503795]}, "type": "Feature", "properties": {"collection_times": [{"days": "Mon-Fri", "time": "11:30am"}, {"days": "Sat", "time": "11:45am"}, {"days": "Sun", "time": "Closed"}], "id": "1213200004", "name": "USPS COLLECTION BOX - PO LOBBY", "address": {"city": "NORTH CHATHAM", "state": "NY", "street": "4241 ROUTE 203", "postcode": "12132"}}},
{"geometry": {"type": "Point", "coordinates": [-73.3376253818, 42.9264410962]}, "type": "Feature", "properties": {"collection_times": [{"days": "Mon-Fri", "time": "4:45pm"}, {"days": "Sat", "time": "2:00pm"}, {"days": "Sun", "time": "Closed"}], "id": "1213300002", "name": "USPS COLLECTION BOX - BLUE BOX", "address": {"city": "NORTH HOOSICK", "state": "NY", "street": "22157 NY ROUTE 22", "postcode": "12133"}}},
{"geometry": {"type": "Point", "coordinates": [-74.172520433, 43.2271189453]}, "type": "Feature", "properties": {"collection_times": [{"days": "Mon-Fri", "time": "4:45pm"}, {"days": "Sat", "time": "12:00pm"}, {"days": "Sun", "time": "Closed"}], "id": "1213400002", "name": "USPS COLLECTION BOX - BLUE BOX", "address": {"city": "NORTHVILLE", "state": "NY", "street": "151 N MAIN ST", "postcode": "12134"}}},
{"geometry": {"type": "Point", "coordinates": [-74.172520433, 43.2271189453]}, "type": "Feature", "properties": {"collection_times": [{"days": "Mon-Fri", "time": "4:45pm"}, {"days": "Sat", "time": "12:00pm"}, {"days": "Sun", "time": "Closed"}], "id": "1213400003", "name": "USPS COLLECTION BOX - BLUE BOX", "address": {"city": "NORTHVILLE", "state": "NY", "street": "151 N MAIN ST", "postcode": "12134"}}},
{"geometry": {"type": "Point", "coordinates": [-74.172520433, 43.2271189453]}, "type": "Feature", "properties": {"collection_times": [{"days": "Mon-Fri", "time": "4:45pm"}, {"days": "Sat", "time": "12:00pm"}, {"days": "Sun", "time": "Closed"}], "id": "1213400004", "name": "USPS COLLECTION BOX - PO LOBBY", "address": {"city": "NORTHVILLE", "state": "NY", "street": "151 N MAIN ST", "postcode": "12134"}}},
{"geometry": {"type": "Point", "coordinates": [-74.172520433, 43.2271189453]}, "type": "Feature", "properties": {"collection_times": [{"days": "Mon-Fri", "time": "4:45pm"}, {"days": "Sat", "time": "12:00pm"}, {"days": "Sun", "time": "Closed"}], "id": "1213400006", "name": "USPS COLLECTION BOX - PO LOBBY", "address": {"city": "NORTHVILLE", "state": "NY", "street": "151 N MAIN ST", "postcode": "12134"}}},
{"geometry": {"type": "Point", "coordinates": [-73.5620307999, 42.4407150335]}, "type": "Feature", "properties": {"collection_times": [{"days": "Mon-Fri", "time": "4:30pm"}, {"days": "Sat", "time": "10:30am"}, {"days": "Sun", "time": "Closed"}], "id": "1213600001", "name": "USPS COLLECTION BOX - BLUE BOX", "address": {"city": "OLD CHATHAM", "state": "NY", "street": "635 ALBANY TPKE", "postcode": "12136"}}},
{"geometry": {"type": "Point", "coordinates": [-73.5622174505, 42.4407522604]}, "type": "Feature", "properties": {"collection_times": [{"days": "Mon-Fri", "time": "3:15pm"}, {"days": "Sat", "time": "10:30am"}, {"days": "Sun", "time": "Closed"}], "id": "1213600002", "name": "USPS COLLECTION BOX - PO LOBBY", "address": {"city": "OLD CHATHAM", "state": "NY", "street": "635 ALBANY TPKE", "postcode": "12136"}}},
{"geometry": {"type": "Point", "coordinates": [-74.1638999553, 42.838943472]}, "type": "Feature", "properties": {"collection_times": [{"days": "Mon-Fri", "time": "4:30pm"}, {"days": "Sat", "time": "11:15am"}, {"days": "Sun", "time": "Closed"}], "id": "1213700001", "name": "USPS COLLECTION BOX - BLUE BOX", "address": {"city": "PATTERSONVILLE", "state": "NY", "street": "1626 MAIN ST", "postcode": "12137"}}},
{"geometry": {"type": "Point", "coordinates": [-74.1638999553, 42.838943472]}, "type": "Feature", "properties": {"collection_times": [{"days": "Mon-Fri", "time": "3:00pm"}, {"days": "Sat", "time": "11:15am"}, {"days": "Sun", "time": "Closed"}], "id": "1213700003", "name": "USPS COLLECTION BOX - PO LOBBY", "address": {"city": "PATTERSONVILLE", "state": "NY", "street": "1626 MAIN ST", "postcode": "12137"}}},
{"geometry": {"type": "Point", "coordinates": [-73.3435583894, 42.7509874256]}, "type": "Feature", "properties": {"collection_times": [{"days": "Mon-Fri", "time": "3:30pm"}, {"days": "Sat", "time": "11:30am"}, {"days": "Sun", "time": "Closed"}], "id": "1213800001", "name": "USPS COLLECTION BOX - BLUE BOX", "address": {"city": "PETERSBURG", "state": "NY", "street": "90 MAIN ST", "postcode": "12138"}}},
{"geometry": {"type": "Point", "coordinates": [-73.343542016, 42.7509764849]}, "type": "Feature", "properties": {"collection_times": [{"days": "Mon-Fri", "time": "3:15pm"}, {"days": "Sat", "time": "11:45am"}, {"days": "Sun", "time": "Closed"}], "id": "1213800002", "name": "USPS COLLECTION BOX - PO LOBBY", "address": {"city": "PETERSBURG", "state": "NY", "street": "90 MAIN ST", "postcode": "12138"}}},
{"geometry": {"type": "Point", "coordinates": [-74.5768837972, 43.5944189075]}, "type": "Feature", "properties": {"collection_times": [{"days": "Mon-Fri", "time": "3:40pm"}, {"days": "Sat", "time": "1:00pm"}, {"days": "Sun", "time": "Closed"}], "id": "1213900003", "name": "USPS COLLECTION BOX - BLUE BOX", "address": {"city": "PISECO", "state": "NY", "street": "1 OLD PISECO RD", "postcode": "12139"}}},
{"geometry": {"type": "Point", "coordinates": [-74.5768837972, 43.5944189075]}, "type": "Feature", "properties": {"collection_times": [{"days": "Mon-Fri", "time": "3:40pm"}, {"days": "Sat", "time": "1:00pm"}, {"days": "Sun", "time": "Closed"}], "id": "1213900004", "name": "USPS COLLECTION BOX - PO LOBBY", "address": {"city": "PISECO", "state": "NY", "street": "1 OLD PISECO RD", "postcode": "12139"}}},
{"geometry": {"type": "Point", "coordinates": [-73.5631084755, 42.6894144115]}, "type": "Feature", "properties": {"collection_times": [{"days": "Mon-Fri", "time": "4:30pm"}, {"days": "Sat", "time": "11:45am"}, {"days": "Sun", "time": "Closed"}], "id": "1214000001", "name": "USPS COLLECTION BOX - BLUE BOX", "address": {"city": "POESTENKILL", "state": "NY", "street": "15 PLANK RD", "postcode": "12140"}}},
{"geometry": {"type": "Point", "coordinates": [-73.5631084755, 42.6894144115]}, "type": "Feature", "properties": {"collection_times": [{"days": "Mon-Fri", "time": "3:00pm"}, {"days": "Sat", "time": "11:45am"}, {"days": "Sun", "time": "Closed"}], "id": "1214000002", "name": "USPS COLLECTION BOX - PO LOBBY", "address": {"city": "POESTENKILL", "state": "NY", "street": "15 PLANK RD", "postcode": "12140"}}},
{"geometry": {"type": "Point", "coordinates": [-73.8126395634, 42.4719248242]}, "type": "Feature", "properties": {"collection_times": [{"days": "Mon-Fri", "time": "5:00pm"}, {"days": "Sat", "time": "12:00pm"}, {"days": "Sun", "time": "Closed"}], "id": "1214300001", "name": "USPS COLLECTION BOX - BLUE BOX", "address": {"city": "RAVENA", "state": "NY", "street": "167 MAIN ST", "postcode": "12143"}}},
{"geometry": {"type": "Point", "coordinates": [-73.8126395634, 42.4719248242]}, "type": "Feature", "properties": {"collection_times": [{"days": "Mon-Fri", "time": "4:45pm"}, {"days": "Sat", "time": "12:00pm"}, {"days": "Sun", "time": "Closed"}], "id": "1214300006", "name": "USPS COLLECTION BOX - PO LOBBY", "address": {"city": "RAVENA", "state": "NY", "street": "167 MAIN ST", "postcode": "12143"}}},
{"geometry": {"type": "Point", "coordinates": [-73.7042591392, 42.6549074985]}, "type": "Feature", "properties": {"collection_times": [{"days": "Mon-Sat", "time": "1:00pm"}, {"days": "Sun", "time": "Closed"}], "id": "1214400020", "name": "USPS COLLECTION BOX - BLUE BOX", "address": {"city": "RENSSELAER", "state": "NY", "street": "8 LINDBERGH AVE", "postcode": "12144"}}},
{"geometry": {"type": "Point", "coordinates": [-73.7180275986, 42.6595021111]}, "type": "Feature", "properties": {"collection_times": [{"days": "Mon-Sat", "time": "1:00pm"}, {"days": "Sun", "time": "Closed"}], "id": "1214400022", "name": "USPS COLLECTION BOX - BLUE BOX", "address": {"city": "RENSSELAER", "state": "NY", "street": "517 WASHINGTON AVE", "postcode": "12144"}}},
{"geometry": {"type": "Point", "coordinates": [-73.7305243771, 42.6229451302]}, "type": "Feature", "properties": {"collection_times": [{"days": "Mon-Sat", "time": "1:00pm"}, {"days": "Sun", "time": "Closed"}], "id": "1214400024", "name": "USPS COLLECTION BOX - BLUE BOX", "address": {"city": "RENSSELAER", "state": "NY", "street": "44 SHERWOOD AVE", "postcode": "12144"}}},
{"geometry": {"type": "Point", "coordinates": [-73.7194069288, 42.6056372576]}, "type": "Feature", "properties": {"collection_times": [{"days": "Mon-Sat", "time": "10:00am"}, {"days": "Sun", "time": "Closed"}], "id": "1214400026", "name": "USPS COLLECTION BOX - BLUE BOX", "address": {"city": "RENSSELAER", "state": "NY", "street": "501 COLUMBIA TPKE", "postcode": "12144"}}},
{"geometry": {"type": "Point", "coordinates": [-73.7402778738, 42.6404517399]}, "type": "Feature", "properties": {"collection_times": [{"days": "Mon-Sat", "time": "9:00am"}, {"days": "Sun", "time": "Closed"}], "id": "1214400029", "name": "USPS COLLECTION BOX - BLUE BOX", "address": {"city": "RENSSELAER", "state": "NY", "street": "444 EAST ST", "postcode": "12144"}}},
{"geometry": {"type": "Point", "coordinates": [-73.7340204583, 42.6191430216]}, "type": "Feature", "properties": {"collection_times": [{"days": "Mon-Sat", "time": "10:00am"}, {"days": "Sun", "time": "Closed"}], "id": "1214400039", "name": "USPS COLLECTION BOX - BLUE BOX", "address": {"city": "RENSSELAER", "state": "NY", "street": "179 COLUMBIA TPKE", "postcode": "12144"}}},
{"geometry": {"type": "Point", "coordinates": [-73.7317842284, 42.6170764708]}, "type": "Feature", "properties": {"collection_times": [{"days": "Mon-Fri", "time": "10:00am"}, {"days": "Sat-Sun", "time": "Closed"}], "id": "1214400041", "name": "USPS COLLECTION BOX - BLUE BOX", "address": {"city": "RENSSELAER", "state": "NY", "street": "225 COLUMBIA TPKE", "postcode": "12144"}}},
{"geometry": {"type": "Point", "coordinates": [-73.7443176787, 42.6399229572]}, "type": "Feature", "properties": {"collection_times": [{"days": "Mon-Fri", "time": "1:00pm"}, {"days": "Sat-Sun", "time": "Closed"}], "id": "1214400043", "name": "USPS COLLECTION BOX - BLUE BOX", "address": {"city": "RENSSELAER", "state": "NY", "street": "52 WASHINGTON ST", "postcode": "12144"}}},
{"geometry": {"type": "Point", "coordinates": [-73.7401801291, 42.6277853311]}, "type": "Feature", "properties": {"collection_times": [{"days": "Mon-Fri", "time": "9:00am"}, {"days": "Sat-Sun", "time": "Closed"}], "id": "1214400044", "name": "USPS COLLECTION BOX - BLUE BOX", "address": {"city": "RENSSELAER", "state": "NY", "street": "5 UNIVERSITY PL", "postcode": "12144"}}},
{"geometry": {"type": "Point", "coordinates": [-73.7463641977, 42.6381307744]}, "type": "Feature", "properties": {"collection_times": [{"days": "Mon-Sat", "time": "9:00am"}, {"days": "Sun", "time": "Closed"}], "id": "1214400046", "name": "USPS COLLECTION BOX - BLUE BOX", "address": {"city": "RENSSELAER", "state": "NY", "street": "16 2ND AVE", "postcode": "12144"}}},
{"geometry": {"type": "Point", "coordinates": [-73.7399276169, 42.6418669834]}, "type": "Feature", "properties": {"collection_times": [{"days": "Mon-Fri", "time": "5:15pm"}, {"days": "Sat", "time": "3:00pm"}, {"days": "Sun", "time": "Closed"}], "id": "1214400049", "name": "USPS COLLECTION BOX - PO LOBBY", "address": {"city": "RENSSELAER", "state": "NY", "street": "531 EAST ST", "postcode": "12144"}}},
{"geometry": {"type": "Point", "coordinates": [-74.1393833865, 42.5137994213]}, "type": "Feature", "properties": {"collection_times": [{"days": "Mon-Fri", "time": "4:15pm"}, {"days": "Sat", "time": "11:30am"}, {"days": "Sun", "time": "Closed"}], "id": "1214700001", "name": "USPS COLLECTION BOX - BLUE BOX", "address": {"city": "RENSSELAERVILLE", "state": "NY", "street": "26 COUNTY ROUTE 353", "postcode": "12147"}}},
{"geometry": {"type": "Point", "coordinates": [-74.1393833865, 42.5137994213]}, "type": "Feature", "properties": {"collection_times": [{"days": "Mon-Fri", "time": "12:00pm"}, {"days": "Sat", "time": "10:45am"}, {"days": "Sun", "time": "Closed"}], "id": "1214700002", "name": "USPS COLLECTION BOX - PO LOBBY", "address": {"city": "RENSSELAERVILLE", "state": "NY", "street": "26 ROUTE 353", "postcode": "12147"}}},
{"geometry": {"type": "Point", "coordinates": [-73.8882577596, 42.8633283067]}, "type": "Feature", "properties": {"collection_times": [{"days": "Mon-Fri", "time": "4:30pm"}, {"days": "Sat", "time": "12:00pm"}, {"days": "Sun", "time": "Closed"}], "id": "1214800001", "name": "USPS COLLECTION BOX - BLUE BOX", "address": {"city": "REXFORD", "state": "NY", "street": "1590 ROUTE 146", "postcode": "12148"}}},
{"geometry": {"type": "Point", "coordinates": [-73.8882577596, 42.8633283067]}, "type": "Feature", "properties": {"collection_times": [{"days": "Mon-Fri", "time": "4:30pm"}, {"days": "Sat", "time": "12:00pm"}, {"days": "Sun", "time": "Closed"}], "id": "1214800005", "name": "USPS COLLECTION BOX - PO LOBBY", "address": {"city": "REXFORD", "state": "NY", "street": "1590 ROUTE 146", "postcode": "12148"}}},
{"geometry": {"type": "Point", "coordinates": [-74.5639946774, 42.6344304788]}, "type": "Feature", "properties": {"collection_times": [{"days": "Mon-Fri", "time": "4:15pm"}, {"days": "Sat", "time": "11:00am"}, {"days": "Sun", "time": "Closed"}], "id": "1214900001", "name": "USPS COLLECTION BOX - PO LOBBY", "address": {"city": "RICHMONDVILLE", "state": "NY", "street": "278 MAIN ST", "postcode": "12149"}}},
{"geometry": {"type": "Point", "coordinates": [-74.5639946774, 42.6344304788]}, "type": "Feature", "properties": {"collection_times": [{"days": "Mon-Fri", "time": "4:15pm"}, {"days": "Sat", "time": "11:00am"}, {"days": "Sun", "time": "Closed"}], "id": "1214900002", "name": "USPS COLLECTION BOX - PO LOBBY", "address": {"city": "RICHMONDVILLE", "state": "NY", "street": "278 MAIN ST", "postcode": "12149"}}},
{"geometry": {"type": "Point", "coordinates": [-74.5639946774, 42.6344304788]}, "type": "Feature", "properties": {"collection_times": [{"days": "Mon-Fri", "time": "4:15pm"}, {"days": "Sat", "time": "11:00am"}, {"days": "Sun", "time": "Closed"}], "id": "1214900003", "name": "USPS COLLECTION BOX - BLUE BOX", "address": {"city": "RICHMONDVILLE", "state": "NY", "street": "278 MAIN ST", "postcode": "12149"}}},
{"geometry": {"type": "Point", "coordinates": [-74.5639946774, 42.6344304788]}, "type": "Feature", "properties": {"collection_times": [{"days": "Mon-Fri", "time": "4:15pm"}, {"days": "Sat", "time": "11:00am"}, {"days": "Sun", "time": "Closed"}], "id": "1214900004", "name": "USPS COLLECTION BOX - BLUE BOX", "address": {"city": "RICHMONDVILLE", "state": "NY", "street": "278 MAIN ST", "postcode": "12149"}}},
{"geometry": {"type": "Point", "coordinates": [-74.0377553818, 42.8691579284]}, "type": "Feature", "properties": {"collection_times": [{"days": "Mon-Fri", "time": "4:45pm"}, {"days": "Sat", "time": "12:00pm"}, {"days": "Sun", "time": "Closed"}], "id": "1215000001", "name": "USPS COLLECTION BOX - BLUE BOX", "address": {"city": "ROTTERDAM JCT", "state": "NY", "street": "1206 MAIN ST", "postcode": "12150"}}},
{"geometry": {"type": "Point", "coordinates": [-74.0377553818, 42.8691579284]}, "type": "Feature", "properties": {"collection_times": [{"days": "Mon-Fri", "time": "3:00pm"}, {"days": "Sat", "time": "12:00pm"}, {"days": "Sun", "time": "Closed"}], "id": "1215000002", "name": "USPS COLLECTION BOX - PO LOBBY", "address": {"city": "ROTTERDAM JCT", "state": "NY", "street": "1206 MAIN ST", "postcode": "12150"}}},
{"geometry": {"type": "Point", "coordinates": [-73.7949567995, 42.9368687869]}, "type": "Feature", "properties": {"collection_times": [{"days": "Mon-Fri", "time": "5:00pm"}, {"days": "Sat", "time": "11:00am"}, {"days": "Sun", "time": "Closed"}], "id": "1215100001", "name": "USPS COLLECTION BOX - BLUE BOX", "address": {"city": "ROUND LAKE", "state": "NY", "street": "49 BURLINGTON AVE", "postcode": "12151"}}},
{"geometry": {"type": "Point", "coordinates": [-73.7949567995, 42.9368687869]}, "type": "Feature", "properties": {"collection_times": [{"days": "Mon-Fri", "time": "5:00pm"}, {"days": "Sat", "time": "11:15am"}, {"days": "Sun", "time": "Closed"}], "id": "1215100002", "name": "USPS COLLECTION BOX - PO LOBBY", "address": {"city": "ROUND LAKE", "state": "NY", "street": "49 BURLINGTON AVE", "postcode": "12151"}}},
{"geometry": {"type": "Point", "coordinates": [-73.7949567995, 42.9368687869]}, "type": "Feature", "properties": {"collection_times": [{"days": "Mon-Fri", "time": "5:00pm"}, {"days": "Sat", "time": "11:15am"}, {"days": "Sun", "time": "Closed"}], "id": "1215100003", "name": "USPS COLLECTION BOX - PO LOBBY", "address": {"city": "ROUND LAKE", "state": "NY", "street": "49 BURLINGTON AVE", "postcode": "12151"}}},
{"geometry": {"type": "Point", "coordinates": [-73.4610830747, 42.64111905]}, "type": "Feature", "properties": {"collection_times": [{"days": "Mon-Fri", "time": "4:45pm"}, {"days": "Sat", "time": "10:45am"}, {"days": "Sun", "time": "Closed"}], "id": "1215300001", "name": "USPS COLLECTION BOX - BLUE BOX", "address": {"city": "SAND LAKE", "state": "NY", "street": "8427 MILLER HILL RD", "postcode": "12153"}}},
{"geometry": {"type": "Point", "coordinates": [-73.4610830747, 42.64111905]}, "type": "Feature", "properties": {"collection_times": [{"days": "Mon-Fri", "time": "4:45pm"}, {"days": "Sat", "time": "10:45am"}, {"days": "Sun", "time": "Closed"}], "id": "1215300002", "name": "USPS COLLECTION BOX - PO LOBBY", "address": {"city": "SAND LAKE", "state": "NY", "street": "8427 MILLER HILL RD", "postcode": "12153"}}},
{"geometry": {"type": "Point", "coordinates": [-73.5844502382, 42.9073639541]}, "type": "Feature", "properties": {"collection_times": [{"days": "Mon-Fri", "time": "10:00am"}, {"days": "Sat", "time": "9:00am"}, {"days": "Sun", "time": "Closed"}], "id": "1215400001", "name": "USPS COLLECTION BOX - BLUE BOX", "address": {"city": "SCHAGHTICOKE", "state": "NY", "street": "1523 ROUTE 67", "postcode": "12154"}}},
{"geometry": {"type": "Point", "coordinates": [-73.5868942314, 42.8959838889]}, "type": "Feature", "properties": {"collection_times": [{"days": "Mon-Fri", "time": "4:30pm"}, {"days": "Sat", "time": "10:45am"}, {"days": "Sun", "time": "Closed"}], "id": "1215400002", "name": "USPS COLLECTION BOX - BLUE BOX", "address": {"city": "SCHAGHTICOKE", "state": "NY", "street": "172 MAIN ST", "postcode": "12154"}}},
{"geometry": {"type": "Point", "coordinates": [-73.5868942314, 42.8959838889]}, "type": "Feature", "properties": {"collection_times": [{"days": "Mon-Fri", "time": "4:30pm"}, {"days": "Sat", "time": "10:45am"}, {"days": "Sun", "time": "Closed"}], "id": "1215400003", "name": "USPS COLLECTION BOX - PO LOBBY", "address": {"city": "SCHAGHTICOKE", "state": "NY", "street": "172 MAIN ST", "postcode": "12154"}}},
{"geometry": {"type": "Point", "coordinates": [-74.8238751668, 42.5486138448]}, "type": "Feature", "properties": {"collection_times": [{"days": "Mon-Fri", "time": "4:00pm"}, {"days": "Sat", "time": "11:00am"}, {"days": "Sun", "time": "Closed"}], "id": "1215500001", "name": "USPS COLLECTION BOX - BLUE BOX", "address": {"city": "SCHENEVUS", "state": "NY", "street": "97 MAIN ST STE 2", "postcode": "12155"}}},
{"geometry": {"type": "Point", "coordinates": [-74.8238751668, 42.5486138448]}, "type": "Feature", "properties": {"collection_times": [{"days": "Mon-Fri", "time": "3:00pm"}, {"days": "Sat", "time": "11:15am"}, {"days": "Sun", "time": "Closed"}], "id": "1215500002", "name": "USPS COLLECTION BOX - PO LOBBY", "address": {"city": "SCHENEVUS", "state": "NY", "street": "97 MAIN ST STE 2", "postcode": "12155"}}},
{"geometry": {"type": "Point", "coordinates": [-73.7700600487, 42.4806304349]}, "type": "Feature", "properties": {"collection_times": [{"days": "Mon-Fri", "time": "4:30pm"}, {"days": "Sat", "time": "11:00am"}, {"days": "Sun", "time": "Closed"}], "id": "1215600001", "name": "USPS COLLECTION BOX - BLUE BOX", "address": {"city": "SCHODACK LNDG", "state": "NY", "street": "630 RIVER RD", "postcode": "12156"}}},
{"geometry": {"type": "Point", "coordinates": [-73.7700600487, 42.4806304349]}, "type": "Feature", "properties": {"collection_times": [{"days": "Mon-Fri", "time": "12:00pm"}, {"days": "Sat", "time": "11:00am"}, {"days": "Sun", "time": "Closed"}], "id": "1215600002", "name": "USPS COLLECTION BOX - PO LOBBY", "address": {"city": "SCHODACK LNDG", "state": "NY", "street": "630 RIVER RD", "postcode": "12156"}}},
{"geometry": {"type": "Point", "coordinates": [-74.3070548071, 42.6640600515]}, "type": "Feature", "properties": {"collection_times": [{"days": "Mon-Sat", "time": "10:00am"}, {"days": "Sun", "time": "Closed"}], "id": "1215700002", "name": "USPS COLLECTION BOX - BLUE BOX", "address": {"city": "SCHOHARIE", "state": "NY", "street": "113 LOCUST LN", "postcode": "12157"}}},
{"geometry": {"type": "Point", "coordinates": [-74.3065283908, 42.6721420276]}, "type": "Feature", "properties": {"collection_times": [{"days": "Mon-Fri", "time": "4:45pm"}, {"days": "Sat", "time": "11:45am"}, {"days": "Sun", "time": "Closed"}], "id": "1215700004", "name": "USPS COLLECTION BOX - BLUE BOX", "address": {"city": "SCHOHARIE", "state": "NY", "street": "420 MAIN ST", "postcode": "12157"}}},
{"geometry": {"type": "Point", "coordinates": [-74.3115039161, 42.6643735363]}, "type": "Feature", "properties": {"collection_times": [{"days": "Mon-Sat", "time": "11:30am"}, {"days": "Sun", "time": "Closed"}], "id": "1215700005", "name": "USPS COLLECTION BOX - BLUE BOX", "address": {"city": "SCHOHARIE", "state": "NY", "street": "300 MAIN ST", "postcode": "12157"}}},
{"geometry": {"type": "Point", "coordinates": [-74.3065283908, 42.6721420276]}, "type": "Feature", "properties": {"collection_times": [{"days": "Mon-Fri", "time": "4:45pm"}, {"days": "Sat", "time": "11:45am"}, {"days": "Sun", "time": "Closed"}], "id": "1215700007", "name": "USPS COLLECTION BOX - PO LOBBY", "address": {"city": "SCHOHARIE", "state": "NY", "street": "420 MAIN ST", "postcode": "12157"}}},
{"geometry": {"type": "Point", "coordinates": [-73.8085417038, 42.5543737308]}, "type": "Feature", "properties": {"collection_times": [{"days": "Mon-Fri", "time": "4:45pm"}, {"days": "Sat", "time": "11:45am"}, {"days": "Sun", "time": "Closed"}], "id": "1215800001", "name": "USPS COLLECTION BOX - BLUE BOX", "address": {"city": "SELKIRK", "state": "NY", "street": "1155 US ROUTE 9W", "postcode": "12158"}}},
{"geometry": {"type": "Point", "coordinates": [-73.8085417038, 42.5543737308]}, "type": "Feature", "properties": {"collection_times": [{"days": "Mon-Fri", "time": "4:45pm"}, {"days": "Sat", "time": "11:45am"}, {"days": "Sun", "time": "Closed"}], "id": "1215800002", "name": "USPS COLLECTION BOX - PO LOBBY", "address": {"city": "SELKIRK", "state": "NY", "street": "1155 US ROUTE 9W", "postcode": "12158"}}},
{"geometry": {"type": "Point", "coordinates": [-73.8563888451, 42.6365148525]}, "type": "Feature", "properties": {"collection_times": [{"days": "Mon-Fri", "time": "5:00pm"}, {"days": "Sat", "time": "12:00pm"}, {"days": "Sun", "time": "Closed"}], "id": "1215900002", "name": "USPS COLLECTION BOX - BLUE BOX", "address": {"city": "SLINGERLANDS", "state": "NY", "street": "1399 NEW SCOTLAND RD", "postcode": "12159"}}},
{"geometry": {"type": "Point", "coordinates": [-73.8493886861, 42.6509070997]}, "type": "Feature", "properties": {"collection_times": [{"days": "Mon-Sat", "time": "9:00am"}, {"days": "Sun", "time": "Closed"}], "id": "1215900003", "name": "USPS COLLECTION BOX - BLUE BOX", "address": {"city": "SLINGERLANDS", "state": "NY", "street": "24 MEADOWBROOK DR", "postcode": "12159"}}},
{"geometry": {"type": "Point", "coordinates": [-73.8412517022, 42.6617106955]}, "type": "Feature", "properties": {"collection_times": [{"days": "Mon-Sat", "time": "9:00am"}, {"days": "Sun", "time": "Closed"}], "id": "1215900004", "name": "USPS COLLECTION BOX - BLUE BOX", "address": {"city": "SLINGERLANDS", "state": "NY", "street": "334 KRUMKILL RD", "postcode": "12159"}}},
{"geometry": {"type": "Point", "coordinates": [-73.8728982204, 42.6785986176]}, "type": "Feature", "properties": {"collection_times": [{"days": "Mon-Sat", "time": "9:00am"}, {"days": "Sun", "time": "Closed"}], "id": "1215900005", "name": "USPS COLLECTION BOX - BLUE BOX", "address": {"city": "SLINGERLANDS", "state": "NY", "street": "3002 SQUIRE BLVD", "postcode": "12159"}}},
{"geometry": {"type": "Point", "coordinates": [-73.8686991646, 42.6811274242]}, "type": "Feature", "properties": {"collection_times": [{"days": "Mon-Sat", "time": "9:00am"}, {"days": "Sun", "time": "Closed"}], "id": "1215900006", "name": "USPS COLLECTION BOX - BLUE BOX", "address": {"city": "SLINGERLANDS", "state": "NY", "street": "5 FARNSWORTH DR", "postcode": "12159"}}},
{"geometry": {"type": "Point", "coordinates": [-73.9065217427, 42.6318060216]}, "type": "Feature", "properties": {"collection_times": [{"days": "Mon-Sat", "time": "10:00am"}, {"days": "Sun", "time": "Closed"}], "id": "1215900007", "name": "USPS COLLECTION BOX - BLUE BOX", "address": {"city": "SLINGERLANDS", "state": "NY", "street": "2019 NEW SCOTLAND RD", "postcode": "12159"}}},
{"geometry": {"type": "Point", "coordinates": [-73.8563888451, 42.6365148525]}, "type": "Feature", "properties": {"collection_times": [{"days": "Mon-Fri", "time": "5:00pm"}, {"days": "Sat", "time": "1:00pm"}, {"days": "Sun", "time": "Closed"}], "id": "1215900010", "name": "USPS COLLECTION BOX - PO LOBBY", "address": {"city": "SLINGERLANDS", "state": "NY", "street": "1399 NEW SCOTLAND RD", "postcode": "12159"}}},
{"geometry": {"type": "Point", "coordinates": [-73.8563888451, 42.6365148525]}, "type": "Feature", "properties": {"collection_times": [{"days": "Mon-Fri", "time": "5:00pm"}, {"days": "Sat", "time": "1:00pm"}, {"days": "Sun", "time": "Closed"}], "id": "1215900011", "name": "USPS COLLECTION BOX - PO LOBBY", "address": {"city": "SLINGERLANDS", "state": "NY", "street": "1399 NEW SCOTLAND RD", "postcode": "12159"}}},
{"geometry": {"type": "Point", "coordinates": [-73.8542098347, 42.6397135735]}, "type": "Feature", "properties": {"collection_times": [{"days": "Mon-Sat", "time": "9:00am"}, {"days": "Sun", "time": "Closed"}], "id": "1215900012", "name": "USPS COLLECTION BOX - BLUE BOX", "address": {"city": "SLINGERLANDS", "state": "NY", "street": "1365 NEW SCOTLAND RD", "postcode": "12159"}}},
{"geometry": {"type": "Point", "coordinates": [-73.8489752413, 42.6462198478]}, "type": "Feature", "properties": {"collection_times": [{"days": "Mon-Sat", "time": "9:00am"}, {"days": "Sun", "time": "Closed"}], "id": "1215900013", "name": "USPS COLLECTION BOX - BLUE BOX", "address": {"city": "SLINGERLANDS", "state": "NY", "street": "1240 NEW SCOTLAND RD", "postcode": "12159"}}},
{"geometry": {"type": "Point", "coordinates": [-74.3388054258, 42.7567815586]}, "type": "Feature", "properties": {"collection_times": [{"days": "Mon-Fri", "time": "4:00pm"}, {"days": "Sat", "time": "11:00am"}, {"days": "Sun", "time": "Closed"}], "id": "1216000001", "name": "USPS COLLECTION BOX - BLUE BOX", "address": {"city": "SLOANSVILLE", "state": "NY", "street": "766 SADDLEMIRE HILL RD", "postcode": "12160"}}},
{"geometry": {"type": "Point", "coordinates": [-74.339229885, 42.756396818]}, "type": "Feature", "properties": {"collection_times": [{"days": "Mon-Fri", "time": "12:00pm"}, {"days": "Sat", "time": "11:30am"}, {"days": "Sun", "time": "Closed"}], "id": "1216000002", "name": "USPS COLLECTION BOX - PO LOBBY", "address": {"city": "SLOANSVILLE", "state": "NY", "street": "766 SADDLEMIRE HILL RD", "postcode": "12160"}}},
{"geometry": {"type": "Point", "coordinates": [-73.831676375, 42.6226502656]}, "type": "Feature", "properties": {"collection_times": [{"days": "Mon-Fri", "time": "4:30pm"}, {"days": "Sat", "time": "11:00am"}, {"days": "Sun", "time": "Closed"}], "id": "1216100001", "name": "USPS COLLECTION BOX - BLUE BOX", "address": {"city": "SOUTH BETHLEHEM", "state": "NY", "street": "541 BRIDGE ST", "postcode": "12161"}}},
{"geometry": {"type": "Point", "coordinates": [-73.831676375, 42.6226502656]}, "type": "Feature", "properties": {"collection_times": [{"days": "Mon-Fri", "time": "12:00pm"}, {"days": "Sat", "time": "11:00am"}, {"days": "Sun", "time": "Closed"}], "id": "1216100002", "name": "USPS COLLECTION BOX - PO LOBBY", "address": {"city": "SOUTH BETHLEHEM", "state": "NY", "street": "541 BRIDGE ST", "postcode": "12161"}}},
{"geometry": {"type": "Point", "coordinates": [-74.356750209, 43.5595798382]}, "type": "Feature", "properties": {"collection_times": [{"days": "Mon-Fri", "time": "4:00pm"}, {"days": "Sat", "time": "11:15am"}, {"days": "Sun", "time": "Closed"}], "id": "1216400001", "name": "USPS COLLECTION BOX - BLUE BOX", "address": {"city": "SPECULATOR", "state": "NY", "street": "1 ROUTE 8 & 30", "postcode": "12164"}}},
{"geometry": {"type": "Point", "coordinates": [-74.356750209, 43.5595798382]}, "type": "Feature", "properties": {"collection_times": [{"days": "Mon-Fri", "time": "4:00pm"}, {"days": "Sat", "time": "11:15am"}, {"days": "Sun", "time": "Closed"}], "id": "1216400002", "name": "USPS COLLECTION BOX - BLUE BOX", "address": {"city": "SPECULATOR", "state": "NY", "street": "1 ROUTE 8 & 30", "postcode": "12164"}}},
{"geometry": {"type": "Point", "coordinates": [-74.356750209, 43.5595798382]}, "type": "Feature", "properties": {"collection_times": [{"days": "Mon-Fri", "time": "4:30pm"}, {"days": "Sat", "time": "11:15am"}, {"days": "Sun", "time": "Closed"}], "id": "1216400003", "name": "USPS COLLECTION BOX - PO LOBBY", "address": {"city": "SPECULATOR", "state": "NY", "street": "1 ROUTE 8 & 30", "postcode": "12164"}}},
{"geometry": {"type": "Point", "coordinates": [-73.5449746634, 42.3223389565]}, "type": "Feature", "properties": {"collection_times": [{"days": "Mon-Fri", "time": "4:45pm"}, {"days": "Sat", "time": "11:15am"}, {"days": "Sun", "time": "Closed"}], "id": "1216500001", "name": "USPS COLLECTION BOX - BLUE BOX", "address": {"city": "SPENCERTOWN", "state": "NY", "street": "5199 ROUTE 7", "postcode": "12165"}}},
{"geometry": {"type": "Point", "coordinates": [-73.544974663, 42.322338956]}, "type": "Feature", "properties": {"collection_times": [{"days": "Mon-Fri", "time": "3:15pm"}, {"days": "Sat", "time": "11:15am"}, {"days": "Sun", "time": "Closed"}], "id": "1216500002", "name": "USPS COLLECTION BOX - PO LOBBY", "address": {"city": "SPENCERTOWN", "state": "NY", "street": "5199 ROUTE 7", "postcode": "12165"}}},
{"geometry": {"type": "Point", "coordinates": [-74.5147812185, 42.8906712202]}, "type": "Feature", "properties": {"collection_times": [{"days": "Mon-Fri", "time": "4:30pm"}, {"days": "Sat", "time": "11:00am"}, {"days": "Sun", "time": "Closed"}], "id": "1216600001", "name": "USPS COLLECTION BOX - BLUE BOX", "address": {"city": "SPRAKERS", "state": "NY", "street": "582 SPRAKERS RD", "postcode": "12166"}}},
{"geometry": {"type": "Point", "coordinates": [-74.5149724506, 42.890672218]}, "type": "Feature", "properties": {"collection_times": [{"days": "Mon-Fri", "time": "3:00pm"}, {"days": "Sat", "time": "11:00am"}, {"days": "Sun", "time": "Closed"}], "id": "1216600002", "name": "USPS COLLECTION BOX - PO LOBBY", "address": {"city": "SPRAKERS", "state": "NY", "street": "582 SPRAKERS RD", "postcode": "12166"}}},
{"geometry": {"type": "Point", "coordinates": [-74.6180133155, 42.4082191507]}, "type": "Feature", "properties": {"collection_times": [{"days": "Mon-Fri", "time": "5:00pm"}, {"days": "Sat", "time": "3:30pm"}, {"days": "Sun", "time": "Closed"}], "id": "1216700002", "name": "USPS COLLECTION BOX - BLUE BOX", "address": {"city": "STAMFORD", "state": "NY", "street": "5 CHURCHILL AVE", "postcode": "12167"}}},
{"geometry": {"type": "Point", "coordinates": [-74.6180133155, 42.4082191507]}, "type": "Feature", "properties": {"collection_times": [{"days": "Mon-Fri", "time": "5:00pm"}, {"days": "Sat", "time": "12:00pm"}, {"days": "Sun", "time": "Closed"}], "id": "1216700003", "name": "USPS COLLECTION BOX - PO LOBBY", "address": {"city": "STAMFORD", "state": "NY", "street": "5 CHURCHILL AVE", "postcode": "12167"}}},
{"geometry": {"type": "Point", "coordinates": [-73.3739474222, 42.5487073574]}, "type": "Feature", "properties": {"collection_times": [{"days": "Mon-Fri", "time": "4:15pm"}, {"days": "Sat", "time": "10:30am"}, {"days": "Sun", "time": "Closed"}], "id": "1216800001", "name": "USPS COLLECTION BOX - BLUE BOX", "address": {"city": "STEPHENTOWN", "state": "NY", "street": "389 NY 43", "postcode": "12168"}}},
{"geometry": {"type": "Point", "coordinates": [-73.3739474222, 42.5487073574]}, "type": "Feature", "properties": {"collection_times": [{"days": "Mon-Fri", "time": "4:15pm"}, {"days": "Sat", "time": "10:30am"}, {"days": "Sun", "time": "Closed"}], "id": "1216800002", "name": "USPS COLLECTION BOX - PO LOBBY", "address": {"city": "STEPHENTOWN", "state": "NY", "street": "389 NY 43", "postcode": "12168"}}},
{"geometry": {"type": "Point", "coordinates": [-73.6541415194, 42.9380927986]}, "type": "Feature", "properties": {"collection_times": [{"days": "Mon-Fri", "time": "4:00pm"}, {"days": "Sat", "time": "11:45am"}, {"days": "Sun", "time": "Closed"}], "id": "1217000002", "name": "USPS COLLECTION BOX - BLUE BOX", "address": {"city": "STILLWATER", "state": "NY", "street": "740 HUDSON AVE", "postcode": "12170"}}},
{"geometry": {"type": "Point", "coordinates": [-73.6540936931, 42.9380770425]}, "type": "Feature", "properties": {"collection_times": [{"days": "Mon-Fri", "time": "4:00pm"}, {"days": "Sat", "time": "11:45am"}, {"days": "Sun", "time": "Closed"}], "id": "1217000004", "name": "USPS COLLECTION BOX - PO LOBBY", "address": {"city": "STILLWATER", "state": "NY", "street": "124 HUDSON AVE", "postcode": "12170"}}},
{"geometry": {"type": "Point", "coordinates": [-73.7432797108, 42.2862349048]}, "type": "Feature", "properties": {"collection_times": [{"days": "Mon-Fri", "time": "4:30pm"}, {"days": "Sat", "time": "11:30am"}, {"days": "Sun", "time": "Closed"}], "id": "1217200001", "name": "USPS COLLECTION BOX - BLUE BOX", "address": {"city": "STOTTVILLE", "state": "NY", "street": "2857 ATLANTIC AVE", "postcode": "12172"}}},
{"geometry": {"type": "Point", "coordinates": [-73.7428053607, 42.2861264116]}, "type": "Feature", "properties": {"collection_times": [{"days": "Mon-Fri", "time": "4:00pm"}, {"days": "Sat", "time": "11:30am"}, {"days": "Sun", "time": "Closed"}], "id": "1217200002", "name": "USPS COLLECTION BOX - PO LOBBY", "address": {"city": "STOTTVILLE", "state": "NY", "street": "2857 ATLANTIC AVE", "postcode": "12172"}}},
{"geometry": {"type": "Point", "coordinates": [-73.7842765097, 42.3878555447]}, "type": "Feature", "properties": {"collection_times": [{"days": "Mon-Fri", "time": "4:45pm"}, {"days": "Sat", "time": "10:45am"}, {"days": "Sun", "time": "Closed"}], "id": "1217300001", "name": "USPS COLLECTION BOX - BLUE BOX", "address": {"city": "STUYVESANT", "state": "NY", "street": "48 RIVERVIEW ST", "postcode": "12173"}}},
{"geometry": {"type": "Point", "coordinates": [-73.784271325, 42.387958817]}, "type": "Feature", "properties": {"collection_times": [{"days": "Mon-Fri", "time": "3:00pm"}, {"days": "Sat", "time": "11:00am"}, {"days": "Sun", "time": "Closed"}], "id": "1217300002", "name": "USPS COLLECTION BOX - PO LOBBY", "address": {"city": "STUYVESANT", "state": "NY", "street": "48 RIVERVIEW ST", "postcode": "12173"}}},
{"geometry": {"type": "Point", "coordinates": [-73.7296810605, 42.356020067]}, "type": "Feature", "properties": {"collection_times": [{"days": "Mon-Fri", "time": "4:45pm"}, {"days": "Sat", "time": "10:00am"}, {"days": "Sun", "time": "Closed"}], "id": "1217400001", "name": "USPS COLLECTION BOX - BLUE BOX", "address": {"city": "STUYVESANT FALLS", "state": "NY", "street": "8056 HUDSON AVE", "postcode": "12174"}}},
{"geometry": {"type": "Point", "coordinates": [-73.7296810605, 42.356020067]}, "type": "Feature", "properties": {"collection_times": [{"days": "Mon-Fri", "time": "4:45pm"}, {"days": "Sat", "time": "10:00am"}, {"days": "Sun", "time": "Closed"}], "id": "1217400002", "name": "USPS COLLECTION BOX - PO LOBBY", "address": {"city": "STUYVESANT FALLS", "state": "NY", "street": "2 ROUTE 25A", "postcode": "12174"}}},
{"geometry": {"type": "Point", "coordinates": [-74.5870410839, 42.581669326]}, "type": "Feature", "properties": {"collection_times": [{"days": "Mon-Fri", "time": "4:30pm"}, {"days": "Sat", "time": "11:30am"}, {"days": "Sun", "time": "Closed"}], "id": "1217500001", "name": "USPS COLLECTION BOX - BLUE BOX", "address": {"city": "SUMMIT", "state": "NY", "street": "2906 ROUTE 10", "postcode": "12175"}}},
{"geometry": {"type": "Point", "coordinates": [-74.5870410839, 42.581669326]}, "type": "Feature", "properties": {"collection_times": [{"days": "Mon-Fri", "time": "4:45pm"}, {"days": "Sat", "time": "11:45am"}, {"days": "Sun", "time": "Closed"}], "id": "1217500002", "name": "USPS COLLECTION BOX - PO LOBBY", "address": {"city": "SUMMIT", "state": "NY", "street": "2906 ROUTE 10", "postcode": "12175"}}},
{"geometry": {"type": "Point", "coordinates": [-74.2829824383, 42.9551171019]}, "type": "Feature", "properties": {"collection_times": [{"days": "Mon-Fri", "time": "5:00pm"}, {"days": "Sat", "time": "11:00am"}, {"days": "Sun", "time": "Closed"}], "id": "1217700003", "name": "USPS COLLECTION BOX - PO LOBBY", "address": {"city": "TRIBES HILL", "state": "NY", "street": "216 MOHAWK DR", "postcode": "12177"}}},
{"geometry": {"type": "Point", "coordinates": [-74.2829824383, 42.9551171019]}, "type": "Feature", "properties": {"collection_times": [{"days": "Mon-Fri", "time": "4:45pm"}, {"days": "Sat", "time": "10:45am"}, {"days": "Sun", "time": "Closed"}], "id": "1217700004", "name": "USPS COLLECTION BOX - BLUE BOX", "address": {"city": "TRIBES HILL", "state": "NY", "street": "216 MOHAWK DR", "postcode": "12177"}}},
{"geometry": {"type": "Point", "coordinates": [-73.6885210532, 42.7323759322]}, "type": "Feature", "properties": {"collection_times": [{"days": "Mon-Sat", "time": "9:00am"}, {"days": "Sun", "time": "Closed"}], "id": "1218000001", "name": "USPS COLLECTION BOX - BLUE BOX", "address": {"city": "TROY", "state": "NY", "street": "400 FULTON ST", "postcode": "12180"}}},
{"geometry": {"type": "Point", "coordinates": [-73.6886665571, 42.731112532]}, "type": "Feature", "properties": {"collection_times": [{"days": "Mon-Fri", "time": "5:30pm"}, {"days": "Sat", "time": "2:00pm"}, {"days": "Sun", "time": "Closed"}], "id": "1218000003", "name": "USPS COLLECTION BOX - BLUE BOX", "address": {"city": "TROY", "state": "NY", "street": "400 BROADWAY", "postcode": "12180"}}},
{"geometry": {"type": "Point", "coordinates": [-73.688657334, 42.731136496]}, "type": "Feature", "properties": {"collection_times": [{"days": "Mon-Fri", "time": "5:30pm"}, {"days": "Sat", "time": "2:00pm"}, {"days": "Sun", "time": "Closed"}], "id": "1218000004", "name": "USPS COLLECTION BOX - BLUE BOX", "address": {"city": "TROY", "state": "NY", "street": "400 BROADWAY", "postcode": "12180"}}},
{"geometry": {"type": "Point", "coordinates": [-73.6863798974, 42.7314898959]}, "type": "Feature", "properties": {"collection_times": [{"days": "Mon-Fri", "time": "5:00pm"}, {"days": "Sat-Sun", "time": "Closed"}], "id": "1218000006", "name": "USPS COLLECTION BOX - BLUE BOX", "address": {"city": "TROY", "state": "NY", "street": "1801 6TH AVE", "postcode": "12180"}}},
{"geometry": {"type": "Point", "coordinates": [-73.6904930458, 42.7313089032]}, "type": "Feature", "properties": {"collection_times": [{"days": "Mon-Fri", "time": "2:00pm"}, {"days": "Sat", "time": "9:00am"}, {"days": "Sun", "time": "Closed"}], "id": "1218000007", "name": "USPS COLLECTION BOX - BLUE BOX", "address": {"city": "TROY", "state": "NY", "street": "260 BROADWAY", "postcode": "12180"}}},
{"geometry": {"type": "Point", "coordinates": [-73.6852064021, 42.7380399397]}, "type": "Feature", "properties": {"collection_times": [{"days": "Mon-Sat", "time": "10:00am"}, {"days": "Sun", "time": "Closed"}], "id": "1218000012", "name": "USPS COLLECTION BOX - BLUE BOX", "address": {"city": "TROY", "state": "NY", "street": "2301 5TH AVE", "postcode": "12180"}}},
{"geometry": {"type": "Point", "coordinates": [-73.688007649, 42.7299922699]}, "type": "Feature", "properties": {"collection_times": [{"days": "Mon-Fri", "time": "11:00am"}, {"days": "Sat", "time": "9:00am"}, {"days": "Sun", "time": "Closed"}], "id": "1218000014", "name": "USPS COLLECTION BOX - BLUE BOX", "address": {"city": "TROY", "state": "NY", "street": "1700 5TH AVE", "postcode": "12180"}}},
{"geometry": {"type": "Point", "coordinates": [-73.6898625286, 42.7286780025]}, "type": "Feature", "properties": {"collection_times": [{"days": "Mon-Sat", "time": "9:00am"}, {"days": "Sun", "time": "Closed"}], "id": "1218000016", "name": "USPS COLLECTION BOX - BLUE BOX", "address": {"city": "TROY", "state": "NY", "street": "96 CONGRESS ST", "postcode": "12180"}}},
{"geometry": {"type": "Point", "coordinates": [-73.6898613457, 42.7274276148]}, "type": "Feature", "properties": {"collection_times": [{"days": "Mon-Sat", "time": "9:00am"}, {"days": "Sun", "time": "Closed"}], "id": "1218000017", "name": "USPS COLLECTION BOX - BLUE BOX", "address": {"city": "TROY", "state": "NY", "street": "159 4TH ST", "postcode": "12180"}}},
{"geometry": {"type": "Point", "coordinates": [-73.6908349209, 42.7229867869]}, "type": "Feature", "properties": {"collection_times": [{"days": "Mon-Sat", "time": "10:00am"}, {"days": "Sun", "time": "Closed"}], "id": "1218000020", "name": "USPS COLLECTION BOX - BLUE BOX", "address": {"city": "TROY", "state": "NY", "street": "271 4TH ST", "postcode": "12180"}}},
{"geometry": {"type": "Point", "coordinates": [-73.6631388516, 42.730973303]}, "type": "Feature", "properties": {"collection_times": [{"days": "Mon-Fri", "time": "5:00pm"}, {"days": "Sat", "time": "9:00am"}, {"days": "Sun", "time": "Closed"}], "id": "1218000027", "name": "USPS COLLECTION BOX - BLUE BOX", "address": {"city": "TROY", "state": "NY", "street": "265 RIVER ST", "postcode": "12180"}}},
{"geometry": {"type": "Point", "coordinates": [-73.691734, 42.730488]}, "type": "Feature", "properties": {"collection_times": [{"days": "Mon-Fri", "time": "5:15pm"}, {"days": "Sat", "time": "9:00am"}, {"days": "Sun", "time": "Closed"}], "id": "1218000030", "name": "USPS COLLECTION BOX - BLUE BOX", "address": {"city": "TROY", "state": "NY", "street": "32 2ND ST", "postcode": "12180"}}},
{"geometry": {"type": "Point", "coordinates": [-73.6925547395, 42.7265322012]}, "type": "Feature", "properties": {"collection_times": [{"days": "Mon-Sat", "time": "10:00am"}, {"days": "Sun", "time": "Closed"}], "id": "1218000036", "name": "USPS COLLECTION BOX - BLUE BOX", "address": {"city": "TROY", "state": "NY", "street": "136 2ND ST", "postcode": "12180"}}},
{"geometry": {"type": "Point", "coordinates": [-73.6783685057, 42.7257485244]}, "type": "Feature", "properties": {"collection_times": [{"days": "Mon-Sat", "time": "10:00am"}, {"days": "Sun", "time": "Closed"}], "id": "1218000039", "name": "USPS COLLECTION BOX - BLUE BOX", "address": {"city": "TROY", "state": "NY", "street": "1500 15TH ST", "postcode": "12180"}}},
{"geometry": {"type": "Point", "coordinates": [-73.6631388516, 42.730973303]}, "type": "Feature", "properties": {"collection_times": [{"days": "Mon-Sat", "time": "2:45pm"}, {"days": "Sun", "time": "Closed"}], "id": "1218000045", "name": "USPS COLLECTION BOX - BLUE BOX", "address": {"city": "TROY", "state": "NY", "street": "721 RIVER ST", "postcode": "12180"}}},
{"geometry": {"type": "Point", "coordinates": [-73.6879745261, 42.6962732075]}, "type": "Feature", "properties": {"collection_times": [{"days": "Mon-Sat", "time": "10:00am"}, {"days": "Sun", "time": "Closed"}], "id": "1218000056", "name": "USPS COLLECTION BOX - BLUE BOX", "address": {"city": "TROY", "state": "NY", "street": "79 VANDENBURGH AVE", "postcode": "12180"}}},
{"geometry": {"type": "Point", "coordinates": [-73.6876267362, 42.7038678041]}, "type": "Feature", "properties": {"collection_times": [{"days": "Mon-Sat", "time": "10:00am"}, {"days": "Sun", "time": "Closed"}], "id": "1218000057", "name": "USPS COLLECTION BOX - BLUE BOX", "address": {"city": "TROY", "state": "NY", "street": "15 CAMBELL AVE", "postcode": "12180"}}},
{"geometry": {"type": "Point", "coordinates": [-73.6766110223, 42.7328668602]}, "type": "Feature", "properties": {"collection_times": [{"days": "Mon-Sat", "time": "9:00am"}, {"days": "Sun", "time": "Closed"}], "id": "1218000060", "name": "USPS COLLECTION BOX - BLUE BOX", "address": {"city": "TROY", "state": "NY", "street": "2021 15TH ST", "postcode": "12180"}}},
{"geometry": {"type": "Point", "coordinates": [-73.6755960435, 42.7365056419]}, "type": "Feature", "properties": {"collection_times": [{"days": "Mon-Sat", "time": "10:00am"}, {"days": "Sun", "time": "Closed"}], "id": "1218000061", "name": "USPS COLLECTION BOX - BLUE BOX", "address": {"city": "TROY", "state": "NY", "street": "2301 15TH ST", "postcode": "12180"}}},
{"geometry": {"type": "Point", "coordinates": [-73.697256812, 42.677472427]}, "type": "Feature", "properties": {"collection_times": [{"days": "Mon-Fri", "time": "5:00pm"}, {"days": "Sat-Sun", "time": "Closed"}], "id": "1218000064", "name": "USPS COLLECTION BOX - BLUE BOX", "address": {"city": "TROY", "state": "NY", "street": "250 JORDAN RD", "postcode": "12180"}}},
{"geometry": {"type": "Point", "coordinates": [-73.6918357042, 42.7240479011]}, "type": "Feature", "properties": {"collection_times": [{"days": "Mon-Sat", "time": "10:30am"}, {"days": "Sun", "time": "Closed"}], "id": "1218000067", "name": "USPS COLLECTION BOX - BLUE BOX", "address": {"city": "TROY", "state": "NY", "street": "212 3RD ST", "postcode": "12180"}}},
{"geometry": {"type": "Point", "coordinates": [-73.6631388516, 42.730973303]}, "type": "Feature", "properties": {"collection_times": [{"days": "Mon-Sat", "time": "12:30pm"}, {"days": "Sun", "time": "Closed"}], "id": "1218000070", "name": "USPS COLLECTION BOX - BLUE BOX", "address": {"city": "TROY", "state": "NY", "street": "349 3RD ST", "postcode": "12180"}}},
{"geometry": {"type": "Point", "coordinates": [-73.6943731512, 42.6987739828]}, "type": "Feature", "properties": {"collection_times": [{"days": "Mon-Fri", "time": "11:00am"}, {"days": "Sat", "time": "10:00am"}, {"days": "Sun", "time": "Closed"}], "id": "1218000076", "name": "USPS COLLECTION BOX - BLUE BOX", "address": {"city": "TROY", "state": "NY", "street": "55 COTTAGE ST", "postcode": "12180"}}},
{"geometry": {"type": "Point", "coordinates": [-73.6650897676, 42.7376258078]}, "type": "Feature", "properties": {"collection_times": [{"days": "Mon-Sat", "time": "9:00am"}, {"days": "Sun", "time": "Closed"}], "id": "1218000080", "name": "USPS COLLECTION BOX - BLUE BOX", "address": {"city": "TROY", "state": "NY", "street": "325 HOOSICK ST", "postcode": "12180"}}},
{"geometry": {"type": "Point", "coordinates": [-73.6275761902, 42.7520946752]}, "type": "Feature", "properties": {"collection_times": [{"days": "Mon-Sat", "time": "10:00am"}, {"days": "Sun", "time": "Closed"}], "id": "1218000084", "name": "USPS COLLECTION BOX - BLUE BOX", "address": {"city": "TROY", "state": "NY", "street": "870 HOOSICK RD", "postcode": "12180"}}},
{"geometry": {"type": "Point", "coordinates": [-73.6857943327, 42.7334867307]}, "type": "Feature", "properties": {"collection_times": [{"days": "Mon-Sat", "time": "9:00am"}, {"days": "Sun", "time": "Closed"}], "id": "1218000085", "name": "USPS COLLECTION BOX - BLUE BOX", "address": {"city": "TROY", "state": "NY", "street": "2000 6TH AVE", "postcode": "12180"}}},
{"geometry": {"type": "Point", "coordinates": [-73.6853329788, 42.7342911428]}, "type": "Feature", "properties": {"collection_times": [{"days": "Mon-Sat", "time": "9:00am"}, {"days": "Sun", "time": "Closed"}], "id": "1218000086", "name": "USPS COLLECTION BOX - BLUE BOX", "address": {"city": "TROY", "state": "NY", "street": "2121 6TH AVE", "postcode": "12180"}}},
{"geometry": {"type": "Point", "coordinates": [-73.6739067781, 42.742500878]}, "type": "Feature", "properties": {"collection_times": [{"days": "Mon-Sat", "time": "10:00am"}, {"days": "Sun", "time": "Closed"}], "id": "1218000089", "name": "USPS COLLECTION BOX - BLUE BOX", "address": {"city": "TROY", "state": "NY", "street": "2519 15TH ST", "postcode": "12180"}}},
{"geometry": {"type": "Point", "coordinates": [-73.6779915354, 42.739386147]}, "type": "Feature", "properties": {"collection_times": [{"days": "Mon-Sat", "time": "9:00am"}, {"days": "Sun", "time": "Closed"}], "id": "1218000093", "name": "USPS COLLECTION BOX - BLUE BOX", "address": {"city": "TROY", "state": "NY", "street": "120 HOOSICK ST", "postcode": "12180"}}},
{"geometry": {"type": "Point", "coordinates": [-73.6631388516, 42.730973303]}, "type": "Feature", "properties": {"collection_times": [{"days": "Mon-Sat", "time": "8:30am"}, {"days": "Sun", "time": "Closed"}], "id": "1218000094", "name": "USPS COLLECTION BOX - BLUE BOX", "address": {"city": "TROY", "state": "NY", "street": "17 OAKWOOD AVE", "postcode": "12180"}}},
{"geometry": {"type": "Point", "coordinates": [-73.6663265675, 42.7409465428]}, "type": "Feature", "properties": {"collection_times": [{"days": "Mon-Sat", "time": "9:30am"}, {"days": "Sun", "time": "Closed"}], "id": "1218000098", "name": "USPS COLLECTION BOX - BLUE BOX", "address": {"city": "TROY", "state": "NY", "street": "102 23RD ST", "postcode": "12180"}}},
{"geometry": {"type": "Point", "coordinates": [-73.6697463114, 42.7397978167]}, "type": "Feature", "properties": {"collection_times": [{"days": "Mon-Sat", "time": "10:00am"}, {"days": "Sun", "time": "Closed"}], "id": "1218000099", "name": "USPS COLLECTION BOX - BLUE BOX", "address": {"city": "TROY", "state": "NY", "street": "2409 21ST ST", "postcode": "12180"}}},
{"geometry": {"type": "Point", "coordinates": [-73.6756646551, 42.743162152]}, "type": "Feature", "properties": {"collection_times": [{"days": "Mon-Fri", "time": "2:30pm"}, {"days": "Sat", "time": "9:00am"}, {"days": "Sun", "time": "Closed"}], "id": "1218000104", "name": "USPS COLLECTION BOX - BLUE BOX", "address": {"city": "TROY", "state": "NY", "street": "1300 MASSACHUSETTS AVE", "postcode": "12180"}}},
{"geometry": {"type": "Point", "coordinates": [-73.6582242911, 42.7346897999]}, "type": "Feature", "properties": {"collection_times": [{"days": "Mon-Sat", "time": "9:00am"}, {"days": "Sun", "time": "Closed"}], "id": "1218000105", "name": "USPS COLLECTION BOX - BLUE BOX", "address": {"city": "TROY", "state": "NY", "street": "1 EUCLID AVE", "postcode": "12180"}}},
{"geometry": {"type": "Point", "coordinates": [-73.6937185597, 42.7276576699]}, "type": "Feature", "properties": {"collection_times": [{"days": "Mon-Fri", "time": "8:30am"}, {"days": "Sat-Sun", "time": "Closed"}], "id": "1218000107", "name": "USPS COLLECTION BOX - BLUE BOX", "address": {"city": "TROY", "state": "NY", "street": "75 1ST ST", "postcode": "12180"}}},
{"geometry": {"type": "Point", "coordinates": [-73.6588145876, 42.7040476139]}, "type": "Feature", "properties": {"collection_times": [{"days": "Mon-Sat", "time": "12:00pm"}, {"days": "Sun", "time": "Closed"}], "id": "1218000110", "name": "USPS COLLECTION BOX - BLUE BOX", "address": {"city": "TROY", "state": "NY", "street": "625 PAWLING AVE", "postcode": "12180"}}},
{"geometry": {"type": "Point", "coordinates": [-73.6875853326, 42.7344532081]}, "type": "Feature", "properties": {"collection_times": [{"days": "Mon-Fri", "time": "5:00pm"}, {"days": "Sat-Sun", "time": "Closed"}], "id": "1218000111", "name": "USPS COLLECTION BOX - BLUE BOX", "address": {"city": "TROY", "state": "NY", "street": "500 FEDERAL ST", "postcode": "12180"}}},
{"geometry": {"type": "Point", "coordinates": [-73.6876361999, 42.7322706488]}, "type": "Feature", "properties": {"collection_times": [{"days": "Mon-Fri", "time": "9:00am"}, {"days": "Sat-Sun", "time": "Closed"}], "id": "1218000113", "name": "USPS COLLECTION BOX - BLUE BOX", "address": {"city": "TROY", "state": "NY", "street": "471 FULTON ST", "postcode": "12180"}}},
{"geometry": {"type": "Point", "coordinates": [-73.687458756, 42.7356408989]}, "type": "Feature", "properties": {"collection_times": [{"days": "Mon-Fri", "time": "3:00pm"}, {"days": "Sat", "time": "10:00am"}, {"days": "Sun", "time": "Closed"}], "id": "1218000118", "name": "USPS COLLECTION BOX - BLUE BOX", "address": {"city": "TROY", "state": "NY", "street": "415 RIVER ST", "postcode": "12180"}}},
{"geometry": {"type": "Point", "coordinates": [-73.6796689372, 42.6915100168]}, "type": "Feature", "properties": {"collection_times": [{"days": "Mon-Sat", "time": "10:00am"}, {"days": "Sun", "time": "Closed"}], "id": "1218000120", "name": "USPS COLLECTION BOX - BLUE BOX", "address": {"city": "TROY", "state": "NY", "street": "100 HAMPTON PLACE BLVD", "postcode": "12180"}}},
{"geometry": {"type": "Point", "coordinates": [-73.6930151143, 42.7304926615]}, "type": "Feature", "properties": {"collection_times": [{"days": "Mon-Fri", "time": "5:00pm"}, {"days": "Sat", "time": "9:00am"}, {"days": "Sun", "time": "Closed"}], "id": "1218000134", "name": "USPS COLLECTION BOX - BLUE BOX", "address": {"city": "TROY", "state": "NY", "street": "17 1ST ST", "postcode": "12180"}}},
{"geometry": {"type": "Point", "coordinates": [-73.6861019021, 42.7291015018]}, "type": "Feature", "properties": {"collection_times": [{"days": "Mon-Fri", "time": "11:00am"}, {"days": "Sat-Sun", "time": "Closed"}], "id": "1218000146", "name": "USPS COLLECTION BOX - BLUE BOX", "address": {"city": "TROY", "state": "NY", "street": "1600 7TH AVE", "postcode": "12180"}}},
{"geometry": {"type": "Point", "coordinates": [-73.6593540169, 42.739098688]}, "type": "Feature", "properties": {"collection_times": [{"days": "Mon-Fri", "time": "2:00pm"}, {"days": "Sat", "time": "12:00pm"}, {"days": "Sun", "time": "Closed"}], "id": "1218000148", "name": "USPS COLLECTION BOX - BLUE BOX", "address": {"city": "TROY", "state": "NY", "street": "455 HOOSICK ST", "postcode": "12180"}}},
{"geometry": {"type": "Point", "coordinates": [-73.6870719284, 42.7365375818]}, "type": "Feature", "properties": {"collection_times": [{"days": "Mon-Fri", "time": "3:00pm"}, {"days": "Sat-Sun", "time": "Closed"}], "id": "1218000150", "name": "USPS COLLECTION BOX - BLUE BOX", "address": {"city": "TROY", "state": "NY", "street": "433 RIVER ST", "postcode": "12180"}}},
{"geometry": {"type": "Point", "coordinates": [-73.6886665571, 42.731112532]}, "type": "Feature", "properties": {"collection_times": [{"days": "Mon-Fri", "time": "5:30pm"}, {"days": "Sat", "time": "5:00pm"}, {"days": "Sun", "time": "Closed"}], "id": "1218000154", "name": "USPS COLLECTION BOX - PO LOBBY", "address": {"city": "TROY", "state": "NY", "street": "400 BROADWAY", "postcode": "12180"}}},
{"geometry": {"type": "Point", "coordinates": [-73.6456671817, 42.7435111249]}, "type": "Feature", "properties": {"collection_times": [{"days": "Mon-Sat", "time": "9:00am"}, {"days": "Sun", "time": "Closed"}], "id": "1218000156", "name": "USPS COLLECTION BOX - BLUE BOX", "address": {"city": "TROY", "state": "NY", "street": "716 HOOSICK RD", "postcode": "12180"}}},
{"geometry": {"type": "Point", "coordinates": [-73.6825175364, 42.7556624794]}, "type": "Feature", "properties": {"collection_times": [{"days": "Mon-Fri", "time": "3:00pm"}, {"days": "Sat-Sun", "time": "Closed"}], "id": "1218000157", "name": "USPS COLLECTION BOX - BLUE BOX", "address": {"city": "TROY", "state": "NY", "street": "80 2ND ST", "postcode": "12180"}}},
{"geometry": {"type": "Point", "coordinates": [-73.6908928859, 42.7284082878]}, "type": "Feature", "properties": {"collection_times": [{"days": "Mon-Fri", "time": "3:00pm"}, {"days": "Sat-Sun", "time": "Closed"}], "id": "1218000172", "name": "USPS COLLECTION BOX - BLUE BOX", "address": {"city": "TROY", "state": "NY", "street": "105 3RD ST", "postcode": "12180"}}},
{"geometry": {"type": "Point", "coordinates": [-73.6875853326, 42.7344532081]}, "type": "Feature", "properties": {"collection_times": [{"days": "Mon-Fri", "time": "5:00pm"}, {"days": "Sat-Sun", "time": "Closed"}], "id": "1218000188", "name": "USPS COLLECTION BOX - BLUE BOX", "address": {"city": "TROY", "state": "NY", "street": "500 FEDERAL ST", "postcode": "12180"}}},
{"geometry": {"type": "Point", "coordinates": [-73.6714119177, 42.733476084]}, "type": "Feature", "properties": {"collection_times": [{"days": "Mon-Sat", "time": "10:00am"}, {"days": "Sun", "time": "Closed"}], "id": "1218000189", "name": "USPS COLLECTION BOX - BLUE BOX", "address": {"city": "TROY", "state": "NY", "street": "2215 BURDETT AVE", "postcode": "12180"}}},
{"geometry": {"type": "Point", "coordinates": [-73.6904126045, 42.7323475412]}, "type": "Feature", "properties": {"collection_times": [{"days": "Mon-Fri", "time": "5:00pm"}, {"days": "Sat", "time": "9:00am"}, {"days": "Sun", "time": "Closed"}], "id": "1218000191", "name": "USPS COLLECTION BOX - BLUE BOX", "address": {"city": "TROY", "state": "NY", "street": "291 RIVER ST", "postcode": "12180"}}},
{"geometry": {"type": "Point", "coordinates": [-73.6836697384, 42.7123389732]}, "type": "Feature", "properties": {"collection_times": [{"days": "Mon-Sat", "time": "10:00am"}, {"days": "Sun", "time": "Closed"}], "id": "1218000192", "name": "USPS COLLECTION BOX - BLUE BOX", "address": {"city": "TROY", "state": "NY", "street": "144 DELAWARE AVE", "postcode": "12180"}}},
{"geometry": {"type": "Point", "coordinates": [-73.6866318677, 42.7303495235]}, "type": "Feature", "properties": {"collection_times": [{"days": "Mon-Fri", "time": "5:00pm"}, {"days": "Sat-Sun", "time": "Closed"}], "id": "1218000193", "name": "USPS COLLECTION BOX - BLUE BOX", "address": {"city": "TROY", "state": "NY", "street": "1776 6TH AVE", "postcode": "12180"}}},
{"geometry": {"type": "Point", "coordinates": [-73.6774923267, 42.7761087422]}, "type": "Feature", "properties": {"collection_times": [{"days": "Mon-Fri", "time": "5:00pm"}, {"days": "Sat", "time": "4:00pm"}, {"days": "Sun", "time": "Closed"}], "id": "1218200001", "name": "USPS COLLECTION BOX - BLUE BOX", "address": {"city": "TROY", "state": "NY", "street": "2 116TH ST", "postcode": "12182"}}},
{"geometry": {"type": "Point", "coordinates": [-73.6719182241, 42.788047164]}, "type": "Feature", "properties": {"collection_times": [{"days": "Mon-Sat", "time": "9:00am"}, {"days": "Sun", "time": "Closed"}], "id": "1218200003", "name": "USPS COLLECTION BOX - BLUE BOX", "address": {"city": "TROY", "state": "NY", "street": "9 126TH ST", "postcode": "12182"}}},
{"geometry": {"type": "Point", "coordinates": [-73.6740889538, 42.7815160476]}, "type": "Feature", "properties": {"collection_times": [{"days": "Mon-Fri", "time": "2:00pm"}, {"days": "Sat", "time": "10:30am"}, {"days": "Sun", "time": "Closed"}], "id": "1218200006", "name": "USPS COLLECTION BOX - BLUE BOX", "address": {"city": "TROY", "state": "NY", "street": "750 2ND AVE", "postcode": "12182"}}},
{"geometry": {"type": "Point", "coordinates": [-73.6722317082, 42.7855073512]}, "type": "Feature", "properties": {"collection_times": [{"days": "Mon-Sat", "time": "9:00am"}, {"days": "Sun", "time": "Closed"}], "id": "1218200007", "name": "USPS COLLECTION BOX - BLUE BOX", "address": {"city": "TROY", "state": "NY", "street": "863 2ND AVE", "postcode": "12182"}}},
{"geometry": {"type": "Point", "coordinates": [-73.6725759493, 42.772191965]}, "type": "Feature", "properties": {"collection_times": [{"days": "Mon-Sat", "time": "10:00am"}, {"days": "Sun", "time": "Closed"}], "id": "1218200020", "name": "USPS COLLECTION BOX - BLUE BOX", "address": {"city": "TROY", "state": "NY", "street": "41 114TH ST", "postcode": "12182"}}},
{"geometry": {"type": "Point", "coordinates": [-73.6777324674, 42.7649676346]}, "type": "Feature", "properties": {"collection_times": [{"days": "Mon-Sat", "time": "12:00pm"}, {"days": "Sun", "time": "Closed"}], "id": "1218200022", "name": "USPS COLLECTION BOX - BLUE BOX", "address": {"city": "TROY", "state": "NY", "street": "337 5TH AVE", "postcode": "12182"}}},
{"geometry": {"type": "Point", "coordinates": [-73.6586667178, 42.7772751397]}, "type": "Feature", "properties": {"collection_times": [{"days": "Mon-Sat", "time": "10:00am"}, {"days": "Sun", "time": "Closed"}], "id": "1218200033", "name": "USPS COLLECTION BOX - BLUE BOX", "address": {"city": "TROY", "state": "NY", "street": "31 HIGHPOINTE DR", "postcode": "12182"}}},
{"geometry": {"type": "Point", "coordinates": [-73.6610503801, 42.7716478039]}, "type": "Feature", "properties": {"collection_times": [{"days": "Mon-Sat", "time": "10:30am"}, {"days": "Sun", "time": "Closed"}], "id": "1218200036", "name": "USPS COLLECTION BOX - BLUE BOX", "address": {"city": "TROY", "state": "NY", "street": "2 WOODS PATH", "postcode": "12182"}}},
{"geometry": {"type": "Point", "coordinates": [-73.6774923267, 42.7761087422]}, "type": "Feature", "properties": {"collection_times": [{"days": "Mon-Fri", "time": "5:00pm"}, {"days": "Sat", "time": "4:00pm"}, {"days": "Sun", "time": "Closed"}], "id": "1218200066", "name": "USPS COLLECTION BOX - PO LOBBY", "address": {"city": "TROY", "state": "NY", "street": "2 116TH ST", "postcode": "12182"}}},
{"geometry": {"type": "Point", "coordinates": [-73.6913092874, 42.7451057536]}, "type": "Feature", "properties": {"collection_times": [{"days": "Mon-Fri", "time": "5:00pm"}, {"days": "Sat", "time": "1:00pm"}, {"days": "Sun", "time": "Closed"}], "id": "1218300001", "name": "USPS COLLECTION BOX - BLUE BOX", "address": {"city": "TROY", "state": "NY", "street": "137 GEORGE ST", "postcode": "12183"}}},
{"geometry": {"type": "Point", "coordinates": [-73.6927370291, 42.7440734946]}, "type": "Feature", "properties": {"collection_times": [{"days": "Mon-Fri", "time": "3:30pm"}, {"days": "Sat-Sun", "time": "Closed"}], "id": "1218300003", "name": "USPS COLLECTION BOX - BLUE BOX", "address": {"city": "TROY", "state": "NY", "street": "68 GEORGE ST", "postcode": "12183"}}},
{"geometry": {"type": "Point", "coordinates": [-73.6971128841, 42.7494685063]}, "type": "Feature", "properties": {"collection_times": [{"days": "Mon-Fri", "time": "2:00pm"}, {"days": "Sat-Sun", "time": "Closed"}], "id": "1218300005", "name": "USPS COLLECTION BOX - BLUE BOX", "address": {"city": "TROY", "state": "NY", "street": "1 TIBBITS AVE", "postcode": "12183"}}},
{"geometry": {"type": "Point", "coordinates": [-73.6913092874, 42.7451057536]}, "type": "Feature", "properties": {"collection_times": [{"days": "Mon-Fri", "time": "5:00pm"}, {"days": "Sat", "time": "1:00pm"}, {"days": "Sun", "time": "Closed"}], "id": "1218300006", "name": "USPS COLLECTION BOX - PO LOBBY", "address": {"city": "TROY", "state": "NY", "street": "137 GEORGE ST", "postcode": "12183"}}},
{"geometry": {"type": "Point", "coordinates": [-73.6825629446, 42.4158975621]}, "type": "Feature", "properties": {"collection_times": [{"days": "Mon-Fri", "time": "5:00pm"}, {"days": "Sat", "time": "12:00pm"}, {"days": "Sun", "time": "Closed"}], "id": "1218400002", "name": "USPS COLLECTION BOX - BLUE BOX", "address": {"city": "VALATIE", "state": "NY", "street": "1050 KINDERHOOK ST", "postcode": "12184"}}},
{"geometry": {"type": "Point", "coordinates": [-73.6825629446, 42.4158975621]}, "type": "Feature", "properties": {"collection_times": [{"days": "Mon-Fri", "time": "5:00pm"}, {"days": "Sat", "time": "12:00pm"}, {"days": "Sun", "time": "Closed"}], "id": "1218400003", "name": "USPS COLLECTION BOX - PO LOBBY", "address": {"city": "VALATIE", "state": "NY", "street": "1050 KINDERHOOK ST", "postcode": "12184"}}},
{"geometry": {"type": "Point", "coordinates": [-73.563134666, 42.89899054]}, "type": "Feature", "properties": {"collection_times": [{"days": "Mon-Fri", "time": "3:00pm"}, {"days": "Sat", "time": "10:30am"}, {"days": "Sun", "time": "Closed"}], "id": "1218500001", "name": "USPS COLLECTION BOX - PO LOBBY", "address": {"city": "VALLEY FALLS", "state": "NY", "street": "40 STATE ST", "postcode": "12185"}}},
{"geometry": {"type": "Point", "coordinates": [-73.5632374181, 42.8989862387]}, "type": "Feature", "properties": {"collection_times": [{"days": "Mon-Fri", "time": "4:30pm"}, {"days": "Sat", "time": "10:30am"}, {"days": "Sun", "time": "Closed"}], "id": "1218500002", "name": "USPS COLLECTION BOX - BLUE BOX", "address": {"city": "VALLEY FALLS", "state": "NY", "street": "40 STATE ST", "postcode": "12185"}}},
{"geometry": {"type": "Point", "coordinates": [-73.9268719061, 42.6530952053]}, "type": "Feature", "properties": {"collection_times": [{"days": "Mon-Fri", "time": "4:30pm"}, {"days": "Sat", "time": "12:15pm"}, {"days": "Sun", "time": "Closed"}], "id": "1218600001", "name": "USPS COLLECTION BOX - BLUE BOX", "address": {"city": "VOORHEESVILLE", "state": "NY", "street": "45 VOORHEESVILLE AVE", "postcode": "12186"}}},
{"geometry": {"type": "Point", "coordinates": [-73.9210706754, 42.643186741]}, "type": "Feature", "properties": {"collection_times": [{"days": "Mon-Sat", "time": "10:00am"}, {"days": "Sun", "time": "Closed"}], "id": "1218600003", "name": "USPS COLLECTION BOX - BLUE BOX", "address": {"city": "VOORHEESVILLE", "state": "NY", "street": "3 MAPLE RD", "postcode": "12186"}}},
{"geometry": {"type": "Point", "coordinates": [-73.9268719061, 42.6530952053]}, "type": "Feature", "properties": {"collection_times": [{"days": "Mon-Fri", "time": "4:30pm"}, {"days": "Sat", "time": "12:15pm"}, {"days": "Sun", "time": "Closed"}], "id": "1218600006", "name": "USPS COLLECTION BOX - PO LOBBY", "address": {"city": "VOORHEESVILLE", "state": "NY", "street": "45 VOORHEESVILLE AVE", "postcode": "12186"}}},
{"geometry": {"type": "Point", "coordinates": [-74.5080679264, 42.6594394143]}, "type": "Feature", "properties": {"collection_times": [{"days": "Mon-Fri", "time": "4:45pm"}, {"days": "Sat", "time": "12:00pm"}, {"days": "Sun", "time": "Closed"}], "id": "1218700001", "name": "USPS COLLECTION BOX - BLUE BOX", "address": {"city": "WARNERVILLE", "state": "NY", "street": "1585 ROUTE 7 SUITE 2", "postcode": "12187"}}},
{"geometry": {"type": "Point", "coordinates": [-74.506118735, 42.660801169]}, "type": "Feature", "properties": {"collection_times": [{"days": "Mon-Fri", "time": "3:00pm"}, {"days": "Sat", "time": "12:00pm"}, {"days": "Sun", "time": "Closed"}], "id": "1218700002", "name": "USPS COLLECTION BOX - PO LOBBY", "address": {"city": "WARNERVILLE", "state": "NY", "street": "1585 STATE ROUTE 7 STE 2", "postcode": "12187"}}},
{"geometry": {"type": "Point", "coordinates": [-73.6916168568, 42.7890940827]}, "type": "Feature", "properties": {"collection_times": [{"days": "Mon-Sat", "time": "11:30am"}, {"days": "Sun", "time": "Closed"}], "id": "1218800009", "name": "USPS COLLECTION BOX - BLUE BOX", "address": {"city": "WATERFORD", "state": "NY", "street": "2A VAN NESS ST", "postcode": "12188"}}},
{"geometry": {"type": "Point", "coordinates": [-73.6959689628, 42.7816272457]}, "type": "Feature", "properties": {"collection_times": [{"days": "Mon-Sat", "time": "9:00am"}, {"days": "Sun", "time": "Closed"}], "id": "1218800010", "name": "USPS COLLECTION BOX - BLUE BOX", "address": {"city": "WATERFORD", "state": "NY", "street": "30 SARATOGA AVE", "postcode": "12188"}}},
{"geometry": {"type": "Point", "coordinates": [-73.6787036767, 42.7916764822]}, "type": "Feature", "properties": {"collection_times": [{"days": "Mon-Fri", "time": "5:00pm"}, {"days": "Sat", "time": "3:30pm"}, {"days": "Sun", "time": "Closed"}], "id": "1218800014", "name": "USPS COLLECTION BOX - BLUE BOX", "address": {"city": "WATERFORD", "state": "NY", "street": "57 4TH ST", "postcode": "12188"}}},
{"geometry": {"type": "Point", "coordinates": [-73.6787036767, 42.7916764822]}, "type": "Feature", "properties": {"collection_times": [{"days": "Mon-Fri", "time": "5:00pm"}, {"days": "Sat", "time": "3:30pm"}, {"days": "Sun", "time": "Closed"}], "id": "1218800015", "name": "USPS COLLECTION BOX - PO LOBBY", "address": {"city": "WATERFORD", "state": "NY", "street": "57 4TH ST", "postcode": "12188"}}},
{"geometry": {"type": "Point", "coordinates": [-73.7059159662, 42.7357388916]}, "type": "Feature", "properties": {"collection_times": [{"days": "Mon-Sat", "time": "12:00pm"}, {"days": "Sun", "time": "Closed"}], "id": "1218900008", "name": "USPS COLLECTION BOX - BLUE BOX", "address": {"city": "WATERVLIET", "state": "NY", "street": "2498 7TH AVE", "postcode": "12189"}}},
{"geometry": {"type": "Point", "coordinates": [-73.7013892808, 42.7308345367]}, "type": "Feature", "properties": {"collection_times": [{"days": "Mon-Sat", "time": "8:00am"}, {"days": "Sun", "time": "Closed"}], "id": "1218900009", "name": "USPS COLLECTION BOX - BLUE BOX", "address": {"city": "WATERVLIET", "state": "NY", "street": "2000 2ND AVE", "postcode": "12189"}}},
{"geometry": {"type": "Point", "coordinates": [-73.7027070971, 42.7254355119]}, "type": "Feature", "properties": {"collection_times": [{"days": "Mon-Sat", "time": "9:30am"}, {"days": "Sun", "time": "Closed"}], "id": "1218900012", "name": "USPS COLLECTION BOX - BLUE BOX", "address": {"city": "WATERVLIET", "state": "NY", "street": "1400 2ND AVE", "postcode": "12189"}}},
{"geometry": {"type": "Point", "coordinates": [-73.7322171914, 42.7295699535]}, "type": "Feature", "properties": {"collection_times": [{"days": "Mon-Sat", "time": "9:45am"}, {"days": "Sun", "time": "Closed"}], "id": "1218900013", "name": "USPS COLLECTION BOX - BLUE BOX", "address": {"city": "WATERVLIET", "state": "NY", "street": "101 CEDARVIEW LN", "postcode": "12189"}}},
{"geometry": {"type": "Point", "coordinates": [-73.7312215724, 42.7344620368]}, "type": "Feature", "properties": {"collection_times": [{"days": "Mon-Sat", "time": "12:00pm"}, {"days": "Sun", "time": "Closed"}], "id": "1218900014", "name": "USPS COLLECTION BOX - BLUE BOX", "address": {"city": "WATERVLIET", "state": "NY", "street": "17 LAKESHORE DR", "postcode": "12189"}}},
{"geometry": {"type": "Point", "coordinates": [-73.7199858811, 42.7355893326]}, "type": "Feature", "properties": {"collection_times": [{"days": "Mon-Sat", "time": "8:30am"}, {"days": "Sun", "time": "Closed"}], "id": "1218900017", "name": "USPS COLLECTION BOX - BLUE BOX", "address": {"city": "WATERVLIET", "state": "NY", "street": "20 EASTVIEW DR", "postcode": "12189"}}},
{"geometry": {"type": "Point", "coordinates": [-73.71571, 42.735188]}, "type": "Feature", "properties": {"collection_times": [{"days": "Mon-Sat", "time": "8:00am"}, {"days": "Sun", "time": "Closed"}], "id": "1218900018", "name": "USPS COLLECTION BOX - BLUE BOX", "address": {"city": "WATERVLIET", "state": "NY", "street": "8 FENIMORE TRACE APTS", "postcode": "12189"}}},
{"geometry": {"type": "Point", "coordinates": [-73.7014898323, 42.7279883374]}, "type": "Feature", "properties": {"collection_times": [{"days": "Mon-Fri", "time": "5:00pm"}, {"days": "Sat", "time": "1:00pm"}, {"days": "Sun", "time": "Closed"}], "id": "1218900031", "name": "USPS COLLECTION BOX - BLUE BOX", "address": {"city": "WATERVLIET", "state": "NY", "street": "145 16TH ST", "postcode": "12189"}}},
{"geometry": {"type": "Point", "coordinates": [-73.7014898323, 42.7279883374]}, "type": "Feature", "properties": {"collection_times": [{"days": "Mon-Fri", "time": "5:00pm"}, {"days": "Sat", "time": "1:00pm"}, {"days": "Sun", "time": "Closed"}], "id": "1218900032", "name": "USPS COLLECTION BOX - BLUE BOX", "address": {"city": "WATERVLIET", "state": "NY", "street": "145 16TH ST", "postcode": "12189"}}},
{"geometry": {"type": "Point", "coordinates": [-73.706051907, 42.7111574129]}, "type": "Feature", "properties": {"collection_times": [{"days": "Mon-Sat", "time": "12:00pm"}, {"days": "Sun", "time": "Closed"}], "id": "1218900037", "name": "USPS COLLECTION BOX - BLUE BOX", "address": {"city": "WATERVLIET", "state": "NY", "street": "5 5TH ST", "postcode": "12189"}}},
{"geometry": {"type": "Point", "coordinates": [-73.7072815994, 42.7143736627]}, "type": "Feature", "properties": {"collection_times": [{"days": "Mon-Sat", "time": "11:00am"}, {"days": "Sun", "time": "Closed"}], "id": "1218900040", "name": "USPS COLLECTION BOX - BLUE BOX", "address": {"city": "WATERVLIET", "state": "NY", "street": "643 4TH AVE", "postcode": "12189"}}},
{"geometry": {"type": "Point", "coordinates": [-73.7014898323, 42.7279883374]}, "type": "Feature", "properties": {"collection_times": [{"days": "Mon-Fri", "time": "5:00pm"}, {"days": "Sat", "time": "1:00pm"}, {"days": "Sun", "time": "Closed"}], "id": "1218900068", "name": "USPS COLLECTION BOX - PO LOBBY", "address": {"city": "WATERVLIET", "state": "NY", "street": "145 16TH ST", "postcode": "12189"}}},
{"geometry": {"type": "Point", "coordinates": [-74.2381274475, 43.5106792596]}, "type": "Feature", "properties": {"collection_times": [{"days": "Mon-Fri", "time": "4:45pm"}, {"days": "Sat", "time": "11:45am"}, {"days": "Sun", "time": "Closed"}], "id": "1219000001", "name": "USPS COLLECTION BOX - BLUE BOX", "address": {"city": "WELLS", "state": "NY", "street": "1 MAIN ST", "postcode": "12190"}}},
{"geometry": {"type": "Point", "coordinates": [-74.2381274475, 43.5106792596]}, "type": "Feature", "properties": {"collection_times": [{"days": "Mon-Fri", "time": "4:45pm"}, {"days": "Sat", "time": "11:45am"}, {"days": "Sun", "time": "Closed"}], "id": "1219000002", "name": "USPS COLLECTION BOX - PO LOBBY", "address": {"city": "WELLS", "state": "NY", "street": "1 MAIN ST", "postcode": "12190"}}},
{"geometry": {"type": "Point", "coordinates": [-74.2381274475, 43.5106792596]}, "type": "Feature", "properties": {"collection_times": [{"days": "Mon-Fri", "time": "4:45pm"}, {"days": "Sat", "time": "11:45am"}, {"days": "Sun", "time": "Closed"}], "id": "1219000003", "name": "USPS COLLECTION BOX - PO LOBBY", "address": {"city": "WELLS", "state": "NY", "street": "1 MAIN ST", "postcode": "12190"}}},
{"geometry": {"type": "Point", "coordinates": [-74.0455279081, 42.5148030177]}, "type": "Feature", "properties": {"collection_times": [{"days": "Mon-Fri", "time": "4:30pm"}, {"days": "Sat", "time": "11:30am"}, {"days": "Sun", "time": "Closed"}], "id": "1219300001", "name": "USPS COLLECTION BOX - BLUE BOX", "address": {"city": "WESTERLO", "state": "NY", "street": "591 SR 143", "postcode": "12193"}}},
{"geometry": {"type": "Point", "coordinates": [-74.0455279081, 42.5148030177]}, "type": "Feature", "properties": {"collection_times": [{"days": "Mon-Fri", "time": "4:30pm"}, {"days": "Sat", "time": "11:30am"}, {"days": "Sun", "time": "Closed"}], "id": "1219300002", "name": "USPS COLLECTION BOX - PO LOBBY", "address": {"city": "WESTERLO", "state": "NY", "street": "591 SR 143", "postcode": "12193"}}},
{"geometry": {"type": "Point", "coordinates": [-74.460266728, 42.5635501458]}, "type": "Feature", "properties": {"collection_times": [{"days": "Mon-Fri", "time": "4:20pm"}, {"days": "Sat", "time": "11:40am"}, {"days": "Sun", "time": "Closed"}], "id": "1219400001", "name": "USPS COLLECTION BOX - BLUE BOX", "address": {"city": "WEST FULTON", "state": "NY", "street": "832 W FULTON RD", "postcode": "12194"}}},
{"geometry": {"type": "Point", "coordinates": [-74.460266728, 42.5635501458]}, "type": "Feature", "properties": {"collection_times": [{"days": "Mon-Fri", "time": "12:00pm"}, {"days": "Sat", "time": "11:40am"}, {"days": "Sun", "time": "Closed"}], "id": "1219400002", "name": "USPS COLLECTION BOX - PO LOBBY", "address": {"city": "WEST FULTON", "state": "NY", "street": "832 W FULTON RD", "postcode": "12194"}}},
{"geometry": {"type": "Point", "coordinates": [-73.4624697609, 42.4867493376]}, "type": "Feature", "properties": {"collection_times": [{"days": "Mon-Fri", "time": "4:30pm"}, {"days": "Sat", "time": "11:00am"}, {"days": "Sun", "time": "Closed"}], "id": "1219500001", "name": "USPS COLLECTION BOX - BLUE BOX", "address": {"city": "WEST LEBANON", "state": "NY", "street": "1533 RTE 20", "postcode": "12195"}}},
{"geometry": {"type": "Point", "coordinates": [-73.4624697609, 42.4867493376]}, "type": "Feature", "properties": {"collection_times": [{"days": "Mon-Fri", "time": "4:30pm"}, {"days": "Sat", "time": "11:00am"}, {"days": "Sun", "time": "Closed"}], "id": "1219500002", "name": "USPS COLLECTION BOX - PO LOBBY", "address": {"city": "WEST LEBANON", "state": "NY", "street": "1533 RTE 20", "postcode": "12195"}}},
{"geometry": {"type": "Point", "coordinates": [-73.6082300793, 42.6462754469]}, "type": "Feature", "properties": {"collection_times": [{"days": "Mon-Fri", "time": "4:30pm"}, {"days": "Sat", "time": "11:30am"}, {"days": "Sun", "time": "Closed"}], "id": "1219600001", "name": "USPS COLLECTION BOX - BLUE BOX", "address": {"city": "WEST SAND LAKE", "state": "NY", "street": "38 MALL WAY", "postcode": "12196"}}},
{"geometry": {"type": "Point", "coordinates": [-73.6079165952, 42.6437178896]}, "type": "Feature", "properties": {"collection_times": [{"days": "Mon-Sat", "time": "10:00am"}, {"days": "Sun", "time": "Closed"}], "id": "1219600003", "name": "USPS COLLECTION BOX - BLUE BOX", "address": {"city": "WEST SAND LAKE", "state": "NY", "street": "3707 NY 43", "postcode": "12196"}}},
{"geometry": {"type": "Point", "coordinates": [-73.6082300793, 42.6462754469]}, "type": "Feature", "properties": {"collection_times": [{"days": "Mon-Fri", "time": "5:00pm"}, {"days": "Sat", "time": "12:00pm"}, {"days": "Sun", "time": "Closed"}], "id": "1219600005", "name": "USPS COLLECTION BOX - PO LOBBY", "address": {"city": "WEST SAND LAKE", "state": "NY", "street": "38 MALL WAY", "postcode": "12196"}}},
{"geometry": {"type": "Point", "coordinates": [-74.7541684241, 42.5911240942]}, "type": "Feature", "properties": {"collection_times": [{"days": "Mon-Fri", "time": "4:30pm"}, {"days": "Sat", "time": "11:00am"}, {"days": "Sun", "time": "Closed"}], "id": "1219700001", "name": "USPS COLLECTION BOX - BLUE BOX", "address": {"city": "WORCESTER", "state": "NY", "street": "80 MAIN ST", "postcode": "12197"}}},
{"geometry": {"type": "Point", "coordinates": [-74.7541684241, 42.5911240942]}, "type": "Feature", "properties": {"collection_times": [{"days": "Mon-Fri", "time": "4:45pm"}, {"days": "Sat", "time": "11:15am"}, {"days": "Sun", "time": "Closed"}], "id": "1219700003", "name": "USPS COLLECTION BOX - PO LOBBY", "address": {"city": "WORCESTER", "state": "NY", "street": "80 MAIN ST", "postcode": "12197"}}},
{"geometry": {"type": "Point", "coordinates": [-73.644794158, 42.696923835]}, "type": "Feature", "properties": {"collection_times": [{"days": "Mon-Fri", "time": "5:00pm"}, {"days": "Sat", "time": "3:00pm"}, {"days": "Sun", "time": "Closed"}], "id": "1219800002", "name": "USPS COLLECTION BOX - BLUE BOX", "address": {"city": "WYNANTSKILL", "state": "NY", "street": "85 MAIN AVE", "postcode": "12198"}}},
{"geometry": {"type": "Point", "coordinates": [-73.644794158, 42.696923835]}, "type": "Feature", "properties": {"collection_times": [{"days": "Mon-Fri", "time": "5:00pm"}, {"days": "Sat", "time": "3:00pm"}, {"days": "Sun", "time": "Closed"}], "id": "1219800003", "name": "USPS COLLECTION BOX - BLUE BOX", "address": {"city": "WYNANTSKILL", "state": "NY", "street": "85 MAIN AVE", "postcode": "12198"}}},
{"geometry": {"type": "Point", "coordinates": [-73.644794158, 42.696923835]}, "type": "Feature", "properties": {"collection_times": [{"days": "Mon-Fri", "time": "5:00pm"}, {"days": "Sat", "time": "3:00pm"}, {"days": "Sun", "time": "Closed"}], "id": "1219800005", "name": "USPS COLLECTION BOX - PO LOBBY", "address": {"city": "WYNANTSKILL", "state": "NY", "street": "85 MAIN AVE", "postcode": "12198"}}},
{"geometry": {"type": "Point", "coordinates": [-73.644794158, 42.696923835]}, "type": "Feature", "properties": {"collection_times": [{"days": "Mon-Fri", "time": "5:00pm"}, {"days": "Sat", "time": "3:00pm"}, {"days": "Sun", "time": "Closed"}], "id": "1219800006", "name": "USPS COLLECTION BOX - PO LOBBY", "address": {"city": "WYNANTSKILL", "state": "NY", "street": "85 MAIN AVE", "postcode": "12198"}}}
]}
