{"type": "FeatureCollection", "features": [
{"geometry": {"type": "Point", "coordinates": [-73.7695300831, 42.6486969639]}, "type": "Feature", "properties": {"collection_times": [{"days": "Mon-Sat", "time": "10:00am"}, {"days": "Sun", "time": "Closed"}], "id": "1220200001", "name": "USPS COLLECTION BOX - BLUE BOX", "address": {"city": "ALBANY", "state": "NY", "street": "1 LEONARD PL", "postcode": "12202"}}},
{"geometry": {"type": "Point", "coordinates": [-73.7387471249, 42.6745422514]}, "type": "Feature", "properties": {"collection_times": [{"days": "Mon-Sat", "time": "11:00am"}, {"days": "Sun", "time": "Closed"}], "id": "1220200007", "name": "USPS COLLECTION BOX - BLUE BOX", "address": {"city": "ALBANY", "state": "NY", "street": "625 S PEARL ST", "postcode": "12202"}}},
{"geometry": {"type": "Point", "coordinates": [-73.7537315713, 42.6409630024]}, "type": "Feature", "properties": {"collection_times": [{"days": "Mon-Sat", "time": "10:00am"}, {"days": "Sun", "time": "Closed"}], "id": "1220200014", "name": "USPS COLLECTION BOX - BLUE BOX", "address": {"city": "ALBANY", "state": "NY", "street": "20 RENSSELAER ST", "postcode": "12202"}}},
{"geometry": {"type": "Point", "coordinates": [-73.754860209, 42.6456437468]}, "type": "Feature", "properties": {"collection_times": [{"days": "Mon-Sat", "time": "9:00am"}, {"days": "Sun", "time": "Closed"}], "id": "1220200015", "name": "USPS COLLECTION BOX - BLUE BOX", "address": {"city": "ALBANY", "state": "NY", "street": "135 S PEARL ST", "postcode": "12202"}}},
{"geometry": {"type": "Point", "coordinates": [-73.7544633892, 42.6418639744]}, "type": "Feature", "properties": {"collection_times": [{"days": "Mon-Fri", "time": "1:30pm"}, {"days": "Sat", "time": "10:00am"}, {"days": "Sun", "time": "Closed"}], "id": "1220200016", "name": "USPS COLLECTION BOX - BLUE BOX", "address": {"city": "ALBANY", "state": "NY", "street": "175 GREEN ST", "postcode": "12202"}}},
{"geometry": {"type": "Point", "coordinates": [-73.7556705304, 42.6389981907]}, "type": "Feature", "properties": {"collection_times": [{"days": "Mon-Sat", "time": "10:00am"}, {"days": "Sun", "time": "Closed"}], "id": "1220200017", "name": "USPS COLLECTION BOX - BLUE BOX", "address": {"city": "ALBANY", "state": "NY", "street": "220 GREEN ST", "postcode": "12202"}}},
{"geometry": {"type": "Point", "coordinates": [-73.7646055137, 42.6321087294]}, "type": "Feature", "properties": {"collection_times": [{"days": "Mon-Fri", "time": "9:45am"}, {"days": "Sat-Sun", "time": "Closed"}], "id": "1220200022", "name": "USPS COLLECTION BOX - BLUE BOX", "address": {"city": "ALBANY", "state": "NY", "street": "1 MOUNT HOPE DR", "postcode": "12202"}}},
{"geometry": {"type": "Point", "coordinates": [-73.767573469, 42.6390712268]}, "type": "Feature", "properties": {"collection_times": [{"days": "Mon-Sat", "time": "11:30am"}, {"days": "Sun", "time": "Closed"}], "id": "1220200024", "name": "USPS COLLECTION BOX - BLUE BOX", "address": {"city": "ALBANY", "state": "NY", "street": "148 2ND AVE", "postcode": "12202"}}},
{"geometry": {"type": "Point", "coordinates": [-73.7670918215, 42.6213074983]}, "type": "Feature", "properties": {"collection_times": [{"days": "Mon-Sat", "time": "9:30am"}, {"days": "Sun", "time": "Closed"}], "id": "1220200028", "name": "USPS COLLECTION BOX - BLUE BOX", "address": {"city": "ALBANY", "state": "NY", "street": "1 PORT OF ALBANY", "postcode": "12202"}}},
{"geometry": {"type": "Point", "coordinates": [-73.7578164234, 42.6419635615]}, "type": "Feature", "properties": {"collection_times": [{"days": "Mon-Fri", "time": "3:00pm"}, {"days": "Sat", "time": "9:30am"}, {"days": "Sun", "time": "Closed"}], "id": "1220200030", "name": "USPS COLLECTION BOX - BLUE BOX", "address": {"city": "ALBANY", "state": "NY", "street": "1 MORTON AVE", "postcode": "12202"}}},
{"geometry": {"type": "Point", "coordinates": [-73.7620147448, 42.6398188569]}, "type": "Feature", "properties": {"collection_times": [{"days": "Mon-Sat", "time": "10:30am"}, {"days": "Sun", "time": "Closed"}], "id": "1220200031", "name": "USPS COLLECTION BOX - BLUE BOX", "address": {"city": "ALBANY", "state": "NY", "street": "70 3RD AVE", "postcode": "12202"}}},
{"geometry": {"type": "Point", "coordinates": [-73.7680407377, 42.6587651276]}, "type": "Feature", "properties": {"collection_times": [{"days": "Mon-Sat", "time": "11:30am"}, {"days": "Sun", "time": "Closed"}], "id": "1220300002", "name": "USPS COLLECTION BOX - BLUE BOX", "address": {"city": "ALBANY", "state": "NY", "street": "1 SPRAGUE PL", "postcode": "12203"}}},
{"geometry": {"type": "Point", "coordinates": [-73.7773872965, 42.6619058837]}, "type": "Feature", "properties": {"collection_times": [{"days": "Mon-Sat", "time": "9:30am"}, {"days": "Sun", "time": "Closed"}], "id": "1220300003", "name": "USPS COLLECTION BOX - BLUE BOX", "address": {"city": "ALBANY", "state": "NY", "street": "217 WESTERN AVE", "postcode": "12203"}}},
{"geometry": {"type": "Point", "coordinates": [-73.8094147276, 42.6720852456]}, "type": "Feature", "properties": {"collection_times": [{"days": "Mon-Sat", "time": "9:00am"}, {"days": "Sun", "time": "Closed"}], "id": "1220300005", "name": "USPS COLLECTION BOX - BLUE BOX", "address": {"city": "ALBANY", "state": "NY", "street": "888 WESTERN AVE", "postcode": "12203"}}},
{"geometry": {"type": "Point", "coordinates": [-73.8005330716, 42.6663206866]}, "type": "Feature", "properties": {"collection_times": [{"days": "Mon-Sat", "time": "10:30am"}, {"days": "Sun", "time": "Closed"}], "id": "1220300009", "name": "USPS COLLECTION BOX - BLUE BOX", "address": {"city": "ALBANY", "state": "NY", "street": "73 BROOKLINE AVE", "postcode": "12203"}}},
{"geometry": {"type": "Point", "coordinates": [-73.7783076142, 42.6609522439]}, "type": "Feature", "properties": {"collection_times": [{"days": "Mon-Sat", "time": "11:30am"}, {"days": "Sun", "time": "Closed"}], "id": "1220300010", "name": "USPS COLLECTION BOX - BLUE BOX", "address": {"city": "ALBANY", "state": "NY", "street": "227 QUAIL ST", "postcode": "12203"}}},
{"geometry": {"type": "Point", "coordinates": [-73.789740937, 42.6707343064]}, "type": "Feature", "properties": {"collection_times": [{"days": "Mon-Sat", "time": "11:00am"}, {"days": "Sun", "time": "Closed"}], "id": "1220300013", "name": "USPS COLLECTION BOX - BLUE BOX", "address": {"city": "ALBANY", "state": "NY", "street": "123 N PINE AVE", "postcode": "12203"}}},
{"geometry": {"type": "Point", "coordinates": [-73.8083488815, 42.666422421]}, "type": "Feature", "properties": {"collection_times": [{"days": "Mon-Sat", "time": "11:30am"}, {"days": "Sun", "time": "Closed"}], "id": "1220300016", "name": "USPS COLLECTION BOX - BLUE BOX", "address": {"city": "ALBANY", "state": "NY", "street": "1 STONEHENGE LN", "postcode": "12203"}}},
{"geometry": {"type": "Point", "coordinates": [-73.7990289783, 42.6760458601]}, "type": "Feature", "properties": {"collection_times": [{"days": "Mon-Sat", "time": "11:30am"}, {"days": "Sun", "time": "Closed"}], "id": "1220300018", "name": "USPS COLLECTION BOX - BLUE BOX", "address": {"city": "ALBANY", "state": "NY", "street": "140 CLERMONT ST", "postcode": "12203"}}},
{"geometry": {"type": "Point", "coordinates": [-73.7932093727, 42.6738372078]}, "type": "Feature", "properties": {"collection_times": [{"days": "Mon-Sat", "time": "9:30am"}, {"days": "Sun", "time": "Closed"}], "id": "1220300019", "name": "USPS COLLECTION BOX - BLUE BOX", "address": {"city": "ALBANY", "state": "NY", "street": "180 HOMESTEAD AVE", "postcode": "12203"}}},
{"geometry": {"type": "Point", "coordinates": [-73.7987899128, 42.6719521631]}, "type": "Feature", "properties": {"collection_times": [{"days": "Mon-Sat", "time": "10:00am"}, {"days": "Sun", "time": "Closed"}], "id": "1220300020", "name": "USPS COLLECTION BOX - BLUE BOX", "address": {"city": "ALBANY", "state": "NY", "street": "71 MELROSE AVE", "postcode": "12203"}}},
{"geometry": {"type": "Point", "coordinates": [-73.8198507915, 42.6754034455]}, "type": "Feature", "properties": {"collection_times": [{"days": "Mon-Sat", "time": "10:30am"}, {"days": "Sun", "time": "Closed"}], "id": "1220300024", "name": "USPS COLLECTION BOX - BLUE BOX", "address": {"city": "ALBANY", "state": "NY", "street": "1129 WESTERN AVE", "postcode": "12203"}}},
{"geometry": {"type": "Point", "coordinates": [-73.8165550679, 42.6743470631]}, "type": "Feature", "properties": {"collection_times": [{"days": "Mon-Sat", "time": "9:30am"}, {"days": "Sun", "time": "Closed"}], "id": "1220300025", "name": "USPS COLLECTION BOX - BLUE BOX", "address": {"city": "ALBANY", "state": "NY", "street": "1050 WESTERN AVE", "postcode": "12203"}}},
{"geometry": {"type": "Point", "coordinates": [-73.821596839, 42.6759570703]}, "type": "Feature", "properties": {"collection_times": [{"days": "Mon-Fri", "time": "3:00pm"}, {"days": "Sat", "time": "9:30am"}, {"days": "Sun", "time": "Closed"}], "id": "1220300027", "name": "USPS COLLECTION BOX - BLUE BOX", "address": {"city": "ALBANY", "state": "NY", "street": "1215 WESTERN AVE", "postcode": "12203"}}},
{"geometry": {"type": "Point", "coordinates": [-73.8166023862, 42.6699038693]}, "type": "Feature", "properties": {"collection_times": [{"days": "Mon-Sat", "time": "9:30am"}, {"days": "Sun", "time": "Closed"}], "id": "1220300030", "name": "USPS COLLECTION BOX - BLUE BOX", "address": {"city": "ALBANY", "state": "NY", "street": "174 BERKSHIRE BLVD", "postcode": "12203"}}},
{"geometry": {"type": "Point", "coordinates": [-73.8372615816, 42.6809633526]}, "type": "Feature", "properties": {"collection_times": [{"days": "Mon-Fri", "time": "4:15pm"}, {"days": "Sat-Sun", "time": "Closed"}], "id": "1220300033", "name": "USPS COLLECTION BOX - BLUE BOX", "address": {"city": "ALBANY", "state": "NY", "street": "1450 WESTERN AVE", "postcode": "12203"}}},
{"geometry": {"type": "Point", "coordinates": [-73.8659223114, 42.6901099913]}, "type": "Feature", "properties": {"collection_times": [{"days": "Mon-Sat", "time": "10:00am"}, {"days": "Sun", "time": "Closed"}], "id": "1220300035", "name": "USPS COLLECTION BOX - BLUE BOX", "address": {"city": "ALBANY", "state": "NY", "street": "1800 WESTERN AVE", "postcode": "12203"}}},
{"geometry": {"type": "Point", "coordinates": [-73.8490438166, 42.6815505952]}, "type": "Feature", "properties": {"collection_times": [{"days": "Mon-Sat", "time": "11:00am"}, {"days": "Sun", "time": "Closed"}], "id": "1220300039", "name": "USPS COLLECTION BOX - BLUE BOX", "address": {"city": "ALBANY", "state": "NY", "street": "64 WOODLAKE RD", "postcode": "12203"}}},
{"geometry": {"type": "Point", "coordinates": [-73.8694558098, 42.6846470868]}, "type": "Feature", "properties": {"collection_times": [{"days": "Mon-Sat", "time": "10:00am"}, {"days": "Sun", "time": "Closed"}], "id": "1220300040", "name": "USPS COLLECTION BOX - BLUE BOX", "address": {"city": "ALBANY", "state": "NY", "street": "6211 JOHNSTON RD", "postcode": "12203"}}},
{"geometry": {"type": "Point", "coordinates": [-73.8316536425, 42.6785666806]}, "type": "Feature", "properties": {"collection_times": [{"days": "Mon-Fri", "time": "5:30pm"}, {"days": "Sat", "time": "4:00pm"}, {"days": "Sun", "time": "Closed"}], "id": "1220300043", "name": "USPS COLLECTION BOX - BLUE BOX", "address": {"city": "ALBANY", "state": "NY", "street": "1475 WESTERN AVE STE 51", "postcode": "12203"}}},
{"geometry": {"type": "Point", "coordinates": [-73.8316536425, 42.6785666806]}, "type": "Feature", "properties": {"collection_times": [{"days": "Mon-Fri", "time": "5:30pm"}, {"days": "Sat", "time": "4:00pm"}, {"days": "Sun", "time": "Closed"}], "id": "1220300044", "name": "USPS COLLECTION BOX - BLUE BOX", "address": {"city": "ALBANY", "state": "NY", "street": "1475 WESTERN AVE STE 51", "postcode": "12203"}}},
{"geometry": {"type": "Point", "coordinates": [-73.8315078147, 42.6790809023]}, "type": "Feature", "properties": {"collection_times": [{"days": "Mon-Fri", "time": "5:30pm"}, {"days": "Sat", "time": "4:00pm"}, {"days": "Sun", "time": "Closed"}], "id": "1220300045", "name": "USPS COLLECTION BOX - EXPRESS", "address": {"city": "ALBANY", "state": "NY", "street": "1475 WESTERN AVE STE 51", "postcode": "12203"}}},
{"geometry": {"type": "Point", "coordinates": [-73.8316536425, 42.6785666806]}, "type": "Feature", "properties": {"collection_times": [{"days": "Mon-Sat", "time": "10:00am"}, {"days": "Sun", "time": "Closed"}], "id": "1220300046", "name": "USPS COLLECTION BOX - BLUE BOX", "address": {"city": "ALBANY", "state": "NY", "street": "1 TRI-CENTENIAL DR", "postcode": "12203"}}},
{"geometry": {"type": "Point", "coordinates": [-73.8393329427, 42.6851924309]}, "type": "Feature", "properties": {"collection_times": [{"days": "Mon-Fri", "time": "3:00pm"}, {"days": "Sat-Sun", "time": "Closed"}], "id": "1220300048", "name": "USPS COLLECTION BOX - BLUE BOX", "address": {"city": "ALBANY", "state": "NY", "street": "4 EXECUTIVE PARK DR", "postcode": "12203"}}},
{"geometry": {"type": "Point", "coordinates": [-73.837854244, 42.6843383345]}, "type": "Feature", "properties": {"collection_times": [{"days": "Mon-Fri", "time": "3:00pm"}, {"days": "Sat-Sun", "time": "Closed"}], "id": "1220300049", "name": "USPS COLLECTION BOX - BLUE BOX", "address": {"city": "ALBANY", "state": "NY", "street": "2 EXECUTIVE PARK DR", "postcode": "12203"}}},
{"geometry": {"type": "Point", "coordinates": [-73.8420768659, 42.6861021717]}, "type": "Feature", "properties": {"collection_times": [{"days": "Mon-Fri", "time": "3:30pm"}, {"days": "Sat-Sun", "time": "Closed"}], "id": "1220300050", "name": "USPS COLLECTION BOX - BLUE BOX", "address": {"city": "ALBANY", "state": "NY", "street": "2 TOWER PL", "postcode": "12203"}}},
{"geometry": {"type": "Point", "coordinates": [-73.8479910194, 42.6824621616]}, "type": "Feature", "properties": {"collection_times": [{"days": "Mon-Fri", "time": "4:20pm"}, {"days": "Sat-Sun", "time": "Closed"}], "id": "1220300057", "name": "USPS COLLECTION BOX - BLUE BOX", "address": {"city": "ALBANY", "state": "NY", "street": "100 GREAT OAKS BLVD", "postcode": "12203"}}},
{"geometry": {"type": "Point", "coordinates": [-73.847853133, 42.682173738]}, "type": "Feature", "properties": {"collection_times": [{"days": "Mon-Fri", "time": "4:20pm"}, {"days": "Sat-Sun", "time": "Closed"}], "id": "1220300058", "name": "USPS COLLECTION BOX - BLUE BOX", "address": {"city": "ALBANY", "state": "NY", "street": "200 GREAT OAKS BLVD", "postcode": "12203"}}},
{"geometry": {"type": "Point", "coordinates": [-73.860336061, 42.705714842]}, "type": "Feature", "properties": {"collection_times": [{"days": "Mon-Fri", "time": "4:45pm"}, {"days": "Sat-Sun", "time": "Closed"}], "id": "1220300060", "name": "USPS COLLECTION BOX - BLUE BOX", "address": {"city": "ALBANY", "state": "NY", "street": "286 WASHINGTON AVENUE EXT", "postcode": "12203"}}},
{"geometry": {"type": "Point", "coordinates": [-73.860336061, 42.705714842]}, "type": "Feature", "properties": {"collection_times": [{"days": "Mon-Fri", "time": "4:45pm"}, {"days": "Sat-Sun", "time": "Closed"}], "id": "1220300061", "name": "USPS COLLECTION BOX - BLUE BOX", "address": {"city": "ALBANY", "state": "NY", "street": "286 WASHINGTON AVENUE EXT", "postcode": "12203"}}},
{"geometry": {"type": "Point", "coordinates": [-73.8574038239, 42.7040381502]}, "type": "Feature", "properties": {"collection_times": [{"days": "Mon-Fri", "time": "4:45pm"}, {"days": "Sat-Sun", "time": "Closed"}], "id": "1220300063", "name": "USPS COLLECTION BOX - BLUE BOX", "address": {"city": "ALBANY", "state": "NY", "street": "220 WASHINGTON AVENUE EXT", "postcode": "12203"}}},
{"geometry": {"type": "Point", "coordinates": [-73.8574038239, 42.7040381502]}, "type": "Feature", "properties": {"collection_times": [{"days": "Mon-Fri", "time": "4:45pm"}, {"days": "Sat-Sun", "time": "Closed"}], "id": "1220300064", "name": "USPS COLLECTION BOX - BLUE BOX", "address": {"city": "ALBANY", "state": "NY", "street": "220 WASHINGTON AVENUE EXT", "postcode": "12203"}}},
{"geometry": {"type": "Point", "coordinates": [-73.8512961504, 42.6874246856]}, "type": "Feature", "properties": {"collection_times": [{"days": "Mon-Fri", "time": "11:00am"}, {"days": "Sat-Sun", "time": "Closed"}], "id": "1220300072", "name": "USPS COLLECTION BOX - BLUE BOX", "address": {"city": "ALBANY", "state": "NY", "street": "1 CROSSGATES MALL RD", "postcode": "12203"}}},
{"geometry": {"type": "Point", "coordinates": [-73.8574038239, 42.7040381502]}, "type": "Feature", "properties": {"collection_times": [{"days": "Mon-Fri", "time": "4:45pm"}, {"days": "Sat-Sun", "time": "Closed"}], "id": "1220300073", "name": "USPS COLLECTION BOX - BLUE BOX", "address": {"city": "ALBANY", "state": "NY", "street": "220 WASHINGTON AVENUE EXT", "postcode": "12203"}}},
{"geometry": {"type": "Point", "coordinates": [-73.860336061, 42.705714842]}, "type": "Feature", "properties": {"collection_times": [{"days": "Mon-Fri", "time": "4:45pm"}, {"days": "Sat-Sun", "time": "Closed"}], "id": "1220300074", "name": "USPS COLLECTION BOX - BLUE BOX", "address": {"city": "ALBANY", "state": "NY", "street": "286 WASHINGTON AVENUE EXT", "postcode": "12203"}}},
{"geometry": {"type": "Point", "coordinates": [-73.8764139745, 42.7024399726]}, "type": "Feature", "properties": {"collection_times": [{"days": "Mon-Fri", "time": "2:00pm"}, {"days": "Sat-Sun", "time": "Closed"}], "id": "1220300076", "name": "USPS COLLECTION BOX - BLUE BOX", "address": {"city": "ALBANY", "state": "NY", "street": "15 CORPORATE CIR", "postcode": "12203"}}},
{"geometry": {"type": "Point", "coordinates": [-73.8764139745, 42.7024399726]}, "type": "Feature", "properties": {"collection_times": [{"days": "Mon-Fri", "time": "2:00pm"}, {"days": "Sat-Sun", "time": "Closed"}], "id": "1220300077", "name": "USPS COLLECTION BOX - BLUE BOX", "address": {"city": "ALBANY", "state": "NY", "street": "15 CORPORATE CIR", "postcode": "12203"}}},
{"geometry": {"type": "Point", "coordinates": [-73.8748098821, 42.7040629923]}, "type": "Feature", "properties": {"collection_times": [{"days": "Mon-Fri", "time": "2:00pm"}, {"days": "Sat-Sun", "time": "Closed"}], "id": "1220300085", "name": "USPS COLLECTION BOX - BLUE BOX", "address": {"city": "ALBANY", "state": "NY", "street": "28 CORPORATE CIR", "postcode": "12203"}}},
{"geometry": {"type": "Point", "coordinates": [-73.8748098821, 42.7040629923]}, "type": "Feature", "properties": {"collection_times": [{"days": "Mon-Fri", "time": "2:00pm"}, {"days": "Sat-Sun", "time": "Closed"}], "id": "1220300086", "name": "USPS COLLECTION BOX - BLUE BOX", "address": {"city": "ALBANY", "state": "NY", "street": "28 CORPORATE CIR", "postcode": "12203"}}},
{"geometry": {"type": "Point", "coordinates": [-73.7725339047, 42.6603056417]}, "type": "Feature", "properties": {"collection_times": [{"days": "Mon-Sat", "time": "11:00am"}, {"days": "Sun", "time": "Closed"}], "id": "1220300087", "name": "USPS COLLECTION BOX - BLUE BOX", "address": {"city": "ALBANY", "state": "NY", "street": "100 WESTERN AVE", "postcode": "12203"}}},
{"geometry": {"type": "Point", "coordinates": [-73.8685549355, 42.690945303]}, "type": "Feature", "properties": {"collection_times": [{"days": "Mon-Sat", "time": "9:30am"}, {"days": "Sun", "time": "Closed"}], "id": "1220300089", "name": "USPS COLLECTION BOX - BLUE BOX", "address": {"city": "ALBANY", "state": "NY", "street": "1823 WESTERN AVE", "postcode": "12203"}}},
{"geometry": {"type": "Point", "coordinates": [-73.8762941944, 42.7125547847]}, "type": "Feature", "properties": {"collection_times": [{"days": "Mon-Fri", "time": "4:00pm"}, {"days": "Sat", "time": "10:30am"}, {"days": "Sun", "time": "Closed"}], "id": "1220300090", "name": "USPS COLLECTION BOX - BLUE BOX", "address": {"city": "ALBANY", "state": "NY", "street": "1 POINT OF WOODS DR", "postcode": "12203"}}},
{"geometry": {"type": "Point", "coordinates": [-73.8315078147, 42.6790809023]}, "type": "Feature", "properties": {"collection_times": [{"days": "Mon-Fri", "time": "4:00pm"}, {"days": "Sat", "time": "10:30am"}, {"days": "Sun", "time": "Closed"}], "id": "1220300093", "name": "USPS COLLECTION BOX - EXPRESS", "address": {"city": "ALBANY", "state": "NY", "street": "1 POINT OF WOODS DR", "postcode": "12203"}}},
{"geometry": {"type": "Point", "coordinates": [-73.8363130296, 42.6726720215]}, "type": "Feature", "properties": {"collection_times": [{"days": "Mon-Sat", "time": "10:00am"}, {"days": "Sun", "time": "Closed"}], "id": "1220300094", "name": "USPS COLLECTION BOX - BLUE BOX", "address": {"city": "ALBANY", "state": "NY", "street": "220 WOODSCAPE DR", "postcode": "12203"}}},
{"geometry": {"type": "Point", "coordinates": [-73.8479910194, 42.6824621616]}, "type": "Feature", "properties": {"collection_times": [{"days": "Mon-Fri", "time": "4:20pm"}, {"days": "Sat-Sun", "time": "Closed"}], "id": "1220300096", "name": "USPS COLLECTION BOX - BLUE BOX", "address": {"city": "ALBANY", "state": "NY", "street": "100 GREAT OAKS BLVD", "postcode": "12203"}}},
{"geometry": {"type": "Point", "coordinates": [-73.839762962, 42.681825748]}, "type": "Feature", "properties": {"collection_times": [{"days": "Mon-Fri", "time": "5:30pm"}, {"days": "Sat", "time": "5:00pm"}, {"days": "Sun", "time": "Closed"}], "id": "1220300099", "name": "USPS COLLECTION BOX - PO LOBBY", "address": {"city": "ALBANY", "state": "NY", "street": "1475 WESTERN AVE", "postcode": "12203"}}},
{"geometry": {"type": "Point", "coordinates": [-73.839762962, 42.681825748]}, "type": "Feature", "properties": {"collection_times": [{"days": "Mon-Fri", "time": "5:30pm"}, {"days": "Sat", "time": "4:30pm"}, {"days": "Sun", "time": "Closed"}], "id": "1220300100", "name": "USPS COLLECTION BOX - APC", "address": {"city": "ALBANY", "state": "NY", "street": "1475 WESTERN AVE STE 51", "postcode": "12203"}}},
{"geometry": {"type": "Point", "coordinates": [-73.7343694088, 42.6833314081]}, "type": "Feature", "properties": {"collection_times": [{"days": "Mon-Sat", "time": "10:00am"}, {"days": "Sun", "time": "Closed"}], "id": "1220400004", "name": "USPS COLLECTION BOX - BLUE BOX", "address": {"city": "MENANDS", "state": "NY", "street": "7 PARK LN E", "postcode": "12204"}}},
{"geometry": {"type": "Point", "coordinates": [-73.7313709468, 42.6836880799]}, "type": "Feature", "properties": {"collection_times": [{"days": "Mon-Sat", "time": "11:30am"}, {"days": "Sun", "time": "Closed"}], "id": "1220400005", "name": "USPS COLLECTION BOX - BLUE BOX", "address": {"city": "MENANDS", "state": "NY", "street": "1 WARDS LN", "postcode": "12204"}}},
{"geometry": {"type": "Point", "coordinates": [-73.7514258382, 42.6741221929]}, "type": "Feature", "properties": {"collection_times": [{"days": "Mon-Sat", "time": "9:30am"}, {"days": "Sun", "time": "Closed"}], "id": "1220400006", "name": "USPS COLLECTION BOX - BLUE BOX", "address": {"city": "MENANDS", "state": "NY", "street": "1 OLD HICKORY DR", "postcode": "12204"}}},
{"geometry": {"type": "Point", "coordinates": [-73.7211939326, 42.6959509931]}, "type": "Feature", "properties": {"collection_times": [{"days": "Mon-Sat", "time": "9:45am"}, {"days": "Sun", "time": "Closed"}], "id": "1220400007", "name": "USPS COLLECTION BOX - BLUE BOX", "address": {"city": "MENANDS", "state": "NY", "street": "381 BROADWAY", "postcode": "12204"}}},
{"geometry": {"type": "Point", "coordinates": [-73.7173200673, 42.7008298176]}, "type": "Feature", "properties": {"collection_times": [{"days": "Mon-Sat", "time": "10:30am"}, {"days": "Sun", "time": "Closed"}], "id": "1220400008", "name": "USPS COLLECTION BOX - BLUE BOX", "address": {"city": "MENANDS", "state": "NY", "street": "444 BROADWAY", "postcode": "12204"}}},
{"geometry": {"type": "Point", "coordinates": [-73.7145391939, 42.7040146501]}, "type": "Feature", "properties": {"collection_times": [{"days": "Mon-Sat", "time": "11:30am"}, {"days": "Sun", "time": "Closed"}], "id": "1220400009", "name": "USPS COLLECTION BOX - BLUE BOX", "address": {"city": "MENANDS", "state": "NY", "street": "587 BROADWAY", "postcode": "12204"}}},
{"geometry": {"type": "Point", "coordinates": [-73.7248568207, 42.6915129807]}, "type": "Feature", "properties": {"collection_times": [{"days": "Mon-Sat", "time": "11:30am"}, {"days": "Sun", "time": "Closed"}], "id": "1220400011", "name": "USPS COLLECTION BOX - BLUE BOX", "address": {"city": "MENANDS", "state": "NY", "street": "242 BROADWAY", "postcode": "12204"}}},
{"geometry": {"type": "Point", "coordinates": [-73.7489974643, 42.6728577178]}, "type": "Feature", "properties": {"collection_times": [{"days": "Mon-Fri", "time": "10:00am"}, {"days": "Sat", "time": "9:00am"}, {"days": "Sun", "time": "Closed"}], "id": "1220400013", "name": "USPS COLLECTION BOX - BLUE BOX", "address": {"city": "MENANDS", "state": "NY", "street": "63 SHAKER RD", "postcode": "12204"}}},
{"geometry": {"type": "Point", "coordinates": [-73.7418086486, 42.6835943308]}, "type": "Feature", "properties": {"collection_times": [{"days": "Mon-Sat", "time": "11:30am"}, {"days": "Sun", "time": "Closed"}], "id": "1220400014", "name": "USPS COLLECTION BOX - BLUE BOX", "address": {"city": "MENANDS", "state": "NY", "street": "185 VAN RENSSELAER BLVD", "postcode": "12204"}}},
{"geometry": {"type": "Point", "coordinates": [-73.7371458178, 42.677233278]}, "type": "Feature", "properties": {"collection_times": [{"days": "Mon-Sat", "time": "9:00am"}, {"days": "Sun", "time": "Closed"}], "id": "1220400016", "name": "USPS COLLECTION BOX - BLUE BOX", "address": {"city": "MENANDS", "state": "NY", "street": "698 N PEARL ST", "postcode": "12204"}}},
{"geometry": {"type": "Point", "coordinates": [-73.7570155602, 42.6678916561]}, "type": "Feature", "properties": {"collection_times": [{"days": "Mon-Fri", "time": "3:00pm"}, {"days": "Sat", "time": "10:00am"}, {"days": "Sun", "time": "Closed"}], "id": "1220400018", "name": "USPS COLLECTION BOX - BLUE BOX", "address": {"city": "MENANDS", "state": "NY", "street": "350 NORTHERN BLVD", "postcode": "12204"}}},
{"geometry": {"type": "Point", "coordinates": [-73.7570155602, 42.6678916561]}, "type": "Feature", "properties": {"collection_times": [{"days": "Mon-Fri", "time": "3:00pm"}, {"days": "Sat", "time": "10:00am"}, {"days": "Sun", "time": "Closed"}], "id": "1220400019", "name": "USPS COLLECTION BOX - BLUE BOX", "address": {"city": "MENANDS", "state": "NY", "street": "350 NORTHERN BLVD", "postcode": "12204"}}},
{"geometry": {"type": "Point", "coordinates": [-73.7374742611, 42.6731439939]}, "type": "Feature", "properties": {"collection_times": [{"days": "Mon-Sat", "time": "10:30am"}, {"days": "Sun", "time": "Closed"}], "id": "1220400020", "name": "USPS COLLECTION BOX - BLUE BOX", "address": {"city": "MENANDS", "state": "NY", "street": "1226 BROADWAY", "postcode": "12204"}}},
{"geometry": {"type": "Point", "coordinates": [-73.7316854035, 42.6825779331]}, "type": "Feature", "properties": {"collection_times": [{"days": "Mon-Sat", "time": "9:30am"}, {"days": "Sun", "time": "Closed"}], "id": "1220400023", "name": "USPS COLLECTION BOX - BLUE BOX", "address": {"city": "MENANDS", "state": "NY", "street": "100 BROADWAY", "postcode": "12204"}}},
{"geometry": {"type": "Point", "coordinates": [-73.7282661085, 42.6873122934]}, "type": "Feature", "properties": {"collection_times": [{"days": "Mon-Fri", "time": "9:30am"}, {"days": "Sat-Sun", "time": "Closed"}], "id": "1220400024", "name": "USPS COLLECTION BOX - BLUE BOX", "address": {"city": "MENANDS", "state": "NY", "street": "150 BROADWAY", "postcode": "12204"}}},
{"geometry": {"type": "Point", "coordinates": [-73.7357211159, 42.6794408844]}, "type": "Feature", "properties": {"collection_times": [{"days": "Mon-Fri", "time": "2:30pm"}, {"days": "Sat-Sun", "time": "Closed"}], "id": "1220400026", "name": "USPS COLLECTION BOX - BLUE BOX", "address": {"city": "MENANDS", "state": "NY", "street": "800 N PEARL ST", "postcode": "12204"}}},
{"geometry": {"type": "Point", "coordinates": [-73.7430858688, 42.6639662323]}, "type": "Feature", "properties": {"collection_times": [{"days": "Mon-Fri", "time": "10:30am"}, {"days": "Sat", "time": "9:30am"}, {"days": "Sun", "time": "Closed"}], "id": "1220400027", "name": "USPS COLLECTION BOX - BLUE BOX", "address": {"city": "MENANDS", "state": "NY", "street": "991 BROADWAY", "postcode": "12204"}}},
{"geometry": {"type": "Point", "coordinates": [-73.8069955765, 42.694935281]}, "type": "Feature", "properties": {"collection_times": [{"days": "Mon-Sat", "time": "10:00am"}, {"days": "Sun", "time": "Closed"}], "id": "1220500004", "name": "USPS COLLECTION BOX - BLUE BOX", "address": {"city": "ALBANY", "state": "NY", "street": "1208 CENTRAL AVE", "postcode": "12205"}}},
{"geometry": {"type": "Point", "coordinates": [-73.8131173891, 42.7003295738]}, "type": "Feature", "properties": {"collection_times": [{"days": "Mon-Sat", "time": "10:00am"}, {"days": "Sun", "time": "Closed"}], "id": "1220500006", "name": "USPS COLLECTION BOX - BLUE BOX", "address": {"city": "ALBANY", "state": "NY", "street": "1295 CENTRAL AVE", "postcode": "12205"}}},
{"geometry": {"type": "Point", "coordinates": [-73.8273590321, 42.7127660214]}, "type": "Feature", "properties": {"collection_times": [{"days": "Mon-Fri", "time": "1:00pm"}, {"days": "Sat-Sun", "time": "Closed"}], "id": "1220500008", "name": "USPS COLLECTION BOX - BLUE BOX", "address": {"city": "ALBANY", "state": "NY", "street": "1500 CENTRAL AVE", "postcode": "12205"}}},
{"geometry": {"type": "Point", "coordinates": [-73.8408282029, 42.7245743178]}, "type": "Feature", "properties": {"collection_times": [{"days": "Mon-Sat", "time": "10:00am"}, {"days": "Sun", "time": "Closed"}], "id": "1220500010", "name": "USPS COLLECTION BOX - BLUE BOX", "address": {"city": "ALBANY", "state": "NY", "street": "1719 CENTRAL AVE", "postcode": "12205"}}},
{"geometry": {"type": "Point", "coordinates": [-73.8218184525, 42.7146838774]}, "type": "Feature", "properties": {"collection_times": [{"days": "Mon-Fri", "time": "5:00pm"}, {"days": "Sat-Sun", "time": "Closed"}], "id": "1220500013", "name": "USPS COLLECTION BOX - EXPRESS", "address": {"city": "ALBANY", "state": "NY", "street": "14 COMPUTER DR E", "postcode": "12205"}}},
{"geometry": {"type": "Point", "coordinates": [-73.8053556057, 42.7157221901]}, "type": "Feature", "properties": {"collection_times": [{"days": "Mon-Fri", "time": "5:00pm"}, {"days": "Sat-Sun", "time": "Closed"}], "id": "1220500014", "name": "USPS COLLECTION BOX - BLUE BOX", "address": {"city": "ALBANY", "state": "NY", "street": "14 COMPUTER DR E", "postcode": "12205"}}},
{"geometry": {"type": "Point", "coordinates": [-73.8053556057, 42.7157221901]}, "type": "Feature", "properties": {"collection_times": [{"days": "Mon-Fri", "time": "5:00pm"}, {"days": "Sat-Sun", "time": "Closed"}], "id": "1220500015", "name": "USPS COLLECTION BOX - BLUE BOX", "address": {"city": "ALBANY", "state": "NY", "street": "14 COMPUTER DR E", "postcode": "12205"}}},
{"geometry": {"type": "Point", "coordinates": [-73.8110578576, 42.7186855481]}, "type": "Feature", "properties": {"collection_times": [{"days": "Mon-Fri", "time": "4:30pm"}, {"days": "Sat-Sun", "time": "Closed"}], "id": "1220500016", "name": "USPS COLLECTION BOX - BLUE BOX", "address": {"city": "ALBANY", "state": "NY", "street": "2 COMPUTER DR W", "postcode": "12205"}}},
{"geometry": {"type": "Point", "coordinates": [-73.8110578576, 42.7186855481]}, "type": "Feature", "properties": {"collection_times": [{"days": "Mon-Fri", "time": "4:30pm"}, {"days": "Sat-Sun", "time": "Closed"}], "id": "1220500017", "name": "USPS COLLECTION BOX - BLUE BOX", "address": {"city": "ALBANY", "state": "NY", "street": "2 COMPUTER DR W", "postcode": "12205"}}},
{"geometry": {"type": "Point", "coordinates": [-73.8110578576, 42.7186855481]}, "type": "Feature", "properties": {"collection_times": [{"days": "Mon-Fri", "time": "4:30pm"}, {"days": "Sat-Sun", "time": "Closed"}], "id": "1220500018", "name": "USPS COLLECTION BOX - BLUE BOX", "address": {"city": "ALBANY", "state": "NY", "street": "2 COMPUTER DR W", "postcode": "12205"}}},
{"geometry": {"type": "Point", "coordinates": [-73.8194994527, 42.7013587481]}, "type": "Feature", "properties": {"collection_times": [{"days": "Mon-Sat", "time": "10:00am"}, {"days": "Sun", "time": "Closed"}], "id": "1220500023", "name": "USPS COLLECTION BOX - BLUE BOX", "address": {"city": "ALBANY", "state": "NY", "street": "35 FULLER RD", "postcode": "12205"}}},
{"geometry": {"type": "Point", "coordinates": [-73.837220178, 42.7198353842]}, "type": "Feature", "properties": {"collection_times": [{"days": "Mon-Fri", "time": "4:05pm"}, {"days": "Sat", "time": "10:00am"}, {"days": "Sun", "time": "Closed"}], "id": "1220500026", "name": "USPS COLLECTION BOX - BLUE BOX", "address": {"city": "ALBANY", "state": "NY", "street": "1 JUPITER LN", "postcode": "12205"}}},
{"geometry": {"type": "Point", "coordinates": [-73.7979873439, 42.7222308761]}, "type": "Feature", "properties": {"collection_times": [{"days": "Mon-Fri", "time": "5:20pm"}, {"days": "Sat-Sun", "time": "Closed"}], "id": "1220500027", "name": "USPS COLLECTION BOX - BLUE BOX", "address": {"city": "ALBANY", "state": "NY", "street": "1 MARCUS BLVD", "postcode": "12205"}}},
{"geometry": {"type": "Point", "coordinates": [-73.7979873439, 42.7222308761]}, "type": "Feature", "properties": {"collection_times": [{"days": "Mon-Fri", "time": "5:20pm"}, {"days": "Sat-Sun", "time": "Closed"}], "id": "1220500028", "name": "USPS COLLECTION BOX - BLUE BOX", "address": {"city": "ALBANY", "state": "NY", "street": "1 MARCUS BLVD", "postcode": "12205"}}},
{"geometry": {"type": "Point", "coordinates": [-73.79835341, 42.722527799]}, "type": "Feature", "properties": {"collection_times": [{"days": "Mon-Fri", "time": "5:20pm"}, {"days": "Sat-Sun", "time": "Closed"}], "id": "1220500029", "name": "USPS COLLECTION BOX - BLUE BOX", "address": {"city": "ALBANY", "state": "NY", "street": "1 MARCUS BLVD", "postcode": "12205"}}},
{"geometry": {"type": "Point", "coordinates": [-73.8414788303, 42.7407631113]}, "type": "Feature", "properties": {"collection_times": [{"days": "Mon-Fri", "time": "4:15pm"}, {"days": "Sat-Sun", "time": "Closed"}], "id": "1220500032", "name": "USPS COLLECTION BOX - BLUE BOX", "address": {"city": "ALBANY", "state": "NY", "street": "450 NEW KARNER RD", "postcode": "12205"}}},
{"geometry": {"type": "Point", "coordinates": [-73.8218184525, 42.7146838774]}, "type": "Feature", "properties": {"collection_times": [{"days": "Mon-Fri", "time": "4:15pm"}, {"days": "Sat-Sun", "time": "Closed"}], "id": "1220500033", "name": "USPS COLLECTION BOX - EXPRESS", "address": {"city": "ALBANY", "state": "NY", "street": "450 NEW KARNER RD", "postcode": "12205"}}},
{"geometry": {"type": "Point", "coordinates": [-73.8489196422, 42.7289489001]}, "type": "Feature", "properties": {"collection_times": [{"days": "Mon-Fri", "time": "6:30pm"}, {"days": "Sat", "time": "5:00pm"}, {"days": "Sun", "time": "Closed"}], "id": "1220500034", "name": "USPS COLLECTION BOX - BLUE BOX", "address": {"city": "ALBANY", "state": "NY", "street": "30 OLD KARNER RD", "postcode": "12205"}}},
{"geometry": {"type": "Point", "coordinates": [-73.8489196422, 42.7289489001]}, "type": "Feature", "properties": {"collection_times": [{"days": "Mon-Fri", "time": "6:30pm"}, {"days": "Sat", "time": "5:00pm"}, {"days": "Sun", "time": "Closed"}], "id": "1220500035", "name": "USPS COLLECTION BOX - BLUE BOX", "address": {"city": "ALBANY", "state": "NY", "street": "30 OLD KARNER RD", "postcode": "12205"}}},
{"geometry": {"type": "Point", "coordinates": [-73.8218184525, 42.7146838774]}, "type": "Feature", "properties": {"collection_times": [{"days": "Mon-Fri", "time": "6:30pm"}, {"days": "Sat", "time": "5:00pm"}, {"days": "Sun", "time": "Closed"}], "id": "1220500037", "name": "USPS COLLECTION BOX - EXPRESS", "address": {"city": "ALBANY", "state": "NY", "street": "30 OLD KARNER RD", "postcode": "12205"}}},
{"geometry": {"type": "Point", "coordinates": [-73.8122597439, 42.7149852525]}, "type": "Feature", "properties": {"collection_times": [{"days": "Mon-Fri", "time": "4:15pm"}, {"days": "Sat-Sun", "time": "Closed"}], "id": "1220500039", "name": "USPS COLLECTION BOX - BLUE BOX", "address": {"city": "ALBANY", "state": "NY", "street": "80 WOLF RD", "postcode": "12205"}}},
{"geometry": {"type": "Point", "coordinates": [-73.8109080092, 42.7158917553]}, "type": "Feature", "properties": {"collection_times": [{"days": "Mon-Fri", "time": "4:30pm"}, {"days": "Sat-Sun", "time": "Closed"}], "id": "1220500040", "name": "USPS COLLECTION BOX - BLUE BOX", "address": {"city": "ALBANY", "state": "NY", "street": "96 WOLF RD", "postcode": "12205"}}},
{"geometry": {"type": "Point", "coordinates": [-73.8080648412, 42.7175741397]}, "type": "Feature", "properties": {"collection_times": [{"days": "Mon-Fri", "time": "4:30pm"}, {"days": "Sat-Sun", "time": "Closed"}], "id": "1220500041", "name": "USPS COLLECTION BOX - BLUE BOX", "address": {"city": "ALBANY", "state": "NY", "street": "125 WOLF RD", "postcode": "12205"}}},
{"geometry": {"type": "Point", "coordinates": [-73.8212076455, 42.7074320595]}, "type": "Feature", "properties": {"collection_times": [{"days": "Mon-Fri", "time": "4:30pm"}, {"days": "Sat-Sun", "time": "Closed"}], "id": "1220500043", "name": "USPS COLLECTION BOX - BLUE BOX", "address": {"city": "ALBANY", "state": "NY", "street": "1425 CENTRAL AVE", "postcode": "12205"}}},
{"geometry": {"type": "Point", "coordinates": [-73.8651190823, 42.7105799133]}, "type": "Feature", "properties": {"collection_times": [{"days": "Mon-Fri", "time": "4:15pm"}, {"days": "Sat-Sun", "time": "Closed"}], "id": "1220500055", "name": "USPS COLLECTION BOX - BLUE BOX", "address": {"city": "ALBANY", "state": "NY", "street": "1 UNITED WAY", "postcode": "12205"}}},
{"geometry": {"type": "Point", "coordinates": [-73.8651190823, 42.7105799133]}, "type": "Feature", "properties": {"collection_times": [{"days": "Mon-Fri", "time": "4:15pm"}, {"days": "Sat-Sun", "time": "Closed"}], "id": "1220500056", "name": "USPS COLLECTION BOX - BLUE BOX", "address": {"city": "ALBANY", "state": "NY", "street": "1 UNITED WAY", "postcode": "12205"}}},
{"geometry": {"type": "Point", "coordinates": [-73.8651190823, 42.7105799133]}, "type": "Feature", "properties": {"collection_times": [{"days": "Mon-Fri", "time": "4:15pm"}, {"days": "Sat-Sun", "time": "Closed"}], "id": "1220500057", "name": "USPS COLLECTION BOX - BLUE BOX", "address": {"city": "ALBANY", "state": "NY", "street": "1 UNITED WAY", "postcode": "12205"}}},
{"geometry": {"type": "Point", "coordinates": [-73.8218184525, 42.7146838774]}, "type": "Feature", "properties": {"collection_times": [{"days": "Mon-Fri", "time": "4:15pm"}, {"days": "Sat-Sun", "time": "Closed"}], "id": "1220500058", "name": "USPS COLLECTION BOX - EXPRESS", "address": {"city": "ALBANY", "state": "NY", "street": "1 UNITED WAY", "postcode": "12205"}}},
{"geometry": {"type": "Point", "coordinates": [-73.8073918677, 42.7122088478]}, "type": "Feature", "properties": {"collection_times": [{"days": "Mon-Sat", "time": "10:00am"}, {"days": "Sun", "time": "Closed"}], "id": "1220500062", "name": "USPS COLLECTION BOX - BLUE BOX", "address": {"city": "ALBANY", "state": "NY", "street": "420 SAND CREEK RD", "postcode": "12205"}}},
{"geometry": {"type": "Point", "coordinates": [-73.7762149842, 42.6888974584]}, "type": "Feature", "properties": {"collection_times": [{"days": "Mon-Fri", "time": "3:00pm"}, {"days": "Sat-Sun", "time": "Closed"}], "id": "1220500064", "name": "USPS COLLECTION BOX - BLUE BOX", "address": {"city": "ALBANY", "state": "NY", "street": "3 ATRIUM DR", "postcode": "12205"}}},
{"geometry": {"type": "Point", "coordinates": [-73.7762149842, 42.6888974584]}, "type": "Feature", "properties": {"collection_times": [{"days": "Mon-Fri", "time": "3:00pm"}, {"days": "Sat-Sun", "time": "Closed"}], "id": "1220500065", "name": "USPS COLLECTION BOX - BLUE BOX", "address": {"city": "ALBANY", "state": "NY", "street": "3 ATRIUM DR", "postcode": "12205"}}},
{"geometry": {"type": "Point", "coordinates": [-73.8574795333, 42.7049028932]}, "type": "Feature", "properties": {"collection_times": [{"days": "Mon-Fri", "time": "4:15pm"}, {"days": "Sat-Sun", "time": "Closed"}], "id": "1220500066", "name": "USPS COLLECTION BOX - BLUE BOX", "address": {"city": "ALBANY", "state": "NY", "street": "255 WASHINGTON AVENUE EXT", "postcode": "12205"}}},
{"geometry": {"type": "Point", "coordinates": [-73.8574795333, 42.7049028932]}, "type": "Feature", "properties": {"collection_times": [{"days": "Mon-Fri", "time": "4:15pm"}, {"days": "Sat-Sun", "time": "Closed"}], "id": "1220500067", "name": "USPS COLLECTION BOX - BLUE BOX", "address": {"city": "ALBANY", "state": "NY", "street": "255 WASHINGTON AVENUE EXT", "postcode": "12205"}}},
{"geometry": {"type": "Point", "coordinates": [-73.7982919139, 42.7192873266]}, "type": "Feature", "properties": {"collection_times": [{"days": "Mon-Fri", "time": "4:45pm"}, {"days": "Sat-Sun", "time": "Closed"}], "id": "1220500070", "name": "USPS COLLECTION BOX - BLUE BOX", "address": {"city": "ALBANY", "state": "NY", "street": "2 WINNERS CIR", "postcode": "12205"}}},
{"geometry": {"type": "Point", "coordinates": [-73.8425896288, 42.7396878016]}, "type": "Feature", "properties": {"collection_times": [{"days": "Mon-Fri", "time": "2:30pm"}, {"days": "Sat-Sun", "time": "Closed"}], "id": "1220500074", "name": "USPS COLLECTION BOX - BLUE BOX", "address": {"city": "ALBANY", "state": "NY", "street": "435 NEW KARNER RD", "postcode": "12205"}}},
{"geometry": {"type": "Point", "coordinates": [-73.8180065585, 42.7376554781]}, "type": "Feature", "properties": {"collection_times": [{"days": "Mon-Fri", "time": "4:00pm"}, {"days": "Sat-Sun", "time": "Closed"}], "id": "1220500080", "name": "USPS COLLECTION BOX - BLUE BOX", "address": {"city": "ALBANY", "state": "NY", "street": "6 AIRLINE DR", "postcode": "12205"}}},
{"geometry": {"type": "Point", "coordinates": [-73.8180065585, 42.7376554781]}, "type": "Feature", "properties": {"collection_times": [{"days": "Mon-Fri", "time": "4:00pm"}, {"days": "Sat-Sun", "time": "Closed"}], "id": "1220500081", "name": "USPS COLLECTION BOX - BLUE BOX", "address": {"city": "ALBANY", "state": "NY", "street": "6 AIRLINE DR", "postcode": "12205"}}},
{"geometry": {"type": "Point", "coordinates": [-73.7865658751, 42.6930366318]}, "type": "Feature", "properties": {"collection_times": [{"days": "Mon-Fri", "time": "10:00am"}, {"days": "Sat-Sun", "time": "Closed"}], "id": "1220500083", "name": "USPS COLLECTION BOX - BLUE BOX", "address": {"city": "ALBANY", "state": "NY", "street": "136 SAND CREEK RD", "postcode": "12205"}}},
{"geometry": {"type": "Point", "coordinates": [-73.8422865064, 42.7400568299]}, "type": "Feature", "properties": {"collection_times": [{"days": "Mon-Fri", "time": "4:30pm"}, {"days": "Sat-Sun", "time": "Closed"}], "id": "1220500085", "name": "USPS COLLECTION BOX - BLUE BOX", "address": {"city": "ALBANY", "state": "NY", "street": "1 WEMBLEY CT", "postcode": "12205"}}},
{"geometry": {"type": "Point", "coordinates": [-73.8422865064, 42.7400568299]}, "type": "Feature", "properties": {"collection_times": [{"days": "Mon-Fri", "time": "4:30pm"}, {"days": "Sat-Sun", "time": "Closed"}], "id": "1220500086", "name": "USPS COLLECTION BOX - BLUE BOX", "address": {"city": "ALBANY", "state": "NY", "street": "1 WEMBLEY CT", "postcode": "12205"}}},
{"geometry": {"type": "Point", "coordinates": [-73.8393341257, 42.743307656]}, "type": "Feature", "properties": {"collection_times": [{"days": "Mon-Fri", "time": "4:20pm"}, {"days": "Sat-Sun", "time": "Closed"}], "id": "1220500090", "name": "USPS COLLECTION BOX - BLUE BOX", "address": {"city": "ALBANY", "state": "NY", "street": "501 NEW KARNER RD", "postcode": "12205"}}},
{"geometry": {"type": "Point", "coordinates": [-73.7753051671, 42.7036066226]}, "type": "Feature", "properties": {"collection_times": [{"days": "Mon-Sat", "time": "10:00am"}, {"days": "Sun", "time": "Closed"}], "id": "1220500105", "name": "USPS COLLECTION BOX - BLUE BOX", "address": {"city": "ALBANY", "state": "NY", "street": "101 SHAKER RUN", "postcode": "12205"}}},
{"geometry": {"type": "Point", "coordinates": [-73.8218184525, 42.7146838774]}, "type": "Feature", "properties": {"collection_times": [{"days": "Mon-Fri", "time": "4:00pm"}, {"days": "Sat-Sun", "time": "Closed"}], "id": "1220500113", "name": "USPS COLLECTION BOX - EXPRESS", "address": {"city": "ALBANY", "state": "NY", "street": "6 AIRLINE DR", "postcode": "12205"}}},
{"geometry": {"type": "Point", "coordinates": [-73.819376792, 42.735201747]}, "type": "Feature", "properties": {"collection_times": [{"days": "Mon-Fri", "time": "4:05pm"}, {"days": "Sat-Sun", "time": "Closed"}], "id": "1220500116", "name": "USPS COLLECTION BOX - BLUE BOX", "address": {"city": "ALBANY", "state": "NY", "street": "10 AIRLINE DR", "postcode": "12205"}}},
{"geometry": {"type": "Point", "coordinates": [-73.817584993, 42.738341714]}, "type": "Feature", "properties": {"collection_times": [{"days": "Mon-Fri", "time": "4:00pm"}, {"days": "Sat-Sun", "time": "Closed"}], "id": "1220500117", "name": "USPS COLLECTION BOX - BLUE BOX", "address": {"city": "ALBANY", "state": "NY", "street": "4 AIRLINE DR", "postcode": "12205"}}},
{"geometry": {"type": "Point", "coordinates": [-73.7983197554, 42.7187375983]}, "type": "Feature", "properties": {"collection_times": [{"days": "Mon-Fri", "time": "10:30am"}, {"days": "Sat-Sun", "time": "Closed"}], "id": "1220500118", "name": "USPS COLLECTION BOX - BLUE BOX", "address": {"city": "ALBANY", "state": "NY", "street": "6 WINNERS CIR", "postcode": "12205"}}},
{"geometry": {"type": "Point", "coordinates": [-73.8017219454, 42.7224118688]}, "type": "Feature", "properties": {"collection_times": [{"days": "Mon-Fri", "time": "12:00pm"}, {"days": "Sat-Sun", "time": "Closed"}], "id": "1220500121", "name": "USPS COLLECTION BOX - BLUE BOX", "address": {"city": "ALBANY", "state": "NY", "street": "187 WOLF RD", "postcode": "12205"}}},
{"geometry": {"type": "Point", "coordinates": [-73.822091097, 42.738901281]}, "type": "Feature", "properties": {"collection_times": [{"days": "Mon-Fri", "time": "3:50pm"}, {"days": "Sat-Sun", "time": "Closed"}], "id": "1220500123", "name": "USPS COLLECTION BOX - BLUE BOX", "address": {"city": "ALBANY", "state": "NY", "street": "900 WATERVLIET SHAKER RD", "postcode": "12205"}}},
{"geometry": {"type": "Point", "coordinates": [-73.8151899332, 42.7131705934]}, "type": "Feature", "properties": {"collection_times": [{"days": "Mon-Fri", "time": "4:15pm"}, {"days": "Sat-Sun", "time": "Closed"}], "id": "1220500124", "name": "USPS COLLECTION BOX - BLUE BOX", "address": {"city": "ALBANY", "state": "NY", "street": "50 WOLF RD", "postcode": "12205"}}},
{"geometry": {"type": "Point", "coordinates": [-73.8130115427, 42.714576442]}, "type": "Feature", "properties": {"collection_times": [{"days": "Mon-Fri", "time": "4:15pm"}, {"days": "Sat-Sun", "time": "Closed"}], "id": "1220500127", "name": "USPS COLLECTION BOX - BLUE BOX", "address": {"city": "ALBANY", "state": "NY", "street": "1 PARK PL", "postcode": "12205"}}},
{"geometry": {"type": "Point", "coordinates": [-73.7982919139, 42.7192873266]}, "type": "Feature", "properties": {"collection_times": [{"days": "Mon-Fri", "time": "4:45pm"}, {"days": "Sat-Sun", "time": "Closed"}], "id": "1220500133", "name": "USPS COLLECTION BOX - BLUE BOX", "address": {"city": "ALBANY", "state": "NY", "street": "2 WINNERS CIR", "postcode": "12205"}}},
{"geometry": {"type": "Point", "coordinates": [-73.821053962, 42.707318155]}, "type": "Feature", "properties": {"collection_times": [{"days": "Mon-Sat", "time": "8:00pm"}, {"days": "Sun", "time": "Closed"}], "id": "1220500134", "name": "USPS COLLECTION BOX - PO LOBBY", "address": {"city": "ALBANY", "state": "NY", "street": "1425 CENTRAL AVE", "postcode": "12205"}}},
{"geometry": {"type": "Point", "coordinates": [-73.849420236, 42.728683289]}, "type": "Feature", "properties": {"collection_times": [{"days": "Mon-Fri", "time": "6:00pm"}, {"days": "Sat", "time": "2:00pm"}, {"days": "Sun", "time": "Closed"}], "id": "1220500135", "name": "USPS COLLECTION BOX - PO LOBBY", "address": {"city": "ALBANY", "state": "NY", "street": "30 KARNER RD", "postcode": "12205"}}},
{"geometry": {"type": "Point", "coordinates": [-73.8373320991, 42.7432850124]}, "type": "Feature", "properties": {"collection_times": [{"days": "Mon-Fri", "time": "4:00pm"}, {"days": "Sat-Sun", "time": "Closed"}], "id": "1220500138", "name": "USPS COLLECTION BOX - BLUE BOX", "address": {"city": "ALBANY", "state": "NY", "street": "1021 WATERVLIET SHAKER RD", "postcode": "12205"}}},
{"geometry": {"type": "Point", "coordinates": [-73.7527377876, 42.6448136123]}, "type": "Feature", "properties": {"collection_times": [{"days": "Mon-Sat", "time": "10:00am"}, {"days": "Sun", "time": "Closed"}], "id": "1220600001", "name": "USPS COLLECTION BOX - BLUE BOX", "address": {"city": "ALBANY", "state": "NY", "street": "1 BLEEKER ST", "postcode": "12206"}}},
{"geometry": {"type": "Point", "coordinates": [-73.7839124982, 42.6747350737]}, "type": "Feature", "properties": {"collection_times": [{"days": "Mon-Sat", "time": "9:30am"}, {"days": "Sun", "time": "Closed"}], "id": "1220600002", "name": "USPS COLLECTION BOX - BLUE BOX", "address": {"city": "ALBANY", "state": "NY", "street": "670 CENTRAL AVE", "postcode": "12206"}}},
{"geometry": {"type": "Point", "coordinates": [-73.7906506324, 42.6806214775]}, "type": "Feature", "properties": {"collection_times": [{"days": "Mon-Fri", "time": "11:30am"}, {"days": "Sat", "time": "10:00am"}, {"days": "Sun", "time": "Closed"}], "id": "1220600004", "name": "USPS COLLECTION BOX - BLUE BOX", "address": {"city": "ALBANY", "state": "NY", "street": "900 CENTRAL AVE", "postcode": "12206"}}},
{"geometry": {"type": "Point", "coordinates": [-73.7894735883, 42.6795887543]}, "type": "Feature", "properties": {"collection_times": [{"days": "Mon-Fri", "time": "11:30am"}, {"days": "Sat", "time": "10:00am"}, {"days": "Sun", "time": "Closed"}], "id": "1220600005", "name": "USPS COLLECTION BOX - BLUE BOX", "address": {"city": "ALBANY", "state": "NY", "street": "818 CENTRAL AVE", "postcode": "12206"}}},
{"geometry": {"type": "Point", "coordinates": [-73.7797066592, 42.6710035371]}, "type": "Feature", "properties": {"collection_times": [{"days": "Mon-Fri", "time": "11:00am"}, {"days": "Sat", "time": "9:30am"}, {"days": "Sun", "time": "Closed"}], "id": "1220600006", "name": "USPS COLLECTION BOX - EXPRESS", "address": {"city": "ALBANY", "state": "NY", "street": "911 CENTRAL AVE", "postcode": "12206"}}},
{"geometry": {"type": "Point", "coordinates": [-73.7915964268, 42.6815369727]}, "type": "Feature", "properties": {"collection_times": [{"days": "Mon-Fri", "time": "11:00am"}, {"days": "Sat", "time": "9:30am"}, {"days": "Sun", "time": "Closed"}], "id": "1220600008", "name": "USPS COLLECTION BOX - BLUE BOX", "address": {"city": "ALBANY", "state": "NY", "street": "911 CENTRAL AVE", "postcode": "12206"}}},
{"geometry": {"type": "Point", "coordinates": [-73.7892180691, 42.679366358]}, "type": "Feature", "properties": {"collection_times": [{"days": "Mon-Fri", "time": "1:40pm"}, {"days": "Sat", "time": "9:30am"}, {"days": "Sun", "time": "Closed"}], "id": "1220600009", "name": "USPS COLLECTION BOX - BLUE BOX", "address": {"city": "ALBANY", "state": "NY", "street": "845 CENTRAL AVE", "postcode": "12206"}}},
{"geometry": {"type": "Point", "coordinates": [-73.7892180691, 42.679366358]}, "type": "Feature", "properties": {"collection_times": [{"days": "Mon-Fri", "time": "1:40pm"}, {"days": "Sat", "time": "9:30am"}, {"days": "Sun", "time": "Closed"}], "id": "1220600010", "name": "USPS COLLECTION BOX - BLUE BOX", "address": {"city": "ALBANY", "state": "NY", "street": "845 CENTRAL AVE", "postcode": "12206"}}},
{"geometry": {"type": "Point", "coordinates": [-73.7899645162, 42.6800181684]}, "type": "Feature", "properties": {"collection_times": [{"days": "Mon-Fri", "time": "1:35pm"}, {"days": "Sat", "time": "9:30am"}, {"days": "Sun", "time": "Closed"}], "id": "1220600011", "name": "USPS COLLECTION BOX - BLUE BOX", "address": {"city": "ALBANY", "state": "NY", "street": "855 CENTRAL AVE", "postcode": "12206"}}},
{"geometry": {"type": "Point", "coordinates": [-73.7899645162, 42.6800181684]}, "type": "Feature", "properties": {"collection_times": [{"days": "Mon-Fri", "time": "1:35pm"}, {"days": "Sat", "time": "9:30am"}, {"days": "Sun", "time": "Closed"}], "id": "1220600012", "name": "USPS COLLECTION BOX - BLUE BOX", "address": {"city": "ALBANY", "state": "NY", "street": "855 CENTRAL AVE", "postcode": "12206"}}},
{"geometry": {"type": "Point", "coordinates": [-73.77558692, 42.6673823534]}, "type": "Feature", "properties": {"collection_times": [{"days": "Mon-Sat", "time": "10:00am"}, {"days": "Sun", "time": "Closed"}], "id": "1220600013", "name": "USPS COLLECTION BOX - BLUE BOX", "address": {"city": "ALBANY", "state": "NY", "street": "400 CENTRAL AVE", "postcode": "12206"}}},
{"geometry": {"type": "Point", "coordinates": [-73.7823651879, 42.6733865004]}, "type": "Feature", "properties": {"collection_times": [{"days": "Mon-Sat", "time": "9:30am"}, {"days": "Sun", "time": "Closed"}], "id": "1220600015", "name": "USPS COLLECTION BOX - BLUE BOX", "address": {"city": "ALBANY", "state": "NY", "street": "622 CENTRAL AVE", "postcode": "12206"}}},
{"geometry": {"type": "Point", "coordinates": [-73.7771447899, 42.6734799542]}, "type": "Feature", "properties": {"collection_times": [{"days": "Mon-Sat", "time": "10:00am"}, {"days": "Sun", "time": "Closed"}], "id": "1220600020", "name": "USPS COLLECTION BOX - BLUE BOX", "address": {"city": "ALBANY", "state": "NY", "street": "20 N MANNING BLVD", "postcode": "12206"}}},
{"geometry": {"type": "Point", "coordinates": [-73.7652110999, 42.6583759341]}, "type": "Feature", "properties": {"collection_times": [{"days": "Mon-Sat", "time": "10:00am"}, {"days": "Sun", "time": "Closed"}], "id": "1220600023", "name": "USPS COLLECTION BOX - BLUE BOX", "address": {"city": "ALBANY", "state": "NY", "street": "40 CENTRAL AVE", "postcode": "12206"}}},
{"geometry": {"type": "Point", "coordinates": [-73.76725697, 42.660229584]}, "type": "Feature", "properties": {"collection_times": [{"days": "Mon-Sat", "time": "10:00am"}, {"days": "Sun", "time": "Closed"}], "id": "1220600024", "name": "USPS COLLECTION BOX - BLUE BOX", "address": {"city": "ALBANY", "state": "NY", "street": "123 CENTRAL AVE", "postcode": "12206"}}},
{"geometry": {"type": "Point", "coordinates": [-73.7689953856, 42.661694134]}, "type": "Feature", "properties": {"collection_times": [{"days": "Mon-Sat", "time": "10:00am"}, {"days": "Sun", "time": "Closed"}], "id": "1220600025", "name": "USPS COLLECTION BOX - BLUE BOX", "address": {"city": "ALBANY", "state": "NY", "street": "183 CENTRAL AVE", "postcode": "12206"}}},
{"geometry": {"type": "Point", "coordinates": [-73.7711010526, 42.6635383671]}, "type": "Feature", "properties": {"collection_times": [{"days": "Mon-Sat", "time": "10:00am"}, {"days": "Sun", "time": "Closed"}], "id": "1220600026", "name": "USPS COLLECTION BOX - BLUE BOX", "address": {"city": "ALBANY", "state": "NY", "street": "271 CENTRAL AVE", "postcode": "12206"}}},
{"geometry": {"type": "Point", "coordinates": [-73.768725671, 42.6650762137]}, "type": "Feature", "properties": {"collection_times": [{"days": "Mon-Sat", "time": "10:00am"}, {"days": "Sun", "time": "Closed"}], "id": "1220600027", "name": "USPS COLLECTION BOX - BLUE BOX", "address": {"city": "ALBANY", "state": "NY", "street": "538 CLINTON AVE", "postcode": "12206"}}},
{"geometry": {"type": "Point", "coordinates": [-73.7846258224, 42.6690840787]}, "type": "Feature", "properties": {"collection_times": [{"days": "Mon-Sat", "time": "9:00am"}, {"days": "Sun", "time": "Closed"}], "id": "1220600029", "name": "USPS COLLECTION BOX - BLUE BOX", "address": {"city": "ALBANY", "state": "NY", "street": "785 WASHINGTON AVE", "postcode": "12206"}}},
{"geometry": {"type": "Point", "coordinates": [-73.7709238535, 42.6612374139]}, "type": "Feature", "properties": {"collection_times": [{"days": "Mon-Sat", "time": "10:00am"}, {"days": "Sun", "time": "Closed"}], "id": "1220600030", "name": "USPS COLLECTION BOX - BLUE BOX", "address": {"city": "ALBANY", "state": "NY", "street": "405 WASHINGTON AVE", "postcode": "12206"}}},
{"geometry": {"type": "Point", "coordinates": [-73.7754602564, 42.6637844225]}, "type": "Feature", "properties": {"collection_times": [{"days": "Mon-Sat", "time": "10:00am"}, {"days": "Sun", "time": "Closed"}], "id": "1220600032", "name": "USPS COLLECTION BOX - BLUE BOX", "address": {"city": "ALBANY", "state": "NY", "street": "517 WASHINGTON AVE", "postcode": "12206"}}},
{"geometry": {"type": "Point", "coordinates": [-73.766472077, 42.65847591]}, "type": "Feature", "properties": {"collection_times": [{"days": "Mon-Sat", "time": "9:00am"}, {"days": "Sun", "time": "Closed"}], "id": "1220600033", "name": "USPS COLLECTION BOX - BLUE BOX", "address": {"city": "ALBANY", "state": "NY", "street": "283 WASHINGTON AVE", "postcode": "12206"}}},
{"geometry": {"type": "Point", "coordinates": [-73.7919686093, 42.6759212809]}, "type": "Feature", "properties": {"collection_times": [{"days": "Mon-Sat", "time": "10:30am"}, {"days": "Sun", "time": "Closed"}], "id": "1220600034", "name": "USPS COLLECTION BOX - BLUE BOX", "address": {"city": "ALBANY", "state": "NY", "street": "26 VER PLANCK ST", "postcode": "12206"}}},
{"geometry": {"type": "Point", "coordinates": [-73.7854335388, 42.6755157807]}, "type": "Feature", "properties": {"collection_times": [{"days": "Mon-Sat", "time": "9:30am"}, {"days": "Sun", "time": "Closed"}], "id": "1220600035", "name": "USPS COLLECTION BOX - BLUE BOX", "address": {"city": "ALBANY", "state": "NY", "street": "21 KING AVE", "postcode": "12206"}}},
{"geometry": {"type": "Point", "coordinates": [-73.7962046248, 42.6780520906]}, "type": "Feature", "properties": {"collection_times": [{"days": "Mon-Fri", "time": "3:30pm"}, {"days": "Sat", "time": "10:30am"}, {"days": "Sun", "time": "Closed"}], "id": "1220600036", "name": "USPS COLLECTION BOX - BLUE BOX", "address": {"city": "ALBANY", "state": "NY", "street": "24 COLVIN AVE", "postcode": "12206"}}},
{"geometry": {"type": "Point", "coordinates": [-73.7962046248, 42.6780520906]}, "type": "Feature", "properties": {"collection_times": [{"days": "Mon-Fri", "time": "3:30pm"}, {"days": "Sat", "time": "10:30am"}, {"days": "Sun", "time": "Closed"}], "id": "1220600037", "name": "USPS COLLECTION BOX - BLUE BOX", "address": {"city": "ALBANY", "state": "NY", "street": "24 COLVIN AVE", "postcode": "12206"}}},
{"geometry": {"type": "Point", "coordinates": [-73.7668913621, 42.6685394349]}, "type": "Feature", "properties": {"collection_times": [{"days": "Mon-Sat", "time": "10:00am"}, {"days": "Sun", "time": "Closed"}], "id": "1220600038", "name": "USPS COLLECTION BOX - BLUE BOX", "address": {"city": "ALBANY", "state": "NY", "street": "467 LIVINGSTON AVE", "postcode": "12206"}}},
{"geometry": {"type": "Point", "coordinates": [-73.7582482034, 42.6659835432]}, "type": "Feature", "properties": {"collection_times": [{"days": "Mon-Sat", "time": "9:30am"}, {"days": "Sun", "time": "Closed"}], "id": "1220600040", "name": "USPS COLLECTION BOX - BLUE BOX", "address": {"city": "ALBANY", "state": "NY", "street": "22 BEVERLY AVE", "postcode": "12206"}}},
{"geometry": {"type": "Point", "coordinates": [-73.7735824094, 42.6652209908]}, "type": "Feature", "properties": {"collection_times": [{"days": "Mon-Sat", "time": "10:00am"}, {"days": "Sun", "time": "Closed"}], "id": "1220600041", "name": "USPS COLLECTION BOX - BLUE BOX", "address": {"city": "ALBANY", "state": "NY", "street": "116 QUAIL ST", "postcode": "12206"}}},
{"geometry": {"type": "Point", "coordinates": [-73.7814081741, 42.6778628172]}, "type": "Feature", "properties": {"collection_times": [{"days": "Mon-Fri", "time": "1:30pm"}, {"days": "Sat", "time": "10:00am"}, {"days": "Sun", "time": "Closed"}], "id": "1220600049", "name": "USPS COLLECTION BOX - BLUE BOX", "address": {"city": "ALBANY", "state": "NY", "street": "75 WATERVLIET AVE", "postcode": "12206"}}},
{"geometry": {"type": "Point", "coordinates": [-73.7767523416, 42.6684080514]}, "type": "Feature", "properties": {"collection_times": [{"days": "Mon-Fri", "time": "5:30pm"}, {"days": "Sat", "time": "2:30pm"}, {"days": "Sun", "time": "Closed"}], "id": "1220600051", "name": "USPS COLLECTION BOX - BLUE BOX", "address": {"city": "ALBANY", "state": "NY", "street": "450 CENTRAL AVE", "postcode": "12206"}}},
{"geometry": {"type": "Point", "coordinates": [-73.7767523416, 42.6684080514]}, "type": "Feature", "properties": {"collection_times": [{"days": "Mon-Fri", "time": "5:30pm"}, {"days": "Sat", "time": "2:30pm"}, {"days": "Sun", "time": "Closed"}], "id": "1220600052", "name": "USPS COLLECTION BOX - BLUE BOX", "address": {"city": "ALBANY", "state": "NY", "street": "450 CENTRAL AVE", "postcode": "12206"}}},
{"geometry": {"type": "Point", "coordinates": [-73.7652149659, 42.6584686889]}, "type": "Feature", "properties": {"collection_times": [{"days": "Mon-Sat", "time": "10:00am"}, {"days": "Sun", "time": "Closed"}], "id": "1220600054", "name": "USPS COLLECTION BOX - BLUE BOX", "address": {"city": "ALBANY", "state": "NY", "street": "45 CENTRAL AVE", "postcode": "12206"}}},
{"geometry": {"type": "Point", "coordinates": [-73.794640753, 42.6795142279]}, "type": "Feature", "properties": {"collection_times": [{"days": "Mon-Fri", "time": "3:30pm"}, {"days": "Sat", "time": "10:30am"}, {"days": "Sun", "time": "Closed"}], "id": "1220600071", "name": "USPS COLLECTION BOX - BLUE BOX", "address": {"city": "ALBANY", "state": "NY", "street": "63 COLVIN AVE", "postcode": "12206"}}},
{"geometry": {"type": "Point", "coordinates": [-73.8072558274, 42.6827212296]}, "type": "Feature", "properties": {"collection_times": [{"days": "Mon-Fri", "time": "3:50pm"}, {"days": "Sat-Sun", "time": "Closed"}], "id": "1220600075", "name": "USPS COLLECTION BOX - BLUE BOX", "address": {"city": "ALBANY", "state": "NY", "street": "500 PATROON CREEK BLVD", "postcode": "12206"}}},
{"geometry": {"type": "Point", "coordinates": [-73.777046307, 42.668724107]}, "type": "Feature", "properties": {"collection_times": [{"days": "Mon-Fri", "time": "5:00pm"}, {"days": "Sat", "time": "12:00pm"}, {"days": "Sun", "time": "Closed"}], "id": "1220600079", "name": "USPS COLLECTION BOX - PO LOBBY", "address": {"city": "ALBANY", "state": "NY", "street": "450 CENTRAL AVE", "postcode": "12206"}}},
{"geometry": {"type": "Point", "coordinates": [-73.77141767, 42.674316328]}, "type": "Feature", "properties": {"collection_times": [{"days": "Mon-Fri", "time": "5:00pm"}, {"days": "Sat", "time": "3:00pm"}, {"days": "Sun", "time": "Closed"}], "id": "1220600080", "name": "USPS COLLECTION BOX - PO LOBBY", "address": {"city": "ALBANY", "state": "NY", "street": "71 TERMINAL ST", "postcode": "12206"}}},
{"geometry": {"type": "Point", "coordinates": [-73.7792359561, 42.6707722486]}, "type": "Feature", "properties": {"collection_times": [{"days": "Mon-Fri", "time": "10:00am"}, {"days": "Sat-Sun", "time": "Closed"}], "id": "1220600082", "name": "USPS COLLECTION BOX - BLUE BOX", "address": {"city": "ALBANY", "state": "NY", "street": "7A HARRIMAN CAMPUS RD", "postcode": "12206"}}},
{"geometry": {"type": "Point", "coordinates": [-73.7517228224, 42.649131992]}, "type": "Feature", "properties": {"collection_times": [{"days": "Mon-Fri", "time": "4:30pm"}, {"days": "Sat-Sun", "time": "Closed"}], "id": "1220700004", "name": "USPS COLLECTION BOX - BLUE BOX", "address": {"city": "ALBANY", "state": "NY", "street": "54 STATE ST", "postcode": "12207"}}},
{"geometry": {"type": "Point", "coordinates": [-73.753085416, 42.649944681]}, "type": "Feature", "properties": {"collection_times": [{"days": "Mon-Fri", "time": "3:38pm"}, {"days": "Sat-Sun", "time": "Closed"}], "id": "1220700021", "name": "USPS COLLECTION BOX - BLUE BOX", "address": {"city": "ALBANY", "state": "NY", "street": "90 STATE ST", "postcode": "12207"}}},
{"geometry": {"type": "Point", "coordinates": [-73.7484919132, 42.656306907]}, "type": "Feature", "properties": {"collection_times": [{"days": "Mon-Fri", "time": "5:15pm"}, {"days": "Sat", "time": "4:30pm"}, {"days": "Sun", "time": "Closed"}], "id": "1220700030", "name": "USPS COLLECTION BOX - BLUE BOX", "address": {"city": "ALBANY", "state": "NY", "street": "747 BROADWAY", "postcode": "12207"}}},
{"geometry": {"type": "Point", "coordinates": [-73.7524345916, 42.6517715883]}, "type": "Feature", "properties": {"collection_times": [{"days": "Mon-Fri", "time": "4:40pm"}, {"days": "Sat", "time": "9:00am"}, {"days": "Sun", "time": "Closed"}], "id": "1220700033", "name": "USPS COLLECTION BOX - BLUE BOX", "address": {"city": "ALBANY", "state": "NY", "street": "74 CHAPEL ST", "postcode": "12207"}}},
{"geometry": {"type": "Point", "coordinates": [-73.7546243136, 42.6532212461]}, "type": "Feature", "properties": {"collection_times": [{"days": "Mon-Fri", "time": "4:20pm"}, {"days": "Sat", "time": "9:00am"}, {"days": "Sun", "time": "Closed"}], "id": "1220700036", "name": "USPS COLLECTION BOX - BLUE BOX", "address": {"city": "ALBANY", "state": "NY", "street": "17 ELK ST", "postcode": "12207"}}},
{"geometry": {"type": "Point", "coordinates": [-73.7546243136, 42.6532212461]}, "type": "Feature", "properties": {"collection_times": [{"days": "Mon-Fri", "time": "4:20pm"}, {"days": "Sat", "time": "9:00am"}, {"days": "Sun", "time": "Closed"}], "id": "1220700037", "name": "USPS COLLECTION BOX - BLUE BOX", "address": {"city": "ALBANY", "state": "NY", "street": "17 ELK ST", "postcode": "12207"}}},
{"geometry": {"type": "Point", "coordinates": [-73.7520777639, 42.6512807584]}, "type": "Feature", "properties": {"collection_times": [{"days": "Mon-Fri", "time": "4:15pm"}, {"days": "Sat", "time": "9:30am"}, {"days": "Sun", "time": "Closed"}], "id": "1220700044", "name": "USPS COLLECTION BOX - BLUE BOX", "address": {"city": "ALBANY", "state": "NY", "street": "99 PINE ST", "postcode": "12207"}}},
{"geometry": {"type": "Point", "coordinates": [-73.7536547738, 42.6485372644]}, "type": "Feature", "properties": {"collection_times": [{"days": "Mon-Fri", "time": "4:20pm"}, {"days": "Sat", "time": "9:30am"}, {"days": "Sun", "time": "Closed"}], "id": "1220700048", "name": "USPS COLLECTION BOX - BLUE BOX", "address": {"city": "ALBANY", "state": "NY", "street": "40 N PEARL ST", "postcode": "12207"}}},
{"geometry": {"type": "Point", "coordinates": [-73.75472497, 42.650871047]}, "type": "Feature", "properties": {"collection_times": [{"days": "Mon-Fri", "time": "3:50pm"}, {"days": "Sat", "time": "9:00am"}, {"days": "Sun", "time": "Closed"}], "id": "1220700054", "name": "USPS COLLECTION BOX - BLUE BOX", "address": {"city": "ALBANY", "state": "NY", "street": "113 STATE ST", "postcode": "12207"}}},
{"geometry": {"type": "Point", "coordinates": [-73.7501697767, 42.6509363052]}, "type": "Feature", "properties": {"collection_times": [{"days": "Mon-Fri", "time": "3:10pm"}, {"days": "Sat", "time": "9:00am"}, {"days": "Sun", "time": "Closed"}], "id": "1220700055", "name": "USPS COLLECTION BOX - BLUE BOX", "address": {"city": "ALBANY", "state": "NY", "street": "540 BROADWAY", "postcode": "12207"}}},
{"geometry": {"type": "Point", "coordinates": [-73.751301353, 42.649074231]}, "type": "Feature", "properties": {"collection_times": [{"days": "Mon-Fri", "time": "4:15pm"}, {"days": "Sat-Sun", "time": "Closed"}], "id": "1220700065", "name": "USPS COLLECTION BOX - BLUE BOX", "address": {"city": "ALBANY", "state": "NY", "street": "41 STATE ST", "postcode": "12207"}}},
{"geometry": {"type": "Point", "coordinates": [-73.7517856986, 42.647599178]}, "type": "Feature", "properties": {"collection_times": [{"days": "Mon-Fri", "time": "5:10pm"}, {"days": "Sat", "time": "2:00pm"}, {"days": "Sun", "time": "Closed"}], "id": "1220700075", "name": "USPS COLLECTION BOX - BLUE BOX", "address": {"city": "ALBANY", "state": "NY", "street": "45 HUDSON AVE", "postcode": "12207"}}},
{"geometry": {"type": "Point", "coordinates": [-73.7563459224, 42.651234565]}, "type": "Feature", "properties": {"collection_times": [{"days": "Mon-Fri", "time": "3:30pm"}, {"days": "Sat-Sun", "time": "Closed"}], "id": "1220700082", "name": "USPS COLLECTION BOX - BLUE BOX", "address": {"city": "ALBANY", "state": "NY", "street": "150 STATE ST", "postcode": "12207"}}},
{"geometry": {"type": "Point", "coordinates": [-73.7517228224, 42.649131992]}, "type": "Feature", "properties": {"collection_times": [{"days": "Mon-Fri", "time": "4:30pm"}, {"days": "Sat-Sun", "time": "Closed"}], "id": "1220700083", "name": "USPS COLLECTION BOX - BLUE BOX", "address": {"city": "ALBANY", "state": "NY", "street": "54 STATE ST", "postcode": "12207"}}},
{"geometry": {"type": "Point", "coordinates": [-73.7539410498, 42.6503673019]}, "type": "Feature", "properties": {"collection_times": [{"days": "Mon-Fri", "time": "3:55pm"}, {"days": "Sat-Sun", "time": "Closed"}], "id": "1220700084", "name": "USPS COLLECTION BOX - BLUE BOX", "address": {"city": "ALBANY", "state": "NY", "street": "112 STATE ST", "postcode": "12207"}}},
{"geometry": {"type": "Point", "coordinates": [-73.7533270941, 42.650049086]}, "type": "Feature", "properties": {"collection_times": [{"days": "Mon-Fri", "time": "3:33pm"}, {"days": "Sat-Sun", "time": "Closed"}], "id": "1220700094", "name": "USPS COLLECTION BOX - BLUE BOX", "address": {"city": "ALBANY", "state": "NY", "street": "100 STATE ST", "postcode": "12207"}}},
{"geometry": {"type": "Point", "coordinates": [-73.7534158161, 42.6528905534]}, "type": "Feature", "properties": {"collection_times": [{"days": "Mon-Fri", "time": "4:10pm"}, {"days": "Sat", "time": "9:00am"}, {"days": "Sun", "time": "Closed"}], "id": "1220700096", "name": "USPS COLLECTION BOX - BLUE BOX", "address": {"city": "ALBANY", "state": "NY", "street": "107 COLUMBIA ST", "postcode": "12207"}}},
{"geometry": {"type": "Point", "coordinates": [-73.7534158161, 42.6528905534]}, "type": "Feature", "properties": {"collection_times": [{"days": "Mon-Fri", "time": "4:10pm"}, {"days": "Sat", "time": "9:00am"}, {"days": "Sun", "time": "Closed"}], "id": "1220700097", "name": "USPS COLLECTION BOX - BLUE BOX", "address": {"city": "ALBANY", "state": "NY", "street": "107 COLUMBIA ST", "postcode": "12207"}}},
{"geometry": {"type": "Point", "coordinates": [-73.7546243136, 42.6532212461]}, "type": "Feature", "properties": {"collection_times": [{"days": "Mon-Fri", "time": "4:20pm"}, {"days": "Sat", "time": "9:00am"}, {"days": "Sun", "time": "Closed"}], "id": "1220700100", "name": "USPS COLLECTION BOX - BLUE BOX", "address": {"city": "ALBANY", "state": "NY", "street": "17 ELK ST", "postcode": "12207"}}},
{"geometry": {"type": "Point", "coordinates": [-73.7523748122, 42.6496669902]}, "type": "Feature", "properties": {"collection_times": [{"days": "Mon-Fri", "time": "4:22pm"}, {"days": "Sat-Sun", "time": "Closed"}], "id": "1220700110", "name": "USPS COLLECTION BOX - BLUE BOX", "address": {"city": "ALBANY", "state": "NY", "street": "69 STATE ST", "postcode": "12207"}}},
{"geometry": {"type": "Point", "coordinates": [-73.7523748122, 42.6496669902]}, "type": "Feature", "properties": {"collection_times": [{"days": "Mon-Fri", "time": "4:22pm"}, {"days": "Sat-Sun", "time": "Closed"}], "id": "1220700112", "name": "USPS COLLECTION BOX - BLUE BOX", "address": {"city": "ALBANY", "state": "NY", "street": "69 STATE ST", "postcode": "12207"}}},
{"geometry": {"type": "Point", "coordinates": [-73.7501697767, 42.6509363052]}, "type": "Feature", "properties": {"collection_times": [{"days": "Mon-Fri", "time": "3:10pm"}, {"days": "Sat", "time": "9:00am"}, {"days": "Sun", "time": "Closed"}], "id": "1220700118", "name": "USPS COLLECTION BOX - BLUE BOX", "address": {"city": "ALBANY", "state": "NY", "street": "540 BROADWAY", "postcode": "12207"}}},
{"geometry": {"type": "Point", "coordinates": [-73.7524339601, 42.6495759024]}, "type": "Feature", "properties": {"collection_times": [{"days": "Mon-Fri", "time": "4:35pm"}, {"days": "Sat-Sun", "time": "Closed"}], "id": "1220700121", "name": "USPS COLLECTION BOX - BLUE BOX", "address": {"city": "ALBANY", "state": "NY", "street": "80 STATE ST", "postcode": "12207"}}},
{"geometry": {"type": "Point", "coordinates": [-73.734678929, 42.6776226765]}, "type": "Feature", "properties": {"collection_times": [{"days": "Mon-Fri", "time": "3:00pm"}, {"days": "Sat-Sun", "time": "Closed"}], "id": "1220700125", "name": "USPS COLLECTION BOX - BLUE BOX", "address": {"city": "ALBANY", "state": "NY", "street": "1 BROADWAY", "postcode": "12207"}}},
{"geometry": {"type": "Point", "coordinates": [-73.7517856986, 42.647599178]}, "type": "Feature", "properties": {"collection_times": [{"days": "Mon-Fri", "time": "5:10pm"}, {"days": "Sat", "time": "2:00pm"}, {"days": "Sun", "time": "Closed"}], "id": "1220700144", "name": "USPS COLLECTION BOX - BLUE BOX", "address": {"city": "ALBANY", "state": "NY", "street": "45 HUDSON AVE", "postcode": "12207"}}},
{"geometry": {"type": "Point", "coordinates": [-73.7505193229, 42.647768078]}, "type": "Feature", "properties": {"collection_times": [{"days": "Mon-Fri", "time": "3:20pm"}, {"days": "Sat", "time": "9:00am"}, {"days": "Sun", "time": "Closed"}], "id": "1220700146", "name": "USPS COLLECTION BOX - BLUE BOX", "address": {"city": "ALBANY", "state": "NY", "street": "388 BROADWAY", "postcode": "12207"}}},
{"geometry": {"type": "Point", "coordinates": [-73.7520777639, 42.6512807584]}, "type": "Feature", "properties": {"collection_times": [{"days": "Mon-Fri", "time": "4:15pm"}, {"days": "Sat", "time": "9:30am"}, {"days": "Sun", "time": "Closed"}], "id": "1220700147", "name": "USPS COLLECTION BOX - BLUE BOX", "address": {"city": "ALBANY", "state": "NY", "street": "99 PINE ST", "postcode": "12207"}}},
{"geometry": {"type": "Point", "coordinates": [-73.750881918, 42.652498994]}, "type": "Feature", "properties": {"collection_times": [{"days": "Mon-Fri", "time": "4:35pm"}, {"days": "Sat", "time": "9:30am"}, {"days": "Sun", "time": "Closed"}], "id": "1220700153", "name": "USPS COLLECTION BOX - BLUE BOX", "address": {"city": "ALBANY", "state": "NY", "street": "79 N PEARL ST", "postcode": "12207"}}},
{"geometry": {"type": "Point", "coordinates": [-73.7536370294, 42.6502099684]}, "type": "Feature", "properties": {"collection_times": [{"days": "Mon-Fri", "time": "4:00pm"}, {"days": "Sat-Sun", "time": "Closed"}], "id": "1220700157", "name": "USPS COLLECTION BOX - BLUE BOX", "address": {"city": "ALBANY", "state": "NY", "street": "110 STATE ST", "postcode": "12207"}}},
{"geometry": {"type": "Point", "coordinates": [-73.750881918, 42.652498994]}, "type": "Feature", "properties": {"collection_times": [{"days": "Mon-Fri", "time": "4:35pm"}, {"days": "Sat", "time": "9:30am"}, {"days": "Sun", "time": "Closed"}], "id": "1220700158", "name": "USPS COLLECTION BOX - BLUE BOX", "address": {"city": "ALBANY", "state": "NY", "street": "79 N PEARL ST", "postcode": "12207"}}},
{"geometry": {"type": "Point", "coordinates": [-73.7569031511, 42.6515563037]}, "type": "Feature", "properties": {"collection_times": [{"days": "Mon-Fri", "time": "3:20pm"}, {"days": "Sat-Sun", "time": "Closed"}], "id": "1220700160", "name": "USPS COLLECTION BOX - BLUE BOX", "address": {"city": "ALBANY", "state": "NY", "street": "158 STATE ST", "postcode": "12207"}}},
{"geometry": {"type": "Point", "coordinates": [-73.7513163932, 42.651981103]}, "type": "Feature", "properties": {"collection_times": [{"days": "Mon-Fri", "time": "11:00am"}, {"days": "Sat", "time": "10:00am"}, {"days": "Sun", "time": "Closed"}], "id": "1220700162", "name": "USPS COLLECTION BOX - BLUE BOX", "address": {"city": "ALBANY", "state": "NY", "street": "920 LARK DR", "postcode": "12207"}}},
{"geometry": {"type": "Point", "coordinates": [-73.753085416, 42.649944681]}, "type": "Feature", "properties": {"collection_times": [{"days": "Mon-Fri", "time": "3:38pm"}, {"days": "Sat-Sun", "time": "Closed"}], "id": "1220700163", "name": "USPS COLLECTION BOX - BLUE BOX", "address": {"city": "ALBANY", "state": "NY", "street": "90 STATE ST", "postcode": "12207"}}},
{"geometry": {"type": "Point", "coordinates": [-73.751438256, 42.647676724]}, "type": "Feature", "properties": {"collection_times": [{"days": "Mon-Fri", "time": "5:30pm"}, {"days": "Sat", "time": "12:00pm"}, {"days": "Sun", "time": "Closed"}], "id": "1220700164", "name": "USPS COLLECTION BOX - PO LOBBY", "address": {"city": "ALBANY", "state": "NY", "street": "45 HUDSON AVE", "postcode": "12207"}}},
{"geometry": {"type": "Point", "coordinates": [-73.748524334, 42.656338897]}, "type": "Feature", "properties": {"collection_times": [{"days": "Mon-Fri", "time": "5:15pm"}, {"days": "Sat", "time": "1:00pm"}, {"days": "Sun", "time": "Closed"}], "id": "1220700165", "name": "USPS COLLECTION BOX - PO LOBBY", "address": {"city": "ALBANY", "state": "NY", "street": "747 BROADWAY", "postcode": "12207"}}},
{"geometry": {"type": "Point", "coordinates": [-73.7739738926, 42.6532442981]}, "type": "Feature", "properties": {"collection_times": [{"days": "Mon-Fri", "time": "2:40pm"}, {"days": "Sat-Sun", "time": "Closed"}], "id": "1220800005", "name": "USPS COLLECTION BOX - BLUE BOX", "address": {"city": "ALBANY", "state": "NY", "street": "47 NEW SCOTLAND AVE", "postcode": "12208"}}},
{"geometry": {"type": "Point", "coordinates": [-73.7739323672, 42.6532784413]}, "type": "Feature", "properties": {"collection_times": [{"days": "Mon-Fri", "time": "1:25pm"}, {"days": "Sat-Sun", "time": "Closed"}], "id": "1220800006", "name": "USPS COLLECTION BOX - BLUE BOX", "address": {"city": "ALBANY", "state": "NY", "street": "43 NEW SCOTLAND AVE", "postcode": "12208"}}},
{"geometry": {"type": "Point", "coordinates": [-73.813236868, 42.6602118865]}, "type": "Feature", "properties": {"collection_times": [{"days": "Mon-Sat", "time": "11:30am"}, {"days": "Sun", "time": "Closed"}], "id": "1220800008", "name": "USPS COLLECTION BOX - BLUE BOX", "address": {"city": "ALBANY", "state": "NY", "street": "33 BUCKINGHAM DR", "postcode": "12208"}}},
{"geometry": {"type": "Point", "coordinates": [-73.7792812138, 42.6450084978]}, "type": "Feature", "properties": {"collection_times": [{"days": "Mon-Fri", "time": "2:30pm"}, {"days": "Sat", "time": "9:30am"}, {"days": "Sun", "time": "Closed"}], "id": "1220800009", "name": "USPS COLLECTION BOX - BLUE BOX", "address": {"city": "ALBANY", "state": "NY", "street": "25 HACKETT BLVD", "postcode": "12208"}}},
{"geometry": {"type": "Point", "coordinates": [-73.811996215, 42.6523199093]}, "type": "Feature", "properties": {"collection_times": [{"days": "Mon-Sat", "time": "10:00am"}, {"days": "Sun", "time": "Closed"}], "id": "1220800010", "name": "USPS COLLECTION BOX - BLUE BOX", "address": {"city": "ALBANY", "state": "NY", "street": "22 PICOTTE DR", "postcode": "12208"}}},
{"geometry": {"type": "Point", "coordinates": [-73.8140176209, 42.6547998492]}, "type": "Feature", "properties": {"collection_times": [{"days": "Mon-Sat", "time": "10:30am"}, {"days": "Sun", "time": "Closed"}], "id": "1220800012", "name": "USPS COLLECTION BOX - BLUE BOX", "address": {"city": "ALBANY", "state": "NY", "street": "428 HACKETT BLVD", "postcode": "12208"}}},
{"geometry": {"type": "Point", "coordinates": [-73.791527205, 42.6469864052]}, "type": "Feature", "properties": {"collection_times": [{"days": "Mon-Sat", "time": "10:00am"}, {"days": "Sun", "time": "Closed"}], "id": "1220800014", "name": "USPS COLLECTION BOX - BLUE BOX", "address": {"city": "ALBANY", "state": "NY", "street": "131 HACKETT BLVD", "postcode": "12208"}}},
{"geometry": {"type": "Point", "coordinates": [-73.8019463838, 42.6524977724]}, "type": "Feature", "properties": {"collection_times": [{"days": "Mon-Sat", "time": "9:00am"}, {"days": "Sun", "time": "Closed"}], "id": "1220800015", "name": "USPS COLLECTION BOX - BLUE BOX", "address": {"city": "ALBANY", "state": "NY", "street": "307 S MAIN AVE", "postcode": "12208"}}},
{"geometry": {"type": "Point", "coordinates": [-73.808479007, 42.6511350423]}, "type": "Feature", "properties": {"collection_times": [{"days": "Mon-Sat", "time": "10:00am"}, {"days": "Sun", "time": "Closed"}], "id": "1220800019", "name": "USPS COLLECTION BOX - BLUE BOX", "address": {"city": "ALBANY", "state": "NY", "street": "359 S MANNING BLVD", "postcode": "12208"}}},
{"geometry": {"type": "Point", "coordinates": [-73.8213578813, 42.6627552482]}, "type": "Feature", "properties": {"collection_times": [{"days": "Mon-Sat", "time": "9:30am"}, {"days": "Sun", "time": "Closed"}], "id": "1220800020", "name": "USPS COLLECTION BOX - BLUE BOX", "address": {"city": "ALBANY", "state": "NY", "street": "115 KRUMKILL RD", "postcode": "12208"}}},
{"geometry": {"type": "Point", "coordinates": [-73.7842945939, 42.6619390065]}, "type": "Feature", "properties": {"collection_times": [{"days": "Mon-Sat", "time": "9:30am"}, {"days": "Sun", "time": "Closed"}], "id": "1220800024", "name": "USPS COLLECTION BOX - BLUE BOX", "address": {"city": "ALBANY", "state": "NY", "street": "908 MADISON AVE", "postcode": "12208"}}},
{"geometry": {"type": "Point", "coordinates": [-73.7800714304, 42.6595139407]}, "type": "Feature", "properties": {"collection_times": [{"days": "Mon-Sat", "time": "10:00am"}, {"days": "Sun", "time": "Closed"}], "id": "1220800025", "name": "USPS COLLECTION BOX - BLUE BOX", "address": {"city": "ALBANY", "state": "NY", "street": "790 MADISON AVE", "postcode": "12208"}}},
{"geometry": {"type": "Point", "coordinates": [-73.7745895986, 42.6563838312]}, "type": "Feature", "properties": {"collection_times": [{"days": "Mon-Sat", "time": "10:30am"}, {"days": "Sun", "time": "Closed"}], "id": "1220800026", "name": "USPS COLLECTION BOX - BLUE BOX", "address": {"city": "ALBANY", "state": "NY", "street": "628 MADISON AVE", "postcode": "12208"}}},
{"geometry": {"type": "Point", "coordinates": [-73.7776298031, 42.6581168661]}, "type": "Feature", "properties": {"collection_times": [{"days": "Mon-Sat", "time": "10:00am"}, {"days": "Sun", "time": "Closed"}], "id": "1220800027", "name": "USPS COLLECTION BOX - BLUE BOX", "address": {"city": "ALBANY", "state": "NY", "street": "714 MADISON AVE", "postcode": "12208"}}},
{"geometry": {"type": "Point", "coordinates": [-73.8001214019, 42.6629397898]}, "type": "Feature", "properties": {"collection_times": [{"days": "Mon-Sat", "time": "11:30am"}, {"days": "Sun", "time": "Closed"}], "id": "1220800032", "name": "USPS COLLECTION BOX - BLUE BOX", "address": {"city": "ALBANY", "state": "NY", "street": "153 S MANNING BLVD", "postcode": "12208"}}},
{"geometry": {"type": "Point", "coordinates": [-73.7960898778, 42.6626842707]}, "type": "Feature", "properties": {"collection_times": [{"days": "Mon-Sat", "time": "10:30am"}, {"days": "Sun", "time": "Closed"}], "id": "1220800034", "name": "USPS COLLECTION BOX - BLUE BOX", "address": {"city": "ALBANY", "state": "NY", "street": "133 S ALLEN ST", "postcode": "12208"}}},
{"geometry": {"type": "Point", "coordinates": [-73.7815158233, 42.6578353219]}, "type": "Feature", "properties": {"collection_times": [{"days": "Mon-Sat", "time": "10:00am"}, {"days": "Sun", "time": "Closed"}], "id": "1220800036", "name": "USPS COLLECTION BOX - BLUE BOX", "address": {"city": "ALBANY", "state": "NY", "street": "299 QUAIL ST", "postcode": "12208"}}},
{"geometry": {"type": "Point", "coordinates": [-73.790805264, 42.6626996499]}, "type": "Feature", "properties": {"collection_times": [{"days": "Mon-Sat", "time": "9:00am"}, {"days": "Sun", "time": "Closed"}], "id": "1220800038", "name": "USPS COLLECTION BOX - BLUE BOX", "address": {"city": "ALBANY", "state": "NY", "street": "40 S MAIN AVE", "postcode": "12208"}}},
{"geometry": {"type": "Point", "coordinates": [-73.7951529743, 42.6656357533]}, "type": "Feature", "properties": {"collection_times": [{"days": "Mon-Sat", "time": "11:30am"}, {"days": "Sun", "time": "Closed"}], "id": "1220800039", "name": "USPS COLLECTION BOX - BLUE BOX", "address": {"city": "ALBANY", "state": "NY", "street": "51 S PINE AVE", "postcode": "12208"}}},
{"geometry": {"type": "Point", "coordinates": [-73.7879428394, 42.6531094008]}, "type": "Feature", "properties": {"collection_times": [{"days": "Mon-Sat", "time": "11:00am"}, {"days": "Sun", "time": "Closed"}], "id": "1220800042", "name": "USPS COLLECTION BOX - BLUE BOX", "address": {"city": "ALBANY", "state": "NY", "street": "279 NEW SCOTLAND AVE", "postcode": "12208"}}},
{"geometry": {"type": "Point", "coordinates": [-73.8090787672, 42.6593353139]}, "type": "Feature", "properties": {"collection_times": [{"days": "Mon-Sat", "time": "9:30am"}, {"days": "Sun", "time": "Closed"}], "id": "1220800046", "name": "USPS COLLECTION BOX - BLUE BOX", "address": {"city": "ALBANY", "state": "NY", "street": "713 NEW SCOTLAND AVE", "postcode": "12208"}}},
{"geometry": {"type": "Point", "coordinates": [-73.8164817244, 42.6563720017]}, "type": "Feature", "properties": {"collection_times": [{"days": "Mon-Sat", "time": "10:00am"}, {"days": "Sun", "time": "Closed"}], "id": "1220800048", "name": "USPS COLLECTION BOX - BLUE BOX", "address": {"city": "ALBANY", "state": "NY", "street": "820 NEW SCOTLAND AVE", "postcode": "12208"}}},
{"geometry": {"type": "Point", "coordinates": [-73.8121816686, 42.6589295589]}, "type": "Feature", "properties": {"collection_times": [{"days": "Mon-Sat", "time": "11:30am"}, {"days": "Sun", "time": "Closed"}], "id": "1220800049", "name": "USPS COLLECTION BOX - BLUE BOX", "address": {"city": "ALBANY", "state": "NY", "street": "764 NEW SCOTLAND AVE", "postcode": "12208"}}},
{"geometry": {"type": "Point", "coordinates": [-73.7906245472, 42.6532297294]}, "type": "Feature", "properties": {"collection_times": [{"days": "Mon-Sat", "time": "10:00am"}, {"days": "Sun", "time": "Closed"}], "id": "1220800050", "name": "USPS COLLECTION BOX - BLUE BOX", "address": {"city": "ALBANY", "state": "NY", "street": "350 NEW SCOTLAND AVE", "postcode": "12208"}}},
{"geometry": {"type": "Point", "coordinates": [-73.7942247499, 42.654204455]}, "type": "Feature", "properties": {"collection_times": [{"days": "Mon-Sat", "time": "10:30am"}, {"days": "Sun", "time": "Closed"}], "id": "1220800053", "name": "USPS COLLECTION BOX - BLUE BOX", "address": {"city": "ALBANY", "state": "NY", "street": "409 NEW SCOTLAND AVE", "postcode": "12208"}}},
{"geometry": {"type": "Point", "coordinates": [-73.7827188926, 42.6529911049]}, "type": "Feature", "properties": {"collection_times": [{"days": "Mon-Sat", "time": "9:30am"}, {"days": "Sun", "time": "Closed"}], "id": "1220800054", "name": "USPS COLLECTION BOX - BLUE BOX", "address": {"city": "ALBANY", "state": "NY", "street": "161 S LAKE AVE", "postcode": "12208"}}},
{"geometry": {"type": "Point", "coordinates": [-73.8413948402, 42.64886731]}, "type": "Feature", "properties": {"collection_times": [{"days": "Mon-Sat", "time": "11:30am"}, {"days": "Sun", "time": "Closed"}], "id": "1220800055", "name": "USPS COLLECTION BOX - BLUE BOX", "address": {"city": "ALBANY", "state": "NY", "street": "1146 NEW SCOTLAND RD", "postcode": "12208"}}},
{"geometry": {"type": "Point", "coordinates": [-73.8038181487, 42.6577607955]}, "type": "Feature", "properties": {"collection_times": [{"days": "Mon-Sat", "time": "2:30pm"}, {"days": "Sun", "time": "Closed"}], "id": "1220800058", "name": "USPS COLLECTION BOX - BLUE BOX", "address": {"city": "ALBANY", "state": "NY", "street": "315 S MANNING BLVD", "postcode": "12208"}}},
{"geometry": {"type": "Point", "coordinates": [-73.8176008036, 42.6548317891]}, "type": "Feature", "properties": {"collection_times": [{"days": "Mon-Sat", "time": "10:00am"}, {"days": "Sun", "time": "Closed"}], "id": "1220800068", "name": "USPS COLLECTION BOX - BLUE BOX", "address": {"city": "ALBANY", "state": "NY", "street": "875 NEW SCOTLAND AVE", "postcode": "12208"}}},
{"geometry": {"type": "Point", "coordinates": [-73.8263607721, 42.6524552367]}, "type": "Feature", "properties": {"collection_times": [{"days": "Mon-Sat", "time": "11:30am"}, {"days": "Sun", "time": "Closed"}], "id": "1220800072", "name": "USPS COLLECTION BOX - BLUE BOX", "address": {"city": "ALBANY", "state": "NY", "street": "979 NEW SCOTLAND RD", "postcode": "12208"}}},
{"geometry": {"type": "Point", "coordinates": [-73.7762809625, 42.6515412245]}, "type": "Feature", "properties": {"collection_times": [{"days": "Mon-Fri", "time": "2:50pm"}, {"days": "Sat-Sun", "time": "Closed"}], "id": "1220800073", "name": "USPS COLLECTION BOX - BLUE BOX", "address": {"city": "ALBANY", "state": "NY", "street": "113 HOLLAND AVE", "postcode": "12208"}}},
{"geometry": {"type": "Point", "coordinates": [-73.7742752641, 42.6530207158]}, "type": "Feature", "properties": {"collection_times": [{"days": "Mon-Fri", "time": "2:50pm"}, {"days": "Sat-Sun", "time": "Closed"}], "id": "1220800076", "name": "USPS COLLECTION BOX - BLUE BOX", "address": {"city": "ALBANY", "state": "NY", "street": "75 NEW SCOTLAND AVE", "postcode": "12208"}}},
{"geometry": {"type": "Point", "coordinates": [-73.7780095329, 42.6525664227]}, "type": "Feature", "properties": {"collection_times": [{"days": "Mon-Fri", "time": "2:30pm"}, {"days": "Sat-Sun", "time": "Closed"}], "id": "1220800079", "name": "USPS COLLECTION BOX - BLUE BOX", "address": {"city": "ALBANY", "state": "NY", "street": "106 NEW SCOTLAND AVE", "postcode": "12208"}}},
{"geometry": {"type": "Point", "coordinates": [-73.801674627, 42.6564512599]}, "type": "Feature", "properties": {"collection_times": [{"days": "Mon-Fri", "time": "5:30pm"}, {"days": "Sat", "time": "3:00pm"}, {"days": "Sun", "time": "Closed"}], "id": "1220800081", "name": "USPS COLLECTION BOX - BLUE BOX", "address": {"city": "ALBANY", "state": "NY", "street": "563 NEW SCOTLAND AVE", "postcode": "12208"}}},
{"geometry": {"type": "Point", "coordinates": [-73.7890166648, 42.6645731726]}, "type": "Feature", "properties": {"collection_times": [{"days": "Mon-Sat", "time": "9:30am"}, {"days": "Sun", "time": "Closed"}], "id": "1220800083", "name": "USPS COLLECTION BOX - BLUE BOX", "address": {"city": "ALBANY", "state": "NY", "street": "1026 MADISON AVE", "postcode": "12208"}}},
{"geometry": {"type": "Point", "coordinates": [-73.7925977829, 42.6659870921]}, "type": "Feature", "properties": {"collection_times": [{"days": "Mon-Sat", "time": "10:00am"}, {"days": "Sun", "time": "Closed"}], "id": "1220800084", "name": "USPS COLLECTION BOX - BLUE BOX", "address": {"city": "ALBANY", "state": "NY", "street": "5 S ALLEN ST", "postcode": "12208"}}},
{"geometry": {"type": "Point", "coordinates": [-73.8016696776, 42.656485919]}, "type": "Feature", "properties": {"collection_times": [{"days": "Mon-Fri", "time": "5:00pm"}, {"days": "Sat", "time": "12:00pm"}, {"days": "Sun", "time": "Closed"}], "id": "1220800086", "name": "USPS COLLECTION BOX - PO LOBBY", "address": {"city": "ALBANY", "state": "NY", "street": "563 NEW SCOTLAND AVE", "postcode": "12208"}}},
{"geometry": {"type": "Point", "coordinates": [-73.7703892873, 42.6451556662]}, "type": "Feature", "properties": {"collection_times": [{"days": "Mon-Sat", "time": "10:30am"}, {"days": "Sun", "time": "Closed"}], "id": "1220900002", "name": "USPS COLLECTION BOX - BLUE BOX", "address": {"city": "ALBANY", "state": "NY", "street": "300 MORTON AVE", "postcode": "12209"}}},
{"geometry": {"type": "Point", "coordinates": [-73.7752863614, 42.6437285362]}, "type": "Feature", "properties": {"collection_times": [{"days": "Mon-Sat", "time": "11:30am"}, {"days": "Sun", "time": "Closed"}], "id": "1220900003", "name": "USPS COLLECTION BOX - BLUE BOX", "address": {"city": "ALBANY", "state": "NY", "street": "249 DELAWARE AVE", "postcode": "12209"}}},
{"geometry": {"type": "Point", "coordinates": [-73.7790919404, 42.6368519958]}, "type": "Feature", "properties": {"collection_times": [{"days": "Mon-Sat", "time": "9:30am"}, {"days": "Sun", "time": "Closed"}], "id": "1220900005", "name": "USPS COLLECTION BOX - BLUE BOX", "address": {"city": "ALBANY", "state": "NY", "street": "342 LEEDALE ST", "postcode": "12209"}}},
{"geometry": {"type": "Point", "coordinates": [-73.7826550128, 42.6366485268]}, "type": "Feature", "properties": {"collection_times": [{"days": "Mon-Sat", "time": "11:30am"}, {"days": "Sun", "time": "Closed"}], "id": "1220900006", "name": "USPS COLLECTION BOX - BLUE BOX", "address": {"city": "ALBANY", "state": "NY", "street": "104 SOUTHERN BLVD", "postcode": "12209"}}},
{"geometry": {"type": "Point", "coordinates": [-73.7775020436, 42.6390913371]}, "type": "Feature", "properties": {"collection_times": [{"days": "Mon-Sat", "time": "10:15am"}, {"days": "Sun", "time": "Closed"}], "id": "1220900007", "name": "USPS COLLECTION BOX - BLUE BOX", "address": {"city": "ALBANY", "state": "NY", "street": "327 2ND AVE", "postcode": "12209"}}},
{"geometry": {"type": "Point", "coordinates": [-73.7815288359, 42.6393776132]}, "type": "Feature", "properties": {"collection_times": [{"days": "Mon-Sat", "time": "11:30am"}, {"days": "Sun", "time": "Closed"}], "id": "1220900008", "name": "USPS COLLECTION BOX - BLUE BOX", "address": {"city": "ALBANY", "state": "NY", "street": "424 2ND AVE", "postcode": "12209"}}},
{"geometry": {"type": "Point", "coordinates": [-73.7882208347, 42.6418582781]}, "type": "Feature", "properties": {"collection_times": [{"days": "Mon-Sat", "time": "9:30am"}, {"days": "Sun", "time": "Closed"}], "id": "1220900009", "name": "USPS COLLECTION BOX - BLUE BOX", "address": {"city": "ALBANY", "state": "NY", "street": "2 MATILDA ST", "postcode": "12209"}}},
{"geometry": {"type": "Point", "coordinates": [-73.7971462601, 42.6458176418]}, "type": "Feature", "properties": {"collection_times": [{"days": "Mon-Sat", "time": "11:30am"}, {"days": "Sun", "time": "Closed"}], "id": "1220900010", "name": "USPS COLLECTION BOX - BLUE BOX", "address": {"city": "ALBANY", "state": "NY", "street": "230 WHITEHALL RD", "postcode": "12209"}}},
{"geometry": {"type": "Point", "coordinates": [-73.7925528305, 42.6439923361]}, "type": "Feature", "properties": {"collection_times": [{"days": "Mon-Sat", "time": "10:30am"}, {"days": "Sun", "time": "Closed"}], "id": "1220900011", "name": "USPS COLLECTION BOX - BLUE BOX", "address": {"city": "ALBANY", "state": "NY", "street": "171 WHITEHALL RD", "postcode": "12209"}}},
{"geometry": {"type": "Point", "coordinates": [-73.8039411764, 42.6477766218]}, "type": "Feature", "properties": {"collection_times": [{"days": "Mon-Sat", "time": "9:45am"}, {"days": "Sun", "time": "Closed"}], "id": "1220900012", "name": "USPS COLLECTION BOX - BLUE BOX", "address": {"city": "ALBANY", "state": "NY", "street": "6 KENSINGTON PL", "postcode": "12209"}}},
{"geometry": {"type": "Point", "coordinates": [-73.8017254943, 42.6474808821]}, "type": "Feature", "properties": {"collection_times": [{"days": "Mon-Sat", "time": "10:00am"}, {"days": "Sun", "time": "Closed"}], "id": "1220900013", "name": "USPS COLLECTION BOX - BLUE BOX", "address": {"city": "ALBANY", "state": "NY", "street": "289 WHITEHALL RD", "postcode": "12209"}}},
{"geometry": {"type": "Point", "coordinates": [-73.7857914476, 42.6396696049]}, "type": "Feature", "properties": {"collection_times": [{"days": "Mon-Sat", "time": "9:30am"}, {"days": "Sun", "time": "Closed"}], "id": "1220900014", "name": "USPS COLLECTION BOX - BLUE BOX", "address": {"city": "ALBANY", "state": "NY", "street": "485 DELAWARE AVE", "postcode": "12209"}}},
{"geometry": {"type": "Point", "coordinates": [-73.7769389551, 42.6430116631]}, "type": "Feature", "properties": {"collection_times": [{"days": "Mon-Sat", "time": "3:00pm"}, {"days": "Sun", "time": "Closed"}], "id": "1220900018", "name": "USPS COLLECTION BOX - BLUE BOX", "address": {"city": "ALBANY", "state": "NY", "street": "295 DELAWARE AVE", "postcode": "12209"}}},
{"geometry": {"type": "Point", "coordinates": [-73.7893600242, 42.6382786443]}, "type": "Feature", "properties": {"collection_times": [{"days": "Mon-Sat", "time": "11:30am"}, {"days": "Sun", "time": "Closed"}], "id": "1220900023", "name": "USPS COLLECTION BOX - BLUE BOX", "address": {"city": "ALBANY", "state": "NY", "street": "560 DELAWARE AVE", "postcode": "12209"}}},
{"geometry": {"type": "Point", "coordinates": [-73.7489990778, 42.6644272907]}, "type": "Feature", "properties": {"collection_times": [{"days": "Mon-Sat", "time": "11:30am"}, {"days": "Sun", "time": "Closed"}], "id": "1221000009", "name": "USPS COLLECTION BOX - BLUE BOX", "address": {"city": "ALBANY", "state": "NY", "street": "1 DUDLEY HTS", "postcode": "12210"}}},
{"geometry": {"type": "Point", "coordinates": [-73.7581003336, 42.6611026546]}, "type": "Feature", "properties": {"collection_times": [{"days": "Mon-Sat", "time": "11:30am"}, {"days": "Sun", "time": "Closed"}], "id": "1221000011", "name": "USPS COLLECTION BOX - BLUE BOX", "address": {"city": "ALBANY", "state": "NY", "street": "161 2ND ST", "postcode": "12210"}}},
{"geometry": {"type": "Point", "coordinates": [-73.7449918606, 42.6610730038]}, "type": "Feature", "properties": {"collection_times": [{"days": "Mon-Sat", "time": "9:30am"}, {"days": "Sun", "time": "Closed"}], "id": "1221000015", "name": "USPS COLLECTION BOX - BLUE BOX", "address": {"city": "ALBANY", "state": "NY", "street": "900 BROADWAY", "postcode": "12210"}}},
{"geometry": {"type": "Point", "coordinates": [-73.7618254713, 42.6544532422]}, "type": "Feature", "properties": {"collection_times": [{"days": "Mon-Fri", "time": "3:10pm"}, {"days": "Sat", "time": "9:00am"}, {"days": "Sun", "time": "Closed"}], "id": "1221000017", "name": "USPS COLLECTION BOX - BLUE BOX", "address": {"city": "ALBANY", "state": "NY", "street": "289 STATE ST", "postcode": "12210"}}},
{"geometry": {"type": "Point", "coordinates": [-73.7652394909, 42.6548377039]}, "type": "Feature", "properties": {"collection_times": [{"days": "Mon-Sat", "time": "9:00am"}, {"days": "Sun", "time": "Closed"}], "id": "1221000019", "name": "USPS COLLECTION BOX - BLUE BOX", "address": {"city": "ALBANY", "state": "NY", "street": "242 LARK ST", "postcode": "12210"}}},
{"geometry": {"type": "Point", "coordinates": [-73.7660924043, 42.6537174417]}, "type": "Feature", "properties": {"collection_times": [{"days": "Mon-Sat", "time": "9:00am"}, {"days": "Sun", "time": "Closed"}], "id": "1221000020", "name": "USPS COLLECTION BOX - BLUE BOX", "address": {"city": "ALBANY", "state": "NY", "street": "351 HUDSON AVE", "postcode": "12210"}}},
{"geometry": {"type": "Point", "coordinates": [-73.7673262743, 42.6544695448]}, "type": "Feature", "properties": {"collection_times": [{"days": "Mon-Sat", "time": "10:00am"}, {"days": "Sun", "time": "Closed"}], "id": "1221000021", "name": "USPS COLLECTION BOX - BLUE BOX", "address": {"city": "ALBANY", "state": "NY", "street": "72 WILLETT ST", "postcode": "12210"}}},
{"geometry": {"type": "Point", "coordinates": [-73.764055349, 42.6557592289]}, "type": "Feature", "properties": {"collection_times": [{"days": "Mon-Fri", "time": "2:40pm"}, {"days": "Sat", "time": "9:00am"}, {"days": "Sun", "time": "Closed"}], "id": "1221000023", "name": "USPS COLLECTION BOX - BLUE BOX", "address": {"city": "ALBANY", "state": "NY", "street": "348 STATE ST", "postcode": "12210"}}},
{"geometry": {"type": "Point", "coordinates": [-73.7556200264, 42.6574447318]}, "type": "Feature", "properties": {"collection_times": [{"days": "Mon-Fri", "time": "3:00pm"}, {"days": "Sat", "time": "9:00am"}, {"days": "Sun", "time": "Closed"}], "id": "1221000026", "name": "USPS COLLECTION BOX - BLUE BOX", "address": {"city": "ALBANY", "state": "NY", "street": "1 S SWAN ST", "postcode": "12210"}}},
{"geometry": {"type": "Point", "coordinates": [-73.7590221872, 42.66324306]}, "type": "Feature", "properties": {"collection_times": [{"days": "Mon-Fri", "time": "11:00am"}, {"days": "Sat", "time": "11:30am"}, {"days": "Sun", "time": "Closed"}], "id": "1221000028", "name": "USPS COLLECTION BOX - BLUE BOX", "address": {"city": "ALBANY", "state": "NY", "street": "200 HENRY JOHNSON BLVD", "postcode": "12210"}}},
{"geometry": {"type": "Point", "coordinates": [-73.7633904344, 42.6499217375]}, "type": "Feature", "properties": {"collection_times": [{"days": "Mon-Fri", "time": "10:00am"}, {"days": "Sat", "time": "9:00am"}, {"days": "Sun", "time": "Closed"}], "id": "1221000030", "name": "USPS COLLECTION BOX - BLUE BOX", "address": {"city": "ALBANY", "state": "NY", "street": "326 MADISON AVE", "postcode": "12210"}}},
{"geometry": {"type": "Point", "coordinates": [-73.7640328728, 42.6525179213]}, "type": "Feature", "properties": {"collection_times": [{"days": "Mon-Sat", "time": "9:00am"}, {"days": "Sun", "time": "Closed"}], "id": "1221000031", "name": "USPS COLLECTION BOX - BLUE BOX", "address": {"city": "ALBANY", "state": "NY", "street": "296 HUDSON AVE", "postcode": "12210"}}},
{"geometry": {"type": "Point", "coordinates": [-73.7555049216, 42.657401176]}, "type": "Feature", "properties": {"collection_times": [{"days": "Mon-Sat", "time": "9:00am"}, {"days": "Sun", "time": "Closed"}], "id": "1221000032", "name": "USPS COLLECTION BOX - BLUE BOX", "address": {"city": "ALBANY", "state": "NY", "street": "156 CLINTON AVE", "postcode": "12210"}}},
{"geometry": {"type": "Point", "coordinates": [-73.7662024195, 42.6569977869]}, "type": "Feature", "properties": {"collection_times": [{"days": "Mon-Sat", "time": "9:00am"}, {"days": "Sun", "time": "Closed"}], "id": "1221000034", "name": "USPS COLLECTION BOX - BLUE BOX", "address": {"city": "ALBANY", "state": "NY", "street": "399 STATE ST", "postcode": "12210"}}},
{"geometry": {"type": "Point", "coordinates": [-73.7607276751, 42.6559915431]}, "type": "Feature", "properties": {"collection_times": [{"days": "Mon-Fri", "time": "4:30pm"}, {"days": "Sat", "time": "9:30am"}, {"days": "Sun", "time": "Closed"}], "id": "1221000035", "name": "USPS COLLECTION BOX - BLUE BOX", "address": {"city": "ALBANY", "state": "NY", "street": "99 WASHINGTON AVE", "postcode": "12210"}}},
{"geometry": {"type": "Point", "coordinates": [-73.7607170388, 42.6552517395]}, "type": "Feature", "properties": {"collection_times": [{"days": "Mon-Fri", "time": "4:45pm"}, {"days": "Sat", "time": "9:00am"}, {"days": "Sun", "time": "Closed"}], "id": "1221000038", "name": "USPS COLLECTION BOX - BLUE BOX", "address": {"city": "ALBANY", "state": "NY", "street": "125 WASHINGTON AVE", "postcode": "12210"}}},
{"geometry": {"type": "Point", "coordinates": [-73.8553206331, 42.7028102388]}, "type": "Feature", "properties": {"collection_times": [{"days": "Mon-Fri", "time": "2:45pm"}, {"days": "Sat", "time": "9:00am"}, {"days": "Sun", "time": "Closed"}], "id": "1221000039", "name": "USPS COLLECTION BOX - BLUE BOX", "address": {"city": "ALBANY", "state": "NY", "street": "200 WASHINGTON AVE", "postcode": "12210"}}},
{"geometry": {"type": "Point", "coordinates": [-73.8553206331, 42.7028102388]}, "type": "Feature", "properties": {"collection_times": [{"days": "Mon-Fri", "time": "2:45pm"}, {"days": "Sat", "time": "9:00am"}, {"days": "Sun", "time": "Closed"}], "id": "1221000040", "name": "USPS COLLECTION BOX - BLUE BOX", "address": {"city": "ALBANY", "state": "NY", "street": "200 WASHINGTON AVE", "postcode": "12210"}}},
{"geometry": {"type": "Point", "coordinates": [-73.7600912535, 42.6548885711]}, "type": "Feature", "properties": {"collection_times": [{"days": "Mon-Fri", "time": "4:35pm"}, {"days": "Sat-Sun", "time": "Closed"}], "id": "1221000042", "name": "USPS COLLECTION BOX - BLUE BOX", "address": {"city": "ALBANY", "state": "NY", "street": "111 WASHINGTON AVE", "postcode": "12210"}}},
{"geometry": {"type": "Point", "coordinates": [-73.7600912535, 42.6548885711]}, "type": "Feature", "properties": {"collection_times": [{"days": "Mon-Fri", "time": "4:35pm"}, {"days": "Sat-Sun", "time": "Closed"}], "id": "1221000043", "name": "USPS COLLECTION BOX - BLUE BOX", "address": {"city": "ALBANY", "state": "NY", "street": "111 WASHINGTON AVE", "postcode": "12210"}}},
{"geometry": {"type": "Point", "coordinates": [-73.7621212111, 42.6560679812]}, "type": "Feature", "properties": {"collection_times": [{"days": "Mon-Fri", "time": "4:50pm"}, {"days": "Sat", "time": "9:00am"}, {"days": "Sun", "time": "Closed"}], "id": "1221000045", "name": "USPS COLLECTION BOX - BLUE BOX", "address": {"city": "ALBANY", "state": "NY", "street": "155 WASHINGTON AVE", "postcode": "12210"}}},
{"geometry": {"type": "Point", "coordinates": [-73.7601078149, 42.6534560078]}, "type": "Feature", "properties": {"collection_times": [{"days": "Mon-Fri", "time": "3:15pm"}, {"days": "Sat", "time": "9:00am"}, {"days": "Sun", "time": "Closed"}], "id": "1221000084", "name": "USPS COLLECTION BOX - BLUE BOX", "address": {"city": "ALBANY", "state": "NY", "street": "244 STATE ST", "postcode": "12210"}}},
{"geometry": {"type": "Point", "coordinates": [-73.7607276751, 42.6559915431]}, "type": "Feature", "properties": {"collection_times": [{"days": "Mon-Fri", "time": "4:30pm"}, {"days": "Sat", "time": "9:30am"}, {"days": "Sun", "time": "Closed"}], "id": "1221000088", "name": "USPS COLLECTION BOX - BLUE BOX", "address": {"city": "ALBANY", "state": "NY", "street": "99 WASHINGTON AVE", "postcode": "12210"}}},
{"geometry": {"type": "Point", "coordinates": [-73.759753376, 42.6532335046]}, "type": "Feature", "properties": {"collection_times": [{"days": "Mon-Fri", "time": "4:45pm"}, {"days": "Sat-Sun", "time": "Closed"}], "id": "1221000089", "name": "USPS COLLECTION BOX - PO LOBBY", "address": {"city": "ALBANY", "state": "NY", "street": "240 STATE ST", "postcode": "12210"}}},
{"geometry": {"type": "Point", "coordinates": [-73.77800835, 42.7075503554]}, "type": "Feature", "properties": {"collection_times": [{"days": "Mon-Fri", "time": "5:45pm"}, {"days": "Sat", "time": "2:30pm"}, {"days": "Sun", "time": "Closed"}], "id": "1221100001", "name": "USPS COLLECTION BOX - BLUE BOX", "address": {"city": "ALBANY", "state": "NY", "street": "475 ALBANY SHAKER RD", "postcode": "12211"}}},
{"geometry": {"type": "Point", "coordinates": [-73.7942704869, 42.7269662608]}, "type": "Feature", "properties": {"collection_times": [{"days": "Mon-Fri", "time": "3:30pm"}, {"days": "Sat-Sun", "time": "Closed"}], "id": "1221100003", "name": "USPS COLLECTION BOX - BLUE BOX", "address": {"city": "ALBANY", "state": "NY", "street": "645 ALBANY SHAKER RD", "postcode": "12211"}}},
{"geometry": {"type": "Point", "coordinates": [-73.7661681137, 42.6800903289]}, "type": "Feature", "properties": {"collection_times": [{"days": "Mon-Fri", "time": "4:30pm"}, {"days": "Sat-Sun", "time": "Closed"}], "id": "1221100005", "name": "USPS COLLECTION BOX - BLUE BOX", "address": {"city": "ALBANY", "state": "NY", "street": "20 CORPORATE WOODS BLVD", "postcode": "12211"}}},
{"geometry": {"type": "Point", "coordinates": [-73.7684661299, 42.7053942556]}, "type": "Feature", "properties": {"collection_times": [{"days": "Mon-Fri", "time": "4:30pm"}, {"days": "Sat-Sun", "time": "Closed"}], "id": "1221100007", "name": "USPS COLLECTION BOX - EXPRESS", "address": {"city": "ALBANY", "state": "NY", "street": "20 CORPORATE WOODS BLVD", "postcode": "12211"}}},
{"geometry": {"type": "Point", "coordinates": [-73.765973139, 42.684467931]}, "type": "Feature", "properties": {"collection_times": [{"days": "Mon-Fri", "time": "4:00pm"}, {"days": "Sat-Sun", "time": "Closed"}], "id": "1221100008", "name": "USPS COLLECTION BOX - BLUE BOX", "address": {"city": "ALBANY", "state": "NY", "street": "12 CORPORATE WOODS BLVD", "postcode": "12211"}}},
{"geometry": {"type": "Point", "coordinates": [-73.7706881999, 42.683432188]}, "type": "Feature", "properties": {"collection_times": [{"days": "Mon-Fri", "time": "4:00pm"}, {"days": "Sat-Sun", "time": "Closed"}], "id": "1221100012", "name": "USPS COLLECTION BOX - BLUE BOX", "address": {"city": "ALBANY", "state": "NY", "street": "7 SOUTHWOODS BLVD", "postcode": "12211"}}},
{"geometry": {"type": "Point", "coordinates": [-73.7649910695, 42.6825686279]}, "type": "Feature", "properties": {"collection_times": [{"days": "Mon-Fri", "time": "4:00pm"}, {"days": "Sat-Sun", "time": "Closed"}], "id": "1221100013", "name": "USPS COLLECTION BOX - BLUE BOX", "address": {"city": "ALBANY", "state": "NY", "street": "16 CORPORATE WOODS BLVD", "postcode": "12211"}}},
{"geometry": {"type": "Point", "coordinates": [-73.7706881999, 42.683432188]}, "type": "Feature", "properties": {"collection_times": [{"days": "Mon-Fri", "time": "4:00pm"}, {"days": "Sat-Sun", "time": "Closed"}], "id": "1221100015", "name": "USPS COLLECTION BOX - BLUE BOX", "address": {"city": "ALBANY", "state": "NY", "street": "7 SOUTHWOODS BLVD", "postcode": "12211"}}},
{"geometry": {"type": "Point", "coordinates": [-73.7661681137, 42.6800903289]}, "type": "Feature", "properties": {"collection_times": [{"days": "Mon-Fri", "time": "4:30pm"}, {"days": "Sat-Sun", "time": "Closed"}], "id": "1221100016", "name": "USPS COLLECTION BOX - BLUE BOX", "address": {"city": "ALBANY", "state": "NY", "street": "20 CORPORATE WOODS BLVD", "postcode": "12211"}}},
{"geometry": {"type": "Point", "coordinates": [-73.768955165, 42.6829625533]}, "type": "Feature", "properties": {"collection_times": [{"days": "Mon-Fri", "time": "4:00pm"}, {"days": "Sat-Sun", "time": "Closed"}], "id": "1221100017", "name": "USPS COLLECTION BOX - BLUE BOX", "address": {"city": "ALBANY", "state": "NY", "street": "22 CORPORATE WOODS BLVD", "postcode": "12211"}}},
{"geometry": {"type": "Point", "coordinates": [-73.768955165, 42.6829625533]}, "type": "Feature", "properties": {"collection_times": [{"days": "Mon-Fri", "time": "4:00pm"}, {"days": "Sat-Sun", "time": "Closed"}], "id": "1221100018", "name": "USPS COLLECTION BOX - BLUE BOX", "address": {"city": "ALBANY", "state": "NY", "street": "22 CORPORATE WOODS BLVD", "postcode": "12211"}}},
{"geometry": {"type": "Point", "coordinates": [-73.7774567796, 42.7069512533]}, "type": "Feature", "properties": {"collection_times": [{"days": "Mon-Fri", "time": "4:30pm"}, {"days": "Sat", "time": "1:00pm"}, {"days": "Sun", "time": "Closed"}], "id": "1221100019", "name": "USPS COLLECTION BOX - PO LOBBY", "address": {"city": "ALBANY", "state": "NY", "street": "475 ALBANY SHAKER RD", "postcode": "12211"}}},
{"geometry": {"type": "Point", "coordinates": [-73.7645777253, 42.6816321649]}, "type": "Feature", "properties": {"collection_times": [{"days": "Mon-Fri", "time": "4:30pm"}, {"days": "Sat-Sun", "time": "Closed"}], "id": "1221100020", "name": "USPS COLLECTION BOX - BLUE BOX", "address": {"city": "ALBANY", "state": "NY", "street": "18 CORPORATE WOODS BLVD", "postcode": "12211"}}},
{"geometry": {"type": "Point", "coordinates": [-73.7551732979, 42.6515461894]}, "type": "Feature", "properties": {"collection_times": [{"days": "Mon-Fri", "time": "4:00pm"}, {"days": "Sat-Sun", "time": "Closed"}], "id": "1222400002", "name": "USPS COLLECTION BOX - PO LOBBY", "address": {"city": "ALBANY", "state": "NY", "street": "25 EAGLE ST", "postcode": "12224"}}}
]}
