{"type": "FeatureCollection", "features": [
{"geometry": {"type": "Point", "coordinates": [-73.9519459044, 42.8326529977]}, "type": "Feature", "properties": {"collection_times": [{"days": "Mon-Sat", "time": "10:00am"}, {"days": "Sun", "time": "Closed"}], "id": "1230200001", "name": "USPS COLLECTION BOX - BLUE BOX", "address": {"city": "SCHENECTADY", "state": "NY", "street": "301 CAMBRIDGE MANOR DR", "postcode": "12302"}}},
{"geometry": {"type": "Point", "coordinates": [-73.9630870119, 42.8364396494]}, "type": "Feature", "properties": {"collection_times": [{"days": "Mon-Sat", "time": "2:00pm"}, {"days": "Sun", "time": "Closed"}], "id": "1230200006", "name": "USPS COLLECTION BOX - BLUE BOX", "address": {"city": "SCHENECTADY", "state": "NY", "street": "11 CUTHBERT ST", "postcode": "12302"}}},
{"geometry": {"type": "Point", "coordinates": [-73.9251246758, 42.8862386729]}, "type": "Feature", "properties": {"collection_times": [{"days": "Mon-Sat", "time": "10:30am"}, {"days": "Sun", "time": "Closed"}], "id": "1230200013", "name": "USPS COLLECTION BOX - BLUE BOX", "address": {"city": "SCHENECTADY", "state": "NY", "street": "443 SARATOGA RD", "postcode": "12302"}}},
{"geometry": {"type": "Point", "coordinates": [-73.9279271055, 42.8683263083]}, "type": "Feature", "properties": {"collection_times": [{"days": "Mon-Fri", "time": "4:00pm"}, {"days": "Sat", "time": "2:00pm"}, {"days": "Sun", "time": "Closed"}], "id": "1230200015", "name": "USPS COLLECTION BOX - BLUE BOX", "address": {"city": "SCHENECTADY", "state": "NY", "street": "18 GLENRIDGE RD", "postcode": "12302"}}},
{"geometry": {"type": "Point", "coordinates": [-73.9410198724, 42.8122530057]}, "type": "Feature", "properties": {"collection_times": [{"days": "Mon-Sat", "time": "4:00pm"}, {"days": "Sun", "time": "Closed"}], "id": "1230200017", "name": "USPS COLLECTION BOX - BLUE BOX", "address": {"city": "SCHENECTADY", "state": "NY", "street": "262 SARATOGA RD", "postcode": "12302"}}},
{"geometry": {"type": "Point", "coordinates": [-73.9545279555, 42.8591813803]}, "type": "Feature", "properties": {"collection_times": [{"days": "Mon-Fri", "time": "5:00pm"}, {"days": "Sat", "time": "4:15pm"}, {"days": "Sun", "time": "Closed"}], "id": "1230200018", "name": "USPS COLLECTION BOX - BLUE BOX", "address": {"city": "SCHENECTADY", "state": "NY", "street": "6 GLENRIDGE RD", "postcode": "12302"}}},
{"geometry": {"type": "Point", "coordinates": [-73.9545279555, 42.8591813803]}, "type": "Feature", "properties": {"collection_times": [{"days": "Mon-Fri", "time": "5:00pm"}, {"days": "Sat", "time": "4:15pm"}, {"days": "Sun", "time": "Closed"}], "id": "1230200019", "name": "USPS COLLECTION BOX - BLUE BOX", "address": {"city": "SCHENECTADY", "state": "NY", "street": "6 GLENRIDGE RD", "postcode": "12302"}}},
{"geometry": {"type": "Point", "coordinates": [-73.934742095, 42.86015173]}, "type": "Feature", "properties": {"collection_times": [{"days": "Mon-Sat", "time": "4:00pm"}, {"days": "Sun", "time": "Closed"}], "id": "1230200021", "name": "USPS COLLECTION BOX - BLUE BOX", "address": {"city": "SCHENECTADY", "state": "NY", "street": "123 SARATOGA RD", "postcode": "12302"}}},
{"geometry": {"type": "Point", "coordinates": [-73.962652866, 42.8327843062]}, "type": "Feature", "properties": {"collection_times": [{"days": "Mon-Sat", "time": "11:00am"}, {"days": "Sun", "time": "Closed"}], "id": "1230200029", "name": "USPS COLLECTION BOX - BLUE BOX", "address": {"city": "SCHENECTADY", "state": "NY", "street": "149 VLEY RD", "postcode": "12302"}}},
{"geometry": {"type": "Point", "coordinates": [-73.9728665337, 42.8290828276]}, "type": "Feature", "properties": {"collection_times": [{"days": "Mon-Sat", "time": "10:30am"}, {"days": "Sun", "time": "Closed"}], "id": "1230200031", "name": "USPS COLLECTION BOX - BLUE BOX", "address": {"city": "SCHENECTADY", "state": "NY", "street": "360 MOHAWK AVE", "postcode": "12302"}}},
{"geometry": {"type": "Point", "coordinates": [-73.9663886504, 42.827226765]}, "type": "Feature", "properties": {"collection_times": [{"days": "Mon-Fri", "time": "5:00pm"}, {"days": "Sat", "time": "4:00pm"}, {"days": "Sun", "time": "Closed"}], "id": "1230200033", "name": "USPS COLLECTION BOX - BLUE BOX", "address": {"city": "SCHENECTADY", "state": "NY", "street": "224 MOHAWK AVE", "postcode": "12302"}}},
{"geometry": {"type": "Point", "coordinates": [-73.9621974268, 42.830166418]}, "type": "Feature", "properties": {"collection_times": [{"days": "Mon-Sat", "time": "11:00am"}, {"days": "Sun", "time": "Closed"}], "id": "1230200036", "name": "USPS COLLECTION BOX - BLUE BOX", "address": {"city": "SCHENECTADY", "state": "NY", "street": "101 1ST ST", "postcode": "12302"}}},
{"geometry": {"type": "Point", "coordinates": [-73.953179759, 42.8336712006]}, "type": "Feature", "properties": {"collection_times": [{"days": "Mon-Sat", "time": "10:00am"}, {"days": "Sun", "time": "Closed"}], "id": "1230200038", "name": "USPS COLLECTION BOX - BLUE BOX", "address": {"city": "SCHENECTADY", "state": "NY", "street": "1600 CAMBRIDGE MANOR DR", "postcode": "12302"}}},
{"geometry": {"type": "Point", "coordinates": [-73.9322898582, 42.8697825308]}, "type": "Feature", "properties": {"collection_times": [{"days": "Mon-Fri", "time": "4:00pm"}, {"days": "Sat", "time": "9:30am"}, {"days": "Sun", "time": "Closed"}], "id": "1230200040", "name": "USPS COLLECTION BOX - BLUE BOX", "address": {"city": "SCHENECTADY", "state": "NY", "street": "251 SARATOGA RD", "postcode": "12302"}}},
{"geometry": {"type": "Point", "coordinates": [-73.9545279555, 42.8591813803]}, "type": "Feature", "properties": {"collection_times": [{"days": "Mon-Fri", "time": "5:15pm"}, {"days": "Sat", "time": "4:30pm"}, {"days": "Sun", "time": "Closed"}], "id": "1230200048", "name": "USPS COLLECTION BOX - PO LOBBY", "address": {"city": "SCHENECTADY", "state": "NY", "street": "6 GLENRIDGE RD", "postcode": "12302"}}},
{"geometry": {"type": "Point", "coordinates": [-73.9663886504, 42.827226765]}, "type": "Feature", "properties": {"collection_times": [{"days": "Mon-Fri", "time": "5:00pm"}, {"days": "Sat", "time": "1:00pm"}, {"days": "Sun", "time": "Closed"}], "id": "1230200049", "name": "USPS COLLECTION BOX - PO LOBBY", "address": {"city": "SCHENECTADY", "state": "NY", "street": "224 MOHAWK AVE", "postcode": "12302"}}},
{"geometry": {"type": "Point", "coordinates": [-73.9545460482, 42.7807400265]}, "type": "Feature", "properties": {"collection_times": [{"days": "Mon-Fri", "time": "3:00pm"}, {"days": "Sat", "time": "12:00pm"}, {"days": "Sun", "time": "Closed"}], "id": "1230300001", "name": "USPS COLLECTION BOX - BLUE BOX", "address": {"city": "SCHENECTADY", "state": "NY", "street": "1879 ALTAMONT AVE", "postcode": "12303"}}},
{"geometry": {"type": "Point", "coordinates": [-73.9413442261, 42.7934059682]}, "type": "Feature", "properties": {"collection_times": [{"days": "Mon-Sat", "time": "12:00pm"}, {"days": "Sun", "time": "Closed"}], "id": "1230300003", "name": "USPS COLLECTION BOX - BLUE BOX", "address": {"city": "SCHENECTADY", "state": "NY", "street": "1355 CHRISLER AVE", "postcode": "12303"}}},
{"geometry": {"type": "Point", "coordinates": [-73.9482846464, 42.7717400747]}, "type": "Feature", "properties": {"collection_times": [{"days": "Mon-Sat", "time": "12:00pm"}, {"days": "Sun", "time": "Closed"}], "id": "1230300007", "name": "USPS COLLECTION BOX - BLUE BOX", "address": {"city": "SCHENECTADY", "state": "NY", "street": "2315 CURRY RD", "postcode": "12303"}}},
{"geometry": {"type": "Point", "coordinates": [-73.9361250112, 42.7943523353]}, "type": "Feature", "properties": {"collection_times": [{"days": "Mon-Sat", "time": "10:00am"}, {"days": "Sun", "time": "Closed"}], "id": "1230300012", "name": "USPS COLLECTION BOX - BLUE BOX", "address": {"city": "SCHENECTADY", "state": "NY", "street": "622 MICHIGAN AVE", "postcode": "12303"}}},
{"geometry": {"type": "Point", "coordinates": [-73.9314227619, 42.7936367794]}, "type": "Feature", "properties": {"collection_times": [{"days": "Mon-Fri", "time": "5:30pm"}, {"days": "Sat", "time": "4:45pm"}, {"days": "Sun", "time": "Closed"}], "id": "1230300016", "name": "USPS COLLECTION BOX - BLUE BOX", "address": {"city": "SCHENECTADY", "state": "NY", "street": "1976 SCHUYLER ST", "postcode": "12303"}}},
{"geometry": {"type": "Point", "coordinates": [-73.9319716422, 42.7164296453]}, "type": "Feature", "properties": {"collection_times": [{"days": "Mon-Sat", "time": "11:15am"}, {"days": "Sun", "time": "Closed"}], "id": "1230300022", "name": "USPS COLLECTION BOX - BLUE BOX", "address": {"city": "SCHENECTADY", "state": "NY", "street": "3899 CARMAN RD", "postcode": "12303"}}},
{"geometry": {"type": "Point", "coordinates": [-73.9166925443, 42.7689329131]}, "type": "Feature", "properties": {"collection_times": [{"days": "Mon-Sat", "time": "12:00pm"}, {"days": "Sun", "time": "Closed"}], "id": "1230300027", "name": "USPS COLLECTION BOX - BLUE BOX", "address": {"city": "SCHENECTADY", "state": "NY", "street": "1030 COMMUNITY RD", "postcode": "12303"}}},
{"geometry": {"type": "Point", "coordinates": [-73.9392711951, 42.7639839736]}, "type": "Feature", "properties": {"collection_times": [{"days": "Mon-Sat", "time": "1:00pm"}, {"days": "Sun", "time": "Closed"}], "id": "1230300028", "name": "USPS COLLECTION BOX - BLUE BOX", "address": {"city": "SCHENECTADY", "state": "NY", "street": "3083 CARMAN RD", "postcode": "12303"}}},
{"geometry": {"type": "Point", "coordinates": [-73.9315812658, 42.7819998778]}, "type": "Feature", "properties": {"collection_times": [{"days": "Mon-Sat", "time": "1:00pm"}, {"days": "Sun", "time": "Closed"}], "id": "1230300030", "name": "USPS COLLECTION BOX - BLUE BOX", "address": {"city": "SCHENECTADY", "state": "NY", "street": "2305 HAMBURG ST", "postcode": "12303"}}},
{"geometry": {"type": "Point", "coordinates": [-73.9422775807, 42.7460592185]}, "type": "Feature", "properties": {"collection_times": [{"days": "Mon-Sat", "time": "12:00pm"}, {"days": "Sun", "time": "Closed"}], "id": "1230300036", "name": "USPS COLLECTION BOX - BLUE BOX", "address": {"city": "SCHENECTADY", "state": "NY", "street": "3434 CARMAN RD", "postcode": "12303"}}},
{"geometry": {"type": "Point", "coordinates": [-73.9351171301, 42.7228909672]}, "type": "Feature", "properties": {"collection_times": [{"days": "Mon-Sat", "time": "11:00am"}, {"days": "Sun", "time": "Closed"}], "id": "1230300039", "name": "USPS COLLECTION BOX - BLUE BOX", "address": {"city": "SCHENECTADY", "state": "NY", "street": "3770 CARMAN RD", "postcode": "12303"}}},
{"geometry": {"type": "Point", "coordinates": [-73.9231692446, 42.7714916533]}, "type": "Feature", "properties": {"collection_times": [{"days": "Mon-Sat", "time": "10:00am"}, {"days": "Sun", "time": "Closed"}], "id": "1230300040", "name": "USPS COLLECTION BOX - BLUE BOX", "address": {"city": "SCHENECTADY", "state": "NY", "street": "101 MERCER AVE", "postcode": "12303"}}},
{"geometry": {"type": "Point", "coordinates": [-73.9448809369, 42.7849965151]}, "type": "Feature", "properties": {"collection_times": [{"days": "Mon-Sat", "time": "3:00pm"}, {"days": "Sun", "time": "Closed"}], "id": "1230300041", "name": "USPS COLLECTION BOX - BLUE BOX", "address": {"city": "SCHENECTADY", "state": "NY", "street": "1450 ALTAMONT AVE", "postcode": "12303"}}},
{"geometry": {"type": "Point", "coordinates": [-73.9314227619, 42.7936367794]}, "type": "Feature", "properties": {"collection_times": [{"days": "Mon-Fri", "time": "5:30pm"}, {"days": "Sat", "time": "5:00pm"}, {"days": "Sun", "time": "Closed"}], "id": "1230300050", "name": "USPS COLLECTION BOX - PO LOBBY", "address": {"city": "SCHENECTADY", "state": "NY", "street": "1976 SCHUYLER ST", "postcode": "12303"}}},
{"geometry": {"type": "Point", "coordinates": [-73.9348758065, 42.7748311465]}, "type": "Feature", "properties": {"collection_times": [{"days": "Mon-Sat", "time": "11:30am"}, {"days": "Sun", "time": "Closed"}], "id": "1230300060", "name": "USPS COLLECTION BOX - BLUE BOX", "address": {"city": "SCHENECTADY", "state": "NY", "street": "2695 HAMBURG ST", "postcode": "12303"}}},
{"geometry": {"type": "Point", "coordinates": [-73.9475216378, 42.7987257346]}, "type": "Feature", "properties": {"collection_times": [{"days": "Mon-Sat", "time": "12:00pm"}, {"days": "Sun", "time": "Closed"}], "id": "1230300062", "name": "USPS COLLECTION BOX - BLUE BOX", "address": {"city": "SCHENECTADY", "state": "NY", "street": "959 CRANE ST", "postcode": "12303"}}},
{"geometry": {"type": "Point", "coordinates": [-73.9469049628, 42.7940051866]}, "type": "Feature", "properties": {"collection_times": [{"days": "Mon-Sat", "time": "12:00pm"}, {"days": "Sun", "time": "Closed"}], "id": "1230300069", "name": "USPS COLLECTION BOX - BLUE BOX", "address": {"city": "SCHENECTADY", "state": "NY", "street": "1274 PLEASANT ST", "postcode": "12303"}}},
{"geometry": {"type": "Point", "coordinates": [-73.919841388, 42.7888160756]}, "type": "Feature", "properties": {"collection_times": [{"days": "Mon-Fri", "time": "11:00am"}, {"days": "Sat", "time": "10:30am"}, {"days": "Sun", "time": "Closed"}], "id": "1230400010", "name": "USPS COLLECTION BOX - BLUE BOX", "address": {"city": "SCHENECTADY", "state": "NY", "street": "224 FRANK ST", "postcode": "12304"}}},
{"geometry": {"type": "Point", "coordinates": [-73.9171397027, 42.8054851622]}, "type": "Feature", "properties": {"collection_times": [{"days": "Mon-Sat", "time": "4:00pm"}, {"days": "Sun", "time": "Closed"}], "id": "1230400022", "name": "USPS COLLECTION BOX - BLUE BOX", "address": {"city": "SCHENECTADY", "state": "NY", "street": "600 MC CLELLAN ST", "postcode": "12304"}}},
{"geometry": {"type": "Point", "coordinates": [-73.9217717974, 42.7960524189]}, "type": "Feature", "properties": {"collection_times": [{"days": "Mon-Fri", "time": "11:00am"}, {"days": "Sat", "time": "10:30am"}, {"days": "Sun", "time": "Closed"}], "id": "1230400024", "name": "USPS COLLECTION BOX - BLUE BOX", "address": {"city": "SCHENECTADY", "state": "NY", "street": "1338 STATE ST", "postcode": "12304"}}},
{"geometry": {"type": "Point", "coordinates": [-73.9046831448, 42.7810002775]}, "type": "Feature", "properties": {"collection_times": [{"days": "Mon-Sat", "time": "9:30am"}, {"days": "Sun", "time": "Closed"}], "id": "1230400030", "name": "USPS COLLECTION BOX - BLUE BOX", "address": {"city": "SCHENECTADY", "state": "NY", "street": "1800 STATE ST", "postcode": "12304"}}},
{"geometry": {"type": "Point", "coordinates": [-73.9095514686, 42.7780081112]}, "type": "Feature", "properties": {"collection_times": [{"days": "Mon-Fri", "time": "11:00am"}, {"days": "Sat", "time": "10:00am"}, {"days": "Sun", "time": "Closed"}], "id": "1230400031", "name": "USPS COLLECTION BOX - BLUE BOX", "address": {"city": "SCHENECTADY", "state": "NY", "street": "2814 HALSEY DR", "postcode": "12304"}}},
{"geometry": {"type": "Point", "coordinates": [-73.8918929925, 42.7822518481]}, "type": "Feature", "properties": {"collection_times": [{"days": "Mon-Sat", "time": "11:30am"}, {"days": "Sun", "time": "Closed"}], "id": "1230400032", "name": "USPS COLLECTION BOX - BLUE BOX", "address": {"city": "SCHENECTADY", "state": "NY", "street": "3333 CONSAUL RD", "postcode": "12304"}}},
{"geometry": {"type": "Point", "coordinates": [-73.9169634419, 42.8055928114]}, "type": "Feature", "properties": {"collection_times": [{"days": "Mon-Sat", "time": "4:00pm"}, {"days": "Sun", "time": "Closed"}], "id": "1230400034", "name": "USPS COLLECTION BOX - BLUE BOX", "address": {"city": "SCHENECTADY", "state": "NY", "street": "650 MCCLELLAN ST", "postcode": "12304"}}},
{"geometry": {"type": "Point", "coordinates": [-73.9175442747, 42.8052343749]}, "type": "Feature", "properties": {"collection_times": [{"days": "Mon-Sat", "time": "4:00pm"}, {"days": "Sun", "time": "Closed"}], "id": "1230400035", "name": "USPS COLLECTION BOX - BLUE BOX", "address": {"city": "SCHENECTADY", "state": "NY", "street": "700 MCCLELLAN ST", "postcode": "12304"}}},
{"geometry": {"type": "Point", "coordinates": [-73.9113006173, 42.7868807665]}, "type": "Feature", "properties": {"collection_times": [{"days": "Mon-Fri", "time": "11:30am"}, {"days": "Sat-Sun", "time": "Closed"}], "id": "1230400040", "name": "USPS COLLECTION BOX - BLUE BOX", "address": {"city": "SCHENECTADY", "state": "NY", "street": "1594 STATE ST", "postcode": "12304"}}},
{"geometry": {"type": "Point", "coordinates": [-73.9720857807, 42.8308111306]}, "type": "Feature", "properties": {"collection_times": [{"days": "Mon-Fri", "time": "3:15pm"}, {"days": "Sat", "time": "9:30am"}, {"days": "Sun", "time": "Closed"}], "id": "1230500004", "name": "USPS COLLECTION BOX - BLUE BOX", "address": {"city": "SCHENECTADY", "state": "NY", "street": "105 JAY ST", "postcode": "12305"}}},
{"geometry": {"type": "Point", "coordinates": [-73.9456762219, 42.8148790393]}, "type": "Feature", "properties": {"collection_times": [{"days": "Mon-Fri", "time": "4:30pm"}, {"days": "Sat-Sun", "time": "Closed"}], "id": "1230500012", "name": "USPS COLLECTION BOX - BLUE BOX", "address": {"city": "SCHENECTADY", "state": "NY", "street": "214 STATE ST", "postcode": "12305"}}},
{"geometry": {"type": "Point", "coordinates": [-73.9427791553, 42.8163127856]}, "type": "Feature", "properties": {"collection_times": [{"days": "Mon-Sat", "time": "9:00am"}, {"days": "Sun", "time": "Closed"}], "id": "1230500023", "name": "USPS COLLECTION BOX - BLUE BOX", "address": {"city": "SCHENECTADY", "state": "NY", "street": "243 UNION ST", "postcode": "12305"}}},
{"geometry": {"type": "Point", "coordinates": [-73.9457460164, 42.8180848581]}, "type": "Feature", "properties": {"collection_times": [{"days": "Mon-Sat", "time": "11:30am"}, {"days": "Sun", "time": "Closed"}], "id": "1230500027", "name": "USPS COLLECTION BOX - BLUE BOX", "address": {"city": "SCHENECTADY", "state": "NY", "street": "35 N FERRY ST", "postcode": "12305"}}},
{"geometry": {"type": "Point", "coordinates": [-73.9453159945, 42.8086723834]}, "type": "Feature", "properties": {"collection_times": [{"days": "Mon-Fri", "time": "5:00pm"}, {"days": "Sat", "time": "1:00pm"}, {"days": "Sun", "time": "Closed"}], "id": "1230500035", "name": "USPS COLLECTION BOX - BLUE BOX", "address": {"city": "SCHENECTADY", "state": "NY", "street": "375 BROADWAY", "postcode": "12305"}}},
{"geometry": {"type": "Point", "coordinates": [-73.9406778168, 42.8161621211]}, "type": "Feature", "properties": {"collection_times": [{"days": "Mon-Fri", "time": "5:00pm"}, {"days": "Sat-Sun", "time": "Closed"}], "id": "1230500037", "name": "USPS COLLECTION BOX - BLUE BOX", "address": {"city": "SCHENECTADY", "state": "NY", "street": "1 BROADWAY CTR", "postcode": "12305"}}},
{"geometry": {"type": "Point", "coordinates": [-73.9406778168, 42.8161621211]}, "type": "Feature", "properties": {"collection_times": [{"days": "Mon-Fri", "time": "5:00pm"}, {"days": "Sat-Sun", "time": "Closed"}], "id": "1230500038", "name": "USPS COLLECTION BOX - BLUE BOX", "address": {"city": "SCHENECTADY", "state": "NY", "street": "1 BROADWAY CTR", "postcode": "12305"}}},
{"geometry": {"type": "Point", "coordinates": [-73.939244474, 42.8153687843]}, "type": "Feature", "properties": {"collection_times": [{"days": "Mon-Sat", "time": "5:00pm"}, {"days": "Sun", "time": "Closed"}], "id": "1230500047", "name": "USPS COLLECTION BOX - BLUE BOX", "address": {"city": "SCHENECTADY", "state": "NY", "street": "20 JAY ST", "postcode": "12305"}}},
{"geometry": {"type": "Point", "coordinates": [-73.939244474, 42.8153687843]}, "type": "Feature", "properties": {"collection_times": [{"days": "Mon-Sat", "time": "5:00pm"}, {"days": "Sun", "time": "Closed"}], "id": "1230500048", "name": "USPS COLLECTION BOX - BLUE BOX", "address": {"city": "SCHENECTADY", "state": "NY", "street": "20 JAY ST", "postcode": "12305"}}},
{"geometry": {"type": "Point", "coordinates": [-73.9424748734, 42.8146949342]}, "type": "Feature", "properties": {"collection_times": [{"days": "Mon-Sat", "time": "5:00pm"}, {"days": "Sun", "time": "Closed"}], "id": "1230500049", "name": "USPS COLLECTION BOX - BLUE BOX", "address": {"city": "SCHENECTADY", "state": "NY", "street": "1 LIBERTY & CLINTON", "postcode": "12305"}}},
{"geometry": {"type": "Point", "coordinates": [-73.9424748734, 42.8146949342]}, "type": "Feature", "properties": {"collection_times": [{"days": "Mon-Sat", "time": "5:00pm"}, {"days": "Sun", "time": "Closed"}], "id": "1230500050", "name": "USPS COLLECTION BOX - BLUE BOX", "address": {"city": "SCHENECTADY", "state": "NY", "street": "1 LIBERTY & CLINTON", "postcode": "12305"}}},
{"geometry": {"type": "Point", "coordinates": [-73.942818193, 42.8181203469]}, "type": "Feature", "properties": {"collection_times": [{"days": "Mon-Fri", "time": "3:00pm"}, {"days": "Sat-Sun", "time": "Closed"}], "id": "1230500051", "name": "USPS COLLECTION BOX - BLUE BOX", "address": {"city": "SCHENECTADY", "state": "NY", "street": "252 GREEN ST", "postcode": "12305"}}},
{"geometry": {"type": "Point", "coordinates": [-73.9374487423, 42.8125403294]}, "type": "Feature", "properties": {"collection_times": [{"days": "Mon-Fri", "time": "4:45pm"}, {"days": "Sat", "time": "9:45am"}, {"days": "Sun", "time": "Closed"}], "id": "1230500053", "name": "USPS COLLECTION BOX - BLUE BOX", "address": {"city": "SCHENECTADY", "state": "NY", "street": "600 FRANKLIN ST", "postcode": "12305"}}},
{"geometry": {"type": "Point", "coordinates": [-73.9420454106, 42.8109588805]}, "type": "Feature", "properties": {"collection_times": [{"days": "Mon-Sat", "time": "11:00am"}, {"days": "Sun", "time": "Closed"}], "id": "1230500054", "name": "USPS COLLECTION BOX - BLUE BOX", "address": {"city": "SCHENECTADY", "state": "NY", "street": "510 SMITH ST", "postcode": "12305"}}},
{"geometry": {"type": "Point", "coordinates": [-73.9383406933, 42.8170545008]}, "type": "Feature", "properties": {"collection_times": [{"days": "Mon-Fri", "time": "5:30pm"}, {"days": "Sat", "time": "5:15pm"}, {"days": "Sun", "time": "Closed"}], "id": "1230500087", "name": "USPS COLLECTION BOX - PO LOBBY", "address": {"city": "SCHENECTADY", "state": "NY", "street": "29 JAY ST", "postcode": "12305"}}},
{"geometry": {"type": "Point", "coordinates": [-73.9383406933, 42.8170545008]}, "type": "Feature", "properties": {"collection_times": [{"days": "Mon-Fri", "time": "5:30pm"}, {"days": "Sat", "time": "5:15pm"}, {"days": "Sun", "time": "Closed"}], "id": "1230500088", "name": "USPS COLLECTION BOX - PO LOBBY", "address": {"city": "SCHENECTADY", "state": "NY", "street": "29 JAY ST", "postcode": "12305"}}},
{"geometry": {"type": "Point", "coordinates": [-73.9383406933, 42.8170545008]}, "type": "Feature", "properties": {"collection_times": [{"days": "Mon-Fri", "time": "5:30pm"}, {"days": "Sat", "time": "5:15pm"}, {"days": "Sun", "time": "Closed"}], "id": "1230500089", "name": "USPS COLLECTION BOX - PO LOBBY", "address": {"city": "SCHENECTADY", "state": "NY", "street": "29 JAY ST", "postcode": "12305"}}},
{"geometry": {"type": "Point", "coordinates": [-73.9383406933, 42.8170545008]}, "type": "Feature", "properties": {"collection_times": [{"days": "Mon-Fri", "time": "5:30pm"}, {"days": "Sat-Sun", "time": "Closed"}], "id": "1230500090", "name": "USPS COLLECTION BOX - PO LOBBY", "address": {"city": "SCHENECTADY", "state": "NY", "street": "29 JAY ST", "postcode": "12305"}}},
{"geometry": {"type": "Point", "coordinates": [-73.9374487423, 42.8125403294]}, "type": "Feature", "properties": {"collection_times": [{"days": "Mon-Fri", "time": "4:45pm"}, {"days": "Sat", "time": "9:45am"}, {"days": "Sun", "time": "Closed"}], "id": "1230500098", "name": "USPS COLLECTION BOX - BLUE BOX", "address": {"city": "SCHENECTADY", "state": "NY", "street": "600 FRANKLIN ST", "postcode": "12305"}}},
{"geometry": {"type": "Point", "coordinates": [-73.9383679014, 42.8130525507]}, "type": "Feature", "properties": {"collection_times": [{"days": "Mon-Fri", "time": "4:45pm"}, {"days": "Sat", "time": "9:45am"}, {"days": "Sun", "time": "Closed"}], "id": "1230500099", "name": "USPS COLLECTION BOX - BLUE BOX", "address": {"city": "SCHENECTADY", "state": "NY", "street": "530 FRANKLIN ST", "postcode": "12305"}}},
{"geometry": {"type": "Point", "coordinates": [-73.9411573186, 42.8123723492]}, "type": "Feature", "properties": {"collection_times": [{"days": "Mon-Fri", "time": "4:30pm"}, {"days": "Sat-Sun", "time": "Closed"}], "id": "1230500101", "name": "USPS COLLECTION BOX - BLUE BOX", "address": {"city": "SCHENECTADY", "state": "NY", "street": "445 STATE ST", "postcode": "12305"}}},
{"geometry": {"type": "Point", "coordinates": [-73.9361155475, 42.8158490656]}, "type": "Feature", "properties": {"collection_times": [{"days": "Mon-Fri", "time": "4:30pm"}, {"days": "Sat-Sun", "time": "Closed"}], "id": "1230500104", "name": "USPS COLLECTION BOX - BLUE BOX", "address": {"city": "SCHENECTADY", "state": "NY", "street": "621 UNION ST", "postcode": "12305"}}},
{"geometry": {"type": "Point", "coordinates": [-73.9636938698, 42.7775874409]}, "type": "Feature", "properties": {"collection_times": [{"days": "Mon-Sat", "time": "11:30am"}, {"days": "Sun", "time": "Closed"}], "id": "1230600003", "name": "USPS COLLECTION BOX - BLUE BOX", "address": {"city": "SCHENECTADY", "state": "NY", "street": "21 PURITAN DR", "postcode": "12306"}}},
{"geometry": {"type": "Point", "coordinates": [-73.9749367119, 42.785656404]}, "type": "Feature", "properties": {"collection_times": [{"days": "Mon-Fri", "time": "3:30pm"}, {"days": "Sat", "time": "12:00pm"}, {"days": "Sun", "time": "Closed"}], "id": "1230600005", "name": "USPS COLLECTION BOX - BLUE BOX", "address": {"city": "SCHENECTADY", "state": "NY", "street": "1100 VINEWOOD AVE", "postcode": "12306"}}},
{"geometry": {"type": "Point", "coordinates": [-73.9724844379, 42.7948633736]}, "type": "Feature", "properties": {"collection_times": [{"days": "Mon-Sat", "time": "3:30pm"}, {"days": "Sun", "time": "Closed"}], "id": "1230600011", "name": "USPS COLLECTION BOX - BLUE BOX", "address": {"city": "SCHENECTADY", "state": "NY", "street": "2525 BROADWAY", "postcode": "12306"}}},
{"geometry": {"type": "Point", "coordinates": [-73.9712742709, 42.7814001176]}, "type": "Feature", "properties": {"collection_times": [{"days": "Mon-Sat", "time": "10:00am"}, {"days": "Sun", "time": "Closed"}], "id": "1230600012", "name": "USPS COLLECTION BOX - BLUE BOX", "address": {"city": "SCHENECTADY", "state": "NY", "street": "2996 GUILDERLAND AVE", "postcode": "12306"}}},
{"geometry": {"type": "Point", "coordinates": [-73.9827162708, 42.7912909349]}, "type": "Feature", "properties": {"collection_times": [{"days": "Mon-Fri", "time": "3:30pm"}, {"days": "Sat", "time": "11:30am"}, {"days": "Sun", "time": "Closed"}], "id": "1230600015", "name": "USPS COLLECTION BOX - BLUE BOX", "address": {"city": "SCHENECTADY", "state": "NY", "street": "345 PRINCETOWN RD", "postcode": "12306"}}},
{"geometry": {"type": "Point", "coordinates": [-73.9607388384, 42.7994698158]}, "type": "Feature", "properties": {"collection_times": [{"days": "Mon-Sat", "time": "3:30pm"}, {"days": "Sun", "time": "Closed"}], "id": "1230600017", "name": "USPS COLLECTION BOX - BLUE BOX", "address": {"city": "SCHENECTADY", "state": "NY", "street": "1675 BROADWAY", "postcode": "12306"}}},
{"geometry": {"type": "Point", "coordinates": [-73.9644524585, 42.7981541255]}, "type": "Feature", "properties": {"collection_times": [{"days": "Mon-Sat", "time": "12:00pm"}, {"days": "Sun", "time": "Closed"}], "id": "1230600018", "name": "USPS COLLECTION BOX - BLUE BOX", "address": {"city": "SCHENECTADY", "state": "NY", "street": "2009 BROADWAY", "postcode": "12306"}}},
{"geometry": {"type": "Point", "coordinates": [-73.9764650948, 42.7865649165]}, "type": "Feature", "properties": {"collection_times": [{"days": "Mon-Sat", "time": "10:30am"}, {"days": "Sun", "time": "Closed"}], "id": "1230600026", "name": "USPS COLLECTION BOX - BLUE BOX", "address": {"city": "SCHENECTADY", "state": "NY", "street": "1029 PAUL AVE", "postcode": "12306"}}},
{"geometry": {"type": "Point", "coordinates": [-74.0053860756, 42.7943665308]}, "type": "Feature", "properties": {"collection_times": [{"days": "Mon-Fri", "time": "11:45am"}, {"days": "Sat", "time": "11:00am"}, {"days": "Sun", "time": "Closed"}], "id": "1230600030", "name": "USPS COLLECTION BOX - BLUE BOX", "address": {"city": "SCHENECTADY", "state": "NY", "street": "672 MARIAVILLE RD", "postcode": "12306"}}},
{"geometry": {"type": "Point", "coordinates": [-73.989833841, 42.8103247594]}, "type": "Feature", "properties": {"collection_times": [{"days": "Mon-Fri", "time": "4:30pm"}, {"days": "Sat", "time": "5:00pm"}, {"days": "Sun", "time": "Closed"}], "id": "1230600031", "name": "USPS COLLECTION BOX - PO LOBBY", "address": {"city": "SCHENECTADY", "state": "NY", "street": "93 W CAMPBELL RD", "postcode": "12306"}}},
{"geometry": {"type": "Point", "coordinates": [-73.9870620412, 42.8111704629]}, "type": "Feature", "properties": {"collection_times": [{"days": "Mon-Fri", "time": "4:30pm"}, {"days": "Sat", "time": "5:00pm"}, {"days": "Sun", "time": "Closed"}], "id": "1230600032", "name": "USPS COLLECTION BOX - BLUE BOX", "address": {"city": "SCHENECTADY", "state": "NY", "street": "93 W CAMPBELL RD", "postcode": "12306"}}},
{"geometry": {"type": "Point", "coordinates": [-74.0021435851, 42.7963065835]}, "type": "Feature", "properties": {"collection_times": [{"days": "Mon-Sat", "time": "10:30am"}, {"days": "Sun", "time": "Closed"}], "id": "1230600033", "name": "USPS COLLECTION BOX - BLUE BOX", "address": {"city": "SCHENECTADY", "state": "NY", "street": "1 LENT CT", "postcode": "12306"}}},
{"geometry": {"type": "Point", "coordinates": [-73.9384121997, 42.8095156135]}, "type": "Feature", "properties": {"collection_times": [{"days": "Mon-Sat", "time": "10:30am"}, {"days": "Sun", "time": "Closed"}], "id": "1230700003", "name": "USPS COLLECTION BOX - BLUE BOX", "address": {"city": "SCHENECTADY", "state": "NY", "street": "720 ALBANY ST", "postcode": "12307"}}},
{"geometry": {"type": "Point", "coordinates": [-73.9172071314, 42.8124634371]}, "type": "Feature", "properties": {"collection_times": [{"days": "Mon-Sat", "time": "11:00am"}, {"days": "Sun", "time": "Closed"}], "id": "1230800004", "name": "USPS COLLECTION BOX - BLUE BOX", "address": {"city": "SCHENECTADY", "state": "NY", "street": "1098 PARKWOOD BLVD", "postcode": "12308"}}},
{"geometry": {"type": "Point", "coordinates": [-73.9231443703, 42.8233967349]}, "type": "Feature", "properties": {"collection_times": [{"days": "Mon-Sat", "time": "9:30am"}, {"days": "Sun", "time": "Closed"}], "id": "1230800009", "name": "USPS COLLECTION BOX - BLUE BOX", "address": {"city": "SCHENECTADY", "state": "NY", "street": "1689 AVENUE A", "postcode": "12308"}}},
{"geometry": {"type": "Point", "coordinates": [-73.9055187301, 42.8237890603]}, "type": "Feature", "properties": {"collection_times": [{"days": "Mon-Sat", "time": "11:30am"}, {"days": "Sun", "time": "Closed"}], "id": "1230800012", "name": "USPS COLLECTION BOX - BLUE BOX", "address": {"city": "SCHENECTADY", "state": "NY", "street": "1455 DORWALDT BLVD", "postcode": "12308"}}},
{"geometry": {"type": "Point", "coordinates": [-73.9099084402, 42.8235669909]}, "type": "Feature", "properties": {"collection_times": [{"days": "Mon-Sat", "time": "12:00pm"}, {"days": "Sun", "time": "Closed"}], "id": "1230800013", "name": "USPS COLLECTION BOX - BLUE BOX", "address": {"city": "SCHENECTADY", "state": "NY", "street": "1350 GERLING ST", "postcode": "12308"}}},
{"geometry": {"type": "Point", "coordinates": [-73.9138584966, 42.8221625142]}, "type": "Feature", "properties": {"collection_times": [{"days": "Mon-Fri", "time": "3:30pm"}, {"days": "Sat", "time": "12:00pm"}, {"days": "Sun", "time": "Closed"}], "id": "1230800014", "name": "USPS COLLECTION BOX - BLUE BOX", "address": {"city": "SCHENECTADY", "state": "NY", "street": "1270 BELMONT AVE", "postcode": "12308"}}},
{"geometry": {"type": "Point", "coordinates": [-73.9216408616, 42.8110864729]}, "type": "Feature", "properties": {"collection_times": [{"days": "Mon-Sat", "time": "10:00am"}, {"days": "Sun", "time": "Closed"}], "id": "1230800020", "name": "USPS COLLECTION BOX - BLUE BOX", "address": {"city": "SCHENECTADY", "state": "NY", "street": "1225 UNION ST", "postcode": "12308"}}},
{"geometry": {"type": "Point", "coordinates": [-73.9190028631, 42.8101164465]}, "type": "Feature", "properties": {"collection_times": [{"days": "Mon-Sat", "time": "9:30am"}, {"days": "Sun", "time": "Closed"}], "id": "1230800021", "name": "USPS COLLECTION BOX - BLUE BOX", "address": {"city": "SCHENECTADY", "state": "NY", "street": "1328 UNION ST", "postcode": "12308"}}},
{"geometry": {"type": "Point", "coordinates": [-73.9162619472, 42.8092398739]}, "type": "Feature", "properties": {"collection_times": [{"days": "Mon-Sat", "time": "9:30am"}, {"days": "Sun", "time": "Closed"}], "id": "1230800022", "name": "USPS COLLECTION BOX - BLUE BOX", "address": {"city": "SCHENECTADY", "state": "NY", "street": "1355 UNION ST", "postcode": "12308"}}},
{"geometry": {"type": "Point", "coordinates": [-73.9267062877, 42.8204695436]}, "type": "Feature", "properties": {"collection_times": [{"days": "Mon-Sat", "time": "9:00am"}, {"days": "Sun", "time": "Closed"}], "id": "1230800030", "name": "USPS COLLECTION BOX - BLUE BOX", "address": {"city": "SCHENECTADY", "state": "NY", "street": "1531 VAN VRANKEN AVE", "postcode": "12308"}}},
{"geometry": {"type": "Point", "coordinates": [-73.9152470485, 42.8188479301]}, "type": "Feature", "properties": {"collection_times": [{"days": "Mon-Sat", "time": "9:30am"}, {"days": "Sun", "time": "Closed"}], "id": "1230800040", "name": "USPS COLLECTION BOX - BLUE BOX", "address": {"city": "SCHENECTADY", "state": "NY", "street": "1229 NOTT ST", "postcode": "12308"}}},
{"geometry": {"type": "Point", "coordinates": [-73.9339590133, 42.8136061754]}, "type": "Feature", "properties": {"collection_times": [{"days": "Mon-Sat", "time": "10:00am"}, {"days": "Sun", "time": "Closed"}], "id": "1230800041", "name": "USPS COLLECTION BOX - BLUE BOX", "address": {"city": "SCHENECTADY", "state": "NY", "street": "107 NOTT TER", "postcode": "12308"}}},
{"geometry": {"type": "Point", "coordinates": [-73.9010822177, 42.8291029379]}, "type": "Feature", "properties": {"collection_times": [{"days": "Mon-Sat", "time": "11:00am"}, {"days": "Sun", "time": "Closed"}], "id": "1230900001", "name": "USPS COLLECTION BOX - BLUE BOX", "address": {"city": "SCHENECTADY", "state": "NY", "street": "2316 DEAN ST", "postcode": "12309"}}},
{"geometry": {"type": "Point", "coordinates": [-73.8994651128, 42.8104334795]}, "type": "Feature", "properties": {"collection_times": [{"days": "Mon-Sat", "time": "2:00pm"}, {"days": "Sun", "time": "Closed"}], "id": "1230900003", "name": "USPS COLLECTION BOX - BLUE BOX", "address": {"city": "SCHENECTADY", "state": "NY", "street": "2131 GRAND BLVD", "postcode": "12309"}}},
{"geometry": {"type": "Point", "coordinates": [-73.8984761591, 42.8007545093]}, "type": "Feature", "properties": {"collection_times": [{"days": "Mon-Sat", "time": "9:30am"}, {"days": "Sun", "time": "Closed"}], "id": "1230900004", "name": "USPS COLLECTION BOX - BLUE BOX", "address": {"city": "SCHENECTADY", "state": "NY", "street": "2152 EASTERN PKWY", "postcode": "12309"}}},
{"geometry": {"type": "Point", "coordinates": [-73.8982691413, 42.8018830521]}, "type": "Feature", "properties": {"collection_times": [{"days": "Mon-Fri", "time": "4:30pm"}, {"days": "Sat", "time": "10:00am"}, {"days": "Sun", "time": "Closed"}], "id": "1230900005", "name": "USPS COLLECTION BOX - BLUE BOX", "address": {"city": "SCHENECTADY", "state": "NY", "street": "1776 UNION ST", "postcode": "12309"}}},
{"geometry": {"type": "Point", "coordinates": [-73.8990866058, 42.7999475998]}, "type": "Feature", "properties": {"collection_times": [{"days": "Mon-Sat", "time": "10:00am"}, {"days": "Sun", "time": "Closed"}], "id": "1230900006", "name": "USPS COLLECTION BOX - BLUE BOX", "address": {"city": "SCHENECTADY", "state": "NY", "street": "2177 DAISY LN", "postcode": "12309"}}},
{"geometry": {"type": "Point", "coordinates": [-73.9031240049, 42.8011969359]}, "type": "Feature", "properties": {"collection_times": [{"days": "Mon-Sat", "time": "1:30pm"}, {"days": "Sun", "time": "Closed"}], "id": "1230900007", "name": "USPS COLLECTION BOX - BLUE BOX", "address": {"city": "SCHENECTADY", "state": "NY", "street": "809 PARKSIDE AVE", "postcode": "12309"}}},
{"geometry": {"type": "Point", "coordinates": [-73.8893531796, 42.812090805]}, "type": "Feature", "properties": {"collection_times": [{"days": "Mon-Sat", "time": "2:30pm"}, {"days": "Sun", "time": "Closed"}], "id": "1230900016", "name": "USPS COLLECTION BOX - BLUE BOX", "address": {"city": "SCHENECTADY", "state": "NY", "street": "1365 VAN ANTWERP RD", "postcode": "12309"}}},
{"geometry": {"type": "Point", "coordinates": [-73.8936746809, 42.8157434115]}, "type": "Feature", "properties": {"collection_times": [{"days": "Mon-Sat", "time": "1:00pm"}, {"days": "Sun", "time": "Closed"}], "id": "1230900017", "name": "USPS COLLECTION BOX - BLUE BOX", "address": {"city": "SCHENECTADY", "state": "NY", "street": "2229 NOTT ST", "postcode": "12309"}}},
{"geometry": {"type": "Point", "coordinates": [-73.8904107449, 42.8153758821]}, "type": "Feature", "properties": {"collection_times": [{"days": "Mon-Fri", "time": "5:00pm"}, {"days": "Sat", "time": "4:30pm"}, {"days": "Sun", "time": "Closed"}], "id": "1230900018", "name": "USPS COLLECTION BOX - BLUE BOX", "address": {"city": "SCHENECTADY", "state": "NY", "street": "2320 NOTT ST E", "postcode": "12309"}}},
{"geometry": {"type": "Point", "coordinates": [-73.8985045502, 42.8220051841]}, "type": "Feature", "properties": {"collection_times": [{"days": "Mon-Sat", "time": "11:00am"}, {"days": "Sun", "time": "Closed"}], "id": "1230900021", "name": "USPS COLLECTION BOX - BLUE BOX", "address": {"city": "SCHENECTADY", "state": "NY", "street": "2004 DEAN ST", "postcode": "12309"}}},
{"geometry": {"type": "Point", "coordinates": [-73.9052888198, 42.8050084297]}, "type": "Feature", "properties": {"collection_times": [{"days": "Mon-Fri", "time": "5:00pm"}, {"days": "Sat", "time": "12:00pm"}, {"days": "Sun", "time": "Closed"}], "id": "1230900028", "name": "USPS COLLECTION BOX - BLUE BOX", "address": {"city": "SCHENECTADY", "state": "NY", "street": "1609 UNION ST", "postcode": "12309"}}},
{"geometry": {"type": "Point", "coordinates": [-73.9099473122, 42.8068337354]}, "type": "Feature", "properties": {"collection_times": [{"days": "Mon-Fri", "time": "5:00pm"}, {"days": "Sat", "time": "12:00pm"}, {"days": "Sun", "time": "Closed"}], "id": "1230900029", "name": "USPS COLLECTION BOX - BLUE BOX", "address": {"city": "SCHENECTADY", "state": "NY", "street": "1541 UNION ST", "postcode": "12309"}}},
{"geometry": {"type": "Point", "coordinates": [-73.9135660047, 42.8070878011]}, "type": "Feature", "properties": {"collection_times": [{"days": "Mon-Sat", "time": "4:00pm"}, {"days": "Sun", "time": "Closed"}], "id": "1230900032", "name": "USPS COLLECTION BOX - BLUE BOX", "address": {"city": "SCHENECTADY", "state": "NY", "street": "1620 EASTERN PKWY", "postcode": "12309"}}},
{"geometry": {"type": "Point", "coordinates": [-73.8862502782, 42.8192323283]}, "type": "Feature", "properties": {"collection_times": [{"days": "Mon-Fri", "time": "4:15pm"}, {"days": "Sat", "time": "10:00am"}, {"days": "Sun", "time": "Closed"}], "id": "1230900033", "name": "USPS COLLECTION BOX - BLUE BOX", "address": {"city": "SCHENECTADY", "state": "NY", "street": "1 NISKAYUNA CIR", "postcode": "12309"}}},
{"geometry": {"type": "Point", "coordinates": [-73.8918610526, 42.8306727244]}, "type": "Feature", "properties": {"collection_times": [{"days": "Mon-Fri", "time": "3:00pm"}, {"days": "Sat", "time": "10:00am"}, {"days": "Sun", "time": "Closed"}], "id": "1230900034", "name": "USPS COLLECTION BOX - BLUE BOX", "address": {"city": "SCHENECTADY", "state": "NY", "street": "2546 BALLTOWN RD", "postcode": "12309"}}},
{"geometry": {"type": "Point", "coordinates": [-73.8904107449, 42.8153758821]}, "type": "Feature", "properties": {"collection_times": [{"days": "Mon-Fri", "time": "5:15pm"}, {"days": "Sat", "time": "4:00pm"}, {"days": "Sun", "time": "Closed"}], "id": "1230900047", "name": "USPS COLLECTION BOX - BLUE BOX", "address": {"city": "SCHENECTADY", "state": "NY", "street": "2320 NOTT ST E", "postcode": "12309"}}},
{"geometry": {"type": "Point", "coordinates": [-73.8904088173, 42.8153716612]}, "type": "Feature", "properties": {"collection_times": [{"days": "Mon-Fri", "time": "6:00pm"}, {"days": "Sat-Sun", "time": "Closed"}], "id": "1230900049", "name": "USPS COLLECTION BOX - PO LOBBY", "address": {"city": "SCHENECTADY", "state": "NY", "street": "2320 NOTT ST E", "postcode": "12309"}}}
]}
