{"type": "FeatureCollection", "features": [
{"geometry": {"type": "Point", "coordinates": [-74.0179718613, 41.9368867255]}, "type": "Feature", "properties": {"collection_times": [{"days": "Mon-Fri", "time": "4:00pm"}, {"days": "Sat", "time": "10:00am"}, {"days": "Sun", "time": "Closed"}], "id": "1240100005", "name": "USPS COLLECTION BOX - BLUE BOX", "address": {"city": "KINGSTON", "state": "NY", "street": "236 PLAZA RD", "postcode": "12401"}}},
{"geometry": {"type": "Point", "coordinates": [-74.0182933409, 41.933209076]}, "type": "Feature", "properties": {"collection_times": [{"days": "Mon-Fri", "time": "5:00pm"}, {"days": "Sat", "time": "10:15am"}, {"days": "Sun", "time": "Closed"}], "id": "1240100008", "name": "USPS COLLECTION BOX - BLUE BOX", "address": {"city": "KINGSTON", "state": "NY", "street": "260 FAIR ST", "postcode": "12401"}}},
{"geometry": {"type": "Point", "coordinates": [-74.0199684108, 41.9350497602]}, "type": "Feature", "properties": {"collection_times": [{"days": "Mon-Fri", "time": "5:00pm"}, {"days": "Sat", "time": "10:15am"}, {"days": "Sun", "time": "Closed"}], "id": "1240100009", "name": "USPS COLLECTION BOX - BLUE BOX", "address": {"city": "KINGSTON", "state": "NY", "street": "335 WALL ST", "postcode": "12401"}}},
{"geometry": {"type": "Point", "coordinates": [-74.0353113885, 41.9297619336]}, "type": "Feature", "properties": {"collection_times": [{"days": "Mon-Sat", "time": "10:00am"}, {"days": "Sun", "time": "Closed"}], "id": "1240100012", "name": "USPS COLLECTION BOX - BLUE BOX", "address": {"city": "KINGSTON", "state": "NY", "street": "300 LUCAS AVE", "postcode": "12401"}}},
{"geometry": {"type": "Point", "coordinates": [-74.027197473, 41.9365343737]}, "type": "Feature", "properties": {"collection_times": [{"days": "Mon-Fri", "time": "4:00pm"}, {"days": "Sat", "time": "10:00am"}, {"days": "Sun", "time": "Closed"}], "id": "1240100016", "name": "USPS COLLECTION BOX - BLUE BOX", "address": {"city": "KINGSTON", "state": "NY", "street": "40 HURLEY AVE", "postcode": "12401"}}},
{"geometry": {"type": "Point", "coordinates": [-74.0143363431, 41.9294508154]}, "type": "Feature", "properties": {"collection_times": [{"days": "Mon-Fri", "time": "4:00pm"}, {"days": "Sat", "time": "10:15am"}, {"days": "Sun", "time": "Closed"}], "id": "1240100017", "name": "USPS COLLECTION BOX - BLUE BOX", "address": {"city": "KINGSTON", "state": "NY", "street": "144 PINE ST", "postcode": "12401"}}},
{"geometry": {"type": "Point", "coordinates": [-74.0187440482, 41.9325075814]}, "type": "Feature", "properties": {"collection_times": [{"days": "Mon-Fri", "time": "5:00pm"}, {"days": "Sat", "time": "10:00am"}, {"days": "Sun", "time": "Closed"}], "id": "1240100024", "name": "USPS COLLECTION BOX - BLUE BOX", "address": {"city": "KINGSTON", "state": "NY", "street": "50 MAIN ST", "postcode": "12401"}}},
{"geometry": {"type": "Point", "coordinates": [-73.9876335394, 41.9644330027]}, "type": "Feature", "properties": {"collection_times": [{"days": "Mon-Fri", "time": "4:30pm"}, {"days": "Sat", "time": "10:30am"}, {"days": "Sun", "time": "Closed"}], "id": "1240100029", "name": "USPS COLLECTION BOX - BLUE BOX", "address": {"city": "KINGSTON", "state": "NY", "street": "430 KINGS MALL CT", "postcode": "12401"}}},
{"geometry": {"type": "Point", "coordinates": [-73.9849386299, 41.9207880069]}, "type": "Feature", "properties": {"collection_times": [{"days": "Mon-Fri", "time": "4:30pm"}, {"days": "Sat", "time": "10:30am"}, {"days": "Sun", "time": "Closed"}], "id": "1240100043", "name": "USPS COLLECTION BOX - BLUE BOX", "address": {"city": "KINGSTON", "state": "NY", "street": "1 GARRAGHAN DR", "postcode": "12401"}}},
{"geometry": {"type": "Point", "coordinates": [-73.9958774514, 41.9265016987]}, "type": "Feature", "properties": {"collection_times": [{"days": "Mon-Fri", "time": "4:30pm"}, {"days": "Sat", "time": "10:30am"}, {"days": "Sun", "time": "Closed"}], "id": "1240100047", "name": "USPS COLLECTION BOX - BLUE BOX", "address": {"city": "KINGSTON", "state": "NY", "street": "396 BROADWAY", "postcode": "12401"}}},
{"geometry": {"type": "Point", "coordinates": [-74.0002224597, 41.9279236154]}, "type": "Feature", "properties": {"collection_times": [{"days": "Mon-Fri", "time": "4:30pm"}, {"days": "Sat", "time": "10:30am"}, {"days": "Sun", "time": "Closed"}], "id": "1240100048", "name": "USPS COLLECTION BOX - BLUE BOX", "address": {"city": "KINGSTON", "state": "NY", "street": "507 BROADWAY", "postcode": "12401"}}},
{"geometry": {"type": "Point", "coordinates": [-74.0143192565, 41.9349653075]}, "type": "Feature", "properties": {"collection_times": [{"days": "Mon-Fri", "time": "4:00pm"}, {"days": "Sat", "time": "10:00am"}, {"days": "Sun", "time": "Closed"}], "id": "1240100053", "name": "USPS COLLECTION BOX - BLUE BOX", "address": {"city": "KINGSTON", "state": "NY", "street": "304 AARON CT", "postcode": "12401"}}},
{"geometry": {"type": "Point", "coordinates": [-73.9929354325, 41.9632408553]}, "type": "Feature", "properties": {"collection_times": [{"days": "Mon-Fri", "time": "4:30pm"}, {"days": "Sat", "time": "11:00am"}, {"days": "Sun", "time": "Closed"}], "id": "1240100058", "name": "USPS COLLECTION BOX - BLUE BOX", "address": {"city": "KINGSTON", "state": "NY", "street": "1126 MORTON BLVD", "postcode": "12401"}}},
{"geometry": {"type": "Point", "coordinates": [-73.9839600696, 41.9191563982]}, "type": "Feature", "properties": {"collection_times": [{"days": "Mon-Sat", "time": "10:00am"}, {"days": "Sun", "time": "Closed"}], "id": "1240100063", "name": "USPS COLLECTION BOX - BLUE BOX", "address": {"city": "KINGSTON", "state": "NY", "street": "41 BROADWAY", "postcode": "12401"}}},
{"geometry": {"type": "Point", "coordinates": [-74.0150271912, 41.9326034011]}, "type": "Feature", "properties": {"collection_times": [{"days": "Mon-Fri", "time": "4:00pm"}, {"days": "Sat", "time": "10:00am"}, {"days": "Sun", "time": "Closed"}], "id": "1240100064", "name": "USPS COLLECTION BOX - BLUE BOX", "address": {"city": "KINGSTON", "state": "NY", "street": "1 ALBANY AVE", "postcode": "12401"}}},
{"geometry": {"type": "Point", "coordinates": [-74.0075000233, 41.9342701902]}, "type": "Feature", "properties": {"collection_times": [{"days": "Mon-Sat", "time": "1:30pm"}, {"days": "Sun", "time": "Closed"}], "id": "1240100068", "name": "USPS COLLECTION BOX - BLUE BOX", "address": {"city": "KINGSTON", "state": "NY", "street": "195 ALBANY AVE", "postcode": "12401"}}},
{"geometry": {"type": "Point", "coordinates": [-73.9831216049, 41.9265880547]}, "type": "Feature", "properties": {"collection_times": [{"days": "Mon-Sat", "time": "8:30am"}, {"days": "Sun", "time": "Closed"}], "id": "1240100072", "name": "USPS COLLECTION BOX - BLUE BOX", "address": {"city": "KINGSTON", "state": "NY", "street": "504 DELAWARE AVE", "postcode": "12401"}}},
{"geometry": {"type": "Point", "coordinates": [-74.015665989, 41.9315198106]}, "type": "Feature", "properties": {"collection_times": [{"days": "Mon-Fri", "time": "4:00pm"}, {"days": "Sat", "time": "10:15am"}, {"days": "Sun", "time": "Closed"}], "id": "1240100086", "name": "USPS COLLECTION BOX - BLUE BOX", "address": {"city": "KINGSTON", "state": "NY", "street": "61 MAIDEN LN", "postcode": "12401"}}},
{"geometry": {"type": "Point", "coordinates": [-74.0010907516, 41.9315505676]}, "type": "Feature", "properties": {"collection_times": [{"days": "Mon-Fri", "time": "5:00pm"}, {"days": "Sat", "time": "4:00pm"}, {"days": "Sun", "time": "Closed"}], "id": "1240100094", "name": "USPS COLLECTION BOX - BLUE BOX", "address": {"city": "KINGSTON", "state": "NY", "street": "90 CORNELL ST", "postcode": "12401"}}},
{"geometry": {"type": "Point", "coordinates": [-73.9889405801, 41.9680898041]}, "type": "Feature", "properties": {"collection_times": [{"days": "Mon-Fri", "time": "4:30pm"}, {"days": "Sat", "time": "11:00am"}, {"days": "Sun", "time": "Closed"}], "id": "1240100095", "name": "USPS COLLECTION BOX - BLUE BOX", "address": {"city": "KINGSTON", "state": "NY", "street": "1261 ULSTER AVE", "postcode": "12401"}}},
{"geometry": {"type": "Point", "coordinates": [-74.0239348722, 41.9350249181]}, "type": "Feature", "properties": {"collection_times": [{"days": "Mon-Fri", "time": "4:00pm"}, {"days": "Sat", "time": "10:15am"}, {"days": "Sun", "time": "Closed"}], "id": "1240100097", "name": "USPS COLLECTION BOX - BLUE BOX", "address": {"city": "KINGSTON", "state": "NY", "street": "130 N FRONT ST", "postcode": "12401"}}},
{"geometry": {"type": "Point", "coordinates": [-73.9960016621, 41.9450150065]}, "type": "Feature", "properties": {"collection_times": [{"days": "Mon-Fri", "time": "4:30pm"}, {"days": "Sat", "time": "11:00am"}, {"days": "Sun", "time": "Closed"}], "id": "1240100103", "name": "USPS COLLECTION BOX - BLUE BOX", "address": {"city": "KINGSTON", "state": "NY", "street": "584 ULSTER AVE", "postcode": "12401"}}},
{"geometry": {"type": "Point", "coordinates": [-74.0196478289, 41.9337449565]}, "type": "Feature", "properties": {"collection_times": [{"days": "Mon-Fri", "time": "5:00pm"}, {"days": "Sat", "time": "10:15am"}, {"days": "Sun", "time": "Closed"}], "id": "1240100109", "name": "USPS COLLECTION BOX - BLUE BOX", "address": {"city": "KINGSTON", "state": "NY", "street": "299 WALL ST", "postcode": "12401"}}},
{"geometry": {"type": "Point", "coordinates": [-74.0208721914, 41.9324519823]}, "type": "Feature", "properties": {"collection_times": [{"days": "Mon-Fri", "time": "4:00pm"}, {"days": "Sat", "time": "10:15am"}, {"days": "Sun", "time": "Closed"}], "id": "1240100111", "name": "USPS COLLECTION BOX - BLUE BOX", "address": {"city": "KINGSTON", "state": "NY", "street": "101 GREEN ST", "postcode": "12401"}}},
{"geometry": {"type": "Point", "coordinates": [-74.0010907516, 41.9315505676]}, "type": "Feature", "properties": {"collection_times": [{"days": "Mon-Fri", "time": "5:00pm"}, {"days": "Sat", "time": "4:00pm"}, {"days": "Sun", "time": "Closed"}], "id": "1240100113", "name": "USPS COLLECTION BOX - PO LOBBY", "address": {"city": "KINGSTON", "state": "NY", "street": "90 CORNELL ST ( LOBBY DROP SLOT )", "postcode": "12401"}}},
{"geometry": {"type": "Point", "coordinates": [-74.0187440482, 41.9325075814]}, "type": "Feature", "properties": {"collection_times": [{"days": "Mon-Fri", "time": "5:00pm"}, {"days": "Sat", "time": "12:00pm"}, {"days": "Sun", "time": "Closed"}], "id": "1240100114", "name": "USPS COLLECTION BOX - PO LOBBY", "address": {"city": "KINGSTON", "state": "NY", "street": "50 MAIN ST ( LOBBY DROP SLOT )", "postcode": "12401"}}},
{"geometry": {"type": "Point", "coordinates": [-74.2295887394, 41.7857331308]}, "type": "Feature", "properties": {"collection_times": [{"days": "Mon-Fri", "time": "5:00pm"}, {"days": "Sat", "time": "12:00pm"}, {"days": "Sun", "time": "Closed"}], "id": "1240400000", "name": "USPS COLLECTION BOX - BLUE BOX", "address": {"city": "ACCORD", "state": "NY", "street": "30 MAIN ST", "postcode": "12404"}}},
{"geometry": {"type": "Point", "coordinates": [-74.2295887394, 41.7857331308]}, "type": "Feature", "properties": {"collection_times": [{"days": "Mon-Fri", "time": "5:00pm"}, {"days": "Sat", "time": "12:00pm"}, {"days": "Sun", "time": "Closed"}], "id": "1240400001", "name": "USPS COLLECTION BOX - PO LOBBY", "address": {"city": "ACCORD", "state": "NY", "street": "30 MAIN ST LBBY SLOT", "postcode": "12404"}}},
{"geometry": {"type": "Point", "coordinates": [-74.1092218623, 42.3272074939]}, "type": "Feature", "properties": {"collection_times": [{"days": "Mon-Fri", "time": "5:00pm"}, {"days": "Sat", "time": "12:00pm"}, {"days": "Sun", "time": "Closed"}], "id": "1240500001", "name": "USPS COLLECTION BOX - BLUE BOX", "address": {"city": "ACRA", "state": "NY", "street": "522 OLD ROUTE 23", "postcode": "12405"}}},
{"geometry": {"type": "Point", "coordinates": [-74.5720575171, 42.125031871]}, "type": "Feature", "properties": {"collection_times": [{"days": "Mon-Fri", "time": "5:00pm"}, {"days": "Sat", "time": "12:00pm"}, {"days": "Sun", "time": "Closed"}], "id": "1240600001", "name": "USPS COLLECTION BOX - BLUE BOX", "address": {"city": "ARKVILLE", "state": "NY", "street": "43400 STATE ROUTE 28", "postcode": "12406"}}},
{"geometry": {"type": "Point", "coordinates": [-74.5720575171, 42.125031871]}, "type": "Feature", "properties": {"collection_times": [{"days": "Mon-Fri", "time": "5:00pm"}, {"days": "Sat", "time": "12:00pm"}, {"days": "Sun", "time": "Closed"}], "id": "1240600002", "name": "USPS COLLECTION BOX - PO LOBBY", "address": {"city": "ARKVILLE", "state": "NY", "street": "43400 STATE ROUTE 28 LBBY SLOT", "postcode": "12406"}}},
{"geometry": {"type": "Point", "coordinates": [-74.3145557357, 42.2391150346]}, "type": "Feature", "properties": {"collection_times": [{"days": "Mon-Fri", "time": "5:00pm"}, {"days": "Sat", "time": "12:00pm"}, {"days": "Sun", "time": "Closed"}], "id": "1240700001", "name": "USPS COLLECTION BOX - BLUE BOX", "address": {"city": "ASHLAND", "state": "NY", "street": "12101 ROUTE 23", "postcode": "12407"}}},
{"geometry": {"type": "Point", "coordinates": [-74.3145557357, 42.2391150346]}, "type": "Feature", "properties": {"collection_times": [{"days": "Mon-Fri", "time": "5:00pm"}, {"days": "Sat", "time": "12:00pm"}, {"days": "Sun", "time": "Closed"}], "id": "1240700002", "name": "USPS COLLECTION BOX - PO LOBBY", "address": {"city": "ASHLAND", "state": "NY", "street": "12101 ROUTE 23 LBBY SLOT", "postcode": "12407"}}},
{"geometry": {"type": "Point", "coordinates": [-74.1554266759, 42.0412451694]}, "type": "Feature", "properties": {"collection_times": [{"days": "Mon-Fri", "time": "5:00pm"}, {"days": "Sat", "time": "12:00pm"}, {"days": "Sun", "time": "Closed"}], "id": "1240900001", "name": "USPS COLLECTION BOX - BLUE BOX", "address": {"city": "BEARSVILLE", "state": "NY", "street": "3203 ROUTE 212", "postcode": "12409"}}},
{"geometry": {"type": "Point", "coordinates": [-74.1554266759, 42.0412451694]}, "type": "Feature", "properties": {"collection_times": [{"days": "Mon-Fri", "time": "5:00pm"}, {"days": "Sat", "time": "12:00pm"}, {"days": "Sun", "time": "Closed"}], "id": "1240900002", "name": "USPS COLLECTION BOX - PO LOBBY", "address": {"city": "BEARSVILLE", "state": "NY", "street": "3203 ROUTE 212 LBBY SLOT", "postcode": "12409"}}},
{"geometry": {"type": "Point", "coordinates": [-74.4445264685, 42.1033091115]}, "type": "Feature", "properties": {"collection_times": [{"days": "Mon-Fri", "time": "5:00pm"}, {"days": "Sat", "time": "12:00pm"}, {"days": "Sun", "time": "Closed"}], "id": "1241000001", "name": "USPS COLLECTION BOX - BLUE BOX", "address": {"city": "BIG INDIAN", "state": "NY", "street": "8279 STATE ROUTE 28", "postcode": "12410"}}},
{"geometry": {"type": "Point", "coordinates": [-74.4573900945, 42.0839155838]}, "type": "Feature", "properties": {"collection_times": [{"days": "Mon-Fri", "time": "5:00pm"}, {"days": "Sat", "time": "12:00pm"}, {"days": "Sun", "time": "Closed"}], "id": "1241000002", "name": "USPS COLLECTION BOX - PO LOBBY", "address": {"city": "BIG INDIAN", "state": "NY", "street": "8279 STATE ROUTE 29 ( LOBBY SLOT )", "postcode": "12410"}}},
{"geometry": {"type": "Point", "coordinates": [-74.0444249044, 41.8793737965]}, "type": "Feature", "properties": {"collection_times": [{"days": "Mon-Fri", "time": "5:00pm"}, {"days": "Sat", "time": "12:00pm"}, {"days": "Sun", "time": "Closed"}], "id": "1241100001", "name": "USPS COLLECTION BOX - BLUE BOX", "address": {"city": "BLOOMINGTON", "state": "NY", "street": "58 MAIN ST", "postcode": "12411"}}},
{"geometry": {"type": "Point", "coordinates": [-74.0444249044, 41.8793737965]}, "type": "Feature", "properties": {"collection_times": [{"days": "Mon-Fri", "time": "5:00pm"}, {"days": "Sat", "time": "12:00pm"}, {"days": "Sun", "time": "Closed"}], "id": "1241100002", "name": "USPS COLLECTION BOX - PO LOBBY", "address": {"city": "BLOOMINGTON", "state": "NY", "street": "58 MAIN ST LBBY SLOT", "postcode": "12411"}}},
{"geometry": {"type": "Point", "coordinates": [-74.2672742631, 42.0077236613]}, "type": "Feature", "properties": {"collection_times": [{"days": "Mon-Fri", "time": "5:00pm"}, {"days": "Sat", "time": "12:00pm"}, {"days": "Sun", "time": "Closed"}], "id": "1241200001", "name": "USPS COLLECTION BOX - BLUE BOX", "address": {"city": "BOICEVILLE", "state": "NY", "street": "4117 STATE ROUTE 28", "postcode": "12412"}}},
{"geometry": {"type": "Point", "coordinates": [-74.2672742631, 42.0077236613]}, "type": "Feature", "properties": {"collection_times": [{"days": "Mon-Fri", "time": "5:00pm"}, {"days": "Sat", "time": "12:00pm"}, {"days": "Sun", "time": "Closed"}], "id": "1241200002", "name": "USPS COLLECTION BOX - PO LOBBY", "address": {"city": "BOICEVILLE", "state": "NY", "street": "4117 STATE ROUTE 28 LBBY SLOT", "postcode": "12412"}}},
{"geometry": {"type": "Point", "coordinates": [-74.0011566223, 42.3009374363]}, "type": "Feature", "properties": {"collection_times": [{"days": "Mon-Fri", "time": "5:00pm"}, {"days": "Sat", "time": "12:00pm"}, {"days": "Sun", "time": "Closed"}], "id": "1241300001", "name": "USPS COLLECTION BOX - BLUE BOX", "address": {"city": "CAIRO", "state": "NY", "street": "540 MAIN ST", "postcode": "12413"}}},
{"geometry": {"type": "Point", "coordinates": [-74.0011566223, 42.3009374363]}, "type": "Feature", "properties": {"collection_times": [{"days": "Mon-Fri", "time": "5:00pm"}, {"days": "Sat", "time": "12:00pm"}, {"days": "Sun", "time": "Closed"}], "id": "1241300004", "name": "USPS COLLECTION BOX - PO LOBBY", "address": {"city": "CAIRO", "state": "NY", "street": "540 MAIN ST LBBY SLOT", "postcode": "12413"}}},
{"geometry": {"type": "Point", "coordinates": [-73.8640496104, 42.2156653157]}, "type": "Feature", "properties": {"collection_times": [{"days": "Mon-Fri", "time": "5:00pm"}, {"days": "Sat", "time": "4:00pm"}, {"days": "Sun", "time": "Closed"}], "id": "1241400002", "name": "USPS COLLECTION BOX - BLUE BOX", "address": {"city": "CATSKILL", "state": "NY", "street": "270 MAIN ST", "postcode": "12414"}}},
{"geometry": {"type": "Point", "coordinates": [-73.8659992037, 42.2204468912]}, "type": "Feature", "properties": {"collection_times": [{"days": "Mon-Fri", "time": "2:00pm"}, {"days": "Sat", "time": "12:30pm"}, {"days": "Sun", "time": "Closed"}], "id": "1241400005", "name": "USPS COLLECTION BOX - BLUE BOX", "address": {"city": "CATSKILL", "state": "NY", "street": "422 MAIN ST", "postcode": "12414"}}},
{"geometry": {"type": "Point", "coordinates": [-73.8661624521, 42.2235994769]}, "type": "Feature", "properties": {"collection_times": [{"days": "Mon-Fri", "time": "2:00pm"}, {"days": "Sat", "time": "12:30pm"}, {"days": "Sun", "time": "Closed"}], "id": "1241400007", "name": "USPS COLLECTION BOX - BLUE BOX", "address": {"city": "CATSKILL", "state": "NY", "street": "3 HIGH ST", "postcode": "12414"}}},
{"geometry": {"type": "Point", "coordinates": [-73.8649475532, 42.2177059753]}, "type": "Feature", "properties": {"collection_times": [{"days": "Mon-Fri", "time": "2:00pm"}, {"days": "Sat", "time": "12:30pm"}, {"days": "Sun", "time": "Closed"}], "id": "1241400010", "name": "USPS COLLECTION BOX - BLUE BOX", "address": {"city": "CATSKILL", "state": "NY", "street": "335 MAIN ST", "postcode": "12414"}}},
{"geometry": {"type": "Point", "coordinates": [-73.8796339888, 42.2147698711]}, "type": "Feature", "properties": {"collection_times": [{"days": "Mon-Fri", "time": "2:00pm"}, {"days": "Sat", "time": "12:30pm"}, {"days": "Sun", "time": "Closed"}], "id": "1241400011", "name": "USPS COLLECTION BOX - BLUE BOX", "address": {"city": "CATSKILL", "state": "NY", "street": "226 W BRIDGE ST", "postcode": "12414"}}},
{"geometry": {"type": "Point", "coordinates": [-73.8796150614, 42.232502426]}, "type": "Feature", "properties": {"collection_times": [{"days": "Mon-Fri", "time": "2:00pm"}, {"days": "Sat", "time": "12:30pm"}, {"days": "Sun", "time": "Closed"}], "id": "1241400015", "name": "USPS COLLECTION BOX - BLUE BOX", "address": {"city": "CATSKILL", "state": "NY", "street": "203 JEFFERSON HTS", "postcode": "12414"}}},
{"geometry": {"type": "Point", "coordinates": [-73.8713958625, 42.2166022746]}, "type": "Feature", "properties": {"collection_times": [{"days": "Mon-Fri", "time": "2:00pm"}, {"days": "Sat", "time": "12:30pm"}, {"days": "Sun", "time": "Closed"}], "id": "1241400026", "name": "USPS COLLECTION BOX - BLUE BOX", "address": {"city": "CATSKILL", "state": "NY", "street": "66 W BRIDGE ST", "postcode": "12414"}}},
{"geometry": {"type": "Point", "coordinates": [-73.8589747934, 42.2234527899]}, "type": "Feature", "properties": {"collection_times": [{"days": "Mon-Fri", "time": "2:00pm"}, {"days": "Sat", "time": "12:30pm"}, {"days": "Sun", "time": "Closed"}], "id": "1241400027", "name": "USPS COLLECTION BOX - BLUE BOX", "address": {"city": "CATSKILL", "state": "NY", "street": "87 WOODLAND AVE", "postcode": "12414"}}},
{"geometry": {"type": "Point", "coordinates": [-73.8863543786, 42.2141239755]}, "type": "Feature", "properties": {"collection_times": [{"days": "Mon-Fri", "time": "2:00pm"}, {"days": "Sat", "time": "12:30pm"}, {"days": "Sun", "time": "Closed"}], "id": "1241400028", "name": "USPS COLLECTION BOX - BLUE BOX", "address": {"city": "CATSKILL", "state": "NY", "street": "320 W BRIDGE ST", "postcode": "12414"}}},
{"geometry": {"type": "Point", "coordinates": [-73.8780050543, 42.2316743548]}, "type": "Feature", "properties": {"collection_times": [{"days": "Mon-Fri", "time": "2:00pm"}, {"days": "Sat", "time": "12:30pm"}, {"days": "Sun", "time": "Closed"}], "id": "1241400030", "name": "USPS COLLECTION BOX - BLUE BOX", "address": {"city": "CATSKILL", "state": "NY", "street": "159 JEFFERSON HTS", "postcode": "12414"}}},
{"geometry": {"type": "Point", "coordinates": [-73.8743603577, 42.2124205146]}, "type": "Feature", "properties": {"collection_times": [{"days": "Mon-Fri", "time": "2:00pm"}, {"days": "Sat", "time": "12:30pm"}, {"days": "Sun", "time": "Closed"}], "id": "1241400032", "name": "USPS COLLECTION BOX - BLUE BOX", "address": {"city": "CATSKILL", "state": "NY", "street": "119 GRANDVIEW AVE", "postcode": "12414"}}},
{"geometry": {"type": "Point", "coordinates": [-73.8640496104, 42.2156653157]}, "type": "Feature", "properties": {"collection_times": [{"days": "Mon-Fri", "time": "5:00pm"}, {"days": "Sat", "time": "4:00pm"}, {"days": "Sun", "time": "Closed"}], "id": "1241400034", "name": "USPS COLLECTION BOX - PO LOBBY", "address": {"city": "CATSKILL", "state": "NY", "street": "270 MAIN ST LBBY SLOT", "postcode": "12414"}}},
{"geometry": {"type": "Point", "coordinates": [-74.2964972683, 42.103671824]}, "type": "Feature", "properties": {"collection_times": [{"days": "Mon-Fri", "time": "5:00pm"}, {"days": "Sat", "time": "12:00pm"}, {"days": "Sun", "time": "Closed"}], "id": "1241600001", "name": "USPS COLLECTION BOX - BLUE BOX", "address": {"city": "CHICHESTER", "state": "NY", "street": "536 STATE ROUTE 214", "postcode": "12416"}}},
{"geometry": {"type": "Point", "coordinates": [-74.3086624484, 42.1019605383]}, "type": "Feature", "properties": {"collection_times": [{"days": "Mon-Sat", "time": "12:00pm"}, {"days": "Sun", "time": "Closed"}], "id": "1241600002", "name": "USPS COLLECTION BOX - PO LOBBY", "address": {"city": "CHICHESTER", "state": "NY", "street": "536 ROUTE 214 ( LOBBY SLOT )", "postcode": "12416"}}},
{"geometry": {"type": "Point", "coordinates": [-73.9885892926, 41.9071443541]}, "type": "Feature", "properties": {"collection_times": [{"days": "Mon-Fri", "time": "5:00pm"}, {"days": "Sat", "time": "12:00pm"}, {"days": "Sun", "time": "Closed"}], "id": "1241700001", "name": "USPS COLLECTION BOX - BLUE BOX", "address": {"city": "CONNELLY", "state": "NY", "street": "130 3RD ST", "postcode": "12417"}}},
{"geometry": {"type": "Point", "coordinates": [-73.9885892926, 41.9071443541]}, "type": "Feature", "properties": {"collection_times": [{"days": "Mon-Sat", "time": "12:00pm"}, {"days": "Sun", "time": "Closed"}], "id": "1241700002", "name": "USPS COLLECTION BOX - PO LOBBY", "address": {"city": "CONNELLY", "state": "NY", "street": "130 THIRD ST ( LOBBY SLOT DROP )", "postcode": "12417"}}},
{"geometry": {"type": "Point", "coordinates": [-74.1562630279, 42.3672260737]}, "type": "Feature", "properties": {"collection_times": [{"days": "Mon-Fri", "time": "5:00pm"}, {"days": "Sat", "time": "12:00pm"}, {"days": "Sun", "time": "Closed"}], "id": "1241800001", "name": "USPS COLLECTION BOX - BLUE BOX", "address": {"city": "CORNWALLVILLE", "state": "NY", "street": "2893 ROUTE 20", "postcode": "12418"}}},
{"geometry": {"type": "Point", "coordinates": [-74.1562630279, 42.3672260737]}, "type": "Feature", "properties": {"collection_times": [{"days": "Mon-Fri", "time": "5:00pm"}, {"days": "Sat", "time": "12:00pm"}, {"days": "Sun", "time": "Closed"}], "id": "1241800002", "name": "USPS COLLECTION BOX - PO LOBBY", "address": {"city": "CORNWALLVILLE", "state": "NY", "street": "2893 ROUTE 20 ( LOBBY DROP SLOT )", "postcode": "12418"}}},
{"geometry": {"type": "Point", "coordinates": [-74.1065628949, 41.8527218199]}, "type": "Feature", "properties": {"collection_times": [{"days": "Mon-Fri", "time": "5:00pm"}, {"days": "Sat", "time": "12:00pm"}, {"days": "Sun", "time": "Closed"}], "id": "1241900001", "name": "USPS COLLECTION BOX - BLUE BOX", "address": {"city": "COTTEKILL", "state": "NY", "street": "1820 LUCAS AVENUE EXT", "postcode": "12419"}}},
{"geometry": {"type": "Point", "coordinates": [-74.1065628949, 41.8527218199]}, "type": "Feature", "properties": {"collection_times": [{"days": "Mon-Fri", "time": "5:00pm"}, {"days": "Sat", "time": "12:00pm"}, {"days": "Sun", "time": "Closed"}], "id": "1241900002", "name": "USPS COLLECTION BOX - PO LOBBY", "address": {"city": "COTTEKILL", "state": "NY", "street": "1820 LUCAS AVENUE EXT LBBY SLOT", "postcode": "12419"}}},
{"geometry": {"type": "Point", "coordinates": [-74.3854928872, 41.6698250781]}, "type": "Feature", "properties": {"collection_times": [{"days": "Mon-Fri", "time": "5:00pm"}, {"days": "Sat", "time": "12:00pm"}, {"days": "Sun", "time": "Closed"}], "id": "1242000001", "name": "USPS COLLECTION BOX - BLUE BOX", "address": {"city": "CRAGSMOOR", "state": "NY", "street": "1 HENRY RD", "postcode": "12420"}}},
{"geometry": {"type": "Point", "coordinates": [-74.3854928872, 41.6698250781]}, "type": "Feature", "properties": {"collection_times": [{"days": "Mon-Sat", "time": "12:00pm"}, {"days": "Sun", "time": "Closed"}], "id": "1242000002", "name": "USPS COLLECTION BOX - PO LOBBY", "address": {"city": "CRAGSMOOR", "state": "NY", "street": "1 HENRY ST ( LOBBY DROP SLOT )", "postcode": "12420"}}},
{"geometry": {"type": "Point", "coordinates": [-74.5200737085, 42.2647047935]}, "type": "Feature", "properties": {"collection_times": [{"days": "Mon-Fri", "time": "5:00pm"}, {"days": "Sat", "time": "12:00pm"}, {"days": "Sun", "time": "Closed"}], "id": "1242100001", "name": "USPS COLLECTION BOX - BLUE BOX", "address": {"city": "DENVER", "state": "NY", "street": "1375 DIMMICK MOUNTAIN RD", "postcode": "12421"}}},
{"geometry": {"type": "Point", "coordinates": [-74.5200737085, 42.2647047935]}, "type": "Feature", "properties": {"collection_times": [{"days": "Mon-Fri", "time": "5:00pm"}, {"days": "Sat", "time": "12:00pm"}, {"days": "Sun", "time": "Closed"}], "id": "1242100002", "name": "USPS COLLECTION BOX - PO LOBBY", "address": {"city": "DENVER", "state": "NY", "street": "1375 DIMMICK MOUNTAIN RD", "postcode": "12421"}}},
{"geometry": {"type": "Point", "coordinates": [-74.0895914607, 42.3703467194]}, "type": "Feature", "properties": {"collection_times": [{"days": "Mon-Fri", "time": "5:00pm"}, {"days": "Sat", "time": "12:00pm"}, {"days": "Sun", "time": "Closed"}], "id": "1242300001", "name": "USPS COLLECTION BOX - BLUE BOX", "address": {"city": "EAST DURHAM", "state": "NY", "street": "2355 ROUTE 145", "postcode": "12423"}}},
{"geometry": {"type": "Point", "coordinates": [-74.1457920503, 42.3864063961]}, "type": "Feature", "properties": {"collection_times": [{"days": "Mon-Fri", "time": "5:00pm"}, {"days": "Sat", "time": "12:00pm"}, {"days": "Sun", "time": "Closed"}], "id": "1242300002", "name": "USPS COLLECTION BOX - PO LOBBY", "address": {"city": "EAST DURHAM", "state": "NY", "street": "2355 ROUTE 45 ( LOBBY SLOT )", "postcode": "12423"}}},
{"geometry": {"type": "Point", "coordinates": [-74.1494588102, 42.1678230722]}, "type": "Feature", "properties": {"collection_times": [{"days": "Mon-Fri", "time": "5:00pm"}, {"days": "Sat", "time": "12:00pm"}, {"days": "Sun", "time": "Closed"}], "id": "1242700001", "name": "USPS COLLECTION BOX - BLUE BOX", "address": {"city": "ELKA PARK", "state": "NY", "street": "183 ELKA PARK RD", "postcode": "12427"}}},
{"geometry": {"type": "Point", "coordinates": [-74.1494588102, 42.1678230722]}, "type": "Feature", "properties": {"collection_times": [{"days": "Mon-Sat", "time": "12:00pm"}, {"days": "Sun", "time": "Closed"}], "id": "1242700002", "name": "USPS COLLECTION BOX - PO LOBBY", "address": {"city": "ELKA PARK", "state": "NY", "street": "183 ELKA PARK RD LBBY SLOT", "postcode": "12427"}}},
{"geometry": {"type": "Point", "coordinates": [-74.3931089181, 41.7170927384]}, "type": "Feature", "properties": {"collection_times": [{"days": "Mon-Fri", "time": "5:00pm"}, {"days": "Sat", "time": "2:00pm"}, {"days": "Sun", "time": "Closed"}], "id": "1242800022", "name": "USPS COLLECTION BOX - BLUE BOX", "address": {"city": "ELLENVILLE", "state": "NY", "street": "1 LIBERTY SQ", "postcode": "12428"}}},
{"geometry": {"type": "Point", "coordinates": [-74.3931089181, 41.7170927384]}, "type": "Feature", "properties": {"collection_times": [{"days": "Mon-Fri", "time": "5:00pm"}, {"days": "Sat", "time": "2:00pm"}, {"days": "Sun", "time": "Closed"}], "id": "1242800025", "name": "USPS COLLECTION BOX - PO LOBBY", "address": {"city": "ELLENVILLE", "state": "NY", "street": "1 LIBERTY SQ LBBY SLOT", "postcode": "12428"}}},
{"geometry": {"type": "Point", "coordinates": [-73.965251478, 41.8268046448]}, "type": "Feature", "properties": {"collection_times": [{"days": "Mon-Fri", "time": "5:00pm"}, {"days": "Sat", "time": "12:00pm"}, {"days": "Sun", "time": "Closed"}], "id": "1242900001", "name": "USPS COLLECTION BOX - BLUE BOX", "address": {"city": "ESOPUS", "state": "NY", "street": "60 MAIN ST", "postcode": "12429"}}},
{"geometry": {"type": "Point", "coordinates": [-73.965251478, 41.8268046448]}, "type": "Feature", "properties": {"collection_times": [{"days": "Mon-Fri", "time": "5:00pm"}, {"days": "Sat", "time": "12:00pm"}, {"days": "Sun", "time": "Closed"}], "id": "1242900002", "name": "USPS COLLECTION BOX - PO LOBBY", "address": {"city": "ESOPUS", "state": "NY", "street": "60 MAIN ST LBBY SLOT", "postcode": "12429"}}},
{"geometry": {"type": "Point", "coordinates": [-74.536389367, 42.1820035831]}, "type": "Feature", "properties": {"collection_times": [{"days": "Mon-Fri", "time": "5:00pm"}, {"days": "Sat", "time": "12:00pm"}, {"days": "Sun", "time": "Closed"}], "id": "1243000001", "name": "USPS COLLECTION BOX - BLUE BOX", "address": {"city": "FLEISCHMANNS", "state": "NY", "street": "1050 MAIN ST", "postcode": "12430"}}},
{"geometry": {"type": "Point", "coordinates": [-74.536389367, 42.1820035831]}, "type": "Feature", "properties": {"collection_times": [{"days": "Mon-Fri", "time": "5:00pm"}, {"days": "Sat", "time": "12:00pm"}, {"days": "Sun", "time": "Closed"}], "id": "1243000002", "name": "USPS COLLECTION BOX - PO LOBBY", "address": {"city": "FLEISCHMANNS", "state": "NY", "street": "1050 MAIN ST LBBY SLOT", "postcode": "12430"}}},
{"geometry": {"type": "Point", "coordinates": [-74.0489590288, 42.3572753215]}, "type": "Feature", "properties": {"collection_times": [{"days": "Mon-Fri", "time": "5:00pm"}, {"days": "Sat", "time": "12:00pm"}, {"days": "Sun", "time": "Closed"}], "id": "1243100001", "name": "USPS COLLECTION BOX - BLUE BOX", "address": {"city": "FREEHOLD", "state": "NY", "street": "9467 ROUTE 32", "postcode": "12431"}}},
{"geometry": {"type": "Point", "coordinates": [-74.0489590288, 42.3572753215]}, "type": "Feature", "properties": {"collection_times": [{"days": "Mon-Fri", "time": "5:00pm"}, {"days": "Sat", "time": "12:00pm"}, {"days": "Sun", "time": "Closed"}], "id": "1243100002", "name": "USPS COLLECTION BOX - PO LOBBY", "address": {"city": "FREEHOLD", "state": "NY", "street": "9467 ROUTE 32 LBBY SLOT", "postcode": "12431"}}},
{"geometry": {"type": "Point", "coordinates": [-73.9497248737, 42.0436214937]}, "type": "Feature", "properties": {"collection_times": [{"days": "Mon-Fri", "time": "5:00pm"}, {"days": "Sat", "time": "12:00pm"}, {"days": "Sun", "time": "Closed"}], "id": "1243200001", "name": "USPS COLLECTION BOX - BLUE BOX", "address": {"city": "GLASCO", "state": "NY", "street": "90 GLASCO TPKE", "postcode": "12432"}}},
{"geometry": {"type": "Point", "coordinates": [-73.9497248737, 42.0436214937]}, "type": "Feature", "properties": {"collection_times": [{"days": "Mon-Fri", "time": "5:00pm"}, {"days": "Sat", "time": "12:00pm"}, {"days": "Sun", "time": "Closed"}], "id": "1243200002", "name": "USPS COLLECTION BOX - PO LOBBY", "address": {"city": "GLASCO", "state": "NY", "street": "90 GLASCO TPYE ( LOBBY SLOT )", "postcode": "12432"}}},
{"geometry": {"type": "Point", "coordinates": [-74.1412950689, 42.0017155512]}, "type": "Feature", "properties": {"collection_times": [{"days": "Mon-Fri", "time": "5:00pm"}, {"days": "Sat", "time": "12:00pm"}, {"days": "Sun", "time": "Closed"}], "id": "1243300001", "name": "USPS COLLECTION BOX - BLUE BOX", "address": {"city": "GLENFORD", "state": "NY", "street": "216 OLD STATE ROUTE 28", "postcode": "12433"}}},
{"geometry": {"type": "Point", "coordinates": [-74.1412950689, 42.0017155512]}, "type": "Feature", "properties": {"collection_times": [{"days": "Mon-Fri", "time": "5:00pm"}, {"days": "Sat", "time": "12:00pm"}, {"days": "Sun", "time": "Closed"}], "id": "1243300002", "name": "USPS COLLECTION BOX - PO LOBBY", "address": {"city": "GLENFORD", "state": "NY", "street": "216 OLD ROUTE 28 ( LOBBY SLOT )", "postcode": "12433"}}},
{"geometry": {"type": "Point", "coordinates": [-74.652779291, 42.4295641616]}, "type": "Feature", "properties": {"collection_times": [{"days": "Mon-Fri", "time": "5:00pm"}, {"days": "Sat", "time": "12:00pm"}, {"days": "Sun", "time": "Closed"}], "id": "1243400001", "name": "USPS COLLECTION BOX - BLUE BOX", "address": {"city": "GRAND GORGE", "state": "NY", "street": "37163 MAIN ST", "postcode": "12434"}}},
{"geometry": {"type": "Point", "coordinates": [-74.652779291, 42.4295641616]}, "type": "Feature", "properties": {"collection_times": [{"days": "Mon-Fri", "time": "5:00pm"}, {"days": "Sat", "time": "12:00pm"}, {"days": "Sun", "time": "Closed"}], "id": "1243400002", "name": "USPS COLLECTION BOX - PO LOBBY", "address": {"city": "GRAND GORGE", "state": "NY", "street": "37163 MAIN ST LBBY SLOT", "postcode": "12434"}}},
{"geometry": {"type": "Point", "coordinates": [-74.4890755202, 41.7271991382]}, "type": "Feature", "properties": {"collection_times": [{"days": "Mon-Fri", "time": "5:00pm"}, {"days": "Sat", "time": "12:00pm"}, {"days": "Sun", "time": "Closed"}], "id": "1243500001", "name": "USPS COLLECTION BOX - BLUE BOX", "address": {"city": "GREENFIELD PARK", "state": "NY", "street": "7021 STATE ROUTE 52", "postcode": "12435"}}},
{"geometry": {"type": "Point", "coordinates": [-74.4890755202, 41.7271991382]}, "type": "Feature", "properties": {"collection_times": [{"days": "Mon-Sat", "time": "12:00pm"}, {"days": "Sun", "time": "Closed"}], "id": "1243500002", "name": "USPS COLLECTION BOX - PO LOBBY", "address": {"city": "GREENFIELD PARK", "state": "NY", "street": "7021 ROUTE 52 ( LOBBY SLOT )", "postcode": "12435"}}},
{"geometry": {"type": "Point", "coordinates": [-74.0949165806, 42.1981594859]}, "type": "Feature", "properties": {"collection_times": [{"days": "Mon-Fri", "time": "5:00pm"}, {"days": "Sat", "time": "12:00pm"}, {"days": "Sun", "time": "Closed"}], "id": "1243600001", "name": "USPS COLLECTION BOX - BLUE BOX", "address": {"city": "HAINES FALLS", "state": "NY", "street": "5197 ROUTE 23A", "postcode": "12436"}}},
{"geometry": {"type": "Point", "coordinates": [-74.0949165806, 42.1981594859]}, "type": "Feature", "properties": {"collection_times": [{"days": "Mon-Fri", "time": "5:00pm"}, {"days": "Sat", "time": "12:00pm"}, {"days": "Sun", "time": "Closed"}], "id": "1243600002", "name": "USPS COLLECTION BOX - PO LOBBY", "address": {"city": "HAINES FALLS", "state": "NY", "street": "5197 ROUTE 23A LBBY SLOT", "postcode": "12436"}}},
{"geometry": {"type": "Point", "coordinates": [-74.6011252311, 42.2077995122]}, "type": "Feature", "properties": {"collection_times": [{"days": "Mon-Fri", "time": "5:00pm"}, {"days": "Sat", "time": "12:00pm"}, {"days": "Sun", "time": "Closed"}], "id": "1243800001", "name": "USPS COLLECTION BOX - BLUE BOX", "address": {"city": "HALCOTTSVILLE", "state": "NY", "street": "387 HALCOTTSVILLE RD", "postcode": "12438"}}},
{"geometry": {"type": "Point", "coordinates": [-74.6011252311, 42.2077995122]}, "type": "Feature", "properties": {"collection_times": [{"days": "Mon-Fri", "time": "5:00pm"}, {"days": "Sat", "time": "12:00pm"}, {"days": "Sun", "time": "Closed"}], "id": "1243800002", "name": "USPS COLLECTION BOX - PO LOBBY", "address": {"city": "HALCOTTSVILLE", "state": "NY", "street": "387 HALCOTTSVILLE RD LBBY SLOT", "postcode": "12438"}}},
{"geometry": {"type": "Point", "coordinates": [-74.2141898291, 42.2910023911]}, "type": "Feature", "properties": {"collection_times": [{"days": "Mon-Fri", "time": "5:00pm"}, {"days": "Sat", "time": "12:00pm"}, {"days": "Sun", "time": "Closed"}], "id": "1243900001", "name": "USPS COLLECTION BOX - BLUE BOX", "address": {"city": "HENSONVILLE", "state": "NY", "street": "395 STATE ROUTE 296", "postcode": "12439"}}},
{"geometry": {"type": "Point", "coordinates": [-74.2167515467, 42.2902826923]}, "type": "Feature", "properties": {"collection_times": [{"days": "Mon-Fri", "time": "5:00pm"}, {"days": "Sat", "time": "12:00pm"}, {"days": "Sun", "time": "Closed"}], "id": "1243900002", "name": "USPS COLLECTION BOX - PO LOBBY", "address": {"city": "HENSONVILLE", "state": "NY", "street": "395 STATE ROUTE 296 LBBY SLOT", "postcode": "12439"}}},
{"geometry": {"type": "Point", "coordinates": [-74.1293721922, 41.8272544513]}, "type": "Feature", "properties": {"collection_times": [{"days": "Mon-Fri", "time": "5:00pm"}, {"days": "Sat", "time": "12:00pm"}, {"days": "Sun", "time": "Closed"}], "id": "1244000001", "name": "USPS COLLECTION BOX - BLUE BOX", "address": {"city": "HIGH FALLS", "state": "NY", "street": "107 MAIN ST", "postcode": "12440"}}},
{"geometry": {"type": "Point", "coordinates": [-74.1293721922, 41.8272544513]}, "type": "Feature", "properties": {"collection_times": [{"days": "Mon-Fri", "time": "5:00pm"}, {"days": "Sat", "time": "12:00pm"}, {"days": "Sun", "time": "Closed"}], "id": "1244000002", "name": "USPS COLLECTION BOX - PO LOBBY", "address": {"city": "HIGH FALLS", "state": "NY", "street": "107 MAIN ST LBBY SLOT", "postcode": "12440"}}},
{"geometry": {"type": "Point", "coordinates": [-74.4871839562, 42.141819677]}, "type": "Feature", "properties": {"collection_times": [{"days": "Mon-Fri", "time": "5:00pm"}, {"days": "Sat", "time": "12:00pm"}, {"days": "Sun", "time": "Closed"}], "id": "1244100001", "name": "USPS COLLECTION BOX - BLUE BOX", "address": {"city": "HIGHMOUNT", "state": "NY", "street": "8 GALLI CURCI RD", "postcode": "12441"}}},
{"geometry": {"type": "Point", "coordinates": [-74.4871839562, 42.141819677]}, "type": "Feature", "properties": {"collection_times": [{"days": "Mon-Fri", "time": "5:00pm"}, {"days": "Sat", "time": "12:00pm"}, {"days": "Sun", "time": "Closed"}], "id": "1244100002", "name": "USPS COLLECTION BOX - PO LOBBY", "address": {"city": "HIGHMOUNT", "state": "NY", "street": "8 GALLI CURCI RD LBBY SLOT", "postcode": "12441"}}},
{"geometry": {"type": "Point", "coordinates": [-74.2188740814, 42.2133533188]}, "type": "Feature", "properties": {"collection_times": [{"days": "Mon-Fri", "time": "5:00pm"}, {"days": "Sat", "time": "12:00pm"}, {"days": "Sun", "time": "Closed"}], "id": "1244200001", "name": "USPS COLLECTION BOX - BLUE BOX", "address": {"city": "HUNTER", "state": "NY", "street": "7975 MAIN ST", "postcode": "12442"}}},
{"geometry": {"type": "Point", "coordinates": [-74.2188740814, 42.2133533188]}, "type": "Feature", "properties": {"collection_times": [{"days": "Mon-Fri", "time": "5:00pm"}, {"days": "Sat", "time": "12:00pm"}, {"days": "Sun", "time": "Closed"}], "id": "1244200002", "name": "USPS COLLECTION BOX - PO LOBBY", "address": {"city": "HUNTER", "state": "NY", "street": "7975 MAIN ST LBBY SLOT", "postcode": "12442"}}},
{"geometry": {"type": "Point", "coordinates": [-74.0666189364, 41.9264054051]}, "type": "Feature", "properties": {"collection_times": [{"days": "Mon-Fri", "time": "5:00pm"}, {"days": "Sat", "time": "12:00pm"}, {"days": "Sun", "time": "Closed"}], "id": "1244300001", "name": "USPS COLLECTION BOX - BLUE BOX", "address": {"city": "HURLEY", "state": "NY", "street": "4 MAIN ST", "postcode": "12443"}}},
{"geometry": {"type": "Point", "coordinates": [-74.0666189364, 41.9264054051]}, "type": "Feature", "properties": {"collection_times": [{"days": "Mon-Fri", "time": "5:00pm"}, {"days": "Sat", "time": "12:00pm"}, {"days": "Sun", "time": "Closed"}], "id": "1244300002", "name": "USPS COLLECTION BOX - PO LOBBY", "address": {"city": "HURLEY", "state": "NY", "street": "4 MAIN ST LBBY SLOT", "postcode": "12443"}}},
{"geometry": {"type": "Point", "coordinates": [-74.2960280077, 42.2611435133]}, "type": "Feature", "properties": {"collection_times": [{"days": "Mon-Fri", "time": "5:00pm"}, {"days": "Sat", "time": "12:00pm"}, {"days": "Sun", "time": "Closed"}], "id": "1244400001", "name": "USPS COLLECTION BOX - BLUE BOX", "address": {"city": "JEWETT", "state": "NY", "street": "4800 ROUTE 23C", "postcode": "12444"}}},
{"geometry": {"type": "Point", "coordinates": [-74.2960280077, 42.2611435133]}, "type": "Feature", "properties": {"collection_times": [{"days": "Mon-Fri", "time": "5:00pm"}, {"days": "Sat", "time": "12:00pm"}, {"days": "Sun", "time": "Closed"}], "id": "1244400002", "name": "USPS COLLECTION BOX - PO LOBBY", "address": {"city": "JEWETT", "state": "NY", "street": "4800 ROUTE 23C LBBY SLOT", "postcode": "12444"}}},
{"geometry": {"type": "Point", "coordinates": [-74.2958663813, 41.7754189115]}, "type": "Feature", "properties": {"collection_times": [{"days": "Mon-Fri", "time": "5:00pm"}, {"days": "Sat", "time": "12:00pm"}, {"days": "Sun", "time": "Closed"}], "id": "1244600001", "name": "USPS COLLECTION BOX - BLUE BOX", "address": {"city": "KERHONKSON", "state": "NY", "street": "17 WEST ST", "postcode": "12446"}}},
{"geometry": {"type": "Point", "coordinates": [-74.2958663813, 41.7754189115]}, "type": "Feature", "properties": {"collection_times": [{"days": "Mon-Fri", "time": "5:00pm"}, {"days": "Sat", "time": "12:00pm"}, {"days": "Sun", "time": "Closed"}], "id": "1244600002", "name": "USPS COLLECTION BOX - PO LOBBY", "address": {"city": "KERHONKSON", "state": "NY", "street": "17 WEST ST ( LOBBY DROP SLOT )", "postcode": "12446"}}},
{"geometry": {"type": "Point", "coordinates": [-74.2251957281, 42.0710408326]}, "type": "Feature", "properties": {"collection_times": [{"days": "Mon-Fri", "time": "5:00pm"}, {"days": "Sat", "time": "11:00am"}, {"days": "Sun", "time": "Closed"}], "id": "1244800001", "name": "USPS COLLECTION BOX - BLUE BOX", "address": {"city": "LAKE HILL", "state": "NY", "street": "3929 STATE ROUTE 212", "postcode": "12448"}}},
{"geometry": {"type": "Point", "coordinates": [-74.2251957281, 42.0710408326]}, "type": "Feature", "properties": {"collection_times": [{"days": "Mon-Fri", "time": "12:00pm"}, {"days": "Sat", "time": "11:00am"}, {"days": "Sun", "time": "Closed"}], "id": "1244800002", "name": "USPS COLLECTION BOX - PO LOBBY", "address": {"city": "LAKE HILL", "state": "NY", "street": "3929 STATE ROUTE 212 LBBY SLOT", "postcode": "12448"}}},
{"geometry": {"type": "Point", "coordinates": [-73.9881846693, 41.9863227506]}, "type": "Feature", "properties": {"collection_times": [{"days": "Mon-Fri", "time": "5:00pm"}, {"days": "Sat", "time": "2:00pm"}, {"days": "Sun", "time": "Closed"}], "id": "1244900001", "name": "USPS COLLECTION BOX - BLUE BOX", "address": {"city": "LAKE KATRINE", "state": "NY", "street": "1840 ULSTER AVE", "postcode": "12449"}}},
{"geometry": {"type": "Point", "coordinates": [-73.9881846693, 41.9863227506]}, "type": "Feature", "properties": {"collection_times": [{"days": "Mon-Fri", "time": "5:00pm"}, {"days": "Sat", "time": "2:00pm"}, {"days": "Sun", "time": "Closed"}], "id": "1244900006", "name": "USPS COLLECTION BOX - PO LOBBY", "address": {"city": "LAKE KATRINE", "state": "NY", "street": "1840 ULSTER AVE LBBY SLOT", "postcode": "12449"}}},
{"geometry": {"type": "Point", "coordinates": [-74.2519947826, 42.1303815148]}, "type": "Feature", "properties": {"collection_times": [{"days": "Mon-Fri", "time": "5:00pm"}, {"days": "Sat", "time": "12:00pm"}, {"days": "Sun", "time": "Closed"}], "id": "1245000001", "name": "USPS COLLECTION BOX - BLUE BOX", "address": {"city": "LANESVILLE", "state": "NY", "street": "1546 STATE ROUTE 214", "postcode": "12450"}}},
{"geometry": {"type": "Point", "coordinates": [-74.2519947826, 42.1303815148]}, "type": "Feature", "properties": {"collection_times": [{"days": "Mon-Fri", "time": "5:00pm"}, {"days": "Sat", "time": "12:00pm"}, {"days": "Sun", "time": "Closed"}], "id": "1245000002", "name": "USPS COLLECTION BOX - PO LOBBY", "address": {"city": "LANESVILLE", "state": "NY", "street": "1546 STATE ROUTE 214 ( LOBBY SLOT )", "postcode": "12450"}}},
{"geometry": {"type": "Point", "coordinates": [-73.90260232, 42.255479038]}, "type": "Feature", "properties": {"collection_times": [{"days": "Mon-Fri", "time": "5:00pm"}, {"days": "Sat", "time": "12:00pm"}, {"days": "Sun", "time": "Closed"}], "id": "1245100001", "name": "USPS COLLECTION BOX - BLUE BOX", "address": {"city": "LEEDS", "state": "NY", "street": "1155 MAIN ST", "postcode": "12451"}}},
{"geometry": {"type": "Point", "coordinates": [-73.90260232, 42.255479038]}, "type": "Feature", "properties": {"collection_times": [{"days": "Mon-Fri", "time": "5:00pm"}, {"days": "Sat", "time": "12:00pm"}, {"days": "Sun", "time": "Closed"}], "id": "1245100002", "name": "USPS COLLECTION BOX - PO LOBBY", "address": {"city": "LEEDS", "state": "NY", "street": "1155 MAIN ST LBBY SLOT", "postcode": "12451"}}},
{"geometry": {"type": "Point", "coordinates": [-74.3614377205, 42.2396531161]}, "type": "Feature", "properties": {"collection_times": [{"days": "Mon-Fri", "time": "5:00pm"}, {"days": "Sat", "time": "12:00pm"}, {"days": "Sun", "time": "Closed"}], "id": "1245200001", "name": "USPS COLLECTION BOX - BLUE BOX", "address": {"city": "LEXINGTON", "state": "NY", "street": "4021 ROUTE 42 STE 1", "postcode": "12452"}}},
{"geometry": {"type": "Point", "coordinates": [-74.3614377205, 42.2396531161]}, "type": "Feature", "properties": {"collection_times": [{"days": "Mon-Fri", "time": "5:00pm"}, {"days": "Sat", "time": "12:00pm"}, {"days": "Sun", "time": "Closed"}], "id": "1245200002", "name": "USPS COLLECTION BOX - PO LOBBY", "address": {"city": "LEXINGTON", "state": "NY", "street": "4021 ROUTE 42 STE 1 LBBY DROP", "postcode": "12452"}}},
{"geometry": {"type": "Point", "coordinates": [-73.9341519148, 42.0966102979]}, "type": "Feature", "properties": {"collection_times": [{"days": "Mon-Fri", "time": "5:00pm"}, {"days": "Sat", "time": "12:00pm"}, {"days": "Sun", "time": "Closed"}], "id": "1245300001", "name": "USPS COLLECTION BOX - BLUE BOX", "address": {"city": "MALDEN HUDSON", "state": "NY", "street": "1116 MAIN ST", "postcode": "12453"}}},
{"geometry": {"type": "Point", "coordinates": [-73.9341519148, 42.0966102979]}, "type": "Feature", "properties": {"collection_times": [{"days": "Mon-Fri", "time": "5:00pm"}, {"days": "Sat", "time": "12:00pm"}, {"days": "Sun", "time": "Closed"}], "id": "1245300002", "name": "USPS COLLECTION BOX - PO LOBBY", "address": {"city": "MALDEN HUDSON", "state": "NY", "street": "1116 MAIN ST LBBY SLOT", "postcode": "12453"}}},
{"geometry": {"type": "Point", "coordinates": [-74.1861349833, 42.2768349191]}, "type": "Feature", "properties": {"collection_times": [{"days": "Mon-Fri", "time": "5:00pm"}, {"days": "Sat", "time": "12:00pm"}, {"days": "Sun", "time": "Closed"}], "id": "1245400001", "name": "USPS COLLECTION BOX - BLUE BOX", "address": {"city": "MAPLECREST", "state": "NY", "street": "27 COUNTY ROUTE 56", "postcode": "12454"}}},
{"geometry": {"type": "Point", "coordinates": [-74.1862624708, 42.2766318749]}, "type": "Feature", "properties": {"collection_times": [{"days": "Mon-Sat", "time": "12:00pm"}, {"days": "Sun", "time": "Closed"}], "id": "1245400002", "name": "USPS COLLECTION BOX - PO LOBBY", "address": {"city": "MAPLECREST", "state": "NY", "street": "27 COUNTY ROUTE 56 LBBY SLOT", "postcode": "12454"}}},
{"geometry": {"type": "Point", "coordinates": [-74.6532871214, 42.1450147525]}, "type": "Feature", "properties": {"collection_times": [{"days": "Mon-Fri", "time": "5:00pm"}, {"days": "Sat", "time": "12:00pm"}, {"days": "Sun", "time": "Closed"}], "id": "1245500001", "name": "USPS COLLECTION BOX - BLUE BOX", "address": {"city": "MARGARETVILLE", "state": "NY", "street": "315 MAIN ST", "postcode": "12455"}}},
{"geometry": {"type": "Point", "coordinates": [-74.652548744, 42.1548125387]}, "type": "Feature", "properties": {"collection_times": [{"days": "Mon-Fri", "time": "5:00pm"}, {"days": "Sat", "time": "12:00pm"}, {"days": "Sun", "time": "Closed"}], "id": "1245500002", "name": "USPS COLLECTION BOX - BLUE BOX", "address": {"city": "MARGARETVILLE", "state": "NY", "street": "761 MAIN ST", "postcode": "12455"}}},
{"geometry": {"type": "Point", "coordinates": [-74.6532871214, 42.1450147525]}, "type": "Feature", "properties": {"collection_times": [{"days": "Mon-Fri", "time": "5:00pm"}, {"days": "Sat", "time": "12:00pm"}, {"days": "Sun", "time": "Closed"}], "id": "1245500003", "name": "USPS COLLECTION BOX - PO LOBBY", "address": {"city": "MARGARETVILLE", "state": "NY", "street": "315 MAIN ST LBBY SLOT", "postcode": "12455"}}},
{"geometry": {"type": "Point", "coordinates": [-73.9980318298, 42.0334564041]}, "type": "Feature", "properties": {"collection_times": [{"days": "Mon-Fri", "time": "5:00pm"}, {"days": "Sat", "time": "12:00pm"}, {"days": "Sun", "time": "Closed"}], "id": "1245600001", "name": "USPS COLLECTION BOX - BLUE BOX", "address": {"city": "MOUNT MARION", "state": "NY", "street": "542 GLASCO TPKE", "postcode": "12456"}}},
{"geometry": {"type": "Point", "coordinates": [-73.9980318298, 42.0334564041]}, "type": "Feature", "properties": {"collection_times": [{"days": "Mon-Fri", "time": "5:00pm"}, {"days": "Sat", "time": "12:00pm"}, {"days": "Sun", "time": "Closed"}], "id": "1245600002", "name": "USPS COLLECTION BOX - PO LOBBY", "address": {"city": "MOUNT MARION", "state": "NY", "street": "542 GLASCO TPYE ( LOBBY SLOT )", "postcode": "12456"}}},
{"geometry": {"type": "Point", "coordinates": [-74.2693192589, 42.0388617219]}, "type": "Feature", "properties": {"collection_times": [{"days": "Mon-Fri", "time": "5:00pm"}, {"days": "Sat", "time": "12:00pm"}, {"days": "Sun", "time": "Closed"}], "id": "1245700001", "name": "USPS COLLECTION BOX - BLUE BOX", "address": {"city": "MOUNT TREMPER", "state": "NY", "street": "5458 ROUTE 212", "postcode": "12457"}}},
{"geometry": {"type": "Point", "coordinates": [-74.2693192589, 42.0388617219]}, "type": "Feature", "properties": {"collection_times": [{"days": "Mon-Fri", "time": "5:00pm"}, {"days": "Sat", "time": "12:00pm"}, {"days": "Sun", "time": "Closed"}], "id": "1245700002", "name": "USPS COLLECTION BOX - PO LOBBY", "address": {"city": "MOUNT TREMPER", "state": "NY", "street": "5458 ROUTE 212 LBBY SLOT", "postcode": "12457"}}},
{"geometry": {"type": "Point", "coordinates": [-74.3698237928, 41.7416253228]}, "type": "Feature", "properties": {"collection_times": [{"days": "Mon-Fri", "time": "5:00pm"}, {"days": "Sat", "time": "12:00pm"}, {"days": "Sun", "time": "Closed"}], "id": "1245800001", "name": "USPS COLLECTION BOX - BLUE BOX", "address": {"city": "NAPANOCH", "state": "NY", "street": "7600 STATE ROUTE 209 STE 1", "postcode": "12458"}}},
{"geometry": {"type": "Point", "coordinates": [-74.3698237928, 41.7416253228]}, "type": "Feature", "properties": {"collection_times": [{"days": "Mon-Fri", "time": "5:00pm"}, {"days": "Sat", "time": "12:00pm"}, {"days": "Sun", "time": "Closed"}], "id": "1245800002", "name": "USPS COLLECTION BOX - PO LOBBY", "address": {"city": "NAPANOCH", "state": "NY", "street": "7600 STATE ROUTE 209 LBBY SLOT", "postcode": "12458"}}},
{"geometry": {"type": "Point", "coordinates": [-74.681414865, 42.2116367662]}, "type": "Feature", "properties": {"collection_times": [{"days": "Mon-Fri", "time": "5:00pm"}, {"days": "Sat", "time": "12:00pm"}, {"days": "Sun", "time": "Closed"}], "id": "1245900001", "name": "USPS COLLECTION BOX - BLUE BOX", "address": {"city": "NEW KINGSTON", "state": "NY", "street": "5060 COUNTY ROUTE 6", "postcode": "12459"}}},
{"geometry": {"type": "Point", "coordinates": [-74.6815132471, 42.2119226303]}, "type": "Feature", "properties": {"collection_times": [{"days": "Mon-Fri", "time": "5:00pm"}, {"days": "Sat", "time": "12:00pm"}, {"days": "Sun", "time": "Closed"}], "id": "1245900002", "name": "USPS COLLECTION BOX - PO LOBBY", "address": {"city": "NEW KINGSTON", "state": "NY", "street": "5060 COUNTY ROUTE 6 LBBY SLOT", "postcode": "12459"}}},
{"geometry": {"type": "Point", "coordinates": [-74.1587171439, 42.4133316759]}, "type": "Feature", "properties": {"collection_times": [{"days": "Mon-Fri", "time": "5:00pm"}, {"days": "Sat", "time": "12:00pm"}, {"days": "Sun", "time": "Closed"}], "id": "1246000001", "name": "USPS COLLECTION BOX - BLUE BOX", "address": {"city": "OAK HILL", "state": "NY", "street": "111 OAK HILL RD", "postcode": "12460"}}},
{"geometry": {"type": "Point", "coordinates": [-74.1587171439, 42.4133316759]}, "type": "Feature", "properties": {"collection_times": [{"days": "Mon-Fri", "time": "5:00pm"}, {"days": "Sat", "time": "12:00pm"}, {"days": "Sun", "time": "Closed"}], "id": "1246000002", "name": "USPS COLLECTION BOX - PO LOBBY", "address": {"city": "OAK HILL", "state": "NY", "street": "111 OAK HILL RD LBBY SLOT", "postcode": "12460"}}},
{"geometry": {"type": "Point", "coordinates": [-74.2156653124, 41.9279591042]}, "type": "Feature", "properties": {"collection_times": [{"days": "Mon-Fri", "time": "5:00pm"}, {"days": "Sat", "time": "12:00pm"}, {"days": "Sun", "time": "Closed"}], "id": "1246100001", "name": "USPS COLLECTION BOX - BLUE BOX", "address": {"city": "OLIVEBRIDGE", "state": "NY", "street": "5147 STATE ROUTE 213 STE 1", "postcode": "12461"}}},
{"geometry": {"type": "Point", "coordinates": [-74.2156653124, 41.9279591042]}, "type": "Feature", "properties": {"collection_times": [{"days": "Mon-Fri", "time": "5:00pm"}, {"days": "Sat", "time": "12:00pm"}, {"days": "Sun", "time": "Closed"}], "id": "1246100002", "name": "USPS COLLECTION BOX - PO LOBBY", "address": {"city": "OLIVEBRIDGE", "state": "NY", "street": "5147 STATE ROUTE 213 STE 1 LBBY SLOT", "postcode": "12461"}}},
{"geometry": {"type": "Point", "coordinates": [-74.0092880598, 42.1810607169]}, "type": "Feature", "properties": {"collection_times": [{"days": "Mon-Fri", "time": "5:00pm"}, {"days": "Sat", "time": "12:00pm"}, {"days": "Sun", "time": "Closed"}], "id": "1246300001", "name": "USPS COLLECTION BOX - BLUE BOX", "address": {"city": "PALENVILLE", "state": "NY", "street": "3378 ROUTE 23A", "postcode": "12463"}}},
{"geometry": {"type": "Point", "coordinates": [-74.0092880598, 42.1810607169]}, "type": "Feature", "properties": {"collection_times": [{"days": "Mon-Fri", "time": "5:00pm"}, {"days": "Sat", "time": "12:00pm"}, {"days": "Sun", "time": "Closed"}], "id": "1246300002", "name": "USPS COLLECTION BOX - PO LOBBY", "address": {"city": "PALENVILLE", "state": "NY", "street": "3378 ROUTE 23A LBBY SLOT", "postcode": "12463"}}},
{"geometry": {"type": "Point", "coordinates": [-74.3127720479, 42.0841333467]}, "type": "Feature", "properties": {"collection_times": [{"days": "Mon-Fri", "time": "5:00pm"}, {"days": "Sat", "time": "12:00pm"}, {"days": "Sun", "time": "Closed"}], "id": "1246400001", "name": "USPS COLLECTION BOX - BLUE BOX", "address": {"city": "PHOENICIA", "state": "NY", "street": "8 AVA MARIA DR", "postcode": "12464"}}},
{"geometry": {"type": "Point", "coordinates": [-74.3127720479, 42.0841333467]}, "type": "Feature", "properties": {"collection_times": [{"days": "Mon-Fri", "time": "5:00pm"}, {"days": "Sat", "time": "12:00pm"}, {"days": "Sun", "time": "Closed"}], "id": "1246400002", "name": "USPS COLLECTION BOX - PO LOBBY", "address": {"city": "PHOENICIA", "state": "NY", "street": "8 AVA MARIA DR", "postcode": "12464"}}},
{"geometry": {"type": "Point", "coordinates": [-74.4800306159, 42.1327837171]}, "type": "Feature", "properties": {"collection_times": [{"days": "Mon-Fri", "time": "5:00pm"}, {"days": "Sat", "time": "12:00pm"}, {"days": "Sun", "time": "Closed"}], "id": "1246500001", "name": "USPS COLLECTION BOX - BLUE BOX", "address": {"city": "PINE HILL", "state": "NY", "street": "300 MAIN ST", "postcode": "12465"}}},
{"geometry": {"type": "Point", "coordinates": [-74.4800306159, 42.1327837171]}, "type": "Feature", "properties": {"collection_times": [{"days": "Mon-Fri", "time": "5:00pm"}, {"days": "Sat", "time": "12:00pm"}, {"days": "Sun", "time": "Closed"}], "id": "1246500002", "name": "USPS COLLECTION BOX - PO LOBBY", "address": {"city": "PINE HILL", "state": "NY", "street": "300 MAIN ST ( LOBBY DROP SLOT )", "postcode": "12465"}}},
{"geometry": {"type": "Point", "coordinates": [-73.977439853, 41.9051256302]}, "type": "Feature", "properties": {"collection_times": [{"days": "Mon-Fri", "time": "5:00pm"}, {"days": "Sat", "time": "2:30pm"}, {"days": "Sun", "time": "Closed"}], "id": "1246600002", "name": "USPS COLLECTION BOX - BLUE BOX", "address": {"city": "PORT EWEN", "state": "NY", "street": "158 W MAIN ST", "postcode": "12466"}}},
{"geometry": {"type": "Point", "coordinates": [-73.977439853, 41.9051256302]}, "type": "Feature", "properties": {"collection_times": [{"days": "Mon-Fri", "time": "5:00pm"}, {"days": "Sat", "time": "2:30pm"}, {"days": "Sun", "time": "Closed"}], "id": "1246600004", "name": "USPS COLLECTION BOX - PO LOBBY", "address": {"city": "PORT EWEN", "state": "NY", "street": "158 W MAIN ST LBBY SLOT", "postcode": "12466"}}},
{"geometry": {"type": "Point", "coordinates": [-74.4328752507, 42.3149383165]}, "type": "Feature", "properties": {"collection_times": [{"days": "Mon-Fri", "time": "5:00pm"}, {"days": "Sat", "time": "12:00pm"}, {"days": "Sun", "time": "Closed"}], "id": "1246800001", "name": "USPS COLLECTION BOX - BLUE BOX", "address": {"city": "PRATTSVILLE", "state": "NY", "street": "14546 MAIN ST", "postcode": "12468"}}},
{"geometry": {"type": "Point", "coordinates": [-74.4328752507, 42.3149383165]}, "type": "Feature", "properties": {"collection_times": [{"days": "Mon-Fri", "time": "5:00pm"}, {"days": "Sat", "time": "12:00pm"}, {"days": "Sun", "time": "Closed"}], "id": "1246800002", "name": "USPS COLLECTION BOX - PO LOBBY", "address": {"city": "PRATTSVILLE", "state": "NY", "street": "14546 MAIN ST LBBY SLOT", "postcode": "12468"}}},
{"geometry": {"type": "Point", "coordinates": [-74.2024324773, 42.4366764902]}, "type": "Feature", "properties": {"collection_times": [{"days": "Mon-Fri", "time": "5:00pm"}, {"days": "Sat", "time": "12:00pm"}, {"days": "Sun", "time": "Closed"}], "id": "1246900001", "name": "USPS COLLECTION BOX - BLUE BOX", "address": {"city": "PRESTON HOLLOW", "state": "NY", "street": "2930 ROUTE 145", "postcode": "12469"}}},
{"geometry": {"type": "Point", "coordinates": [-74.2024324773, 42.4366764902]}, "type": "Feature", "properties": {"collection_times": [{"days": "Mon-Fri", "time": "5:00pm"}, {"days": "Sat", "time": "12:00pm"}, {"days": "Sun", "time": "Closed"}], "id": "1246900002", "name": "USPS COLLECTION BOX - PO LOBBY", "address": {"city": "PRESTON HOLLOW", "state": "NY", "street": "2930 MAIN ST ( LOBBY SLOT )", "postcode": "12469"}}},
{"geometry": {"type": "Point", "coordinates": [-74.0408306424, 41.8378026822]}, "type": "Feature", "properties": {"collection_times": [{"days": "Mon-Fri", "time": "5:00pm"}, {"days": "Sat", "time": "12:00pm"}, {"days": "Sun", "time": "Closed"}], "id": "1247100001", "name": "USPS COLLECTION BOX - BLUE BOX", "address": {"city": "RIFTON", "state": "NY", "street": "1822 MAIN ST", "postcode": "12471"}}},
{"geometry": {"type": "Point", "coordinates": [-74.0408306424, 41.8378026822]}, "type": "Feature", "properties": {"collection_times": [{"days": "Mon-Fri", "time": "5:00pm"}, {"days": "Sat", "time": "12:00pm"}, {"days": "Sun", "time": "Closed"}], "id": "1247100002", "name": "USPS COLLECTION BOX - PO LOBBY", "address": {"city": "RIFTON", "state": "NY", "street": "1822 MAIN ST LBBY SLOT", "postcode": "12471"}}},
{"geometry": {"type": "Point", "coordinates": [-74.0798060241, 41.8445143617]}, "type": "Feature", "properties": {"collection_times": [{"days": "Mon-Fri", "time": "5:00pm"}, {"days": "Sat", "time": "12:00pm"}, {"days": "Sun", "time": "Closed"}], "id": "1247200001", "name": "USPS COLLECTION BOX - BLUE BOX", "address": {"city": "ROSENDALE", "state": "NY", "street": "354 MAIN ST", "postcode": "12472"}}},
{"geometry": {"type": "Point", "coordinates": [-74.0798060241, 41.8445143617]}, "type": "Feature", "properties": {"collection_times": [{"days": "Mon-Fri", "time": "5:00pm"}, {"days": "Sat", "time": "12:00pm"}, {"days": "Sun", "time": "Closed"}], "id": "1247200002", "name": "USPS COLLECTION BOX - PO LOBBY", "address": {"city": "ROSENDALE", "state": "NY", "street": "354 MAIN ST LBBY SLOT", "postcode": "12472"}}},
{"geometry": {"type": "Point", "coordinates": [-74.02750881, 42.2699881215]}, "type": "Feature", "properties": {"collection_times": [{"days": "Mon-Fri", "time": "5:00pm"}, {"days": "Sat", "time": "12:00pm"}, {"days": "Sun", "time": "Closed"}], "id": "1247300001", "name": "USPS COLLECTION BOX - BLUE BOX", "address": {"city": "ROUND TOP", "state": "NY", "street": "38 COUNTY ROUTE 39", "postcode": "12473"}}},
{"geometry": {"type": "Point", "coordinates": [-74.02750881, 42.2699881215]}, "type": "Feature", "properties": {"collection_times": [{"days": "Mon-Fri", "time": "5:00pm"}, {"days": "Sat", "time": "12:00pm"}, {"days": "Sun", "time": "Closed"}], "id": "1247300002", "name": "USPS COLLECTION BOX - PO LOBBY", "address": {"city": "ROUND TOP", "state": "NY", "street": "38 COUNTY ROUTE 39", "postcode": "12473"}}},
{"geometry": {"type": "Point", "coordinates": [-74.5605433488, 42.3017460796]}, "type": "Feature", "properties": {"collection_times": [{"days": "Mon-Fri", "time": "5:00pm"}, {"days": "Sat", "time": "12:00pm"}, {"days": "Sun", "time": "Closed"}], "id": "1247400001", "name": "USPS COLLECTION BOX - BLUE BOX", "address": {"city": "ROXBURY", "state": "NY", "street": "2375 COUNTY HIGHWAY 41", "postcode": "12474"}}},
{"geometry": {"type": "Point", "coordinates": [-74.5605433488, 42.3017460796]}, "type": "Feature", "properties": {"collection_times": [{"days": "Mon-Fri", "time": "5:00pm"}, {"days": "Sat", "time": "12:00pm"}, {"days": "Sun", "time": "Closed"}], "id": "1247400002", "name": "USPS COLLECTION BOX - PO LOBBY", "address": {"city": "ROXBURY", "state": "NY", "street": "2375 COUNTY HIGHWAY 41 LBBY SLOT", "postcode": "12474"}}},
{"geometry": {"type": "Point", "coordinates": [-74.0142998182, 42.0179485357]}, "type": "Feature", "properties": {"collection_times": [{"days": "Mon-Fri", "time": "5:00pm"}, {"days": "Sat", "time": "12:00pm"}, {"days": "Sun", "time": "Closed"}], "id": "1247500001", "name": "USPS COLLECTION BOX - BLUE BOX", "address": {"city": "RUBY", "state": "NY", "street": "1165 MAIN ST", "postcode": "12475"}}},
{"geometry": {"type": "Point", "coordinates": [-74.0142998182, 42.0179485357]}, "type": "Feature", "properties": {"collection_times": [{"days": "Mon-Fri", "time": "5:00pm"}, {"days": "Sat", "time": "12:00pm"}, {"days": "Sun", "time": "Closed"}], "id": "1247500002", "name": "USPS COLLECTION BOX - PO LOBBY", "address": {"city": "RUBY", "state": "NY", "street": "1165 MAIN ST LBBY SLOT", "postcode": "12475"}}},
{"geometry": {"type": "Point", "coordinates": [-73.9610736157, 42.0810067862]}, "type": "Feature", "properties": {"collection_times": [{"days": "Mon-Sat", "time": "10:00am"}, {"days": "Sun", "time": "Closed"}], "id": "1247700002", "name": "USPS COLLECTION BOX - BLUE BOX", "address": {"city": "SAUGERTIES", "state": "NY", "street": "163 ULSTER AVE", "postcode": "12477"}}},
{"geometry": {"type": "Point", "coordinates": [-73.9503690201, 42.0784799858]}, "type": "Feature", "properties": {"collection_times": [{"days": "Mon-Sat", "time": "10:00am"}, {"days": "Sun", "time": "Closed"}], "id": "1247700003", "name": "USPS COLLECTION BOX - BLUE BOX", "address": {"city": "SAUGERTIES", "state": "NY", "street": "155 MAIN ST", "postcode": "12477"}}},
{"geometry": {"type": "Point", "coordinates": [-73.9518879394, 42.0821116698]}, "type": "Feature", "properties": {"collection_times": [{"days": "Mon-Sat", "time": "10:00am"}, {"days": "Sun", "time": "Closed"}], "id": "1247700008", "name": "USPS COLLECTION BOX - BLUE BOX", "address": {"city": "SAUGERTIES", "state": "NY", "street": "206 WASHINGTON AVE", "postcode": "12477"}}},
{"geometry": {"type": "Point", "coordinates": [-73.9517116785, 42.0763175368]}, "type": "Feature", "properties": {"collection_times": [{"days": "Mon-Sat", "time": "10:00am"}, {"days": "Sun", "time": "Closed"}], "id": "1247700011", "name": "USPS COLLECTION BOX - BLUE BOX", "address": {"city": "SAUGERTIES", "state": "NY", "street": "139 PARTITION ST", "postcode": "12477"}}},
{"geometry": {"type": "Point", "coordinates": [-73.9465906491, 42.065098354]}, "type": "Feature", "properties": {"collection_times": [{"days": "Mon-Sat", "time": "10:00am"}, {"days": "Sun", "time": "Closed"}], "id": "1247700014", "name": "USPS COLLECTION BOX - BLUE BOX", "address": {"city": "SAUGERTIES", "state": "NY", "street": "14 SIMMONS PLZ", "postcode": "12477"}}},
{"geometry": {"type": "Point", "coordinates": [-73.9547471512, 42.0771243149]}, "type": "Feature", "properties": {"collection_times": [{"days": "Mon-Sat", "time": "10:00am"}, {"days": "Sun", "time": "Closed"}], "id": "1247700018", "name": "USPS COLLECTION BOX - BLUE BOX", "address": {"city": "SAUGERTIES", "state": "NY", "street": "319 MAIN ST", "postcode": "12477"}}},
{"geometry": {"type": "Point", "coordinates": [-73.9484703709, 42.0766534972]}, "type": "Feature", "properties": {"collection_times": [{"days": "Mon-Sat", "time": "10:00am"}, {"days": "Sun", "time": "Closed"}], "id": "1247700027", "name": "USPS COLLECTION BOX - BLUE BOX", "address": {"city": "SAUGERTIES", "state": "NY", "street": "59 POST ST", "postcode": "12477"}}},
{"geometry": {"type": "Point", "coordinates": [-73.9546170257, 42.0793494607]}, "type": "Feature", "properties": {"collection_times": [{"days": "Mon-Fri", "time": "5:00pm"}, {"days": "Sat", "time": "1:00pm"}, {"days": "Sun", "time": "Closed"}], "id": "1247700030", "name": "USPS COLLECTION BOX - BLUE BOX", "address": {"city": "SAUGERTIES", "state": "NY", "street": "111 MARKET ST", "postcode": "12477"}}},
{"geometry": {"type": "Point", "coordinates": [-73.9546170257, 42.0793494607]}, "type": "Feature", "properties": {"collection_times": [{"days": "Mon-Fri", "time": "5:00pm"}, {"days": "Sat", "time": "1:00pm"}, {"days": "Sun", "time": "Closed"}], "id": "1247700031", "name": "USPS COLLECTION BOX - PO LOBBY", "address": {"city": "SAUGERTIES", "state": "NY", "street": "111 MARKET ST LBBY SLOT", "postcode": "12477"}}},
{"geometry": {"type": "Point", "coordinates": [-74.3959920281, 42.1203224274]}, "type": "Feature", "properties": {"collection_times": [{"days": "Mon-Fri", "time": "5:00pm"}, {"days": "Sat", "time": "11:00am"}, {"days": "Sun", "time": "Closed"}], "id": "1248000001", "name": "USPS COLLECTION BOX - BLUE BOX", "address": {"city": "SHANDAKEN", "state": "NY", "street": "22 ROUTE 42", "postcode": "12480"}}},
{"geometry": {"type": "Point", "coordinates": [-74.3959920281, 42.1203224274]}, "type": "Feature", "properties": {"collection_times": [{"days": "Mon-Fri", "time": "5:00pm"}, {"days": "Sat", "time": "11:00am"}, {"days": "Sun", "time": "Closed"}], "id": "1248000002", "name": "USPS COLLECTION BOX - PO LOBBY", "address": {"city": "SHANDAKEN", "state": "NY", "street": "22 ROUTE 42 ( LOBBY DROP SLOT )", "postcode": "12480"}}},
{"geometry": {"type": "Point", "coordinates": [-74.2055900508, 41.9738318869]}, "type": "Feature", "properties": {"collection_times": [{"days": "Mon-Fri", "time": "5:00pm"}, {"days": "Sat", "time": "12:00pm"}, {"days": "Sun", "time": "Closed"}], "id": "1248100001", "name": "USPS COLLECTION BOX - BLUE BOX", "address": {"city": "SHOKAN", "state": "NY", "street": "3110 STATE ROUTE 28", "postcode": "12481"}}},
{"geometry": {"type": "Point", "coordinates": [-74.2055900508, 41.9738318869]}, "type": "Feature", "properties": {"collection_times": [{"days": "Mon-Fri", "time": "5:00pm"}, {"days": "Sat", "time": "12:00pm"}, {"days": "Sun", "time": "Closed"}], "id": "1248100002", "name": "USPS COLLECTION BOX - PO LOBBY", "address": {"city": "SHOKAN", "state": "NY", "street": "3110 ROUTE 28 ( LOBBY SLOT )", "postcode": "12481"}}},
{"geometry": {"type": "Point", "coordinates": [-73.9537612531, 42.2749846556]}, "type": "Feature", "properties": {"collection_times": [{"days": "Mon-Fri", "time": "5:00pm"}, {"days": "Sat", "time": "12:00pm"}, {"days": "Sun", "time": "Closed"}], "id": "1248200001", "name": "USPS COLLECTION BOX - BLUE BOX", "address": {"city": "SOUTH CAIRO", "state": "NY", "street": "2395 ROUTE 23B", "postcode": "12482"}}},
{"geometry": {"type": "Point", "coordinates": [-73.9537612531, 42.2749846556]}, "type": "Feature", "properties": {"collection_times": [{"days": "Mon-Fri", "time": "5:00pm"}, {"days": "Sat", "time": "12:00pm"}, {"days": "Sun", "time": "Closed"}], "id": "1248200002", "name": "USPS COLLECTION BOX - PO LOBBY", "address": {"city": "SOUTH CAIRO", "state": "NY", "street": "2395 ROUTE 23B LBBY SLOT", "postcode": "12482"}}},
{"geometry": {"type": "Point", "coordinates": [-74.4294887185, 41.6652812799]}, "type": "Feature", "properties": {"collection_times": [{"days": "Mon-Fri", "time": "5:00pm"}, {"days": "Sat", "time": "12:00pm"}, {"days": "Sun", "time": "Closed"}], "id": "1248300001", "name": "USPS COLLECTION BOX - BLUE BOX", "address": {"city": "SPRING GLEN", "state": "NY", "street": "1395 OLD ROUTE 209", "postcode": "12483"}}},
{"geometry": {"type": "Point", "coordinates": [-74.4294887185, 41.6652812799]}, "type": "Feature", "properties": {"collection_times": [{"days": "Mon-Fri", "time": "5:00pm"}, {"days": "Sat", "time": "12:00pm"}, {"days": "Sun", "time": "Closed"}], "id": "1248300002", "name": "USPS COLLECTION BOX - PO LOBBY", "address": {"city": "SPRING GLEN", "state": "NY", "street": "1395 OLD ROUTE 209 LBBY SLOT", "postcode": "12483"}}},
{"geometry": {"type": "Point", "coordinates": [-74.144615614, 41.8475155286]}, "type": "Feature", "properties": {"collection_times": [{"days": "Mon-Fri", "time": "5:00pm"}, {"days": "Sat", "time": "12:00pm"}, {"days": "Sun", "time": "Closed"}], "id": "1248400001", "name": "USPS COLLECTION BOX - BLUE BOX", "address": {"city": "STONE RIDGE", "state": "NY", "street": "3765 MAIN ST", "postcode": "12484"}}},
{"geometry": {"type": "Point", "coordinates": [-74.144615614, 41.8475155286]}, "type": "Feature", "properties": {"collection_times": [{"days": "Mon-Fri", "time": "5:00pm"}, {"days": "Sat", "time": "12:00pm"}, {"days": "Sun", "time": "Closed"}], "id": "1248400003", "name": "USPS COLLECTION BOX - PO LOBBY", "address": {"city": "STONE RIDGE", "state": "NY", "street": "3765 MAIN ST LBBY SLOT", "postcode": "12484"}}},
{"geometry": {"type": "Point", "coordinates": [-74.1358974274, 42.1957557821]}, "type": "Feature", "properties": {"collection_times": [{"days": "Mon-Fri", "time": "5:00pm"}, {"days": "Sat", "time": "12:00pm"}, {"days": "Sun", "time": "Closed"}], "id": "1248500002", "name": "USPS COLLECTION BOX - BLUE BOX", "address": {"city": "TANNERSVILLE", "state": "NY", "street": "6070 MAIN ST", "postcode": "12485"}}},
{"geometry": {"type": "Point", "coordinates": [-74.1358974274, 42.1957557821]}, "type": "Feature", "properties": {"collection_times": [{"days": "Mon-Fri", "time": "5:00pm"}, {"days": "Sat", "time": "12:00pm"}, {"days": "Sun", "time": "Closed"}], "id": "1248500003", "name": "USPS COLLECTION BOX - PO LOBBY", "address": {"city": "TANNERSVILLE", "state": "NY", "street": "6070 MAIN ST LBBY SLOT", "postcode": "12485"}}},
{"geometry": {"type": "Point", "coordinates": [-74.0679551412, 41.8318472371]}, "type": "Feature", "properties": {"collection_times": [{"days": "Mon-Fri", "time": "5:00pm"}, {"days": "Sat", "time": "12:00pm"}, {"days": "Sun", "time": "Closed"}], "id": "1248600001", "name": "USPS COLLECTION BOX - BLUE BOX", "address": {"city": "TILLSON", "state": "NY", "street": "134 HARDENBERGH AVE", "postcode": "12486"}}},
{"geometry": {"type": "Point", "coordinates": [-74.0679551412, 41.8318472371]}, "type": "Feature", "properties": {"collection_times": [{"days": "Mon-Fri", "time": "5:00pm"}, {"days": "Sat", "time": "12:00pm"}, {"days": "Sun", "time": "Closed"}], "id": "1248600002", "name": "USPS COLLECTION BOX - PO LOBBY", "address": {"city": "TILLSON", "state": "NY", "street": "134 HARDENBERGH AVE LBBY SLOT", "postcode": "12486"}}},
{"geometry": {"type": "Point", "coordinates": [-73.9798436256, 41.8560990789]}, "type": "Feature", "properties": {"collection_times": [{"days": "Mon-Fri", "time": "5:00pm"}, {"days": "Sat", "time": "11:30am"}, {"days": "Sun", "time": "Closed"}], "id": "1248700001", "name": "USPS COLLECTION BOX - BLUE BOX", "address": {"city": "ULSTER PARK", "state": "NY", "street": "364 UNION CENTER RD", "postcode": "12487"}}},
{"geometry": {"type": "Point", "coordinates": [-73.9798436256, 41.8560990789]}, "type": "Feature", "properties": {"collection_times": [{"days": "Mon-Fri", "time": "5:00pm"}, {"days": "Sat", "time": "11:30am"}, {"days": "Sun", "time": "Closed"}], "id": "1248700002", "name": "USPS COLLECTION BOX - PO LOBBY", "address": {"city": "ULSTER PARK", "state": "NY", "street": "364 UNION CENTER RD LBBY SLOT", "postcode": "12487"}}},
{"geometry": {"type": "Point", "coordinates": [-74.3579010448, 41.7580770114]}, "type": "Feature", "properties": {"collection_times": [{"days": "Mon-Fri", "time": "5:00pm"}, {"days": "Sat", "time": "12:00pm"}, {"days": "Sun", "time": "Closed"}], "id": "1248900001", "name": "USPS COLLECTION BOX - BLUE BOX", "address": {"city": "WAWARSING", "state": "NY", "street": "7199 ROUTE 209", "postcode": "12489"}}},
{"geometry": {"type": "Point", "coordinates": [-74.3579010448, 41.7580770114]}, "type": "Feature", "properties": {"collection_times": [{"days": "Mon-Fri", "time": "5:00pm"}, {"days": "Sat", "time": "12:00pm"}, {"days": "Sun", "time": "Closed"}], "id": "1248900002", "name": "USPS COLLECTION BOX - PO LOBBY", "address": {"city": "WAWARSING", "state": "NY", "street": "7199 ROUTE 209 LBBY SLOT", "postcode": "12489"}}},
{"geometry": {"type": "Point", "coordinates": [-73.9338293966, 42.123843905]}, "type": "Feature", "properties": {"collection_times": [{"days": "Mon-Fri", "time": "5:00pm"}, {"days": "Sat", "time": "12:00pm"}, {"days": "Sun", "time": "Closed"}], "id": "1249000001", "name": "USPS COLLECTION BOX - BLUE BOX", "address": {"city": "WEST CAMP", "state": "NY", "street": "4294 ROUTE 9W", "postcode": "12490"}}},
{"geometry": {"type": "Point", "coordinates": [-73.9338293966, 42.123843905]}, "type": "Feature", "properties": {"collection_times": [{"days": "Mon-Fri", "time": "5:00pm"}, {"days": "Sat", "time": "12:00pm"}, {"days": "Sun", "time": "Closed"}], "id": "1249000002", "name": "USPS COLLECTION BOX - PO LOBBY", "address": {"city": "WEST CAMP", "state": "NY", "street": "4294 ROUTE 9W ( LOBBY DROP SLOT )", "postcode": "12490"}}},
{"geometry": {"type": "Point", "coordinates": [-74.1143372577, 41.999413417]}, "type": "Feature", "properties": {"collection_times": [{"days": "Mon-Fri", "time": "5:00pm"}, {"days": "Sat", "time": "12:00pm"}, {"days": "Sun", "time": "Closed"}], "id": "1249100001", "name": "USPS COLLECTION BOX - BLUE BOX", "address": {"city": "WEST HURLEY", "state": "NY", "street": "1300 STATE ROUTE 28", "postcode": "12491"}}},
{"geometry": {"type": "Point", "coordinates": [-74.1143372577, 41.999413417]}, "type": "Feature", "properties": {"collection_times": [{"days": "Mon-Fri", "time": "5:00pm"}, {"days": "Sat", "time": "12:00pm"}, {"days": "Sun", "time": "Closed"}], "id": "1249100003", "name": "USPS COLLECTION BOX - PO LOBBY", "address": {"city": "WEST HURLEY", "state": "NY", "street": "1300 STATE ROUTE 28 LBBY DRP", "postcode": "12491"}}},
{"geometry": {"type": "Point", "coordinates": [-74.3866361721, 42.2080250143]}, "type": "Feature", "properties": {"collection_times": [{"days": "Mon-Fri", "time": "5:00pm"}, {"days": "Sat", "time": "12:00pm"}, {"days": "Sun", "time": "Closed"}], "id": "1249200001", "name": "USPS COLLECTION BOX - BLUE BOX", "address": {"city": "WEST KILL", "state": "NY", "street": "30 SPRUCETON RD", "postcode": "12492"}}},
{"geometry": {"type": "Point", "coordinates": [-74.3866361721, 42.2080250143]}, "type": "Feature", "properties": {"collection_times": [{"days": "Mon-Sat", "time": "12:00pm"}, {"days": "Sun", "time": "Closed"}], "id": "1249200002", "name": "USPS COLLECTION BOX - PO LOBBY", "address": {"city": "WEST KILL", "state": "NY", "street": "30 SPRUCETON RD LBBY SLOT", "postcode": "12492"}}},
{"geometry": {"type": "Point", "coordinates": [-73.960017306, 41.7947531557]}, "type": "Feature", "properties": {"collection_times": [{"days": "Mon-Fri", "time": "5:00pm"}, {"days": "Sat", "time": "12:00pm"}, {"days": "Sun", "time": "Closed"}], "id": "1249300001", "name": "USPS COLLECTION BOX - BLUE BOX", "address": {"city": "WEST PARK", "state": "NY", "street": "1740 ROUTE 9W", "postcode": "12493"}}},
{"geometry": {"type": "Point", "coordinates": [-73.960017306, 41.7947531557]}, "type": "Feature", "properties": {"collection_times": [{"days": "Mon-Fri", "time": "5:00pm"}, {"days": "Sat", "time": "12:00pm"}, {"days": "Sun", "time": "Closed"}], "id": "1249300002", "name": "USPS COLLECTION BOX - PO LOBBY", "address": {"city": "WEST PARK", "state": "NY", "street": "1740 ROUTE 9W ( LOBBY DROP SLOT )", "postcode": "12493"}}},
{"geometry": {"type": "Point", "coordinates": [-74.2766066264, 41.9663413907]}, "type": "Feature", "properties": {"collection_times": [{"days": "Mon-Fri", "time": "5:00pm"}, {"days": "Sat", "time": "12:00pm"}, {"days": "Sun", "time": "Closed"}], "id": "1249400001", "name": "USPS COLLECTION BOX - BLUE BOX", "address": {"city": "WEST SHOKAN", "state": "NY", "street": "4079 ROUTE 28A", "postcode": "12494"}}},
{"geometry": {"type": "Point", "coordinates": [-74.2766066264, 41.9663413907]}, "type": "Feature", "properties": {"collection_times": [{"days": "Mon-Fri", "time": "5:00pm"}, {"days": "Sat", "time": "12:00pm"}, {"days": "Sun", "time": "Closed"}], "id": "1249400002", "name": "USPS COLLECTION BOX - PO LOBBY", "address": {"city": "WEST SHOKAN", "state": "NY", "street": "4079 ROUTE 28A LBBY SLOT", "postcode": "12494"}}},
{"geometry": {"type": "Point", "coordinates": [-74.2244897087, 42.0735654435]}, "type": "Feature", "properties": {"collection_times": [{"days": "Mon-Fri", "time": "5:00pm"}, {"days": "Sat", "time": "12:00pm"}, {"days": "Sun", "time": "Closed"}], "id": "1249500001", "name": "USPS COLLECTION BOX - BLUE BOX", "address": {"city": "WILLOW", "state": "NY", "street": "41 VAN WAGNER RD", "postcode": "12495"}}},
{"geometry": {"type": "Point", "coordinates": [-74.2244897087, 42.0735654435]}, "type": "Feature", "properties": {"collection_times": [{"days": "Mon-Fri", "time": "5:00pm"}, {"days": "Sat", "time": "12:00pm"}, {"days": "Sun", "time": "Closed"}], "id": "1249500002", "name": "USPS COLLECTION BOX - PO LOBBY", "address": {"city": "WILLOW", "state": "NY", "street": "41 VAN WAGNER RD LBBY SLOT", "postcode": "12495"}}},
{"geometry": {"type": "Point", "coordinates": [-74.2514900416, 42.3073482397]}, "type": "Feature", "properties": {"collection_times": [{"days": "Mon-Fri", "time": "5:00pm"}, {"days": "Sat", "time": "12:00pm"}, {"days": "Sun", "time": "Closed"}], "id": "1249600002", "name": "USPS COLLECTION BOX - BLUE BOX", "address": {"city": "WINDHAM", "state": "NY", "street": "5365 ROUTE 23", "postcode": "12496"}}},
{"geometry": {"type": "Point", "coordinates": [-74.2514900416, 42.3073482397]}, "type": "Feature", "properties": {"collection_times": [{"days": "Mon-Fri", "time": "5:00pm"}, {"days": "Sat", "time": "12:00pm"}, {"days": "Sun", "time": "Closed"}], "id": "1249600005", "name": "USPS COLLECTION BOX - PO LOBBY", "address": {"city": "WINDHAM", "state": "NY", "street": "5365 ROUTE 23 LBBY SLOT", "postcode": "12496"}}},
{"geometry": {"type": "Point", "coordinates": [-74.1219300099, 42.0403106319]}, "type": "Feature", "properties": {"collection_times": [{"days": "Mon-Sat", "time": "2:30pm"}, {"days": "Sun", "time": "Closed"}], "id": "1249800001", "name": "USPS COLLECTION BOX - BLUE BOX", "address": {"city": "WOODSTOCK", "state": "NY", "street": "84 TINKER ST", "postcode": "12498"}}},
{"geometry": {"type": "Point", "coordinates": [-74.1186177248, 42.0409269535]}, "type": "Feature", "properties": {"collection_times": [{"days": "Mon-Sat", "time": "2:30pm"}, {"days": "Sun", "time": "Closed"}], "id": "1249800002", "name": "USPS COLLECTION BOX - BLUE BOX", "address": {"city": "WOODSTOCK", "state": "NY", "street": "7 TINKER ST", "postcode": "12498"}}},
{"geometry": {"type": "Point", "coordinates": [-74.1145223208, 42.039125307]}, "type": "Feature", "properties": {"collection_times": [{"days": "Mon-Sat", "time": "2:30pm"}, {"days": "Sun", "time": "Closed"}], "id": "1249800003", "name": "USPS COLLECTION BOX - BLUE BOX", "address": {"city": "WOODSTOCK", "state": "NY", "street": "60 MILL HILL RD", "postcode": "12498"}}},
{"geometry": {"type": "Point", "coordinates": [-74.1136871518, 42.0386887951]}, "type": "Feature", "properties": {"collection_times": [{"days": "Mon-Sat", "time": "2:30pm"}, {"days": "Sun", "time": "Closed"}], "id": "1249800004", "name": "USPS COLLECTION BOX - BLUE BOX", "address": {"city": "WOODSTOCK", "state": "NY", "street": "79 MILL HILL RD", "postcode": "12498"}}},
{"geometry": {"type": "Point", "coordinates": [-74.1293794504, 42.0404480057]}, "type": "Feature", "properties": {"collection_times": [{"days": "Mon-Fri", "time": "5:00pm"}, {"days": "Sat", "time": "2:30pm"}, {"days": "Sun", "time": "Closed"}], "id": "1249800005", "name": "USPS COLLECTION BOX - BLUE BOX", "address": {"city": "WOODSTOCK", "state": "NY", "street": "2 WOODSTOCK MDWS", "postcode": "12498"}}},
{"geometry": {"type": "Point", "coordinates": [-74.1293794504, 42.0404480057]}, "type": "Feature", "properties": {"collection_times": [{"days": "Mon-Fri", "time": "5:00pm"}, {"days": "Sat", "time": "2:30pm"}, {"days": "Sun", "time": "Closed"}], "id": "1249800007", "name": "USPS COLLECTION BOX - PO LOBBY", "address": {"city": "WOODSTOCK", "state": "NY", "street": "2 WOODSTOCK MDWS LBBY SLOT", "postcode": "12498"}}}
]}
