{"type": "FeatureCollection", "features": [
{"geometry": {"type": "Point", "coordinates": [-73.5565596147, 41.8495868898]}, "type": "Feature", "properties": {"collection_times": [{"days": "Mon-Fri", "time": "5:00pm"}, {"days": "Sat", "time": "12:00pm"}, {"days": "Sun", "time": "Closed"}], "id": "1250100001", "name": "USPS COLLECTION BOX - BLUE BOX", "address": {"city": "AMENIA", "state": "NY", "street": "3296 ROUTE 343", "postcode": "12501"}}},
{"geometry": {"type": "Point", "coordinates": [-73.5565596147, 41.8495868898]}, "type": "Feature", "properties": {"collection_times": [{"days": "Mon-Fri", "time": "5:00pm"}, {"days": "Sat", "time": "12:00pm"}, {"days": "Sun", "time": "Closed"}], "id": "1250100002", "name": "USPS COLLECTION BOX - PO LOBBY", "address": {"city": "AMENIA", "state": "NY", "street": "3296 ROUTE 343 LBBY SLOT", "postcode": "12501"}}},
{"geometry": {"type": "Point", "coordinates": [-73.6392626419, 42.0485747832]}, "type": "Feature", "properties": {"collection_times": [{"days": "Mon-Fri", "time": "5:00pm"}, {"days": "Sat", "time": "12:00pm"}, {"days": "Sun", "time": "Closed"}], "id": "1250200001", "name": "USPS COLLECTION BOX - BLUE BOX", "address": {"city": "ANCRAM", "state": "NY", "street": "1295 COUNTY ROUTE 7", "postcode": "12502"}}},
{"geometry": {"type": "Point", "coordinates": [-73.6594161378, 42.0804985958]}, "type": "Feature", "properties": {"collection_times": [{"days": "Mon-Fri", "time": "5:00pm"}, {"days": "Sat", "time": "12:00pm"}, {"days": "Sun", "time": "Closed"}], "id": "1250200003", "name": "USPS COLLECTION BOX - PO LOBBY", "address": {"city": "ANCRAM", "state": "NY", "street": "1295 COUNTY ROUTE 17 ( LOBBY SLOT )", "postcode": "12502"}}},
{"geometry": {"type": "Point", "coordinates": [-73.5907753113, 42.0171589919]}, "type": "Feature", "properties": {"collection_times": [{"days": "Mon-Fri", "time": "5:00pm"}, {"days": "Sat", "time": "11:00am"}, {"days": "Sun", "time": "Closed"}], "id": "1250300001", "name": "USPS COLLECTION BOX - BLUE BOX", "address": {"city": "ANCRAMDALE", "state": "NY", "street": "11 COUNTY ROUTE 8", "postcode": "12503"}}},
{"geometry": {"type": "Point", "coordinates": [-73.5793890011, 42.0324831663]}, "type": "Feature", "properties": {"collection_times": [{"days": "Mon-Fri", "time": "5:00pm"}, {"days": "Sat", "time": "11:00am"}, {"days": "Sun", "time": "Closed"}], "id": "1250300002", "name": "USPS COLLECTION BOX - PO LOBBY", "address": {"city": "ANCRAMDALE", "state": "NY", "street": "11 COUNTY RD ( LOBBY SLOT )", "postcode": "12503"}}},
{"geometry": {"type": "Point", "coordinates": [-73.6913269691, 41.875165325]}, "type": "Feature", "properties": {"collection_times": [{"days": "Mon-Fri", "time": "5:00pm"}, {"days": "Sat", "time": "12:00pm"}, {"days": "Sun", "time": "Closed"}], "id": "1250600001", "name": "USPS COLLECTION BOX - BLUE BOX", "address": {"city": "BANGALL", "state": "NY", "street": "105 HUNNS LAKE RD", "postcode": "12506"}}},
{"geometry": {"type": "Point", "coordinates": [-73.6913269691, 41.875165325]}, "type": "Feature", "properties": {"collection_times": [{"days": "Mon-Fri", "time": "5:00pm"}, {"days": "Sat", "time": "12:00pm"}, {"days": "Sun", "time": "Closed"}], "id": "1250600002", "name": "USPS COLLECTION BOX - PO LOBBY", "address": {"city": "BANGALL", "state": "NY", "street": "105 HUNNS LAKE RD", "postcode": "12506"}}},
{"geometry": {"type": "Point", "coordinates": [-73.9817948462, 41.5022677996]}, "type": "Feature", "properties": {"collection_times": [{"days": "Mon-Fri", "time": "1:00pm"}, {"days": "Sat", "time": "12:00pm"}, {"days": "Sun", "time": "Closed"}], "id": "1250800005", "name": "USPS COLLECTION BOX - BLUE BOX", "address": {"city": "BEACON", "state": "NY", "street": "1 BEEKMAN ST", "postcode": "12508"}}},
{"geometry": {"type": "Point", "coordinates": [-73.9642779879, 41.5034306168]}, "type": "Feature", "properties": {"collection_times": [{"days": "Mon-Fri", "time": "1:00pm"}, {"days": "Sat", "time": "12:00pm"}, {"days": "Sun", "time": "Closed"}], "id": "1250800006", "name": "USPS COLLECTION BOX - BLUE BOX", "address": {"city": "BEACON", "state": "NY", "street": "43 NORTH AVE", "postcode": "12508"}}},
{"geometry": {"type": "Point", "coordinates": [-73.97438427, 41.5225590669]}, "type": "Feature", "properties": {"collection_times": [{"days": "Mon-Fri", "time": "1:00pm"}, {"days": "Sat", "time": "12:00pm"}, {"days": "Sun", "time": "Closed"}], "id": "1250800008", "name": "USPS COLLECTION BOX - BLUE BOX", "address": {"city": "BEACON", "state": "NY", "street": "1 LAMPLIGHT ST", "postcode": "12508"}}},
{"geometry": {"type": "Point", "coordinates": [-73.9729517067, 41.5104656774]}, "type": "Feature", "properties": {"collection_times": [{"days": "Mon-Fri", "time": "1:00pm"}, {"days": "Sat", "time": "12:30pm"}, {"days": "Sun", "time": "Closed"}], "id": "1250800009", "name": "USPS COLLECTION BOX - BLUE BOX", "address": {"city": "BEACON", "state": "NY", "street": "50 VERPLANCK AVE", "postcode": "12508"}}},
{"geometry": {"type": "Point", "coordinates": [-73.9713334188, 41.5058213805]}, "type": "Feature", "properties": {"collection_times": [{"days": "Mon-Fri", "time": "1:30pm"}, {"days": "Sat", "time": "12:00pm"}, {"days": "Sun", "time": "Closed"}], "id": "1250800018", "name": "USPS COLLECTION BOX - BLUE BOX", "address": {"city": "BEACON", "state": "NY", "street": "276 MAIN ST", "postcode": "12508"}}},
{"geometry": {"type": "Point", "coordinates": [-73.9742612423, 41.5074609616]}, "type": "Feature", "properties": {"collection_times": [{"days": "Mon-Fri", "time": "1:30pm"}, {"days": "Sat", "time": "12:00pm"}, {"days": "Sun", "time": "Closed"}], "id": "1250800019", "name": "USPS COLLECTION BOX - BLUE BOX", "address": {"city": "BEACON", "state": "NY", "street": "200 MAIN ST", "postcode": "12508"}}},
{"geometry": {"type": "Point", "coordinates": [-73.9684751447, 41.5041752968]}, "type": "Feature", "properties": {"collection_times": [{"days": "Mon-Fri", "time": "5:00pm"}, {"days": "Sat", "time": "4:00pm"}, {"days": "Sun", "time": "Closed"}], "id": "1250800020", "name": "USPS COLLECTION BOX - BLUE BOX", "address": {"city": "BEACON", "state": "NY", "street": "369 MAIN ST", "postcode": "12508"}}},
{"geometry": {"type": "Point", "coordinates": [-73.9637400052, 41.5064814716]}, "type": "Feature", "properties": {"collection_times": [{"days": "Mon-Fri", "time": "1:30pm"}, {"days": "Sat", "time": "12:30pm"}, {"days": "Sun", "time": "Closed"}], "id": "1250800023", "name": "USPS COLLECTION BOX - BLUE BOX", "address": {"city": "BEACON", "state": "NY", "street": "5 LINCOLN AVE", "postcode": "12508"}}},
{"geometry": {"type": "Point", "coordinates": [-73.9663496127, 41.5029680834]}, "type": "Feature", "properties": {"collection_times": [{"days": "Mon-Fri", "time": "1:30pm"}, {"days": "Sat", "time": "12:30pm"}, {"days": "Sun", "time": "Closed"}], "id": "1250800027", "name": "USPS COLLECTION BOX - BLUE BOX", "address": {"city": "BEACON", "state": "NY", "street": "427 MAIN ST", "postcode": "12508"}}},
{"geometry": {"type": "Point", "coordinates": [-73.9676236595, 41.5054842372]}, "type": "Feature", "properties": {"collection_times": [{"days": "Mon-Fri", "time": "1:00pm"}, {"days": "Sat", "time": "12:30pm"}, {"days": "Sun", "time": "Closed"}], "id": "1250800029", "name": "USPS COLLECTION BOX - BLUE BOX", "address": {"city": "BEACON", "state": "NY", "street": "31 ELIZA ST", "postcode": "12508"}}},
{"geometry": {"type": "Point", "coordinates": [-73.9728487893, 41.5066683791]}, "type": "Feature", "properties": {"collection_times": [{"days": "Mon-Fri", "time": "1:30pm"}, {"days": "Sat", "time": "12:00pm"}, {"days": "Sun", "time": "Closed"}], "id": "1250800032", "name": "USPS COLLECTION BOX - BLUE BOX", "address": {"city": "BEACON", "state": "NY", "street": "234 MAIN ST", "postcode": "12508"}}},
{"geometry": {"type": "Point", "coordinates": [-73.9755601148, 41.5007551895]}, "type": "Feature", "properties": {"collection_times": [{"days": "Mon-Fri", "time": "1:00pm"}, {"days": "Sat", "time": "12:00pm"}, {"days": "Sun", "time": "Closed"}], "id": "1250800033", "name": "USPS COLLECTION BOX - BLUE BOX", "address": {"city": "BEACON", "state": "NY", "street": "2 FORRESTAL HTS", "postcode": "12508"}}},
{"geometry": {"type": "Point", "coordinates": [-73.9682943973, 41.5111920142]}, "type": "Feature", "properties": {"collection_times": [{"days": "Mon-Fri", "time": "1:00pm"}, {"days": "Sat", "time": "12:30pm"}, {"days": "Sun", "time": "Closed"}], "id": "1250800034", "name": "USPS COLLECTION BOX - BLUE BOX", "address": {"city": "BEACON", "state": "NY", "street": "124 N WALNUT ST", "postcode": "12508"}}},
{"geometry": {"type": "Point", "coordinates": [-73.9684552797, 41.5041995437]}, "type": "Feature", "properties": {"collection_times": [{"days": "Mon-Fri", "time": "5:00pm"}, {"days": "Sat", "time": "4:00pm"}, {"days": "Sun", "time": "Closed"}], "id": "1250800035", "name": "USPS COLLECTION BOX - PO LOBBY", "address": {"city": "BEACON", "state": "NY", "street": "369 MAIN ST ( LOBBY DROP SLOT )", "postcode": "12508"}}},
{"geometry": {"type": "Point", "coordinates": [-73.7622909182, 41.6716492383]}, "type": "Feature", "properties": {"collection_times": [{"days": "Mon-Fri", "time": "5:00pm"}, {"days": "Sat", "time": "11:30am"}, {"days": "Sun", "time": "Closed"}], "id": "1251000001", "name": "USPS COLLECTION BOX - BLUE BOX", "address": {"city": "BILLINGS", "state": "NY", "street": "2411 ROUTE 82", "postcode": "12510"}}},
{"geometry": {"type": "Point", "coordinates": [-73.7622909182, 41.6716492383]}, "type": "Feature", "properties": {"collection_times": [{"days": "Mon-Fri", "time": "5:00pm"}, {"days": "Sat", "time": "11:30am"}, {"days": "Sun", "time": "Closed"}], "id": "1251000002", "name": "USPS COLLECTION BOX - PO LOBBY", "address": {"city": "BILLINGS", "state": "NY", "street": "2411 ROUTE 82 LBBY SLOT", "postcode": "12510"}}},
{"geometry": {"type": "Point", "coordinates": [-73.9691444289, 41.5526243947]}, "type": "Feature", "properties": {"collection_times": [{"days": "Mon-Fri", "time": "5:00pm"}, {"days": "Sat", "time": "12:00pm"}, {"days": "Sun", "time": "Closed"}], "id": "1251200001", "name": "USPS COLLECTION BOX - BLUE BOX", "address": {"city": "CHELSEA", "state": "NY", "street": "17 LIBERTY ST", "postcode": "12512"}}},
{"geometry": {"type": "Point", "coordinates": [-73.9691444289, 41.5526243947]}, "type": "Feature", "properties": {"collection_times": [{"days": "Mon-Sat", "time": "12:00pm"}, {"days": "Sun", "time": "Closed"}], "id": "1251200002", "name": "USPS COLLECTION BOX - PO LOBBY", "address": {"city": "CHELSEA", "state": "NY", "street": "17 LIBERTY ST LBBY SLOT", "postcode": "12512"}}},
{"geometry": {"type": "Point", "coordinates": [-73.7212967502, 42.2231334052]}, "type": "Feature", "properties": {"collection_times": [{"days": "Mon-Fri", "time": "5:00pm"}, {"days": "Sat", "time": "12:00pm"}, {"days": "Sun", "time": "Closed"}], "id": "1251300001", "name": "USPS COLLECTION BOX - BLUE BOX", "address": {"city": "CLAVERACK", "state": "NY", "street": "4 PARK PLACE ST", "postcode": "12513"}}},
{"geometry": {"type": "Point", "coordinates": [-73.71031434, 42.2101111294]}, "type": "Feature", "properties": {"collection_times": [{"days": "Mon-Fri", "time": "5:00pm"}, {"days": "Sat", "time": "12:00pm"}, {"days": "Sun", "time": "Closed"}], "id": "1251300002", "name": "USPS COLLECTION BOX - PO LOBBY", "address": {"city": "CLAVERACK", "state": "NY", "street": "4 PARK ST ( LOBBY SLOT )", "postcode": "12513"}}},
{"geometry": {"type": "Point", "coordinates": [-73.7626038583, 41.8354079436]}, "type": "Feature", "properties": {"collection_times": [{"days": "Mon-Fri", "time": "5:00pm"}, {"days": "Sat", "time": "12:00pm"}, {"days": "Sun", "time": "Closed"}], "id": "1251400001", "name": "USPS COLLECTION BOX - BLUE BOX", "address": {"city": "CLINTON CORNERS", "state": "NY", "street": "2486 SALT POINT TPKE", "postcode": "12514"}}},
{"geometry": {"type": "Point", "coordinates": [-73.7626038583, 41.8354079436]}, "type": "Feature", "properties": {"collection_times": [{"days": "Mon-Fri", "time": "5:00pm"}, {"days": "Sat", "time": "12:00pm"}, {"days": "Sun", "time": "Closed"}], "id": "1251400002", "name": "USPS COLLECTION BOX - PO LOBBY", "address": {"city": "CLINTON CORNERS", "state": "NY", "street": "2486 SALT POINT TPKE LBBY SLOT", "postcode": "12514"}}},
{"geometry": {"type": "Point", "coordinates": [-74.0495199087, 41.6944193453]}, "type": "Feature", "properties": {"collection_times": [{"days": "Mon-Fri", "time": "5:00pm"}, {"days": "Sat", "time": "11:45am"}, {"days": "Sun", "time": "Closed"}], "id": "1251500001", "name": "USPS COLLECTION BOX - BLUE BOX", "address": {"city": "CLINTONDALE", "state": "NY", "street": "1059 ROUTE 44 55", "postcode": "12515"}}},
{"geometry": {"type": "Point", "coordinates": [-74.0495199087, 41.6944193453]}, "type": "Feature", "properties": {"collection_times": [{"days": "Mon-Fri", "time": "5:00pm"}, {"days": "Sat", "time": "11:45am"}, {"days": "Sun", "time": "Closed"}], "id": "1251500002", "name": "USPS COLLECTION BOX - PO LOBBY", "address": {"city": "CLINTONDALE", "state": "NY", "street": "1059 ROUTE 44 55 LBBY SLOT", "postcode": "12515"}}},
{"geometry": {"type": "Point", "coordinates": [-73.5640075511, 42.1107541829]}, "type": "Feature", "properties": {"collection_times": [{"days": "Mon-Fri", "time": "5:00pm"}, {"days": "Sat", "time": "12:00pm"}, {"days": "Sun", "time": "Closed"}], "id": "1251600001", "name": "USPS COLLECTION BOX - BLUE BOX", "address": {"city": "COPAKE", "state": "NY", "street": "1656 COUNTY ROUTE 7A", "postcode": "12516"}}},
{"geometry": {"type": "Point", "coordinates": [-73.5490120441, 42.102718031]}, "type": "Feature", "properties": {"collection_times": [{"days": "Mon-Fri", "time": "5:00pm"}, {"days": "Sat", "time": "12:00pm"}, {"days": "Sun", "time": "Closed"}], "id": "1251600002", "name": "USPS COLLECTION BOX - PO LOBBY", "address": {"city": "COPAKE", "state": "NY", "street": "1656 ROUTE 7A ( LOBBY SLOT )", "postcode": "12516"}}},
{"geometry": {"type": "Point", "coordinates": [-73.5144379875, 42.1207297916]}, "type": "Feature", "properties": {"collection_times": [{"days": "Mon-Fri", "time": "5:00pm"}, {"days": "Sat", "time": "12:00pm"}, {"days": "Sun", "time": "Closed"}], "id": "1251700001", "name": "USPS COLLECTION BOX - BLUE BOX", "address": {"city": "COPAKE FALLS", "state": "NY", "street": "109 STATE ROUTE 344", "postcode": "12517"}}},
{"geometry": {"type": "Point", "coordinates": [-73.5144379875, 42.1207297916]}, "type": "Feature", "properties": {"collection_times": [{"days": "Mon-Fri", "time": "5:00pm"}, {"days": "Sat", "time": "12:00pm"}, {"days": "Sun", "time": "Closed"}], "id": "1251700002", "name": "USPS COLLECTION BOX - PO LOBBY", "address": {"city": "COPAKE FALLS", "state": "NY", "street": "109 STATE ROUTE 344 LBBY SLOT", "postcode": "12517"}}},
{"geometry": {"type": "Point", "coordinates": [-74.03853165, 41.4344420266]}, "type": "Feature", "properties": {"collection_times": [{"days": "Mon-Fri", "time": "5:00pm"}, {"days": "Sat", "time": "4:00pm"}, {"days": "Sun", "time": "Closed"}], "id": "1251800002", "name": "USPS COLLECTION BOX - BLUE BOX", "address": {"city": "CORNWALL", "state": "NY", "street": "33 QUAKER AVE", "postcode": "12518"}}},
{"geometry": {"type": "Point", "coordinates": [-74.0419519256, 41.4358907607]}, "type": "Feature", "properties": {"collection_times": [{"days": "Mon-Sat", "time": "11:00am"}, {"days": "Sun", "time": "Closed"}], "id": "1251800003", "name": "USPS COLLECTION BOX - BLUE BOX", "address": {"city": "CORNWALL", "state": "NY", "street": "21 LAUREL AVE", "postcode": "12518"}}},
{"geometry": {"type": "Point", "coordinates": [-74.0339296925, 41.4353619786]}, "type": "Feature", "properties": {"collection_times": [{"days": "Mon-Sat", "time": "11:00am"}, {"days": "Sun", "time": "Closed"}], "id": "1251800007", "name": "USPS COLLECTION BOX - BLUE BOX", "address": {"city": "CORNWALL", "state": "NY", "street": "295 MAIN ST", "postcode": "12518"}}},
{"geometry": {"type": "Point", "coordinates": [-74.0402056889, 41.4407609252]}, "type": "Feature", "properties": {"collection_times": [{"days": "Mon-Sat", "time": "11:00am"}, {"days": "Sun", "time": "Closed"}], "id": "1251800009", "name": "USPS COLLECTION BOX - BLUE BOX", "address": {"city": "CORNWALL", "state": "NY", "street": "1 MANOR DR", "postcode": "12518"}}},
{"geometry": {"type": "Point", "coordinates": [-74.0297491155, 41.439586325]}, "type": "Feature", "properties": {"collection_times": [{"days": "Mon-Sat", "time": "11:00am"}, {"days": "Sun", "time": "Closed"}], "id": "1251800010", "name": "USPS COLLECTION BOX - BLUE BOX", "address": {"city": "CORNWALL", "state": "NY", "street": "183 MAIN ST", "postcode": "12518"}}},
{"geometry": {"type": "Point", "coordinates": [-74.03853165, 41.4344420266]}, "type": "Feature", "properties": {"collection_times": [{"days": "Mon-Fri", "time": "5:00pm"}, {"days": "Sat", "time": "4:00pm"}, {"days": "Sun", "time": "Closed"}], "id": "1251800011", "name": "USPS COLLECTION BOX - PO LOBBY", "address": {"city": "CORNWALL", "state": "NY", "street": "33 QUAKER AVE LBBY SLOT", "postcode": "12518"}}},
{"geometry": {"type": "Point", "coordinates": [-74.0147682867, 41.4444132581]}, "type": "Feature", "properties": {"collection_times": [{"days": "Mon-Fri", "time": "5:00pm"}, {"days": "Sat", "time": "3:00pm"}, {"days": "Sun", "time": "Closed"}], "id": "1252000001", "name": "USPS COLLECTION BOX - BLUE BOX", "address": {"city": "CORNWALL HDSN", "state": "NY", "street": "237 HUDSON ST", "postcode": "12520"}}},
{"geometry": {"type": "Point", "coordinates": [-74.0147682867, 41.4444132581]}, "type": "Feature", "properties": {"collection_times": [{"days": "Mon-Fri", "time": "5:00pm"}, {"days": "Sat", "time": "3:00pm"}, {"days": "Sun", "time": "Closed"}], "id": "1252000005", "name": "USPS COLLECTION BOX - PO LOBBY", "address": {"city": "CORNWALL HDSN", "state": "NY", "street": "237 HUDSON ST LBBY SLOT", "postcode": "12520"}}},
{"geometry": {"type": "Point", "coordinates": [-73.5871864337, 42.174126603]}, "type": "Feature", "properties": {"collection_times": [{"days": "Mon-Fri", "time": "5:00pm"}, {"days": "Sat", "time": "12:00pm"}, {"days": "Sun", "time": "Closed"}], "id": "1252100001", "name": "USPS COLLECTION BOX - BLUE BOX", "address": {"city": "CRARYVILLE", "state": "NY", "street": "1751 ROUTE 23", "postcode": "12521"}}},
{"geometry": {"type": "Point", "coordinates": [-73.5871864337, 42.174126603]}, "type": "Feature", "properties": {"collection_times": [{"days": "Mon-Fri", "time": "5:00pm"}, {"days": "Sat", "time": "12:00pm"}, {"days": "Sun", "time": "Closed"}], "id": "1252100002", "name": "USPS COLLECTION BOX - PO LOBBY", "address": {"city": "CRARYVILLE", "state": "NY", "street": "1751 ROUTE 23 LBBY SLOT", "postcode": "12521"}}},
{"geometry": {"type": "Point", "coordinates": [-73.580910825, 41.7339561998]}, "type": "Feature", "properties": {"collection_times": [{"days": "Mon-Fri", "time": "5:00pm"}, {"days": "Sat", "time": "12:30pm"}, {"days": "Sun", "time": "Closed"}], "id": "1252200001", "name": "USPS COLLECTION BOX - BLUE BOX", "address": {"city": "DOVER PLAINS", "state": "NY", "street": "3042 ROUTE 22", "postcode": "12522"}}},
{"geometry": {"type": "Point", "coordinates": [-73.580910825, 41.7339561998]}, "type": "Feature", "properties": {"collection_times": [{"days": "Mon-Fri", "time": "5:00pm"}, {"days": "Sat", "time": "12:30pm"}, {"days": "Sun", "time": "Closed"}], "id": "1252200004", "name": "USPS COLLECTION BOX - PO LOBBY", "address": {"city": "DOVER PLAINS", "state": "NY", "street": "3042 ROUTE 22 LBBY SLOT", "postcode": "12522"}}},
{"geometry": {"type": "Point", "coordinates": [-73.7914677038, 42.0500639852]}, "type": "Feature", "properties": {"collection_times": [{"days": "Mon-Fri", "time": "5:00pm"}, {"days": "Sat", "time": "12:00pm"}, {"days": "Sun", "time": "Closed"}], "id": "1252300001", "name": "USPS COLLECTION BOX - BLUE BOX", "address": {"city": "ELIZAVILLE", "state": "NY", "street": "673 COUNTY ROUTE 2", "postcode": "12523"}}},
{"geometry": {"type": "Point", "coordinates": [-73.7914677038, 42.0500639852]}, "type": "Feature", "properties": {"collection_times": [{"days": "Mon-Fri", "time": "5:00pm"}, {"days": "Sat", "time": "12:00pm"}, {"days": "Sun", "time": "Closed"}], "id": "1252300003", "name": "USPS COLLECTION BOX - PO LOBBY", "address": {"city": "ELIZAVILLE", "state": "NY", "street": "673 COUNTY ROUTE 2 LBBY SLOT", "postcode": "12523"}}},
{"geometry": {"type": "Point", "coordinates": [-73.9009863981, 41.5357324979]}, "type": "Feature", "properties": {"collection_times": [{"days": "Mon-Fri", "time": "2:00pm"}, {"days": "Sat", "time": "1:00pm"}, {"days": "Sun", "time": "Closed"}], "id": "1252400002", "name": "USPS COLLECTION BOX - BLUE BOX", "address": {"city": "FISHKILL", "state": "NY", "street": "1134 MAIN ST", "postcode": "12524"}}},
{"geometry": {"type": "Point", "coordinates": [-73.8966863422, 41.5347470931]}, "type": "Feature", "properties": {"collection_times": [{"days": "Mon-Fri", "time": "2:00pm"}, {"days": "Sat", "time": "1:00pm"}, {"days": "Sun", "time": "Closed"}], "id": "1252400003", "name": "USPS COLLECTION BOX - BLUE BOX", "address": {"city": "FISHKILL", "state": "NY", "street": "21 OLD MAIN ST", "postcode": "12524"}}},
{"geometry": {"type": "Point", "coordinates": [-73.9027963253, 41.5353989035]}, "type": "Feature", "properties": {"collection_times": [{"days": "Mon-Fri", "time": "2:00pm"}, {"days": "Sat", "time": "1:30pm"}, {"days": "Sun", "time": "Closed"}], "id": "1252400004", "name": "USPS COLLECTION BOX - BLUE BOX", "address": {"city": "FISHKILL", "state": "NY", "street": "1095 MAIN ST", "postcode": "12524"}}},
{"geometry": {"type": "Point", "coordinates": [-73.9045455576, 41.5352258114]}, "type": "Feature", "properties": {"collection_times": [{"days": "Mon-Fri", "time": "2:00pm"}, {"days": "Sat", "time": "1:30pm"}, {"days": "Sun", "time": "Closed"}], "id": "1252400006", "name": "USPS COLLECTION BOX - BLUE BOX", "address": {"city": "FISHKILL", "state": "NY", "street": "14 ROSILIA LN", "postcode": "12524"}}},
{"geometry": {"type": "Point", "coordinates": [-73.9004315903, 41.5381149772]}, "type": "Feature", "properties": {"collection_times": [{"days": "Mon-Fri", "time": "2:00pm"}, {"days": "Sat", "time": "1:30pm"}, {"days": "Sun", "time": "Closed"}], "id": "1252400008", "name": "USPS COLLECTION BOX - BLUE BOX", "address": {"city": "FISHKILL", "state": "NY", "street": "738 ROUTE 9", "postcode": "12524"}}},
{"geometry": {"type": "Point", "coordinates": [-73.8759538034, 41.5436311149]}, "type": "Feature", "properties": {"collection_times": [{"days": "Mon-Fri", "time": "2:00pm"}, {"days": "Sat", "time": "1:30pm"}, {"days": "Sun", "time": "Closed"}], "id": "1252400010", "name": "USPS COLLECTION BOX - BLUE BOX", "address": {"city": "FISHKILL", "state": "NY", "street": "1545 ROUTE 52", "postcode": "12524"}}},
{"geometry": {"type": "Point", "coordinates": [-73.9217709871, 41.5256359431]}, "type": "Feature", "properties": {"collection_times": [{"days": "Mon-Fri", "time": "2:00pm"}, {"days": "Sat", "time": "1:00pm"}, {"days": "Sun", "time": "Closed"}], "id": "1252400012", "name": "USPS COLLECTION BOX - BLUE BOX", "address": {"city": "FISHKILL", "state": "NY", "street": "807 ROUTE 52", "postcode": "12524"}}},
{"geometry": {"type": "Point", "coordinates": [-73.9057300635, 41.5330389003]}, "type": "Feature", "properties": {"collection_times": [{"days": "Mon-Fri", "time": "5:00pm"}, {"days": "Sat", "time": "4:00pm"}, {"days": "Sun", "time": "Closed"}], "id": "1252400018", "name": "USPS COLLECTION BOX - BLUE BOX", "address": {"city": "FISHKILL", "state": "NY", "street": "1012 MAIN ST", "postcode": "12524"}}},
{"geometry": {"type": "Point", "coordinates": [-73.9057300635, 41.5330389003]}, "type": "Feature", "properties": {"collection_times": [{"days": "Mon-Fri", "time": "5:00pm"}, {"days": "Sat", "time": "4:00pm"}, {"days": "Sun", "time": "Closed"}], "id": "1252400019", "name": "USPS COLLECTION BOX - PO LOBBY", "address": {"city": "FISHKILL", "state": "NY", "street": "1012 MAIN ST LBBY SLOT", "postcode": "12524"}}},
{"geometry": {"type": "Point", "coordinates": [-74.1509231512, 41.6799174513]}, "type": "Feature", "properties": {"collection_times": [{"days": "Mon-Fri", "time": "5:00pm"}, {"days": "Sat", "time": "12:00pm"}, {"days": "Sun", "time": "Closed"}], "id": "1252500001", "name": "USPS COLLECTION BOX - BLUE BOX", "address": {"city": "GARDINER", "state": "NY", "street": "124 MAIN ST", "postcode": "12525"}}},
{"geometry": {"type": "Point", "coordinates": [-74.1509231512, 41.6799174513]}, "type": "Feature", "properties": {"collection_times": [{"days": "Mon-Fri", "time": "5:00pm"}, {"days": "Sat", "time": "12:00pm"}, {"days": "Sun", "time": "Closed"}], "id": "1252500002", "name": "USPS COLLECTION BOX - PO LOBBY", "address": {"city": "GARDINER", "state": "NY", "street": "124 MAIN ST LBBY SLOT", "postcode": "12525"}}},
{"geometry": {"type": "Point", "coordinates": [-73.8823646841, 42.1327565254]}, "type": "Feature", "properties": {"collection_times": [{"days": "Mon-Fri", "time": "5:00pm"}, {"days": "Sat", "time": "3:00pm"}, {"days": "Sun", "time": "Closed"}], "id": "1252600001", "name": "USPS COLLECTION BOX - BLUE BOX", "address": {"city": "GERMANTOWN", "state": "NY", "street": "200 MAIN ST", "postcode": "12526"}}},
{"geometry": {"type": "Point", "coordinates": [-73.8823646841, 42.1327565254]}, "type": "Feature", "properties": {"collection_times": [{"days": "Mon-Fri", "time": "5:00pm"}, {"days": "Sat", "time": "3:00pm"}, {"days": "Sun", "time": "Closed"}], "id": "1252600003", "name": "USPS COLLECTION BOX - PO LOBBY", "address": {"city": "GERMANTOWN", "state": "NY", "street": "200 MAIN ST ( LOBBY DROP SLOT )", "postcode": "12526"}}},
{"geometry": {"type": "Point", "coordinates": [-73.9331557842, 41.5192810876]}, "type": "Feature", "properties": {"collection_times": [{"days": "Mon-Fri", "time": "5:00pm"}, {"days": "Sat", "time": "12:30pm"}, {"days": "Sun", "time": "Closed"}], "id": "1252700001", "name": "USPS COLLECTION BOX - BLUE BOX", "address": {"city": "GLENHAM", "state": "NY", "street": "77 OLD GLENHAM RD", "postcode": "12527"}}},
{"geometry": {"type": "Point", "coordinates": [-73.9331557842, 41.5192810876]}, "type": "Feature", "properties": {"collection_times": [{"days": "Mon-Fri", "time": "5:00pm"}, {"days": "Sat", "time": "12:30pm"}, {"days": "Sun", "time": "Closed"}], "id": "1252700002", "name": "USPS COLLECTION BOX - PO LOBBY", "address": {"city": "GLENHAM", "state": "NY", "street": "77 OLD GLENHAM RD LBBY SLOT", "postcode": "12527"}}},
{"geometry": {"type": "Point", "coordinates": [-73.9629308613, 41.7381675337]}, "type": "Feature", "properties": {"collection_times": [{"days": "Mon-Fri", "time": "5:00pm"}, {"days": "Sat", "time": "4:00pm"}, {"days": "Sun", "time": "Closed"}], "id": "1252800002", "name": "USPS COLLECTION BOX - BLUE BOX", "address": {"city": "HIGHLAND", "state": "NY", "street": "197 NORTH RD", "postcode": "12528"}}},
{"geometry": {"type": "Point", "coordinates": [-73.9645207582, 41.7189539142]}, "type": "Feature", "properties": {"collection_times": [{"days": "Mon-Fri", "time": "3:30pm"}, {"days": "Sat", "time": "3:00pm"}, {"days": "Sun", "time": "Closed"}], "id": "1252800003", "name": "USPS COLLECTION BOX - BLUE BOX", "address": {"city": "HIGHLAND", "state": "NY", "street": "82 VINEYARD AVE", "postcode": "12528"}}},
{"geometry": {"type": "Point", "coordinates": [-73.9660207501, 41.7028088903]}, "type": "Feature", "properties": {"collection_times": [{"days": "Mon-Fri", "time": "3:30pm"}, {"days": "Sat", "time": "3:00pm"}, {"days": "Sun", "time": "Closed"}], "id": "1252800008", "name": "USPS COLLECTION BOX - BLUE BOX", "address": {"city": "HIGHLAND", "state": "NY", "street": "3650 US HIGHWAY 9W", "postcode": "12528"}}},
{"geometry": {"type": "Point", "coordinates": [-73.9658809107, 41.8249902445]}, "type": "Feature", "properties": {"collection_times": [{"days": "Mon-Fri", "time": "3:30pm"}, {"days": "Sat", "time": "3:00pm"}, {"days": "Sun", "time": "Closed"}], "id": "1252800009", "name": "USPS COLLECTION BOX - BLUE BOX", "address": {"city": "HIGHLAND", "state": "NY", "street": "6 MAIN ST", "postcode": "12528"}}},
{"geometry": {"type": "Point", "coordinates": [-73.9629308613, 41.7381675337]}, "type": "Feature", "properties": {"collection_times": [{"days": "Mon-Fri", "time": "5:00pm"}, {"days": "Sat", "time": "4:00pm"}, {"days": "Sun", "time": "Closed"}], "id": "1252800010", "name": "USPS COLLECTION BOX - PO LOBBY", "address": {"city": "HIGHLAND", "state": "NY", "street": "197 NORTH RD LBBY SLOT", "postcode": "12528"}}},
{"geometry": {"type": "Point", "coordinates": [-73.5207774719, 42.1781951459]}, "type": "Feature", "properties": {"collection_times": [{"days": "Mon-Fri", "time": "5:00pm"}, {"days": "Sat", "time": "12:00pm"}, {"days": "Sun", "time": "Closed"}], "id": "1252900001", "name": "USPS COLLECTION BOX - BLUE BOX", "address": {"city": "HILLSDALE", "state": "NY", "street": "9245 STATE ROUTE 22", "postcode": "12529"}}},
{"geometry": {"type": "Point", "coordinates": [-73.5207774719, 42.1781951459]}, "type": "Feature", "properties": {"collection_times": [{"days": "Mon-Fri", "time": "5:00pm"}, {"days": "Sat", "time": "12:00pm"}, {"days": "Sun", "time": "Closed"}], "id": "1252900004", "name": "USPS COLLECTION BOX - PO LOBBY", "address": {"city": "HILLSDALE", "state": "NY", "street": "9245 STATE ROUTE 22 LBBY SLOT", "postcode": "12529"}}},
{"geometry": {"type": "Point", "coordinates": [-73.6961306433, 42.2047291958]}, "type": "Feature", "properties": {"collection_times": [{"days": "Mon-Fri", "time": "5:00pm"}, {"days": "Sat", "time": "12:00pm"}, {"days": "Sun", "time": "Closed"}], "id": "1253000001", "name": "USPS COLLECTION BOX - BLUE BOX", "address": {"city": "HOLLOWVILLE", "state": "NY", "street": "255 COUNTY ROUTE 16", "postcode": "12530"}}},
{"geometry": {"type": "Point", "coordinates": [-73.6469873639, 41.5276682666]}, "type": "Feature", "properties": {"collection_times": [{"days": "Mon-Fri", "time": "5:00pm"}, {"days": "Sat", "time": "12:00pm"}, {"days": "Sun", "time": "Closed"}], "id": "1253100001", "name": "USPS COLLECTION BOX - BLUE BOX", "address": {"city": "HOLMES", "state": "NY", "street": "298 ROUTE 292", "postcode": "12531"}}},
{"geometry": {"type": "Point", "coordinates": [-73.6469873639, 41.5276682666]}, "type": "Feature", "properties": {"collection_times": [{"days": "Mon-Fri", "time": "5:00pm"}, {"days": "Sat", "time": "12:00pm"}, {"days": "Sun", "time": "Closed"}], "id": "1253100003", "name": "USPS COLLECTION BOX - PO LOBBY", "address": {"city": "HOLMES", "state": "NY", "street": "298 ROUTE 292 LBBY SLOT", "postcode": "12531"}}},
{"geometry": {"type": "Point", "coordinates": [-73.8115251263, 41.5788205952]}, "type": "Feature", "properties": {"collection_times": [{"days": "Mon-Fri", "time": "5:00pm"}, {"days": "Sat", "time": "1:00pm"}, {"days": "Sun", "time": "Closed"}], "id": "1253300001", "name": "USPS COLLECTION BOX - BLUE BOX", "address": {"city": "HOPEWELL JCT", "state": "NY", "street": "815 ROUTE 82", "postcode": "12533"}}},
{"geometry": {"type": "Point", "coordinates": [-73.8115251263, 41.5788205952]}, "type": "Feature", "properties": {"collection_times": [{"days": "Mon-Fri", "time": "5:00pm"}, {"days": "Sat", "time": "1:00pm"}, {"days": "Sun", "time": "Closed"}], "id": "1253300004", "name": "USPS COLLECTION BOX - APC", "address": {"city": "HOPEWELL JCT", "state": "NY", "street": "815 ROUTE 82", "postcode": "12533"}}},
{"geometry": {"type": "Point", "coordinates": [-73.8115251263, 41.5788205952]}, "type": "Feature", "properties": {"collection_times": [{"days": "Mon-Fri", "time": "5:00pm"}, {"days": "Sat", "time": "1:00pm"}, {"days": "Sun", "time": "Closed"}], "id": "1253300005", "name": "USPS COLLECTION BOX - PO LOBBY", "address": {"city": "HOPEWELL JCT", "state": "NY", "street": "815 ROUTE 82 LBBY SLOT", "postcode": "12533"}}},
{"geometry": {"type": "Point", "coordinates": [-73.7895856178, 42.2504826801]}, "type": "Feature", "properties": {"collection_times": [{"days": "Mon-Sat", "time": "1:00pm"}, {"days": "Sun", "time": "Closed"}], "id": "1253400001", "name": "USPS COLLECTION BOX - BLUE BOX", "address": {"city": "HUDSON", "state": "NY", "street": "401 UNION ST", "postcode": "12534"}}},
{"geometry": {"type": "Point", "coordinates": [-73.7927527505, 42.2541269159]}, "type": "Feature", "properties": {"collection_times": [{"days": "Mon-Sat", "time": "12:00pm"}, {"days": "Sun", "time": "Closed"}], "id": "1253400003", "name": "USPS COLLECTION BOX - BLUE BOX", "address": {"city": "HUDSON", "state": "NY", "street": "217 WARREN ST", "postcode": "12534"}}},
{"geometry": {"type": "Point", "coordinates": [-73.7864823162, 42.249429865]}, "type": "Feature", "properties": {"collection_times": [{"days": "Mon-Sat", "time": "12:30pm"}, {"days": "Sun", "time": "Closed"}], "id": "1253400009", "name": "USPS COLLECTION BOX - BLUE BOX", "address": {"city": "HUDSON", "state": "NY", "street": "507 WARREN ST", "postcode": "12534"}}},
{"geometry": {"type": "Point", "coordinates": [-73.7859495535, 42.2491028892]}, "type": "Feature", "properties": {"collection_times": [{"days": "Mon-Sat", "time": "12:30pm"}, {"days": "Sun", "time": "Closed"}], "id": "1253400010", "name": "USPS COLLECTION BOX - BLUE BOX", "address": {"city": "HUDSON", "state": "NY", "street": "520 WARREN ST", "postcode": "12534"}}},
{"geometry": {"type": "Point", "coordinates": [-73.7854041121, 42.2486235653]}, "type": "Feature", "properties": {"collection_times": [{"days": "Mon-Sat", "time": "12:30pm"}, {"days": "Sun", "time": "Closed"}], "id": "1253400012", "name": "USPS COLLECTION BOX - BLUE BOX", "address": {"city": "HUDSON", "state": "NY", "street": "561 WARREN ST", "postcode": "12534"}}},
{"geometry": {"type": "Point", "coordinates": [-73.7815689295, 42.2459465248]}, "type": "Feature", "properties": {"collection_times": [{"days": "Mon-Sat", "time": "12:00pm"}, {"days": "Sun", "time": "Closed"}], "id": "1253400015", "name": "USPS COLLECTION BOX - BLUE BOX", "address": {"city": "HUDSON", "state": "NY", "street": "804 WARREN ST", "postcode": "12534"}}},
{"geometry": {"type": "Point", "coordinates": [-73.7806215063, 42.2451636358]}, "type": "Feature", "properties": {"collection_times": [{"days": "Mon-Sat", "time": "12:00pm"}, {"days": "Sun", "time": "Closed"}], "id": "1253400016", "name": "USPS COLLECTION BOX - BLUE BOX", "address": {"city": "HUDSON", "state": "NY", "street": "833 WARREN ST", "postcode": "12534"}}},
{"geometry": {"type": "Point", "coordinates": [-73.7888565146, 42.2548222282]}, "type": "Feature", "properties": {"collection_times": [{"days": "Mon-Sat", "time": "12:00pm"}, {"days": "Sun", "time": "Closed"}], "id": "1253400020", "name": "USPS COLLECTION BOX - BLUE BOX", "address": {"city": "HUDSON", "state": "NY", "street": "71 N 3RD ST", "postcode": "12534"}}},
{"geometry": {"type": "Point", "coordinates": [-73.651337104, 42.2525878863]}, "type": "Feature", "properties": {"collection_times": [{"days": "Mon-Sat", "time": "12:00pm"}, {"days": "Sun", "time": "Closed"}], "id": "1253400021", "name": "USPS COLLECTION BOX - BLUE BOX", "address": {"city": "HUDSON", "state": "NY", "street": "67 PROSPECT AVE", "postcode": "12534"}}},
{"geometry": {"type": "Point", "coordinates": [-73.787402017, 42.2488575964]}, "type": "Feature", "properties": {"collection_times": [{"days": "Mon-Sat", "time": "1:00pm"}, {"days": "Sun", "time": "Closed"}], "id": "1253400022", "name": "USPS COLLECTION BOX - BLUE BOX", "address": {"city": "HUDSON", "state": "NY", "street": "503 UNION ST", "postcode": "12534"}}},
{"geometry": {"type": "Point", "coordinates": [-73.7870068359, 42.2522744189]}, "type": "Feature", "properties": {"collection_times": [{"days": "Mon-Sat", "time": "12:00pm"}, {"days": "Sun", "time": "Closed"}], "id": "1253400024", "name": "USPS COLLECTION BOX - BLUE BOX", "address": {"city": "HUDSON", "state": "NY", "street": "401 STATE ST", "postcode": "12534"}}},
{"geometry": {"type": "Point", "coordinates": [-73.7812733931, 42.24815388]}, "type": "Feature", "properties": {"collection_times": [{"days": "Mon-Fri", "time": "4:00pm"}, {"days": "Sat", "time": "12:30pm"}, {"days": "Sun", "time": "Closed"}], "id": "1253400030", "name": "USPS COLLECTION BOX - BLUE BOX", "address": {"city": "HUDSON", "state": "NY", "street": "1 HUDSON CITY CTR", "postcode": "12534"}}},
{"geometry": {"type": "Point", "coordinates": [-73.7778451017, 42.2469037685]}, "type": "Feature", "properties": {"collection_times": [{"days": "Mon-Sat", "time": "12:00pm"}, {"days": "Sun", "time": "Closed"}], "id": "1253400031", "name": "USPS COLLECTION BOX - BLUE BOX", "address": {"city": "HUDSON", "state": "NY", "street": "848 COLUMBIA ST", "postcode": "12534"}}},
{"geometry": {"type": "Point", "coordinates": [-73.7893150718, 42.2507046156]}, "type": "Feature", "properties": {"collection_times": [{"days": "Mon-Fri", "time": "5:00pm"}, {"days": "Sat", "time": "4:00pm"}, {"days": "Sun", "time": "Closed"}], "id": "1253400033", "name": "USPS COLLECTION BOX - BLUE BOX", "address": {"city": "HUDSON", "state": "NY", "street": "11 S 4TH ST", "postcode": "12534"}}},
{"geometry": {"type": "Point", "coordinates": [-73.7673605363, 42.2548887415]}, "type": "Feature", "properties": {"collection_times": [{"days": "Mon-Fri", "time": "4:00pm"}, {"days": "Sat", "time": "12:30pm"}, {"days": "Sun", "time": "Closed"}], "id": "1253400034", "name": "USPS COLLECTION BOX - BLUE BOX", "address": {"city": "HUDSON", "state": "NY", "street": "160 FAIRVIEW AVE", "postcode": "12534"}}},
{"geometry": {"type": "Point", "coordinates": [-73.7956959524, 42.2550851127]}, "type": "Feature", "properties": {"collection_times": [{"days": "Mon-Sat", "time": "12:00pm"}, {"days": "Sun", "time": "Closed"}], "id": "1253400037", "name": "USPS COLLECTION BOX - BLUE BOX", "address": {"city": "HUDSON", "state": "NY", "street": "23 UNION TPKE", "postcode": "12534"}}},
{"geometry": {"type": "Point", "coordinates": [-73.7827888664, 42.2493077924]}, "type": "Feature", "properties": {"collection_times": [{"days": "Mon-Sat", "time": "12:00pm"}, {"days": "Sun", "time": "Closed"}], "id": "1253400040", "name": "USPS COLLECTION BOX - BLUE BOX", "address": {"city": "HUDSON", "state": "NY", "street": "602 STATE ST", "postcode": "12534"}}},
{"geometry": {"type": "Point", "coordinates": [-73.7832702967, 42.2476719341]}, "type": "Feature", "properties": {"collection_times": [{"days": "Mon-Sat", "time": "12:30pm"}, {"days": "Sun", "time": "Closed"}], "id": "1253400046", "name": "USPS COLLECTION BOX - BLUE BOX", "address": {"city": "HUDSON", "state": "NY", "street": "13 N 7TH ST", "postcode": "12534"}}},
{"geometry": {"type": "Point", "coordinates": [-73.7878517515, 42.2505165251]}, "type": "Feature", "properties": {"collection_times": [{"days": "Mon-Sat", "time": "12:30pm"}, {"days": "Sun", "time": "Closed"}], "id": "1253400047", "name": "USPS COLLECTION BOX - BLUE BOX", "address": {"city": "HUDSON", "state": "NY", "street": "425 WARREN ST", "postcode": "12534"}}},
{"geometry": {"type": "Point", "coordinates": [-73.7893150718, 42.2507046156]}, "type": "Feature", "properties": {"collection_times": [{"days": "Mon-Fri", "time": "5:00pm"}, {"days": "Sat", "time": "4:00pm"}, {"days": "Sun", "time": "Closed"}], "id": "1253400048", "name": "USPS COLLECTION BOX - PO LOBBY", "address": {"city": "HUDSON", "state": "NY", "street": "11 S 4TH ST LBBY SLOT", "postcode": "12534"}}},
{"geometry": {"type": "Point", "coordinates": [-73.9112062369, 41.5788790809]}, "type": "Feature", "properties": {"collection_times": [{"days": "Mon-Fri", "time": "5:00pm"}, {"days": "Sat", "time": "12:00pm"}, {"days": "Sun", "time": "Closed"}], "id": "1253700001", "name": "USPS COLLECTION BOX - BLUE BOX", "address": {"city": "HUGHSONVILLE", "state": "NY", "street": "2337 ROUTE 9D", "postcode": "12537"}}},
{"geometry": {"type": "Point", "coordinates": [-73.9112062369, 41.5788790809]}, "type": "Feature", "properties": {"collection_times": [{"days": "Mon-Fri", "time": "5:00pm"}, {"days": "Sat", "time": "12:00pm"}, {"days": "Sun", "time": "Closed"}], "id": "1253700002", "name": "USPS COLLECTION BOX - PO LOBBY", "address": {"city": "HUGHSONVILLE", "state": "NY", "street": "2337 ROUTE 9D LBBY SLOT", "postcode": "12537"}}},
{"geometry": {"type": "Point", "coordinates": [-73.9358730409, 41.7914787624]}, "type": "Feature", "properties": {"collection_times": [{"days": "Mon-Fri", "time": "5:00pm"}, {"days": "Sat", "time": "3:30pm"}, {"days": "Sun", "time": "Closed"}], "id": "1253800001", "name": "USPS COLLECTION BOX - BLUE BOX", "address": {"city": "HYDE PARK", "state": "NY", "street": "1 E MARKET ST", "postcode": "12538"}}},
{"geometry": {"type": "Point", "coordinates": [-73.9358730409, 41.7914787624]}, "type": "Feature", "properties": {"collection_times": [{"days": "Mon-Fri", "time": "5:00pm"}, {"days": "Sat", "time": "3:30pm"}, {"days": "Sun", "time": "Closed"}], "id": "1253800003", "name": "USPS COLLECTION BOX - BLUE BOX", "address": {"city": "HYDE PARK", "state": "NY", "street": "1 E MARKET ST", "postcode": "12538"}}},
{"geometry": {"type": "Point", "coordinates": [-73.9095817779, 41.772377524]}, "type": "Feature", "properties": {"collection_times": [{"days": "Mon-Sat", "time": "10:00am"}, {"days": "Sun", "time": "Closed"}], "id": "1253800012", "name": "USPS COLLECTION BOX - BLUE BOX", "address": {"city": "HYDE PARK", "state": "NY", "street": "874 VIOLET AVE", "postcode": "12538"}}},
{"geometry": {"type": "Point", "coordinates": [-73.9358730409, 41.7914787624]}, "type": "Feature", "properties": {"collection_times": [{"days": "Mon-Fri", "time": "5:00pm"}, {"days": "Sat", "time": "3:30pm"}, {"days": "Sun", "time": "Closed"}], "id": "1253800015", "name": "USPS COLLECTION BOX - PO LOBBY", "address": {"city": "HYDE PARK", "state": "NY", "street": "1 E MARKET ST LBBY SLOT", "postcode": "12538"}}},
{"geometry": {"type": "Point", "coordinates": [-73.8033458861, 41.6721455395]}, "type": "Feature", "properties": {"collection_times": [{"days": "Mon-Fri", "time": "5:00pm"}, {"days": "Sat", "time": "12:00pm"}, {"days": "Sun", "time": "Closed"}], "id": "1254000001", "name": "USPS COLLECTION BOX - BLUE BOX", "address": {"city": "LAGRANGEVILLE", "state": "NY", "street": "1085 ROUTE 55", "postcode": "12540"}}},
{"geometry": {"type": "Point", "coordinates": [-73.8033458861, 41.6721455395]}, "type": "Feature", "properties": {"collection_times": [{"days": "Mon-Fri", "time": "5:00pm"}, {"days": "Sat", "time": "12:00pm"}, {"days": "Sun", "time": "Closed"}], "id": "1254000003", "name": "USPS COLLECTION BOX - PO LOBBY", "address": {"city": "LAGRANGEVILLE", "state": "NY", "street": "1085 ROUTE 55 LBBY SLOT", "postcode": "12540"}}},
{"geometry": {"type": "Point", "coordinates": [-73.778986539, 42.141633173]}, "type": "Feature", "properties": {"collection_times": [{"days": "Mon-Fri", "time": "5:00pm"}, {"days": "Sat", "time": "12:00pm"}, {"days": "Sun", "time": "Closed"}], "id": "1254100001", "name": "USPS COLLECTION BOX - BLUE BOX", "address": {"city": "LIVINGSTON", "state": "NY", "street": "122 COUNTY ROUTE 19", "postcode": "12541"}}},
{"geometry": {"type": "Point", "coordinates": [-73.7147770258, 42.1167911282]}, "type": "Feature", "properties": {"collection_times": [{"days": "Mon-Fri", "time": "5:00pm"}, {"days": "Sat", "time": "12:00pm"}, {"days": "Sun", "time": "Closed"}], "id": "1254100002", "name": "USPS COLLECTION BOX - PO LOBBY", "address": {"city": "LIVINGSTON", "state": "NY", "street": "122 COUNTY ROUTE 19 LBBY SLOT", "postcode": "12541"}}},
{"geometry": {"type": "Point", "coordinates": [-73.9749012231, 41.606617765]}, "type": "Feature", "properties": {"collection_times": [{"days": "Mon-Fri", "time": "5:00pm"}, {"days": "Sat", "time": "12:00pm"}, {"days": "Sun", "time": "Closed"}], "id": "1254200001", "name": "USPS COLLECTION BOX - BLUE BOX", "address": {"city": "MARLBORO", "state": "NY", "street": "43 WESTERN AVE", "postcode": "12542"}}},
{"geometry": {"type": "Point", "coordinates": [-73.9749012231, 41.606617765]}, "type": "Feature", "properties": {"collection_times": [{"days": "Mon-Fri", "time": "5:00pm"}, {"days": "Sat", "time": "12:00pm"}, {"days": "Sun", "time": "Closed"}], "id": "1254200003", "name": "USPS COLLECTION BOX - PO LOBBY", "address": {"city": "MARLBORO", "state": "NY", "street": "43 WESTERN AVE LBBY SLOT", "postcode": "12542"}}},
{"geometry": {"type": "Point", "coordinates": [-74.2191988108, 41.4827524977]}, "type": "Feature", "properties": {"collection_times": [{"days": "Mon-Fri", "time": "5:00pm"}, {"days": "Sat", "time": "1:00pm"}, {"days": "Sun", "time": "Closed"}], "id": "1254300001", "name": "USPS COLLECTION BOX - BLUE BOX", "address": {"city": "MAYBROOK", "state": "NY", "street": "207 HOMESTEAD AVE", "postcode": "12543"}}},
{"geometry": {"type": "Point", "coordinates": [-74.2191988108, 41.4827524977]}, "type": "Feature", "properties": {"collection_times": [{"days": "Mon-Fri", "time": "5:00pm"}, {"days": "Sat", "time": "1:00pm"}, {"days": "Sun", "time": "Closed"}], "id": "1254300003", "name": "USPS COLLECTION BOX - PO LOBBY", "address": {"city": "MAYBROOK", "state": "NY", "street": "207 HOMESTEAD AVE LBBY SLOT", "postcode": "12543"}}},
{"geometry": {"type": "Point", "coordinates": [-73.6683485132, 42.2523926722]}, "type": "Feature", "properties": {"collection_times": [{"days": "Mon-Fri", "time": "5:00pm"}, {"days": "Sat", "time": "12:00pm"}, {"days": "Sun", "time": "Closed"}], "id": "1254400000", "name": "USPS COLLECTION BOX - BLUE BOX", "address": {"city": "MELLENVILLE", "state": "NY", "street": "671 STATE ROUTE 217", "postcode": "12544"}}},
{"geometry": {"type": "Point", "coordinates": [-73.6683485132, 42.2523926722]}, "type": "Feature", "properties": {"collection_times": [{"days": "Mon-Fri", "time": "5:00pm"}, {"days": "Sat", "time": "12:00pm"}, {"days": "Sun", "time": "Closed"}], "id": "1254400001", "name": "USPS COLLECTION BOX - PO LOBBY", "address": {"city": "MELLENVILLE", "state": "NY", "street": "671 STATE ROUTE 217 LBBY SLOT", "postcode": "12544"}}},
{"geometry": {"type": "Point", "coordinates": [-73.6955592818, 41.7859289024]}, "type": "Feature", "properties": {"collection_times": [{"days": "Mon-Fri", "time": "5:00pm"}, {"days": "Sat", "time": "1:30pm"}, {"days": "Sun", "time": "Closed"}], "id": "1254500001", "name": "USPS COLLECTION BOX - BLUE BOX", "address": {"city": "MILLBROOK", "state": "NY", "street": "47 FRONT ST", "postcode": "12545"}}},
{"geometry": {"type": "Point", "coordinates": [-73.6955592818, 41.7859289024]}, "type": "Feature", "properties": {"collection_times": [{"days": "Mon-Fri", "time": "5:00pm"}, {"days": "Sat", "time": "1:30pm"}, {"days": "Sun", "time": "Closed"}], "id": "1254500003", "name": "USPS COLLECTION BOX - PO LOBBY", "address": {"city": "MILLBROOK", "state": "NY", "street": "47 FRONT ST LBBY SLOT", "postcode": "12545"}}},
{"geometry": {"type": "Point", "coordinates": [-73.5066588567, 41.9540125924]}, "type": "Feature", "properties": {"collection_times": [{"days": "Mon-Fri", "time": "5:00pm"}, {"days": "Sat", "time": "2:00pm"}, {"days": "Sun", "time": "Closed"}], "id": "1254600001", "name": "USPS COLLECTION BOX - BLUE BOX", "address": {"city": "MILLERTON", "state": "NY", "street": "33 CENTURY BLVD", "postcode": "12546"}}},
{"geometry": {"type": "Point", "coordinates": [-73.5066588567, 41.9540125924]}, "type": "Feature", "properties": {"collection_times": [{"days": "Mon-Fri", "time": "5:00pm"}, {"days": "Sat", "time": "2:00pm"}, {"days": "Sun", "time": "Closed"}], "id": "1254600003", "name": "USPS COLLECTION BOX - PO LOBBY", "address": {"city": "MILLERTON", "state": "NY", "street": "33 CENTURY BLVD LBBY SLOT", "postcode": "12546"}}},
{"geometry": {"type": "Point", "coordinates": [-73.9575898016, 41.659633254]}, "type": "Feature", "properties": {"collection_times": [{"days": "Mon-Fri", "time": "5:00pm"}, {"days": "Sat", "time": "12:00pm"}, {"days": "Sun", "time": "Closed"}], "id": "1254700001", "name": "USPS COLLECTION BOX - BLUE BOX", "address": {"city": "MILTON", "state": "NY", "street": "63 MAIN ST", "postcode": "12547"}}},
{"geometry": {"type": "Point", "coordinates": [-73.9575898016, 41.659633254]}, "type": "Feature", "properties": {"collection_times": [{"days": "Mon-Fri", "time": "5:00pm"}, {"days": "Sat", "time": "12:00pm"}, {"days": "Sun", "time": "Closed"}], "id": "1254700002", "name": "USPS COLLECTION BOX - PO LOBBY", "address": {"city": "MILTON", "state": "NY", "street": "63 MAIN ST LBBY SLOT", "postcode": "12547"}}},
{"geometry": {"type": "Point", "coordinates": [-74.1034286996, 41.6769733463]}, "type": "Feature", "properties": {"collection_times": [{"days": "Mon-Fri", "time": "5:00pm"}, {"days": "Sat", "time": "12:00pm"}, {"days": "Sun", "time": "Closed"}], "id": "1254800001", "name": "USPS COLLECTION BOX - BLUE BOX", "address": {"city": "MODENA", "state": "NY", "street": "2255 STATE ROUTE 32", "postcode": "12548"}}},
{"geometry": {"type": "Point", "coordinates": [-74.1034286996, 41.6769733463]}, "type": "Feature", "properties": {"collection_times": [{"days": "Mon-Fri", "time": "5:00pm"}, {"days": "Sat", "time": "12:00pm"}, {"days": "Sun", "time": "Closed"}], "id": "1254800003", "name": "USPS COLLECTION BOX - PO LOBBY", "address": {"city": "MODENA", "state": "NY", "street": "2255 STATE ROUTE 32 LBBY SLOT", "postcode": "12548"}}},
{"geometry": {"type": "Point", "coordinates": [-74.2338024392, 41.5212377017]}, "type": "Feature", "properties": {"collection_times": [{"days": "Mon-Fri", "time": "5:00pm"}, {"days": "Sat", "time": "1:00pm"}, {"days": "Sun", "time": "Closed"}], "id": "1254900002", "name": "USPS COLLECTION BOX - BLUE BOX", "address": {"city": "MONTGOMERY", "state": "NY", "street": "218 BOYD ST", "postcode": "12549"}}},
{"geometry": {"type": "Point", "coordinates": [-74.2079000358, 41.5144575088]}, "type": "Feature", "properties": {"collection_times": [{"days": "Mon-Sat", "time": "9:00am"}, {"days": "Sun", "time": "Closed"}], "id": "1254900008", "name": "USPS COLLECTION BOX - BLUE BOX", "address": {"city": "MONTGOMERY", "state": "NY", "street": "1 HAWKINS DR", "postcode": "12549"}}},
{"geometry": {"type": "Point", "coordinates": [-74.2366285282, 41.5265420897]}, "type": "Feature", "properties": {"collection_times": [{"days": "Mon-Sat", "time": "9:00am"}, {"days": "Sun", "time": "Closed"}], "id": "1254900012", "name": "USPS COLLECTION BOX - BLUE BOX", "address": {"city": "MONTGOMERY", "state": "NY", "street": "118 CLINTON ST", "postcode": "12549"}}},
{"geometry": {"type": "Point", "coordinates": [-74.2338024392, 41.5212377017]}, "type": "Feature", "properties": {"collection_times": [{"days": "Mon-Fri", "time": "5:00pm"}, {"days": "Sat", "time": "12:00pm"}, {"days": "Sun", "time": "Closed"}], "id": "1254900013", "name": "USPS COLLECTION BOX - PO LOBBY", "address": {"city": "MONTGOMERY", "state": "NY", "street": "218 BOYD ST LBBY SLOT", "postcode": "12549"}}},
{"geometry": {"type": "Point", "coordinates": [-74.0294244811, 41.5012224812]}, "type": "Feature", "properties": {"collection_times": [{"days": "Mon-Fri", "time": "5:00pm"}, {"days": "Sat", "time": "12:30pm"}, {"days": "Sun", "time": "Closed"}], "id": "1255000011", "name": "USPS COLLECTION BOX - BLUE BOX", "address": {"city": "NEWBURGH", "state": "NY", "street": "469 BROADWAY", "postcode": "12550"}}},
{"geometry": {"type": "Point", "coordinates": [-74.0681850685, 41.5169757226]}, "type": "Feature", "properties": {"collection_times": [{"days": "Mon-Sat", "time": "12:30pm"}, {"days": "Sun", "time": "Closed"}], "id": "1255000013", "name": "USPS COLLECTION BOX - BLUE BOX", "address": {"city": "NEWBURGH", "state": "NY", "street": "1401 ROUTE 300", "postcode": "12550"}}},
{"geometry": {"type": "Point", "coordinates": [-74.0198717451, 41.5006591578]}, "type": "Feature", "properties": {"collection_times": [{"days": "Mon-Sat", "time": "1:00pm"}, {"days": "Sun", "time": "Closed"}], "id": "1255000018", "name": "USPS COLLECTION BOX - BLUE BOX", "address": {"city": "NEWBURGH", "state": "NY", "street": "280 BROADWAY", "postcode": "12550"}}},
{"geometry": {"type": "Point", "coordinates": [-74.0685490799, 41.5256493002]}, "type": "Feature", "properties": {"collection_times": [{"days": "Mon-Fri", "time": "5:00pm"}, {"days": "Sat", "time": "12:00pm"}, {"days": "Sun", "time": "Closed"}], "id": "1255000021", "name": "USPS COLLECTION BOX - BLUE BOX", "address": {"city": "NEWBURGH", "state": "NY", "street": "190 S PLANK RD", "postcode": "12550"}}},
{"geometry": {"type": "Point", "coordinates": [-74.0183345163, 41.5175983431]}, "type": "Feature", "properties": {"collection_times": [{"days": "Mon-Sat", "time": "12:00pm"}, {"days": "Sun", "time": "Closed"}], "id": "1255000030", "name": "USPS COLLECTION BOX - BLUE BOX", "address": {"city": "NEWBURGH", "state": "NY", "street": "39 N PLANK RD", "postcode": "12550"}}},
{"geometry": {"type": "Point", "coordinates": [-74.114137031, 41.5142658261]}, "type": "Feature", "properties": {"collection_times": [{"days": "Mon-Fri", "time": "5:00pm"}, {"days": "Sat", "time": "1:00pm"}, {"days": "Sun", "time": "Closed"}], "id": "1255000034", "name": "USPS COLLECTION BOX - BLUE BOX", "address": {"city": "NEWBURGH", "state": "NY", "street": "99 ENTERPRISE DR", "postcode": "12550"}}},
{"geometry": {"type": "Point", "coordinates": [-74.0151868906, 41.5033880339]}, "type": "Feature", "properties": {"collection_times": [{"days": "Mon-Sat", "time": "12:00pm"}, {"days": "Sun", "time": "Closed"}], "id": "1255000037", "name": "USPS COLLECTION BOX - BLUE BOX", "address": {"city": "NEWBURGH", "state": "NY", "street": "70 DUBOIS ST", "postcode": "12550"}}},
{"geometry": {"type": "Point", "coordinates": [-74.0194719557, 41.516949586]}, "type": "Feature", "properties": {"collection_times": [{"days": "Mon-Sat", "time": "12:00pm"}, {"days": "Sun", "time": "Closed"}], "id": "1255000040", "name": "USPS COLLECTION BOX - BLUE BOX", "address": {"city": "NEWBURGH", "state": "NY", "street": "152 NORTH ST", "postcode": "12550"}}},
{"geometry": {"type": "Point", "coordinates": [-74.0491573228, 41.5017683504]}, "type": "Feature", "properties": {"collection_times": [{"days": "Mon-Sat", "time": "12:30pm"}, {"days": "Sun", "time": "Closed"}], "id": "1255000043", "name": "USPS COLLECTION BOX - BLUE BOX", "address": {"city": "NEWBURGH", "state": "NY", "street": "600 STONY BROOK CT", "postcode": "12550"}}},
{"geometry": {"type": "Point", "coordinates": [-74.0099145114, 41.4998786682]}, "type": "Feature", "properties": {"collection_times": [{"days": "Mon-Sat", "time": "12:30pm"}, {"days": "Sun", "time": "Closed"}], "id": "1255000049", "name": "USPS COLLECTION BOX - BLUE BOX", "address": {"city": "NEWBURGH", "state": "NY", "street": "83 BROADWAY", "postcode": "12550"}}},
{"geometry": {"type": "Point", "coordinates": [-74.0704512651, 41.5234157669]}, "type": "Feature", "properties": {"collection_times": [{"days": "Mon-Sat", "time": "12:00pm"}, {"days": "Sun", "time": "Closed"}], "id": "1255000050", "name": "USPS COLLECTION BOX - BLUE BOX", "address": {"city": "NEWBURGH", "state": "NY", "street": "1416 ROUTE 300", "postcode": "12550"}}},
{"geometry": {"type": "Point", "coordinates": [-74.0106149768, 41.5032511723]}, "type": "Feature", "properties": {"collection_times": [{"days": "Mon-Fri", "time": "5:00pm"}, {"days": "Sat", "time": "4:00pm"}, {"days": "Sun", "time": "Closed"}], "id": "1255000059", "name": "USPS COLLECTION BOX - BLUE BOX", "address": {"city": "NEWBURGH", "state": "NY", "street": "217 LIBERTY ST", "postcode": "12550"}}},
{"geometry": {"type": "Point", "coordinates": [-74.0622478314, 41.5039912879]}, "type": "Feature", "properties": {"collection_times": [{"days": "Mon-Sat", "time": "12:30pm"}, {"days": "Sun", "time": "Closed"}], "id": "1255000061", "name": "USPS COLLECTION BOX - BLUE BOX", "address": {"city": "NEWBURGH", "state": "NY", "street": "50 ROUTE 17K", "postcode": "12550"}}},
{"geometry": {"type": "Point", "coordinates": [-74.0106149768, 41.5032511723]}, "type": "Feature", "properties": {"collection_times": [{"days": "Mon-Fri", "time": "5:00pm"}, {"days": "Sat", "time": "4:00pm"}, {"days": "Sun", "time": "Closed"}], "id": "1255000063", "name": "USPS COLLECTION BOX - PO LOBBY", "address": {"city": "NEWBURGH", "state": "NY", "street": "217 LIBERTY ST LBBY SLOT", "postcode": "12550"}}},
{"geometry": {"type": "Point", "coordinates": [-74.0294244811, 41.5012224812]}, "type": "Feature", "properties": {"collection_times": [{"days": "Mon-Fri", "time": "5:00pm"}, {"days": "Sat", "time": "12:00pm"}, {"days": "Sun", "time": "Closed"}], "id": "1255000064", "name": "USPS COLLECTION BOX - PO LOBBY", "address": {"city": "NEWBURGH", "state": "NY", "street": "469 BROADWAY LBBY SLOT", "postcode": "12550"}}},
{"geometry": {"type": "Point", "coordinates": [-74.114137031, 41.5142658261]}, "type": "Feature", "properties": {"collection_times": [{"days": "Mon-Fri", "time": "5:00pm"}, {"days": "Sat", "time": "1:00pm"}, {"days": "Sun", "time": "Closed"}], "id": "1255000065", "name": "USPS COLLECTION BOX - PO LOBBY", "address": {"city": "NEWBURGH", "state": "NY", "street": "99 ENTERPRISE DR LBBY SLOT", "postcode": "12550"}}},
{"geometry": {"type": "Point", "coordinates": [-74.038065317, 41.4638227883]}, "type": "Feature", "properties": {"collection_times": [{"days": "Mon-Fri", "time": "5:00pm"}, {"days": "Sat", "time": "4:00pm"}, {"days": "Sun", "time": "Closed"}], "id": "1255300001", "name": "USPS COLLECTION BOX - BLUE BOX", "address": {"city": "NEW WINDSOR", "state": "NY", "street": "436 BLOOMING GROVE TPKE", "postcode": "12553"}}},
{"geometry": {"type": "Point", "coordinates": [-74.0626448384, 41.4831558867]}, "type": "Feature", "properties": {"collection_times": [{"days": "Mon-Sat", "time": "1:00pm"}, {"days": "Sun", "time": "Closed"}], "id": "1255300007", "name": "USPS COLLECTION BOX - BLUE BOX", "address": {"city": "NEW WINDSOR", "state": "NY", "street": "555 UNION AVE", "postcode": "12553"}}},
{"geometry": {"type": "Point", "coordinates": [-74.076810772, 41.4845352168]}, "type": "Feature", "properties": {"collection_times": [{"days": "Mon-Sat", "time": "1:00pm"}, {"days": "Sun", "time": "Closed"}], "id": "1255300011", "name": "USPS COLLECTION BOX - BLUE BOX", "address": {"city": "NEW WINDSOR", "state": "NY", "street": "103 EXECUTIVE DR", "postcode": "12553"}}},
{"geometry": {"type": "Point", "coordinates": [-74.0651452388, 41.4799242179]}, "type": "Feature", "properties": {"collection_times": [{"days": "Mon-Sat", "time": "1:00pm"}, {"days": "Sun", "time": "Closed"}], "id": "1255300013", "name": "USPS COLLECTION BOX - BLUE BOX", "address": {"city": "NEW WINDSOR", "state": "NY", "street": "484 TEMPLE HILL RD", "postcode": "12553"}}},
{"geometry": {"type": "Point", "coordinates": [-74.0369208357, 41.4641848776]}, "type": "Feature", "properties": {"collection_times": [{"days": "Mon-Fri", "time": "5:00pm"}, {"days": "Sat", "time": "4:00pm"}, {"days": "Sun", "time": "Closed"}], "id": "1255300014", "name": "USPS COLLECTION BOX - PO LOBBY", "address": {"city": "NEW WINDSOR", "state": "NY", "street": "436 BLOOMINGROVE TYPE ( LOBBY SLOT)", "postcode": "12553"}}},
{"geometry": {"type": "Point", "coordinates": [-74.0854570191, 41.7517857573]}, "type": "Feature", "properties": {"collection_times": [{"days": "Mon-Sat", "time": "12:30pm"}, {"days": "Sun", "time": "Closed"}], "id": "1256100001", "name": "USPS COLLECTION BOX - BLUE BOX", "address": {"city": "NEW PALTZ", "state": "NY", "street": "58 N CHESTNUT ST", "postcode": "12561"}}},
{"geometry": {"type": "Point", "coordinates": [-74.0807477465, 41.7391806145]}, "type": "Feature", "properties": {"collection_times": [{"days": "Mon-Sat", "time": "12:00pm"}, {"days": "Sun", "time": "Closed"}], "id": "1256100006", "name": "USPS COLLECTION BOX - BLUE BOX", "address": {"city": "NEW PALTZ", "state": "NY", "street": "75 S MANHEIM BLVD", "postcode": "12561"}}},
{"geometry": {"type": "Point", "coordinates": [-74.0840682252, 41.7465854697]}, "type": "Feature", "properties": {"collection_times": [{"days": "Mon-Sat", "time": "12:00pm"}, {"days": "Sun", "time": "Closed"}], "id": "1256100007", "name": "USPS COLLECTION BOX - BLUE BOX", "address": {"city": "NEW PALTZ", "state": "NY", "street": "25 PLATTEKILL AVE", "postcode": "12561"}}},
{"geometry": {"type": "Point", "coordinates": [-74.0727816138, 41.7090336203]}, "type": "Feature", "properties": {"collection_times": [{"days": "Mon-Sat", "time": "12:00pm"}, {"days": "Sun", "time": "Closed"}], "id": "1256100011", "name": "USPS COLLECTION BOX - BLUE BOX", "address": {"city": "NEW PALTZ", "state": "NY", "street": "299 N OHIOVILLE RD", "postcode": "12561"}}},
{"geometry": {"type": "Point", "coordinates": [-74.078280007, 41.7453516435]}, "type": "Feature", "properties": {"collection_times": [{"days": "Mon-Sat", "time": "12:30pm"}, {"days": "Sun", "time": "Closed"}], "id": "1256100014", "name": "USPS COLLECTION BOX - BLUE BOX", "address": {"city": "NEW PALTZ", "state": "NY", "street": "2 N MANHEIM BLVD", "postcode": "12561"}}},
{"geometry": {"type": "Point", "coordinates": [-74.0804779448, 41.7469013198]}, "type": "Feature", "properties": {"collection_times": [{"days": "Mon-Sat", "time": "12:30pm"}, {"days": "Sun", "time": "Closed"}], "id": "1256100015", "name": "USPS COLLECTION BOX - BLUE BOX", "address": {"city": "NEW PALTZ", "state": "NY", "street": "163 MAIN ST", "postcode": "12561"}}},
{"geometry": {"type": "Point", "coordinates": [-74.0850015799, 41.7478867246]}, "type": "Feature", "properties": {"collection_times": [{"days": "Mon-Sat", "time": "12:00pm"}, {"days": "Sun", "time": "Closed"}], "id": "1256100017", "name": "USPS COLLECTION BOX - BLUE BOX", "address": {"city": "NEW PALTZ", "state": "NY", "street": "2 PLATTEKILL AVE", "postcode": "12561"}}},
{"geometry": {"type": "Point", "coordinates": [-74.0880228571, 41.747124899]}, "type": "Feature", "properties": {"collection_times": [{"days": "Mon-Fri", "time": "5:00pm"}, {"days": "Sat", "time": "4:00pm"}, {"days": "Sun", "time": "Closed"}], "id": "1256100019", "name": "USPS COLLECTION BOX - BLUE BOX", "address": {"city": "NEW PALTZ", "state": "NY", "street": "41 MAIN ST", "postcode": "12561"}}},
{"geometry": {"type": "Point", "coordinates": [-74.0880228571, 41.747124899]}, "type": "Feature", "properties": {"collection_times": [{"days": "Mon-Fri", "time": "5:00pm"}, {"days": "Sat", "time": "4:00pm"}, {"days": "Sun", "time": "Closed"}], "id": "1256100020", "name": "USPS COLLECTION BOX - PO LOBBY", "address": {"city": "NEW PALTZ", "state": "NY", "street": "41 MAIN ST LBBY SLOT", "postcode": "12561"}}},
{"geometry": {"type": "Point", "coordinates": [-73.6044331058, 41.5127912604]}, "type": "Feature", "properties": {"collection_times": [{"days": "Mon-Fri", "time": "5:00pm"}, {"days": "Sat", "time": "12:00pm"}, {"days": "Sun", "time": "Closed"}], "id": "1256300002", "name": "USPS COLLECTION BOX - BLUE BOX", "address": {"city": "PATTERSON", "state": "NY", "street": "19 FRONT ST", "postcode": "12563"}}},
{"geometry": {"type": "Point", "coordinates": [-73.6044331058, 41.5127912604]}, "type": "Feature", "properties": {"collection_times": [{"days": "Mon-Fri", "time": "5:00pm"}, {"days": "Sat", "time": "12:00pm"}, {"days": "Sun", "time": "Closed"}], "id": "1256300003", "name": "USPS COLLECTION BOX - PO LOBBY", "address": {"city": "PATTERSON", "state": "NY", "street": "19 FRONT ST LBBY SLOT", "postcode": "12563"}}},
{"geometry": {"type": "Point", "coordinates": [-73.6014736463, 41.563649137]}, "type": "Feature", "properties": {"collection_times": [{"days": "Mon-Fri", "time": "5:00pm"}, {"days": "Sat", "time": "3:00pm"}, {"days": "Sun", "time": "Closed"}], "id": "1256400001", "name": "USPS COLLECTION BOX - BLUE BOX", "address": {"city": "PAWLING", "state": "NY", "street": "10 BROAD ST", "postcode": "12564"}}},
{"geometry": {"type": "Point", "coordinates": [-73.6018882363, 41.5618960013]}, "type": "Feature", "properties": {"collection_times": [{"days": "Mon-Sat", "time": "9:30am"}, {"days": "Sun", "time": "Closed"}], "id": "1256400002", "name": "USPS COLLECTION BOX - BLUE BOX", "address": {"city": "PAWLING", "state": "NY", "street": "3 W MAIN ST", "postcode": "12564"}}},
{"geometry": {"type": "Point", "coordinates": [-73.5977703562, 41.5603356784]}, "type": "Feature", "properties": {"collection_times": [{"days": "Mon-Sat", "time": "9:30am"}, {"days": "Sun", "time": "Closed"}], "id": "1256400004", "name": "USPS COLLECTION BOX - BLUE BOX", "address": {"city": "PAWLING", "state": "NY", "street": "63 E MAIN ST", "postcode": "12564"}}},
{"geometry": {"type": "Point", "coordinates": [-73.6014736463, 41.563649137]}, "type": "Feature", "properties": {"collection_times": [{"days": "Mon-Fri", "time": "5:00pm"}, {"days": "Sat", "time": "3:00pm"}, {"days": "Sun", "time": "Closed"}], "id": "1256400005", "name": "USPS COLLECTION BOX - PO LOBBY", "address": {"city": "PAWLING", "state": "NY", "street": "10 BROAD ST LBBY SLOT", "postcode": "12564"}}},
{"geometry": {"type": "Point", "coordinates": [-73.6489113317, 42.2499271062]}, "type": "Feature", "properties": {"collection_times": [{"days": "Mon-Fri", "time": "5:00pm"}, {"days": "Sat", "time": "12:00pm"}, {"days": "Sun", "time": "Closed"}], "id": "1256500001", "name": "USPS COLLECTION BOX - BLUE BOX", "address": {"city": "PHILMONT", "state": "NY", "street": "5 MAPLE AVE", "postcode": "12565"}}},
{"geometry": {"type": "Point", "coordinates": [-73.6489113317, 42.2499271062]}, "type": "Feature", "properties": {"collection_times": [{"days": "Mon-Fri", "time": "5:00pm"}, {"days": "Sat", "time": "12:00pm"}, {"days": "Sun", "time": "Closed"}], "id": "1256500002", "name": "USPS COLLECTION BOX - PO LOBBY", "address": {"city": "PHILMONT", "state": "NY", "street": "5 MAPLE AVE LBBY SLOT", "postcode": "12565"}}},
{"geometry": {"type": "Point", "coordinates": [-74.299095097, 41.608316143]}, "type": "Feature", "properties": {"collection_times": [{"days": "Mon-Fri", "time": "5:00pm"}, {"days": "Sat", "time": "1:00pm"}, {"days": "Sun", "time": "Closed"}], "id": "1256600001", "name": "USPS COLLECTION BOX - BLUE BOX", "address": {"city": "PINE BUSH", "state": "NY", "street": "27 MAIN ST", "postcode": "12566"}}},
{"geometry": {"type": "Point", "coordinates": [-74.299095097, 41.608316143]}, "type": "Feature", "properties": {"collection_times": [{"days": "Mon-Fri", "time": "5:00pm"}, {"days": "Sat", "time": "1:00pm"}, {"days": "Sun", "time": "Closed"}], "id": "1256600006", "name": "USPS COLLECTION BOX - PO LOBBY", "address": {"city": "PINE BUSH", "state": "NY", "street": "27 MAIN ST LBBY SLOT", "postcode": "12566"}}},
{"geometry": {"type": "Point", "coordinates": [-73.6553284076, 41.9735243176]}, "type": "Feature", "properties": {"collection_times": [{"days": "Mon-Fri", "time": "5:00pm"}, {"days": "Sat", "time": "2:30pm"}, {"days": "Sun", "time": "Closed"}], "id": "1256700002", "name": "USPS COLLECTION BOX - BLUE BOX", "address": {"city": "PINE PLAINS", "state": "NY", "street": "7722 S MAIN ST", "postcode": "12567"}}},
{"geometry": {"type": "Point", "coordinates": [-73.6553284076, 41.9735243176]}, "type": "Feature", "properties": {"collection_times": [{"days": "Mon-Fri", "time": "5:00pm"}, {"days": "Sat", "time": "12:00pm"}, {"days": "Sun", "time": "Closed"}], "id": "1256700003", "name": "USPS COLLECTION BOX - PO LOBBY", "address": {"city": "PINE PLAINS", "state": "NY", "street": "7722 S MAIN ST LBBY SLOT", "postcode": "12567"}}},
{"geometry": {"type": "Point", "coordinates": [-74.0759235265, 41.6172132813]}, "type": "Feature", "properties": {"collection_times": [{"days": "Mon-Fri", "time": "5:00pm"}, {"days": "Sat", "time": "12:00pm"}, {"days": "Sun", "time": "Closed"}], "id": "1256800002", "name": "USPS COLLECTION BOX - BLUE BOX", "address": {"city": "PLATTEKILL", "state": "NY", "street": "2 OLD FIREHOUSE RD", "postcode": "12568"}}},
{"geometry": {"type": "Point", "coordinates": [-74.0759235265, 41.6172132813]}, "type": "Feature", "properties": {"collection_times": [{"days": "Mon-Fri", "time": "5:00pm"}, {"days": "Sat", "time": "12:00pm"}, {"days": "Sun", "time": "Closed"}], "id": "1256800004", "name": "USPS COLLECTION BOX - PO LOBBY", "address": {"city": "PLATTEKILL", "state": "NY", "street": "2 OLD FIREHOUSE RD LBBY SLOT", "postcode": "12568"}}},
{"geometry": {"type": "Point", "coordinates": [-73.823557002, 41.7444265696]}, "type": "Feature", "properties": {"collection_times": [{"days": "Mon-Fri", "time": "5:00pm"}, {"days": "Sat", "time": "4:00pm"}, {"days": "Sun", "time": "Closed"}], "id": "1256900001", "name": "USPS COLLECTION BOX - BLUE BOX", "address": {"city": "PLEASANT VALLEY", "state": "NY", "street": "1612 MAIN ST", "postcode": "12569"}}},
{"geometry": {"type": "Point", "coordinates": [-73.823557002, 41.7444265696]}, "type": "Feature", "properties": {"collection_times": [{"days": "Mon-Fri", "time": "5:00pm"}, {"days": "Sat", "time": "4:00pm"}, {"days": "Sun", "time": "Closed"}], "id": "1256900003", "name": "USPS COLLECTION BOX - PO LOBBY", "address": {"city": "PLEASANT VALLEY", "state": "NY", "street": "1612 MAIN ST LBBY SLOT", "postcode": "12569"}}},
{"geometry": {"type": "Point", "coordinates": [-73.6879721602, 41.6250873033]}, "type": "Feature", "properties": {"collection_times": [{"days": "Mon-Fri", "time": "5:00pm"}, {"days": "Sat", "time": "12:30pm"}, {"days": "Sun", "time": "Closed"}], "id": "1257000001", "name": "USPS COLLECTION BOX - BLUE BOX", "address": {"city": "POUGHQUAG", "state": "NY", "street": "2546 ROUTE 55", "postcode": "12570"}}},
{"geometry": {"type": "Point", "coordinates": [-73.6879721602, 41.6250873033]}, "type": "Feature", "properties": {"collection_times": [{"days": "Mon-Fri", "time": "5:00pm"}, {"days": "Sat", "time": "12:30pm"}, {"days": "Sun", "time": "Closed"}], "id": "1257000002", "name": "USPS COLLECTION BOX - PO LOBBY", "address": {"city": "POUGHQUAG", "state": "NY", "street": "2546 ROUTE 55 LBBY SLOT", "postcode": "12570"}}},
{"geometry": {"type": "Point", "coordinates": [-73.8749364587, 41.9960360267]}, "type": "Feature", "properties": {"collection_times": [{"days": "Mon-Fri", "time": "5:00pm"}, {"days": "Sat", "time": "4:00pm"}, {"days": "Sun", "time": "Closed"}], "id": "1257100002", "name": "USPS COLLECTION BOX - BLUE BOX", "address": {"city": "RED HOOK", "state": "NY", "street": "7525 N BROADWAY", "postcode": "12571"}}},
{"geometry": {"type": "Point", "coordinates": [-73.8756525401, 41.9951267048]}, "type": "Feature", "properties": {"collection_times": [{"days": "Mon-Sat", "time": "9:00am"}, {"days": "Sun", "time": "Closed"}], "id": "1257100003", "name": "USPS COLLECTION BOX - BLUE BOX", "address": {"city": "RED HOOK", "state": "NY", "street": "7501 N BROADWAY", "postcode": "12571"}}},
{"geometry": {"type": "Point", "coordinates": [-73.8713769352, 41.9946010975]}, "type": "Feature", "properties": {"collection_times": [{"days": "Mon-Sat", "time": "9:00am"}, {"days": "Sun", "time": "Closed"}], "id": "1257100004", "name": "USPS COLLECTION BOX - BLUE BOX", "address": {"city": "RED HOOK", "state": "NY", "street": "52 E MARKET ST", "postcode": "12571"}}},
{"geometry": {"type": "Point", "coordinates": [-73.8794660086, 41.9965411502]}, "type": "Feature", "properties": {"collection_times": [{"days": "Mon-Sat", "time": "9:00am"}, {"days": "Sun", "time": "Closed"}], "id": "1257100006", "name": "USPS COLLECTION BOX - BLUE BOX", "address": {"city": "RED HOOK", "state": "NY", "street": "61 W MARKET ST", "postcode": "12571"}}},
{"geometry": {"type": "Point", "coordinates": [-73.8817041669, 41.9955498305]}, "type": "Feature", "properties": {"collection_times": [{"days": "Mon-Sat", "time": "1:30pm"}, {"days": "Sun", "time": "Closed"}], "id": "1257100007", "name": "USPS COLLECTION BOX - BLUE BOX", "address": {"city": "RED HOOK", "state": "NY", "street": "24 PHILLIPS ST", "postcode": "12571"}}},
{"geometry": {"type": "Point", "coordinates": [-73.8844486317, 41.9946839046]}, "type": "Feature", "properties": {"collection_times": [{"days": "Mon-Sat", "time": "2:00pm"}, {"days": "Sun", "time": "Closed"}], "id": "1257100008", "name": "USPS COLLECTION BOX - BLUE BOX", "address": {"city": "RED HOOK", "state": "NY", "street": "48 GARDEN ST", "postcode": "12571"}}},
{"geometry": {"type": "Point", "coordinates": [-73.7521749289, 42.0378651]}, "type": "Feature", "properties": {"collection_times": [{"days": "Mon-Sat", "time": "9:00am"}, {"days": "Sun", "time": "Closed"}], "id": "1257100009", "name": "USPS COLLECTION BOX - BLUE BOX", "address": {"city": "RED HOOK", "state": "NY", "street": "53 S BROADWAY", "postcode": "12571"}}},
{"geometry": {"type": "Point", "coordinates": [-73.8749364587, 41.9960360267]}, "type": "Feature", "properties": {"collection_times": [{"days": "Mon-Fri", "time": "5:00pm"}, {"days": "Sat", "time": "4:00pm"}, {"days": "Sun", "time": "Closed"}], "id": "1257100010", "name": "USPS COLLECTION BOX - PO LOBBY", "address": {"city": "RED HOOK", "state": "NY", "street": "7525 N BROADWAY LBBY SLOT", "postcode": "12571"}}},
{"geometry": {"type": "Point", "coordinates": [-73.9125356264, 41.9263372674]}, "type": "Feature", "properties": {"collection_times": [{"days": "Mon-Fri", "time": "5:00pm"}, {"days": "Sat", "time": "4:00pm"}, {"days": "Sun", "time": "Closed"}], "id": "1257200002", "name": "USPS COLLECTION BOX - BLUE BOX", "address": {"city": "RHINEBECK", "state": "NY", "street": "6383 MILL ST", "postcode": "12572"}}},
{"geometry": {"type": "Point", "coordinates": [-73.9089808348, 41.9270647872]}, "type": "Feature", "properties": {"collection_times": [{"days": "Mon-Sat", "time": "12:30pm"}, {"days": "Sun", "time": "Closed"}], "id": "1257200007", "name": "USPS COLLECTION BOX - BLUE BOX", "address": {"city": "RHINEBECK", "state": "NY", "street": "80 E MARKET ST", "postcode": "12572"}}},
{"geometry": {"type": "Point", "coordinates": [-73.9137253491, 41.9339030463]}, "type": "Feature", "properties": {"collection_times": [{"days": "Mon-Sat", "time": "12:30pm"}, {"days": "Sun", "time": "Closed"}], "id": "1257200009", "name": "USPS COLLECTION BOX - BLUE BOX", "address": {"city": "RHINEBECK", "state": "NY", "street": "72 MONTGOMERY ST # 76", "postcode": "12572"}}},
{"geometry": {"type": "Point", "coordinates": [-73.9124599171, 41.9257375072]}, "type": "Feature", "properties": {"collection_times": [{"days": "Mon-Sat", "time": "12:30pm"}, {"days": "Sun", "time": "Closed"}], "id": "1257200013", "name": "USPS COLLECTION BOX - BLUE BOX", "address": {"city": "RHINEBECK", "state": "NY", "street": "6369 MILL ST", "postcode": "12572"}}},
{"geometry": {"type": "Point", "coordinates": [-73.8737415569, 41.9261089925]}, "type": "Feature", "properties": {"collection_times": [{"days": "Mon-Sat", "time": "1:00pm"}, {"days": "Sun", "time": "Closed"}], "id": "1257200015", "name": "USPS COLLECTION BOX - BLUE BOX", "address": {"city": "RHINEBECK", "state": "NY", "street": "23G E MARKET ST", "postcode": "12572"}}},
{"geometry": {"type": "Point", "coordinates": [-73.9125356264, 41.9263372674]}, "type": "Feature", "properties": {"collection_times": [{"days": "Mon-Fri", "time": "5:00pm"}, {"days": "Sat", "time": "4:00pm"}, {"days": "Sun", "time": "Closed"}], "id": "1257200017", "name": "USPS COLLECTION BOX - PO LOBBY", "address": {"city": "RHINEBECK", "state": "NY", "street": "6383 MILL ST LBBY SLOT", "postcode": "12572"}}},
{"geometry": {"type": "Point", "coordinates": [-73.9513519382, 41.9190633196]}, "type": "Feature", "properties": {"collection_times": [{"days": "Mon-Fri", "time": "5:00pm"}, {"days": "Sat", "time": "12:00pm"}, {"days": "Sun", "time": "Closed"}], "id": "1257400001", "name": "USPS COLLECTION BOX - BLUE BOX", "address": {"city": "RHINECLIFF", "state": "NY", "street": "15 SHATZELL AVE", "postcode": "12574"}}},
{"geometry": {"type": "Point", "coordinates": [-73.9513519382, 41.9190633196]}, "type": "Feature", "properties": {"collection_times": [{"days": "Mon-Fri", "time": "5:00pm"}, {"days": "Sat", "time": "12:00pm"}, {"days": "Sun", "time": "Closed"}], "id": "1257400002", "name": "USPS COLLECTION BOX - PO LOBBY", "address": {"city": "RHINECLIFF", "state": "NY", "street": "15 SHATZELL ( LOBBY DROP SLOT )", "postcode": "12574"}}},
{"geometry": {"type": "Point", "coordinates": [-74.1536291425, 41.4720340294]}, "type": "Feature", "properties": {"collection_times": [{"days": "Mon-Fri", "time": "5:00pm"}, {"days": "Sat", "time": "12:15pm"}, {"days": "Sun", "time": "Closed"}], "id": "1257500001", "name": "USPS COLLECTION BOX - BLUE BOX", "address": {"city": "ROCK TAVERN", "state": "NY", "street": "1964 LITTLE BRITAIN RD", "postcode": "12575"}}},
{"geometry": {"type": "Point", "coordinates": [-74.1536291425, 41.4720340294]}, "type": "Feature", "properties": {"collection_times": [{"days": "Mon-Fri", "time": "5:00pm"}, {"days": "Sat", "time": "12:15pm"}, {"days": "Sun", "time": "Closed"}], "id": "1257500002", "name": "USPS COLLECTION BOX - PO LOBBY", "address": {"city": "ROCK TAVERN", "state": "NY", "street": "1964 LITTLE BRITAIN RD LBBY SLOT", "postcode": "12575"}}},
{"geometry": {"type": "Point", "coordinates": [-74.1219583974, 41.4383211317]}, "type": "Feature", "properties": {"collection_times": [{"days": "Mon-Fri", "time": "5:00pm"}, {"days": "Sat", "time": "1:00pm"}, {"days": "Sun", "time": "Closed"}], "id": "1257700001", "name": "USPS COLLECTION BOX - BLUE BOX", "address": {"city": "SALISBURY MILLS", "state": "NY", "street": "2130 STATE ROUTE 94 STE 5", "postcode": "12577"}}},
{"geometry": {"type": "Point", "coordinates": [-74.1219583974, 41.4383211317]}, "type": "Feature", "properties": {"collection_times": [{"days": "Mon-Fri", "time": "5:00pm"}, {"days": "Sat", "time": "1:00pm"}, {"days": "Sun", "time": "Closed"}], "id": "1257700002", "name": "USPS COLLECTION BOX - PO LOBBY", "address": {"city": "SALISBURY MILLS", "state": "NY", "street": "2130 STATE ROUTE 94 UNIT 5", "postcode": "12577"}}},
{"geometry": {"type": "Point", "coordinates": [-73.7942740358, 41.8061285263]}, "type": "Feature", "properties": {"collection_times": [{"days": "Mon-Fri", "time": "5:00pm"}, {"days": "Sat", "time": "12:00pm"}, {"days": "Sun", "time": "Closed"}], "id": "1257800001", "name": "USPS COLLECTION BOX - BLUE BOX", "address": {"city": "SALT POINT", "state": "NY", "street": "59 COTTAGE ST", "postcode": "12578"}}},
{"geometry": {"type": "Point", "coordinates": [-73.7942740358, 41.8061285263]}, "type": "Feature", "properties": {"collection_times": [{"days": "Mon-Fri", "time": "5:00pm"}, {"days": "Sat", "time": "12:00pm"}, {"days": "Sun", "time": "Closed"}], "id": "1257800002", "name": "USPS COLLECTION BOX - PO LOBBY", "address": {"city": "SALT POINT", "state": "NY", "street": "59 COTTAGE ST ( LOBBY DROP SLOT )", "postcode": "12578"}}},
{"geometry": {"type": "Point", "coordinates": [-73.9289740242, 41.8494189096]}, "type": "Feature", "properties": {"collection_times": [{"days": "Mon-Fri", "time": "5:00pm"}, {"days": "Sat", "time": "11:30am"}, {"days": "Sun", "time": "Closed"}], "id": "1258000001", "name": "USPS COLLECTION BOX - BLUE BOX", "address": {"city": "STAATSBURG", "state": "NY", "street": "1 MARKET ST", "postcode": "12580"}}},
{"geometry": {"type": "Point", "coordinates": [-73.9289740242, 41.8494189096]}, "type": "Feature", "properties": {"collection_times": [{"days": "Mon-Fri", "time": "5:00pm"}, {"days": "Sat", "time": "11:30am"}, {"days": "Sun", "time": "Closed"}], "id": "1258000002", "name": "USPS COLLECTION BOX - PO LOBBY", "address": {"city": "STAATSBURG", "state": "NY", "street": "1 MARKET ST LBBY SLOT", "postcode": "12580"}}},
{"geometry": {"type": "Point", "coordinates": [-73.705303692, 41.8705016043]}, "type": "Feature", "properties": {"collection_times": [{"days": "Mon-Fri", "time": "5:00pm"}, {"days": "Sat", "time": "1:00pm"}, {"days": "Sun", "time": "Closed"}], "id": "1258100001", "name": "USPS COLLECTION BOX - BLUE BOX", "address": {"city": "STANFORDVILLE", "state": "NY", "street": "6069 ROUTE 82", "postcode": "12581"}}},
{"geometry": {"type": "Point", "coordinates": [-73.705303692, 41.8705016043]}, "type": "Feature", "properties": {"collection_times": [{"days": "Mon-Fri", "time": "5:00pm"}, {"days": "Sat", "time": "1:00pm"}, {"days": "Sun", "time": "Closed"}], "id": "1258100003", "name": "USPS COLLECTION BOX - PO LOBBY", "address": {"city": "STANFORDVILLE", "state": "NY", "street": "6069 ROUTE 82 LBBY SLOT", "postcode": "12581"}}},
{"geometry": {"type": "Point", "coordinates": [-73.7407936439, 41.5638632621]}, "type": "Feature", "properties": {"collection_times": [{"days": "Mon-Fri", "time": "5:00pm"}, {"days": "Sat", "time": "12:30pm"}, {"days": "Sun", "time": "Closed"}], "id": "1258200002", "name": "USPS COLLECTION BOX - BLUE BOX", "address": {"city": "STORMVILLE", "state": "NY", "street": "7 OLD ROUTE 52", "postcode": "12582"}}},
{"geometry": {"type": "Point", "coordinates": [-73.7407936439, 41.5638632621]}, "type": "Feature", "properties": {"collection_times": [{"days": "Mon-Fri", "time": "5:00pm"}, {"days": "Sat", "time": "12:30pm"}, {"days": "Sun", "time": "Closed"}], "id": "1258200003", "name": "USPS COLLECTION BOX - PO LOBBY", "address": {"city": "STORMVILLE", "state": "NY", "street": "7 OLD ROUTE 52 LBBY SLOT", "postcode": "12582"}}},
{"geometry": {"type": "Point", "coordinates": [-73.910731614, 42.0590203109]}, "type": "Feature", "properties": {"collection_times": [{"days": "Mon-Fri", "time": "5:00pm"}, {"days": "Sat", "time": "12:00pm"}, {"days": "Sun", "time": "Closed"}], "id": "1258300001", "name": "USPS COLLECTION BOX - BLUE BOX", "address": {"city": "TIVOLI", "state": "NY", "street": "78 BROADWAY", "postcode": "12583"}}},
{"geometry": {"type": "Point", "coordinates": [-73.910731614, 42.0590203109]}, "type": "Feature", "properties": {"collection_times": [{"days": "Mon-Fri", "time": "5:00pm"}, {"days": "Sat", "time": "12:00pm"}, {"days": "Sun", "time": "Closed"}], "id": "1258300002", "name": "USPS COLLECTION BOX - PO LOBBY", "address": {"city": "TIVOLI", "state": "NY", "street": "78 BROADWAY LBBY SLOT", "postcode": "12583"}}},
{"geometry": {"type": "Point", "coordinates": [-74.055817095, 41.4554831179]}, "type": "Feature", "properties": {"collection_times": [{"days": "Mon-Fri", "time": "5:00pm"}, {"days": "Sat", "time": "12:00pm"}, {"days": "Sun", "time": "Closed"}], "id": "1258400001", "name": "USPS COLLECTION BOX - BLUE BOX", "address": {"city": "VAILS GATE", "state": "NY", "street": "6 OLD TEMPLE HILL RD", "postcode": "12584"}}},
{"geometry": {"type": "Point", "coordinates": [-74.055817095, 41.4554831179]}, "type": "Feature", "properties": {"collection_times": [{"days": "Mon-Fri", "time": "5:00pm"}, {"days": "Sat", "time": "12:00pm"}, {"days": "Sun", "time": "Closed"}], "id": "1258400002", "name": "USPS COLLECTION BOX - PO LOBBY", "address": {"city": "VAILS GATE", "state": "NY", "street": "6 OLD TEMPLE HILL RD LBBY SLOT", "postcode": "12584"}}},
{"geometry": {"type": "Point", "coordinates": [-73.7153257204, 41.7294443943]}, "type": "Feature", "properties": {"collection_times": [{"days": "Mon-Fri", "time": "5:00pm"}, {"days": "Sat", "time": "12:00pm"}, {"days": "Sun", "time": "Closed"}], "id": "1258500001", "name": "USPS COLLECTION BOX - BLUE BOX", "address": {"city": "VERBANK", "state": "NY", "street": "3393 ROUTE 82", "postcode": "12585"}}},
{"geometry": {"type": "Point", "coordinates": [-73.7153257204, 41.7294443943]}, "type": "Feature", "properties": {"collection_times": [{"days": "Mon-Fri", "time": "5:00pm"}, {"days": "Sat", "time": "12:00pm"}, {"days": "Sun", "time": "Closed"}], "id": "1258500002", "name": "USPS COLLECTION BOX - PO LOBBY", "address": {"city": "VERBANK", "state": "NY", "street": "3393 ROUTE 82 LBBY SLOT", "postcode": "12585"}}},
{"geometry": {"type": "Point", "coordinates": [-74.1826583913, 41.5626022278]}, "type": "Feature", "properties": {"collection_times": [{"days": "Mon-Sat", "time": "9:00am"}, {"days": "Sun", "time": "Closed"}], "id": "1258600002", "name": "USPS COLLECTION BOX - BLUE BOX", "address": {"city": "WALDEN", "state": "NY", "street": "20 HIGHLAND AVE", "postcode": "12586"}}},
{"geometry": {"type": "Point", "coordinates": [-74.1919948397, 41.5638354039]}, "type": "Feature", "properties": {"collection_times": [{"days": "Mon-Sat", "time": "9:00am"}, {"days": "Sun", "time": "Closed"}], "id": "1258600005", "name": "USPS COLLECTION BOX - BLUE BOX", "address": {"city": "WALDEN", "state": "NY", "street": "78 OAK ST", "postcode": "12586"}}},
{"geometry": {"type": "Point", "coordinates": [-74.1945234697, 41.565451976]}, "type": "Feature", "properties": {"collection_times": [{"days": "Mon-Sat", "time": "9:00am"}, {"days": "Sun", "time": "Closed"}], "id": "1258600007", "name": "USPS COLLECTION BOX - BLUE BOX", "address": {"city": "WALDEN", "state": "NY", "street": "40 S MONTGOMERY ST", "postcode": "12586"}}},
{"geometry": {"type": "Point", "coordinates": [-74.1898649773, 41.5582004375]}, "type": "Feature", "properties": {"collection_times": [{"days": "Mon-Sat", "time": "9:00am"}, {"days": "Sun", "time": "Closed"}], "id": "1258600012", "name": "USPS COLLECTION BOX - BLUE BOX", "address": {"city": "WALDEN", "state": "NY", "street": "62 WALNUT ST", "postcode": "12586"}}},
{"geometry": {"type": "Point", "coordinates": [-74.1902577197, 41.5550514007]}, "type": "Feature", "properties": {"collection_times": [{"days": "Mon-Sat", "time": "9:00am"}, {"days": "Sun", "time": "Closed"}], "id": "1258600014", "name": "USPS COLLECTION BOX - BLUE BOX", "address": {"city": "WALDEN", "state": "NY", "street": "98 GLADSTONE AVE", "postcode": "12586"}}},
{"geometry": {"type": "Point", "coordinates": [-74.1884702687, 41.5610951381]}, "type": "Feature", "properties": {"collection_times": [{"days": "Mon-Sat", "time": "9:00am"}, {"days": "Sun", "time": "Closed"}], "id": "1258600015", "name": "USPS COLLECTION BOX - BLUE BOX", "address": {"city": "WALDEN", "state": "NY", "street": "35 MAIN ST", "postcode": "12586"}}},
{"geometry": {"type": "Point", "coordinates": [-74.1872092344, 41.5604693528]}, "type": "Feature", "properties": {"collection_times": [{"days": "Mon-Fri", "time": "5:00pm"}, {"days": "Sat", "time": "1:00pm"}, {"days": "Sun", "time": "Closed"}], "id": "1258600018", "name": "USPS COLLECTION BOX - BLUE BOX", "address": {"city": "WALDEN", "state": "NY", "street": "8 MAPLE ST", "postcode": "12586"}}},
{"geometry": {"type": "Point", "coordinates": [-74.1868093943, 41.5602741646]}, "type": "Feature", "properties": {"collection_times": [{"days": "Mon-Fri", "time": "5:00pm"}, {"days": "Sat", "time": "1:00pm"}, {"days": "Sun", "time": "Closed"}], "id": "1258600019", "name": "USPS COLLECTION BOX - PO LOBBY", "address": {"city": "WALDEN", "state": "NY", "street": "2 ORANGE AVE LBBY SLOT", "postcode": "12586"}}},
{"geometry": {"type": "Point", "coordinates": [-74.3721376524, 41.6298093038]}, "type": "Feature", "properties": {"collection_times": [{"days": "Mon-Fri", "time": "5:00pm"}, {"days": "Sat", "time": "12:00pm"}, {"days": "Sun", "time": "Closed"}], "id": "1258800001", "name": "USPS COLLECTION BOX - BLUE BOX", "address": {"city": "WALKER VALLEY", "state": "NY", "street": "3619 ROUTE 52", "postcode": "12588"}}},
{"geometry": {"type": "Point", "coordinates": [-74.3721376524, 41.6298093038]}, "type": "Feature", "properties": {"collection_times": [{"days": "Mon-Fri", "time": "5:00pm"}, {"days": "Sat", "time": "12:00pm"}, {"days": "Sun", "time": "Closed"}], "id": "1258800002", "name": "USPS COLLECTION BOX - PO LOBBY", "address": {"city": "WALKER VALLEY", "state": "NY", "street": "3619 ROUTE 52 LBBY SLOT", "postcode": "12588"}}},
{"geometry": {"type": "Point", "coordinates": [-74.1846753363, 41.60644387]}, "type": "Feature", "properties": {"collection_times": [{"days": "Mon-Fri", "time": "5:00pm"}, {"days": "Sat", "time": "1:00pm"}, {"days": "Sun", "time": "Closed"}], "id": "1258900001", "name": "USPS COLLECTION BOX - BLUE BOX", "address": {"city": "WALLKILL", "state": "NY", "street": "45 WALLKILL AVE", "postcode": "12589"}}},
{"geometry": {"type": "Point", "coordinates": [-74.1846753363, 41.60644387]}, "type": "Feature", "properties": {"collection_times": [{"days": "Mon-Fri", "time": "5:00pm"}, {"days": "Sat", "time": "1:00pm"}, {"days": "Sun", "time": "Closed"}], "id": "1258900003", "name": "USPS COLLECTION BOX - PO LOBBY", "address": {"city": "WALLKILL", "state": "NY", "street": "45 WALLKILL AVE LBBY SLOT", "postcode": "12589"}}},
{"geometry": {"type": "Point", "coordinates": [-73.8988162949, 41.5891015126]}, "type": "Feature", "properties": {"collection_times": [{"days": "Mon-Sat", "time": "2:00pm"}, {"days": "Sun", "time": "Closed"}], "id": "1259000005", "name": "USPS COLLECTION BOX - BLUE BOX", "address": {"city": "WAPPINGERS FL", "state": "NY", "street": "4 WHITE GATE DR", "postcode": "12590"}}},
{"geometry": {"type": "Point", "coordinates": [-73.9045565682, 41.5905934028]}, "type": "Feature", "properties": {"collection_times": [{"days": "Mon-Sat", "time": "2:00pm"}, {"days": "Sun", "time": "Closed"}], "id": "1259000007", "name": "USPS COLLECTION BOX - BLUE BOX", "address": {"city": "WAPPINGERS FL", "state": "NY", "street": "11 MARSHALL RD", "postcode": "12590"}}},
{"geometry": {"type": "Point", "coordinates": [-73.9445204709, 41.5517911658]}, "type": "Feature", "properties": {"collection_times": [{"days": "Mon-Sat", "time": "1:30pm"}, {"days": "Sun", "time": "Closed"}], "id": "1259000008", "name": "USPS COLLECTION BOX - BLUE BOX", "address": {"city": "WAPPINGERS FL", "state": "NY", "street": "1 CHELSEA RIDGE MALL", "postcode": "12590"}}},
{"geometry": {"type": "Point", "coordinates": [-73.9077323156, 41.5899133565]}, "type": "Feature", "properties": {"collection_times": [{"days": "Mon-Sat", "time": "2:00pm"}, {"days": "Sun", "time": "Closed"}], "id": "1259000010", "name": "USPS COLLECTION BOX - BLUE BOX", "address": {"city": "WAPPINGERS FL", "state": "NY", "street": "1490 ROUTE 9", "postcode": "12590"}}},
{"geometry": {"type": "Point", "coordinates": [-73.9087406941, 41.5885267735]}, "type": "Feature", "properties": {"collection_times": [{"days": "Mon-Fri", "time": "2:30pm"}, {"days": "Sat", "time": "1:30pm"}, {"days": "Sun", "time": "Closed"}], "id": "1259000013", "name": "USPS COLLECTION BOX - BLUE BOX", "address": {"city": "WAPPINGERS FL", "state": "NY", "street": "66 MIDDLEBUSH RD", "postcode": "12590"}}},
{"geometry": {"type": "Point", "coordinates": [-73.913989483, 41.5971008601]}, "type": "Feature", "properties": {"collection_times": [{"days": "Mon-Fri", "time": "5:00pm"}, {"days": "Sat", "time": "3:00pm"}, {"days": "Sun", "time": "Closed"}], "id": "1259000016", "name": "USPS COLLECTION BOX - BLUE BOX", "address": {"city": "WAPPINGERS FL", "state": "NY", "street": "71 E MAIN ST", "postcode": "12590"}}},
{"geometry": {"type": "Point", "coordinates": [-73.913989483, 41.5971008601]}, "type": "Feature", "properties": {"collection_times": [{"days": "Mon-Fri", "time": "5:00pm"}, {"days": "Sat", "time": "3:00pm"}, {"days": "Sun", "time": "Closed"}], "id": "1259000022", "name": "USPS COLLECTION BOX - APC", "address": {"city": "WAPPINGERS FL", "state": "NY", "street": "71 E MAIN ST", "postcode": "12590"}}},
{"geometry": {"type": "Point", "coordinates": [-73.913989483, 41.5971008601]}, "type": "Feature", "properties": {"collection_times": [{"days": "Mon-Fri", "time": "5:00pm"}, {"days": "Sat", "time": "3:00pm"}, {"days": "Sun", "time": "Closed"}], "id": "1259000023", "name": "USPS COLLECTION BOX - PO LOBBY", "address": {"city": "WAPPINGERS FL", "state": "NY", "street": "71 E MAIN ST ( LOBBY DROP SLOT )", "postcode": "12590"}}},
{"geometry": {"type": "Point", "coordinates": [-73.5599192182, 41.8051762443]}, "type": "Feature", "properties": {"collection_times": [{"days": "Mon-Fri", "time": "5:00pm"}, {"days": "Sat", "time": "12:00pm"}, {"days": "Sun", "time": "Closed"}], "id": "1259200001", "name": "USPS COLLECTION BOX - BLUE BOX", "address": {"city": "WASSAIC", "state": "NY", "street": "18 MAIN ST", "postcode": "12592"}}},
{"geometry": {"type": "Point", "coordinates": [-73.5599192182, 41.8051762443]}, "type": "Feature", "properties": {"collection_times": [{"days": "Mon-Fri", "time": "5:00pm"}, {"days": "Sat", "time": "12:00pm"}, {"days": "Sun", "time": "Closed"}], "id": "1259200002", "name": "USPS COLLECTION BOX - PO LOBBY", "address": {"city": "WASSAIC", "state": "NY", "street": "18 MAIN ST", "postcode": "12592"}}},
{"geometry": {"type": "Point", "coordinates": [-73.5411499933, 41.6864225608]}, "type": "Feature", "properties": {"collection_times": [{"days": "Mon-Fri", "time": "5:00pm"}, {"days": "Sat", "time": "12:30pm"}, {"days": "Sun", "time": "Closed"}], "id": "1259400001", "name": "USPS COLLECTION BOX - BLUE BOX", "address": {"city": "WINGDALE", "state": "NY", "street": "1809 ROUTE 22", "postcode": "12594"}}},
{"geometry": {"type": "Point", "coordinates": [-73.5411499933, 41.6864225608]}, "type": "Feature", "properties": {"collection_times": [{"days": "Mon-Fri", "time": "5:00pm"}, {"days": "Sat", "time": "12:30pm"}, {"days": "Sun", "time": "Closed"}], "id": "1259400002", "name": "USPS COLLECTION BOX - PO LOBBY", "address": {"city": "WINGDALE", "state": "NY", "street": "1809 ROUTE 22 LBBY SLOT", "postcode": "12594"}}}
]}
