{"type": "FeatureCollection", "features": [
{"geometry": {"type": "Point", "coordinates": [-73.9292973233, 41.7028230661]}, "type": "Feature", "properties": {"collection_times": [{"days": "Mon-Fri", "time": "5:00pm"}, {"days": "Sat", "time": "2:00pm"}, {"days": "Sun", "time": "Closed"}], "id": "1260100001", "name": "USPS COLLECTION BOX - BLUE BOX", "address": {"city": "POUGHKEEPSIE", "state": "NY", "street": "43 MARKET ST", "postcode": "12601"}}},
{"geometry": {"type": "Point", "coordinates": [-73.928817769, 41.7040582054]}, "type": "Feature", "properties": {"collection_times": [{"days": "Mon-Fri", "time": "3:00pm"}, {"days": "Sat", "time": "2:00pm"}, {"days": "Sun", "time": "Closed"}], "id": "1260100002", "name": "USPS COLLECTION BOX - BLUE BOX", "address": {"city": "POUGHKEEPSIE", "state": "NY", "street": "3 MARKET ST", "postcode": "12601"}}},
{"geometry": {"type": "Point", "coordinates": [-73.9274042377, 41.7036002898]}, "type": "Feature", "properties": {"collection_times": [{"days": "Mon-Fri", "time": "4:00pm"}, {"days": "Sat", "time": "2:00pm"}, {"days": "Sun", "time": "Closed"}], "id": "1260100003", "name": "USPS COLLECTION BOX - BLUE BOX", "address": {"city": "POUGHKEEPSIE", "state": "NY", "street": "289 MAIN ST", "postcode": "12601"}}},
{"geometry": {"type": "Point", "coordinates": [-73.9347764379, 41.7055214152]}, "type": "Feature", "properties": {"collection_times": [{"days": "Mon-Sat", "time": "2:00pm"}, {"days": "Sun", "time": "Closed"}], "id": "1260100004", "name": "USPS COLLECTION BOX - BLUE BOX", "address": {"city": "POUGHKEEPSIE", "state": "NY", "street": "110 MAIN ST", "postcode": "12601"}}},
{"geometry": {"type": "Point", "coordinates": [-73.9262437549, 41.7016697008]}, "type": "Feature", "properties": {"collection_times": [{"days": "Mon-Fri", "time": "3:00pm"}, {"days": "Sat", "time": "2:00pm"}, {"days": "Sun", "time": "Closed"}], "id": "1260100005", "name": "USPS COLLECTION BOX - BLUE BOX", "address": {"city": "POUGHKEEPSIE", "state": "NY", "street": "27 ACADEMY ST", "postcode": "12601"}}},
{"geometry": {"type": "Point", "coordinates": [-73.9305840314, 41.7008629228]}, "type": "Feature", "properties": {"collection_times": [{"days": "Mon-Fri", "time": "3:00pm"}, {"days": "Sat", "time": "2:00pm"}, {"days": "Sun", "time": "Closed"}], "id": "1260100006", "name": "USPS COLLECTION BOX - BLUE BOX", "address": {"city": "POUGHKEEPSIE", "state": "NY", "street": "94 MARKET ST", "postcode": "12601"}}},
{"geometry": {"type": "Point", "coordinates": [-73.9290852224, 41.7086574394]}, "type": "Feature", "properties": {"collection_times": [{"days": "Mon-Fri", "time": "4:00pm"}, {"days": "Sat", "time": "2:00pm"}, {"days": "Sun", "time": "Closed"}], "id": "1260100008", "name": "USPS COLLECTION BOX - BLUE BOX", "address": {"city": "POUGHKEEPSIE", "state": "NY", "street": "82 WASHINGTON ST", "postcode": "12601"}}},
{"geometry": {"type": "Point", "coordinates": [-73.9263123666, 41.7049133743]}, "type": "Feature", "properties": {"collection_times": [{"days": "Mon-Fri", "time": "2:30pm"}, {"days": "Sat", "time": "11:30am"}, {"days": "Sun", "time": "Closed"}], "id": "1260100010", "name": "USPS COLLECTION BOX - BLUE BOX", "address": {"city": "POUGHKEEPSIE", "state": "NY", "street": "291 MILL ST", "postcode": "12601"}}},
{"geometry": {"type": "Point", "coordinates": [-73.9339211586, 41.7021275059]}, "type": "Feature", "properties": {"collection_times": [{"days": "Mon-Sat", "time": "2:00pm"}, {"days": "Sun", "time": "Closed"}], "id": "1260100016", "name": "USPS COLLECTION BOX - BLUE BOX", "address": {"city": "POUGHKEEPSIE", "state": "NY", "street": "2 JEFFERSON PLZ", "postcode": "12601"}}},
{"geometry": {"type": "Point", "coordinates": [-73.929586797, 41.6668504866]}, "type": "Feature", "properties": {"collection_times": [{"days": "Mon-Sat", "time": "3:00pm"}, {"days": "Sun", "time": "Closed"}], "id": "1260100017", "name": "USPS COLLECTION BOX - BLUE BOX", "address": {"city": "POUGHKEEPSIE", "state": "NY", "street": "2600 SOUTH RD", "postcode": "12601"}}},
{"geometry": {"type": "Point", "coordinates": [-73.9264874445, 41.7146798835]}, "type": "Feature", "properties": {"collection_times": [{"days": "Mon-Fri", "time": "1:30pm"}, {"days": "Sat", "time": "2:00pm"}, {"days": "Sun", "time": "Closed"}], "id": "1260100021", "name": "USPS COLLECTION BOX - BLUE BOX", "address": {"city": "POUGHKEEPSIE", "state": "NY", "street": "29 CLARK ST", "postcode": "12601"}}},
{"geometry": {"type": "Point", "coordinates": [-73.9219765153, 41.7206428085]}, "type": "Feature", "properties": {"collection_times": [{"days": "Mon-Sat", "time": "2:00pm"}, {"days": "Sun", "time": "Closed"}], "id": "1260100023", "name": "USPS COLLECTION BOX - BLUE BOX", "address": {"city": "POUGHKEEPSIE", "state": "NY", "street": "99 FAIRVIEW AVE", "postcode": "12601"}}},
{"geometry": {"type": "Point", "coordinates": [-73.9113905222, 41.6980474804]}, "type": "Feature", "properties": {"collection_times": [{"days": "Mon-Fri", "time": "10:00am"}, {"days": "Sat", "time": "9:00am"}, {"days": "Sun", "time": "Closed"}], "id": "1260100032", "name": "USPS COLLECTION BOX - BLUE BOX", "address": {"city": "POUGHKEEPSIE", "state": "NY", "street": "643 MAIN ST", "postcode": "12601"}}},
{"geometry": {"type": "Point", "coordinates": [-73.9255493416, 41.702896053]}, "type": "Feature", "properties": {"collection_times": [{"days": "Mon-Fri", "time": "2:30pm"}, {"days": "Sat", "time": "2:00pm"}, {"days": "Sun", "time": "Closed"}], "id": "1260100036", "name": "USPS COLLECTION BOX - BLUE BOX", "address": {"city": "POUGHKEEPSIE", "state": "NY", "street": "345 MAIN ST", "postcode": "12601"}}},
{"geometry": {"type": "Point", "coordinates": [-73.9281403041, 41.7058669672]}, "type": "Feature", "properties": {"collection_times": [{"days": "Mon-Fri", "time": "5:00pm"}, {"days": "Sat", "time": "2:00pm"}, {"days": "Sun", "time": "Closed"}], "id": "1260100038", "name": "USPS COLLECTION BOX - BLUE BOX", "address": {"city": "POUGHKEEPSIE", "state": "NY", "street": "51 CIVIC CENTER PLZ", "postcode": "12601"}}},
{"geometry": {"type": "Point", "coordinates": [-73.9278584939, 41.7070202242]}, "type": "Feature", "properties": {"collection_times": [{"days": "Mon-Fri", "time": "5:00pm"}, {"days": "Sat", "time": "2:00pm"}, {"days": "Sun", "time": "Closed"}], "id": "1260100039", "name": "USPS COLLECTION BOX - BLUE BOX", "address": {"city": "POUGHKEEPSIE", "state": "NY", "street": "55 MANSION ST", "postcode": "12601"}}},
{"geometry": {"type": "Point", "coordinates": [-73.9349266737, 41.6496171404]}, "type": "Feature", "properties": {"collection_times": [{"days": "Mon-Fri", "time": "12:30pm"}, {"days": "Sat", "time": "11:30am"}, {"days": "Sun", "time": "Closed"}], "id": "1260100042", "name": "USPS COLLECTION BOX - BLUE BOX", "address": {"city": "POUGHKEEPSIE", "state": "NY", "street": "159 BARNEGAT RD", "postcode": "12601"}}},
{"geometry": {"type": "Point", "coordinates": [-73.9364076064, 41.6958580293]}, "type": "Feature", "properties": {"collection_times": [{"days": "Mon-Fri", "time": "2:30pm"}, {"days": "Sat", "time": "2:00pm"}, {"days": "Sun", "time": "Closed"}], "id": "1260100044", "name": "USPS COLLECTION BOX - BLUE BOX", "address": {"city": "POUGHKEEPSIE", "state": "NY", "street": "1 COLUMBIA ST", "postcode": "12601"}}},
{"geometry": {"type": "Point", "coordinates": [-73.9292532025, 41.6707424216]}, "type": "Feature", "properties": {"collection_times": [{"days": "Mon-Fri", "time": "3:00pm"}, {"days": "Sat", "time": "11:30am"}, {"days": "Sun", "time": "Closed"}], "id": "1260100048", "name": "USPS COLLECTION BOX - BLUE BOX", "address": {"city": "POUGHKEEPSIE", "state": "NY", "street": "2649 SOUTH RD", "postcode": "12601"}}},
{"geometry": {"type": "Point", "coordinates": [-73.9299073788, 41.6653871664]}, "type": "Feature", "properties": {"collection_times": [{"days": "Mon-Fri", "time": "12:00pm"}, {"days": "Sat", "time": "11:30am"}, {"days": "Sun", "time": "Closed"}], "id": "1260100049", "name": "USPS COLLECTION BOX - BLUE BOX", "address": {"city": "POUGHKEEPSIE", "state": "NY", "street": "2585 SOUTH RD", "postcode": "12601"}}},
{"geometry": {"type": "Point", "coordinates": [-73.9171195924, 41.626710323]}, "type": "Feature", "properties": {"collection_times": [{"days": "Mon-Sat", "time": "11:00am"}, {"days": "Sun", "time": "Closed"}], "id": "1260100050", "name": "USPS COLLECTION BOX - BLUE BOX", "address": {"city": "POUGHKEEPSIE", "state": "NY", "street": "2001 SOUTH RD", "postcode": "12601"}}},
{"geometry": {"type": "Point", "coordinates": [-73.9297808022, 41.6646466341]}, "type": "Feature", "properties": {"collection_times": [{"days": "Mon-Fri", "time": "5:00pm"}, {"days": "Sat", "time": "11:30am"}, {"days": "Sun", "time": "Closed"}], "id": "1260100052", "name": "USPS COLLECTION BOX - BLUE BOX", "address": {"city": "POUGHKEEPSIE", "state": "NY", "street": "2572 SOUTH RD", "postcode": "12601"}}},
{"geometry": {"type": "Point", "coordinates": [-73.928865192, 41.6722211203]}, "type": "Feature", "properties": {"collection_times": [{"days": "Mon-Fri", "time": "4:00pm"}, {"days": "Sat", "time": "11:30am"}, {"days": "Sun", "time": "Closed"}], "id": "1260100053", "name": "USPS COLLECTION BOX - BLUE BOX", "address": {"city": "POUGHKEEPSIE", "state": "NY", "street": "2678 SOUTH RD", "postcode": "12601"}}},
{"geometry": {"type": "Point", "coordinates": [-73.9171195924, 41.626710323]}, "type": "Feature", "properties": {"collection_times": [{"days": "Mon-Sat", "time": "11:00am"}, {"days": "Sun", "time": "Closed"}], "id": "1260100074", "name": "USPS COLLECTION BOX - BLUE BOX", "address": {"city": "POUGHKEEPSIE", "state": "NY", "street": "2001 SOUTH RD", "postcode": "12601"}}},
{"geometry": {"type": "Point", "coordinates": [-73.920621151, 41.7101314063]}, "type": "Feature", "properties": {"collection_times": [{"days": "Mon-Sat", "time": "9:00am"}, {"days": "Sun", "time": "Closed"}], "id": "1260100076", "name": "USPS COLLECTION BOX - BLUE BOX", "address": {"city": "POUGHKEEPSIE", "state": "NY", "street": "150 N HAMILTON ST", "postcode": "12601"}}},
{"geometry": {"type": "Point", "coordinates": [-73.928462986, 41.6473659695]}, "type": "Feature", "properties": {"collection_times": [{"days": "Mon-Sat", "time": "2:00pm"}, {"days": "Sun", "time": "Closed"}], "id": "1260100080", "name": "USPS COLLECTION BOX - BLUE BOX", "address": {"city": "POUGHKEEPSIE", "state": "NY", "street": "18 ANTHONY DR", "postcode": "12601"}}},
{"geometry": {"type": "Point", "coordinates": [-73.9390005189, 41.7005737433]}, "type": "Feature", "properties": {"collection_times": [{"days": "Mon-Sat", "time": "9:00am"}, {"days": "Sun", "time": "Closed"}], "id": "1260100084", "name": "USPS COLLECTION BOX - BLUE BOX", "address": {"city": "POUGHKEEPSIE", "state": "NY", "street": "14 STOUT CT", "postcode": "12601"}}},
{"geometry": {"type": "Point", "coordinates": [-73.9214941747, 41.6814351877]}, "type": "Feature", "properties": {"collection_times": [{"days": "Mon-Fri", "time": "9:30am"}, {"days": "Sat", "time": "10:00am"}, {"days": "Sun", "time": "Closed"}], "id": "1260100085", "name": "USPS COLLECTION BOX - BLUE BOX", "address": {"city": "POUGHKEEPSIE", "state": "NY", "street": "24 BEECHWOOD AVE", "postcode": "12601"}}},
{"geometry": {"type": "Point", "coordinates": [-73.9077660251, 41.726340992]}, "type": "Feature", "properties": {"collection_times": [{"days": "Mon-Sat", "time": "11:00am"}, {"days": "Sun", "time": "Closed"}], "id": "1260100086", "name": "USPS COLLECTION BOX - BLUE BOX", "address": {"city": "POUGHKEEPSIE", "state": "NY", "street": "34 VAN WYCK DR", "postcode": "12601"}}},
{"geometry": {"type": "Point", "coordinates": [-73.9338419004, 41.706419281]}, "type": "Feature", "properties": {"collection_times": [{"days": "Mon-Sat", "time": "9:00am"}, {"days": "Sun", "time": "Closed"}], "id": "1260100088", "name": "USPS COLLECTION BOX - BLUE BOX", "address": {"city": "POUGHKEEPSIE", "state": "NY", "street": "20 N PERRY ST", "postcode": "12601"}}},
{"geometry": {"type": "Point", "coordinates": [-73.9347965483, 41.7075821297]}, "type": "Feature", "properties": {"collection_times": [{"days": "Mon-Sat", "time": "9:00am"}, {"days": "Sun", "time": "Closed"}], "id": "1260100090", "name": "USPS COLLECTION BOX - BLUE BOX", "address": {"city": "POUGHKEEPSIE", "state": "NY", "street": "44 N CLOVER ST", "postcode": "12601"}}},
{"geometry": {"type": "Point", "coordinates": [-73.9103305909, 41.7031531313]}, "type": "Feature", "properties": {"collection_times": [{"days": "Mon-Fri", "time": "11:00am"}, {"days": "Sat", "time": "9:00am"}, {"days": "Sun", "time": "Closed"}], "id": "1260100092", "name": "USPS COLLECTION BOX - BLUE BOX", "address": {"city": "POUGHKEEPSIE", "state": "NY", "street": "378 MANSION ST", "postcode": "12601"}}},
{"geometry": {"type": "Point", "coordinates": [-73.9238636415, 41.6432031369]}, "type": "Feature", "properties": {"collection_times": [{"days": "Mon-Fri", "time": "4:00pm"}, {"days": "Sat", "time": "11:30am"}, {"days": "Sun", "time": "Closed"}], "id": "1260100093", "name": "USPS COLLECTION BOX - BLUE BOX", "address": {"city": "POUGHKEEPSIE", "state": "NY", "street": "3 NEPTUNE RD", "postcode": "12601"}}},
{"geometry": {"type": "Point", "coordinates": [-73.916699642, 41.6183562668]}, "type": "Feature", "properties": {"collection_times": [{"days": "Mon-Sat", "time": "11:30am"}, {"days": "Sun", "time": "Closed"}], "id": "1260100099", "name": "USPS COLLECTION BOX - BLUE BOX", "address": {"city": "POUGHKEEPSIE", "state": "NY", "street": "1895 SOUTH RD", "postcode": "12601"}}},
{"geometry": {"type": "Point", "coordinates": [-73.9296589575, 41.7044259952]}, "type": "Feature", "properties": {"collection_times": [{"days": "Mon-Fri", "time": "4:00pm"}, {"days": "Sat", "time": "2:00pm"}, {"days": "Sun", "time": "Closed"}], "id": "1260100100", "name": "USPS COLLECTION BOX - BLUE BOX", "address": {"city": "POUGHKEEPSIE", "state": "NY", "street": "235 MAIN ST", "postcode": "12601"}}},
{"geometry": {"type": "Point", "coordinates": [-73.9285039898, 41.6942887133]}, "type": "Feature", "properties": {"collection_times": [{"days": "Mon-Sat", "time": "1:30pm"}, {"days": "Sun", "time": "Closed"}], "id": "1260100101", "name": "USPS COLLECTION BOX - BLUE BOX", "address": {"city": "POUGHKEEPSIE", "state": "NY", "street": "153 ACADEMY ST", "postcode": "12601"}}},
{"geometry": {"type": "Point", "coordinates": [-73.9214941747, 41.6814351877]}, "type": "Feature", "properties": {"collection_times": [{"days": "Mon-Fri", "time": "9:30am"}, {"days": "Sat", "time": "10:00am"}, {"days": "Sun", "time": "Closed"}], "id": "1260100104", "name": "USPS COLLECTION BOX - BLUE BOX", "address": {"city": "POUGHKEEPSIE", "state": "NY", "street": "24 BEECHWOOD AVE", "postcode": "12601"}}},
{"geometry": {"type": "Point", "coordinates": [-73.9365773719, 41.6915466434]}, "type": "Feature", "properties": {"collection_times": [{"days": "Mon-Fri", "time": "2:30pm"}, {"days": "Sat", "time": "2:00pm"}, {"days": "Sun", "time": "Closed"}], "id": "1260100105", "name": "USPS COLLECTION BOX - BLUE BOX", "address": {"city": "POUGHKEEPSIE", "state": "NY", "street": "9 LIVINGSTON ST", "postcode": "12601"}}},
{"geometry": {"type": "Point", "coordinates": [-73.9326179063, 41.6509708111]}, "type": "Feature", "properties": {"collection_times": [{"days": "Mon-Fri", "time": "1:00pm"}, {"days": "Sat", "time": "11:30am"}, {"days": "Sun", "time": "Closed"}], "id": "1260100106", "name": "USPS COLLECTION BOX - BLUE BOX", "address": {"city": "POUGHKEEPSIE", "state": "NY", "street": "22 IBM RD", "postcode": "12601"}}},
{"geometry": {"type": "Point", "coordinates": [-73.9042501819, 41.7222898585]}, "type": "Feature", "properties": {"collection_times": [{"days": "Mon-Fri", "time": "2:00pm"}, {"days": "Sat-Sun", "time": "Closed"}], "id": "1260100109", "name": "USPS COLLECTION BOX - BLUE BOX", "address": {"city": "POUGHKEEPSIE", "state": "NY", "street": "53 PENDELL RD", "postcode": "12601"}}},
{"geometry": {"type": "Point", "coordinates": [-73.9302740961, 41.7186688211]}, "type": "Feature", "properties": {"collection_times": [{"days": "Mon-Fri", "time": "1:30pm"}, {"days": "Sat", "time": "2:00pm"}, {"days": "Sun", "time": "Closed"}], "id": "1260100110", "name": "USPS COLLECTION BOX - BLUE BOX", "address": {"city": "POUGHKEEPSIE", "state": "NY", "street": "243 NORTH RD", "postcode": "12601"}}},
{"geometry": {"type": "Point", "coordinates": [-73.9206105043, 41.692265177]}, "type": "Feature", "properties": {"collection_times": [{"days": "Mon-Fri", "time": "9:00am"}, {"days": "Sat", "time": "10:00am"}, {"days": "Sun", "time": "Closed"}], "id": "1260100111", "name": "USPS COLLECTION BOX - BLUE BOX", "address": {"city": "POUGHKEEPSIE", "state": "NY", "street": "99 HOOKER AVE", "postcode": "12601"}}},
{"geometry": {"type": "Point", "coordinates": [-73.9319811059, 41.7069232215]}, "type": "Feature", "properties": {"collection_times": [{"days": "Mon-Sat", "time": "9:00am"}, {"days": "Sun", "time": "Closed"}], "id": "1260100112", "name": "USPS COLLECTION BOX - BLUE BOX", "address": {"city": "POUGHKEEPSIE", "state": "NY", "street": "195 MILL ST", "postcode": "12601"}}},
{"geometry": {"type": "Point", "coordinates": [-73.9248549611, 41.7043632983]}, "type": "Feature", "properties": {"collection_times": [{"days": "Mon-Fri", "time": "2:30pm"}, {"days": "Sat", "time": "11:30am"}, {"days": "Sun", "time": "Closed"}], "id": "1260100113", "name": "USPS COLLECTION BOX - BLUE BOX", "address": {"city": "POUGHKEEPSIE", "state": "NY", "street": "319 MILL ST", "postcode": "12601"}}},
{"geometry": {"type": "Point", "coordinates": [-73.9207281577, 41.7001728882]}, "type": "Feature", "properties": {"collection_times": [{"days": "Mon-Sat", "time": "8:30am"}, {"days": "Sun", "time": "Closed"}], "id": "1260100114", "name": "USPS COLLECTION BOX - BLUE BOX", "address": {"city": "POUGHKEEPSIE", "state": "NY", "street": "1 CRESTWOOD BLVD", "postcode": "12601"}}},
{"geometry": {"type": "Point", "coordinates": [-73.9278584939, 41.7070202242]}, "type": "Feature", "properties": {"collection_times": [{"days": "Mon-Fri", "time": "5:00pm"}, {"days": "Sat", "time": "2:00pm"}, {"days": "Sun", "time": "Closed"}], "id": "1260100115", "name": "USPS COLLECTION BOX - PO LOBBY", "address": {"city": "POUGHKEEPSIE", "state": "NY", "street": "55 MANSION ST LBBY SLOT", "postcode": "12601"}}},
{"geometry": {"type": "Point", "coordinates": [-73.9297808022, 41.6646466341]}, "type": "Feature", "properties": {"collection_times": [{"days": "Mon-Fri", "time": "5:00pm"}, {"days": "Sat", "time": "11:30am"}, {"days": "Sun", "time": "Closed"}], "id": "1260100116", "name": "USPS COLLECTION BOX - PO LOBBY", "address": {"city": "POUGHKEEPSIE", "state": "NY", "street": "2572 SOUTH RD LBBY SLOT", "postcode": "12601"}}},
{"geometry": {"type": "Point", "coordinates": [-73.9018454453, 41.6961522938]}, "type": "Feature", "properties": {"collection_times": [{"days": "Mon-Sat", "time": "12:00pm"}, {"days": "Sun", "time": "Closed"}], "id": "1260300007", "name": "USPS COLLECTION BOX - BLUE BOX", "address": {"city": "POUGHKEEPSIE", "state": "NY", "street": "782 MAIN ST", "postcode": "12603"}}},
{"geometry": {"type": "Point", "coordinates": [-73.8890880396, 41.6920416609]}, "type": "Feature", "properties": {"collection_times": [{"days": "Mon-Fri", "time": "12:00pm"}, {"days": "Sat", "time": "9:00am"}, {"days": "Sun", "time": "Closed"}], "id": "1260300008", "name": "USPS COLLECTION BOX - BLUE BOX", "address": {"city": "POUGHKEEPSIE", "state": "NY", "street": "46 HAIGHT AVE", "postcode": "12603"}}},
{"geometry": {"type": "Point", "coordinates": [-73.8969844479, 41.6956756477]}, "type": "Feature", "properties": {"collection_times": [{"days": "Mon-Fri", "time": "11:30am"}, {"days": "Sat", "time": "9:00am"}, {"days": "Sun", "time": "Closed"}], "id": "1260300009", "name": "USPS COLLECTION BOX - BLUE BOX", "address": {"city": "POUGHKEEPSIE", "state": "NY", "street": "836 MAIN ST", "postcode": "12603"}}},
{"geometry": {"type": "Point", "coordinates": [-73.8893670226, 41.6937703968]}, "type": "Feature", "properties": {"collection_times": [{"days": "Mon-Fri", "time": "3:30pm"}, {"days": "Sat", "time": "10:00am"}, {"days": "Sun", "time": "Closed"}], "id": "1260300012", "name": "USPS COLLECTION BOX - BLUE BOX", "address": {"city": "POUGHKEEPSIE", "state": "NY", "street": "4 BURNETT BLVD", "postcode": "12603"}}},
{"geometry": {"type": "Point", "coordinates": [-73.9095444709, 41.6933770438]}, "type": "Feature", "properties": {"collection_times": [{"days": "Mon-Sat", "time": "10:00am"}, {"days": "Sun", "time": "Closed"}], "id": "1260300015", "name": "USPS COLLECTION BOX - BLUE BOX", "address": {"city": "POUGHKEEPSIE", "state": "NY", "street": "9 FULTON AVE", "postcode": "12603"}}},
{"geometry": {"type": "Point", "coordinates": [-73.8747684785, 41.6546399842]}, "type": "Feature", "properties": {"collection_times": [{"days": "Mon-Fri", "time": "12:00pm"}, {"days": "Sat", "time": "10:00am"}, {"days": "Sun", "time": "Closed"}], "id": "1260300021", "name": "USPS COLLECTION BOX - BLUE BOX", "address": {"city": "POUGHKEEPSIE", "state": "NY", "street": "16 VASSAR RD", "postcode": "12603"}}},
{"geometry": {"type": "Point", "coordinates": [-73.8748908943, 41.6241383404]}, "type": "Feature", "properties": {"collection_times": [{"days": "Mon-Sat", "time": "9:00am"}, {"days": "Sun", "time": "Closed"}], "id": "1260300022", "name": "USPS COLLECTION BOX - BLUE BOX", "address": {"city": "POUGHKEEPSIE", "state": "NY", "street": "375 NEW HACKENSACK RD", "postcode": "12603"}}},
{"geometry": {"type": "Point", "coordinates": [-73.8843474266, 41.6805942934]}, "type": "Feature", "properties": {"collection_times": [{"days": "Mon-Sat", "time": "11:00am"}, {"days": "Sun", "time": "Closed"}], "id": "1260300029", "name": "USPS COLLECTION BOX - BLUE BOX", "address": {"city": "POUGHKEEPSIE", "state": "NY", "street": "106 VAN WAGNER RD", "postcode": "12603"}}},
{"geometry": {"type": "Point", "coordinates": [-73.910787912, 41.6862613415]}, "type": "Feature", "properties": {"collection_times": [{"days": "Mon-Sat", "time": "10:00am"}, {"days": "Sun", "time": "Closed"}], "id": "1260300032", "name": "USPS COLLECTION BOX - BLUE BOX", "address": {"city": "POUGHKEEPSIE", "state": "NY", "street": "258 HOOKER AVE", "postcode": "12603"}}},
{"geometry": {"type": "Point", "coordinates": [-73.8814099177, 41.6985108787]}, "type": "Feature", "properties": {"collection_times": [{"days": "Mon-Sat", "time": "2:00pm"}, {"days": "Sun", "time": "Closed"}], "id": "1260300034", "name": "USPS COLLECTION BOX - BLUE BOX", "address": {"city": "POUGHKEEPSIE", "state": "NY", "street": "7 JANET DR", "postcode": "12603"}}},
{"geometry": {"type": "Point", "coordinates": [-73.8895732996, 41.6922446582]}, "type": "Feature", "properties": {"collection_times": [{"days": "Mon-Fri", "time": "11:30am"}, {"days": "Sat", "time": "10:00am"}, {"days": "Sun", "time": "Closed"}], "id": "1260300036", "name": "USPS COLLECTION BOX - BLUE BOX", "address": {"city": "POUGHKEEPSIE", "state": "NY", "street": "22 FREEDOM PLAINS RD", "postcode": "12603"}}},
{"geometry": {"type": "Point", "coordinates": [-73.8889793646, 41.6930624914]}, "type": "Feature", "properties": {"collection_times": [{"days": "Mon-Fri", "time": "3:30pm"}, {"days": "Sat", "time": "10:00am"}, {"days": "Sun", "time": "Closed"}], "id": "1260300037", "name": "USPS COLLECTION BOX - BLUE BOX", "address": {"city": "POUGHKEEPSIE", "state": "NY", "street": "1 OVEROCKER RD", "postcode": "12603"}}},
{"geometry": {"type": "Point", "coordinates": [-73.8788564267, 41.7020658708]}, "type": "Feature", "properties": {"collection_times": [{"days": "Mon-Fri", "time": "12:00pm"}, {"days": "Sat", "time": "9:00am"}, {"days": "Sun", "time": "Closed"}], "id": "1260300039", "name": "USPS COLLECTION BOX - BLUE BOX", "address": {"city": "POUGHKEEPSIE", "state": "NY", "street": "101 CHERRY HILL DR", "postcode": "12603"}}},
{"geometry": {"type": "Point", "coordinates": [-73.8893744729, 41.7011929683]}, "type": "Feature", "properties": {"collection_times": [{"days": "Mon-Fri", "time": "12:00pm"}, {"days": "Sat", "time": "9:00am"}, {"days": "Sun", "time": "Closed"}], "id": "1260300040", "name": "USPS COLLECTION BOX - BLUE BOX", "address": {"city": "POUGHKEEPSIE", "state": "NY", "street": "2 TUCKER DR", "postcode": "12603"}}},
{"geometry": {"type": "Point", "coordinates": [-73.8874986647, 41.691425182]}, "type": "Feature", "properties": {"collection_times": [{"days": "Mon-Fri", "time": "11:30am"}, {"days": "Sat", "time": "10:00am"}, {"days": "Sun", "time": "Closed"}], "id": "1260300042", "name": "USPS COLLECTION BOX - BLUE BOX", "address": {"city": "POUGHKEEPSIE", "state": "NY", "street": "106 FREEDOM PLAINS RD", "postcode": "12603"}}},
{"geometry": {"type": "Point", "coordinates": [-73.9007805632, 41.6926176988]}, "type": "Feature", "properties": {"collection_times": [{"days": "Mon-Fri", "time": "5:00pm"}, {"days": "Sat", "time": "10:30am"}, {"days": "Sun", "time": "Closed"}], "id": "1260300043", "name": "USPS COLLECTION BOX - BLUE BOX", "address": {"city": "POUGHKEEPSIE", "state": "NY", "street": "41 RAYMOND AVE", "postcode": "12603"}}},
{"geometry": {"type": "Point", "coordinates": [-73.9008598215, 41.6929477443]}, "type": "Feature", "properties": {"collection_times": [{"days": "Mon-Fri", "time": "4:00pm"}, {"days": "Sat", "time": "10:30am"}, {"days": "Sun", "time": "Closed"}], "id": "1260300044", "name": "USPS COLLECTION BOX - PO LOBBY", "address": {"city": "POUGHKEEPSIE", "state": "NY", "street": "39 RAYMOND AVE LBBY SLOT", "postcode": "12603"}}}
]}
