{"type": "FeatureCollection", "features": [
{"geometry": {"type": "Point", "coordinates": [-74.6729881124, 41.6514456794]}, "type": "Feature", "properties": {"collection_times": [{"days": "Mon-Fri", "time": "4:00pm"}, {"days": "Sat", "time": "2:30pm"}, {"days": "Sun", "time": "Closed"}], "id": "1270100007", "name": "USPS COLLECTION BOX - BLUE BOX", "address": {"city": "MONTICELLO", "state": "NY", "street": "274 E BROADWAY", "postcode": "12701"}}},
{"geometry": {"type": "Point", "coordinates": [-74.6846576747, 41.6544388811]}, "type": "Feature", "properties": {"collection_times": [{"days": "Mon-Fri", "time": "4:30pm"}, {"days": "Sat", "time": "3:00pm"}, {"days": "Sun", "time": "Closed"}], "id": "1270100011", "name": "USPS COLLECTION BOX - BLUE BOX", "address": {"city": "MONTICELLO", "state": "NY", "street": "414 BROADWAY", "postcode": "12701"}}},
{"geometry": {"type": "Point", "coordinates": [-74.6897337517, 41.6557271235]}, "type": "Feature", "properties": {"collection_times": [{"days": "Mon-Fri", "time": "5:00pm"}, {"days": "Sat", "time": "4:00pm"}, {"days": "Sun", "time": "Closed"}], "id": "1270100019", "name": "USPS COLLECTION BOX - BLUE BOX", "address": {"city": "MONTICELLO", "state": "NY", "street": "486 BROADWAY", "postcode": "12701"}}},
{"geometry": {"type": "Point", "coordinates": [-74.6896960148, 41.6557510868]}, "type": "Feature", "properties": {"collection_times": [{"days": "Mon-Fri", "time": "5:00pm"}, {"days": "Sat", "time": "4:00pm"}, {"days": "Sun", "time": "Closed"}], "id": "1270100021", "name": "USPS COLLECTION BOX - BLUE BOX", "address": {"city": "MONTICELLO", "state": "NY", "street": "1 LIBERTY ST", "postcode": "12701"}}},
{"geometry": {"type": "Point", "coordinates": [-74.6917743559, 41.6577771913]}, "type": "Feature", "properties": {"collection_times": [{"days": "Mon-Fri", "time": "4:30pm"}, {"days": "Sat-Sun", "time": "Closed"}], "id": "1270100022", "name": "USPS COLLECTION BOX - BLUE BOX", "address": {"city": "MONTICELLO", "state": "NY", "street": "100 NORTH ST", "postcode": "12701"}}},
{"geometry": {"type": "Point", "coordinates": [-74.6870969361, 41.6493048392]}, "type": "Feature", "properties": {"collection_times": [{"days": "Mon-Fri", "time": "4:00pm"}, {"days": "Sat", "time": "2:30pm"}, {"days": "Sun", "time": "Closed"}], "id": "1270100023", "name": "USPS COLLECTION BOX - BLUE BOX", "address": {"city": "MONTICELLO", "state": "NY", "street": "83 SAINT JOHN ST", "postcode": "12701"}}},
{"geometry": {"type": "Point", "coordinates": [-74.6552540467, 41.6466763044]}, "type": "Feature", "properties": {"collection_times": [{"days": "Mon-Fri", "time": "4:00pm"}, {"days": "Sat", "time": "2:30pm"}, {"days": "Sun", "time": "Closed"}], "id": "1270100024", "name": "USPS COLLECTION BOX - BLUE BOX", "address": {"city": "MONTICELLO", "state": "NY", "street": "99 E BROADWAY", "postcode": "12701"}}},
{"geometry": {"type": "Point", "coordinates": [-74.6750892816, 41.6666205745]}, "type": "Feature", "properties": {"collection_times": [{"days": "Mon-Fri", "time": "4:30pm"}, {"days": "Sat", "time": "2:30pm"}, {"days": "Sun", "time": "Closed"}], "id": "1270100026", "name": "USPS COLLECTION BOX - BLUE BOX", "address": {"city": "MONTICELLO", "state": "NY", "street": "4050 STATE ROUTE 42", "postcode": "12701"}}},
{"geometry": {"type": "Point", "coordinates": [-74.6852231291, 41.6545772873]}, "type": "Feature", "properties": {"collection_times": [{"days": "Mon-Fri", "time": "4:30pm"}, {"days": "Sat", "time": "3:00pm"}, {"days": "Sun", "time": "Closed"}], "id": "1270100027", "name": "USPS COLLECTION BOX - BLUE BOX", "address": {"city": "MONTICELLO", "state": "NY", "street": "418 BROADWAY", "postcode": "12701"}}},
{"geometry": {"type": "Point", "coordinates": [-74.6805658197, 41.6576766398]}, "type": "Feature", "properties": {"collection_times": [{"days": "Mon-Fri", "time": "4:00pm"}, {"days": "Sat", "time": "2:30pm"}, {"days": "Sun", "time": "Closed"}], "id": "1270100031", "name": "USPS COLLECTION BOX - BLUE BOX", "address": {"city": "MONTICELLO", "state": "NY", "street": "58 PLEASANT ST", "postcode": "12701"}}},
{"geometry": {"type": "Point", "coordinates": [-74.6862783285, 41.6560772793]}, "type": "Feature", "properties": {"collection_times": [{"days": "Mon-Fri", "time": "4:30pm"}, {"days": "Sat", "time": "2:30pm"}, {"days": "Sun", "time": "Closed"}], "id": "1270100032", "name": "USPS COLLECTION BOX - BLUE BOX", "address": {"city": "MONTICELLO", "state": "NY", "street": "30 NORTH ST", "postcode": "12701"}}},
{"geometry": {"type": "Point", "coordinates": [-74.6897337517, 41.6557271235]}, "type": "Feature", "properties": {"collection_times": [{"days": "Mon-Fri", "time": "5:00pm"}, {"days": "Sat", "time": "4:00pm"}, {"days": "Sun", "time": "Closed"}], "id": "1270100035", "name": "USPS COLLECTION BOX - PO LOBBY", "address": {"city": "MONTICELLO", "state": "NY", "street": "486 BROADWAY LBBY SLOT", "postcode": "12701"}}},
{"geometry": {"type": "Point", "coordinates": [-74.9127665691, 41.4782194368]}, "type": "Feature", "properties": {"collection_times": [{"days": "Mon-Fri", "time": "5:00pm"}, {"days": "Sat", "time": "11:00am"}, {"days": "Sun", "time": "Closed"}], "id": "1271900001", "name": "USPS COLLECTION BOX - BLUE BOX", "address": {"city": "BARRYVILLE", "state": "NY", "street": "6 YULAN BARRYVILLE RD", "postcode": "12719"}}},
{"geometry": {"type": "Point", "coordinates": [-74.891928132, 41.6724734781]}, "type": "Feature", "properties": {"collection_times": [{"days": "Mon-Fri", "time": "5:00pm"}, {"days": "Sat", "time": "12:00pm"}, {"days": "Sun", "time": "Closed"}], "id": "1272000001", "name": "USPS COLLECTION BOX - BLUE BOX", "address": {"city": "BETHEL", "state": "NY", "street": "2166 STATE ROUTE 17B", "postcode": "12720"}}},
{"geometry": {"type": "Point", "coordinates": [-74.9236732654, 41.6576886048]}, "type": "Feature", "properties": {"collection_times": [{"days": "Mon-Fri", "time": "5:00pm"}, {"days": "Sat", "time": "12:00pm"}, {"days": "Sun", "time": "Closed"}], "id": "1272000002", "name": "USPS COLLECTION BOX - PO LOBBY", "address": {"city": "BETHEL", "state": "NY", "street": "2166 ROUTE 17B ( LOBBY SLOT )", "postcode": "12720"}}},
{"geometry": {"type": "Point", "coordinates": [-74.4405883981, 41.5530439194]}, "type": "Feature", "properties": {"collection_times": [{"days": "Mon-Fri", "time": "5:00pm"}, {"days": "Sat", "time": "12:00pm"}, {"days": "Sun", "time": "Closed"}], "id": "1272100001", "name": "USPS COLLECTION BOX - BLUE BOX", "address": {"city": "BLOOMINGBURG", "state": "NY", "street": "21 WINTERTON RD", "postcode": "12721"}}},
{"geometry": {"type": "Point", "coordinates": [-74.4405883981, 41.5530439194]}, "type": "Feature", "properties": {"collection_times": [{"days": "Mon-Fri", "time": "5:00pm"}, {"days": "Sat", "time": "12:00pm"}, {"days": "Sun", "time": "Closed"}], "id": "1272100006", "name": "USPS COLLECTION BOX - PO LOBBY", "address": {"city": "BLOOMINGBURG", "state": "NY", "street": "21 WINTERTON RD LBBY SLOT", "postcode": "12721"}}},
{"geometry": {"type": "Point", "coordinates": [-74.382398027, 41.589999168]}, "type": "Feature", "properties": {"collection_times": [{"days": "Mon-Fri", "time": "5:00pm"}, {"days": "Sat", "time": "12:00pm"}, {"days": "Sun", "time": "Closed"}], "id": "1272200001", "name": "USPS COLLECTION BOX - BLUE BOX", "address": {"city": "BURLINGHAM", "state": "NY", "street": "709 BURLINGHAM RD", "postcode": "12722"}}},
{"geometry": {"type": "Point", "coordinates": [-74.382398027, 41.589999168]}, "type": "Feature", "properties": {"collection_times": [{"days": "Mon-Fri", "time": "5:00pm"}, {"days": "Sat", "time": "12:00pm"}, {"days": "Sun", "time": "Closed"}], "id": "1272200002", "name": "USPS COLLECTION BOX - PO LOBBY", "address": {"city": "BURLINGHAM", "state": "NY", "street": "709 BURLINGHAM RD LBBY SLOT", "postcode": "12722"}}},
{"geometry": {"type": "Point", "coordinates": [-75.0602755371, 41.7673227404]}, "type": "Feature", "properties": {"collection_times": [{"days": "Mon-Fri", "time": "5:00pm"}, {"days": "Sat", "time": "12:00pm"}, {"days": "Sun", "time": "Closed"}], "id": "1272300001", "name": "USPS COLLECTION BOX - BLUE BOX", "address": {"city": "CALLICOON", "state": "NY", "street": "13 RIVER RD", "postcode": "12723"}}},
{"geometry": {"type": "Point", "coordinates": [-75.0602755371, 41.7673227404]}, "type": "Feature", "properties": {"collection_times": [{"days": "Mon-Fri", "time": "5:00pm"}, {"days": "Sat", "time": "12:00pm"}, {"days": "Sun", "time": "Closed"}], "id": "1272300002", "name": "USPS COLLECTION BOX - PO LOBBY", "address": {"city": "CALLICOON", "state": "NY", "street": "13 RIVER RD LBBY SLOT", "postcode": "12723"}}},
{"geometry": {"type": "Point", "coordinates": [-74.9464796761, 41.8380616377]}, "type": "Feature", "properties": {"collection_times": [{"days": "Mon-Fri", "time": "5:00pm"}, {"days": "Sat", "time": "12:00pm"}, {"days": "Sun", "time": "Closed"}], "id": "1272400001", "name": "USPS COLLECTION BOX - BLUE BOX", "address": {"city": "CALLICOON CENTER", "state": "NY", "street": "1675 GULF RD", "postcode": "12724"}}},
{"geometry": {"type": "Point", "coordinates": [-74.946574899, 41.8378881887]}, "type": "Feature", "properties": {"collection_times": [{"days": "Mon-Fri", "time": "5:00pm"}, {"days": "Sat", "time": "12:00pm"}, {"days": "Sun", "time": "Closed"}], "id": "1272400002", "name": "USPS COLLECTION BOX - PO LOBBY", "address": {"city": "CALLICOON CENTER", "state": "NY", "street": "1675 GULF ROAD ( LOBBY SLOT )", "postcode": "12724"}}},
{"geometry": {"type": "Point", "coordinates": [-74.553189029, 41.926087893]}, "type": "Feature", "properties": {"collection_times": [{"days": "Mon-Sat", "time": "12:00pm"}, {"days": "Sun", "time": "Closed"}], "id": "1272500003", "name": "USPS COLLECTION BOX - BLUE BOX", "address": {"city": "GRAHAMSVILLE", "state": "NY", "street": "1567 DENNING RD", "postcode": "12725"}}},
{"geometry": {"type": "Point", "coordinates": [-75.060819949, 41.7113633753]}, "type": "Feature", "properties": {"collection_times": [{"days": "Mon-Fri", "time": "5:00pm"}, {"days": "Sat", "time": "11:00am"}, {"days": "Sun", "time": "Closed"}], "id": "1272600001", "name": "USPS COLLECTION BOX - BLUE BOX", "address": {"city": "COCHECTON", "state": "NY", "street": "45 COUNTY ROAD 114", "postcode": "12726"}}},
{"geometry": {"type": "Point", "coordinates": [-75.060819949, 41.7113633753]}, "type": "Feature", "properties": {"collection_times": [{"days": "Mon-Fri", "time": "5:00pm"}, {"days": "Sat", "time": "11:00am"}, {"days": "Sun", "time": "Closed"}], "id": "1272600002", "name": "USPS COLLECTION BOX - PO LOBBY", "address": {"city": "COCHECTON", "state": "NY", "street": "45 COUNTY ROAD 114 LBBY SLOT", "postcode": "12726"}}},
{"geometry": {"type": "Point", "coordinates": [-74.6013385092, 41.4609238503]}, "type": "Feature", "properties": {"collection_times": [{"days": "Mon-Fri", "time": "5:00pm"}, {"days": "Sat", "time": "12:00pm"}, {"days": "Sun", "time": "Closed"}], "id": "1272900002", "name": "USPS COLLECTION BOX - BLUE BOX", "address": {"city": "CUDDEBACKVILLE", "state": "NY", "street": "19 STATE ROUTE 211", "postcode": "12729"}}},
{"geometry": {"type": "Point", "coordinates": [-74.6013385092, 41.4609238503]}, "type": "Feature", "properties": {"collection_times": [{"days": "Mon-Fri", "time": "5:00pm"}, {"days": "Sat", "time": "12:00pm"}, {"days": "Sun", "time": "Closed"}], "id": "1272900003", "name": "USPS COLLECTION BOX - PO LOBBY", "address": {"city": "CUDDEBACKVILLE", "state": "NY", "street": "19 STATE ROUTE 211 LBBY SLOT", "postcode": "12729"}}},
{"geometry": {"type": "Point", "coordinates": [-74.8828174969, 41.5262274226]}, "type": "Feature", "properties": {"collection_times": [{"days": "Mon-Fri", "time": "5:00pm"}, {"days": "Sat", "time": "12:00pm"}, {"days": "Sun", "time": "Closed"}], "id": "1273200001", "name": "USPS COLLECTION BOX - BLUE BOX", "address": {"city": "ELDRED", "state": "NY", "street": "12 PROCTOR RD", "postcode": "12732"}}},
{"geometry": {"type": "Point", "coordinates": [-74.8828174969, 41.5262274226]}, "type": "Feature", "properties": {"collection_times": [{"days": "Mon-Fri", "time": "5:00pm"}, {"days": "Sat", "time": "12:00pm"}, {"days": "Sun", "time": "Closed"}], "id": "1273200002", "name": "USPS COLLECTION BOX - PO LOBBY", "address": {"city": "ELDRED", "state": "NY", "street": "12 PROCTOR RD", "postcode": "12732"}}},
{"geometry": {"type": "Point", "coordinates": [-74.6052375599, 41.7250141816]}, "type": "Feature", "properties": {"collection_times": [{"days": "Mon-Fri", "time": "5:00pm"}, {"days": "Sat", "time": "12:00pm"}, {"days": "Sun", "time": "Closed"}], "id": "1273300001", "name": "USPS COLLECTION BOX - BLUE BOX", "address": {"city": "FALLSBURG", "state": "NY", "street": "5672 STATE ROUTE 42", "postcode": "12733"}}},
{"geometry": {"type": "Point", "coordinates": [-74.6052375599, 41.7250141816]}, "type": "Feature", "properties": {"collection_times": [{"days": "Mon-Fri", "time": "5:00pm"}, {"days": "Sat", "time": "12:00pm"}, {"days": "Sun", "time": "Closed"}], "id": "1273300002", "name": "USPS COLLECTION BOX - PO LOBBY", "address": {"city": "FALLSBURG", "state": "NY", "street": "5672 STATE ROUTE 42 LBBY SLOT", "postcode": "12733"}}},
{"geometry": {"type": "Point", "coordinates": [-74.7290662967, 41.7813277173]}, "type": "Feature", "properties": {"collection_times": [{"days": "Mon-Fri", "time": "5:00pm"}, {"days": "Sat", "time": "12:00pm"}, {"days": "Sun", "time": "Closed"}], "id": "1273400001", "name": "USPS COLLECTION BOX - BLUE BOX", "address": {"city": "FERNDALE", "state": "NY", "street": "108 SULLIVAN AVE", "postcode": "12734"}}},
{"geometry": {"type": "Point", "coordinates": [-74.7290662967, 41.7813277173]}, "type": "Feature", "properties": {"collection_times": [{"days": "Mon-Fri", "time": "5:00pm"}, {"days": "Sat", "time": "12:00pm"}, {"days": "Sun", "time": "Closed"}], "id": "1273400003", "name": "USPS COLLECTION BOX - PO LOBBY", "address": {"city": "FERNDALE", "state": "NY", "street": "108 SULLIVAN AVE LBBY SLOT", "postcode": "12734"}}},
{"geometry": {"type": "Point", "coordinates": [-75.0388066263, 41.8458989851]}, "type": "Feature", "properties": {"collection_times": [{"days": "Mon-Fri", "time": "5:00pm"}, {"days": "Sat", "time": "12:00pm"}, {"days": "Sun", "time": "Closed"}], "id": "1273600001", "name": "USPS COLLECTION BOX - BLUE BOX", "address": {"city": "FREMONT CENTER", "state": "NY", "street": "37 COUNTY ROAD 93", "postcode": "12736"}}},
{"geometry": {"type": "Point", "coordinates": [-75.0527260097, 41.8527595454]}, "type": "Feature", "properties": {"collection_times": [{"days": "Mon-Fri", "time": "5:00pm"}, {"days": "Sat", "time": "12:00pm"}, {"days": "Sun", "time": "Closed"}], "id": "1273600002", "name": "USPS COLLECTION BOX - PO LOBBY", "address": {"city": "FREMONT CENTER", "state": "NY", "street": "37 COUNTY ROAD ( LOBBY SLOT )", "postcode": "12736"}}},
{"geometry": {"type": "Point", "coordinates": [-74.8092384617, 41.4851654585]}, "type": "Feature", "properties": {"collection_times": [{"days": "Mon-Fri", "time": "5:00pm"}, {"days": "Sat", "time": "12:00pm"}, {"days": "Sun", "time": "Closed"}], "id": "1273700001", "name": "USPS COLLECTION BOX - BLUE BOX", "address": {"city": "GLEN SPEY", "state": "NY", "street": "1677 FORESTBURGH RD", "postcode": "12737"}}},
{"geometry": {"type": "Point", "coordinates": [-74.8092384617, 41.4851654585]}, "type": "Feature", "properties": {"collection_times": [{"days": "Mon-Fri", "time": "5:00pm"}, {"days": "Sat", "time": "12:00pm"}, {"days": "Sun", "time": "Closed"}], "id": "1273700002", "name": "USPS COLLECTION BOX - PO LOBBY", "address": {"city": "GLEN SPEY", "state": "NY", "street": "1677 FORESTBURGH RD LBBY SLOT", "postcode": "12737"}}},
{"geometry": {"type": "Point", "coordinates": [-74.5873971546, 41.6533529248]}, "type": "Feature", "properties": {"collection_times": [{"days": "Mon-Fri", "time": "5:00pm"}, {"days": "Sat", "time": "12:00pm"}, {"days": "Sun", "time": "Closed"}], "id": "1273800001", "name": "USPS COLLECTION BOX - BLUE BOX", "address": {"city": "GLEN WILD", "state": "NY", "street": "424 GLEN WILD RD", "postcode": "12738"}}},
{"geometry": {"type": "Point", "coordinates": [-74.5873971546, 41.6533529248]}, "type": "Feature", "properties": {"collection_times": [{"days": "Mon-Fri", "time": "5:00pm"}, {"days": "Sat", "time": "12:00pm"}, {"days": "Sun", "time": "Closed"}], "id": "1273800002", "name": "USPS COLLECTION BOX - PO LOBBY", "address": {"city": "GLEN WILD", "state": "NY", "street": "424 GLEN WILD RD LBBY SLOT", "postcode": "12738"}}},
{"geometry": {"type": "Point", "coordinates": [-74.5439624765, 41.8461871935]}, "type": "Feature", "properties": {"collection_times": [{"days": "Mon-Fri", "time": "5:00pm"}, {"days": "Sat", "time": "12:00pm"}, {"days": "Sun", "time": "Closed"}], "id": "1274000001", "name": "USPS COLLECTION BOX - BLUE BOX", "address": {"city": "GRAHAMSVILLE", "state": "NY", "street": "215 MAIN ST", "postcode": "12740"}}},
{"geometry": {"type": "Point", "coordinates": [-74.5439624765, 41.8461871935]}, "type": "Feature", "properties": {"collection_times": [{"days": "Mon-Fri", "time": "5:00pm"}, {"days": "Sat", "time": "12:00pm"}, {"days": "Sun", "time": "Closed"}], "id": "1274000002", "name": "USPS COLLECTION BOX - PO LOBBY", "address": {"city": "GRAHAMSVILLE", "state": "NY", "street": "215 MAIN ST LBBY SLOT", "postcode": "12740"}}},
{"geometry": {"type": "Point", "coordinates": [-75.0868554135, 41.8143929796]}, "type": "Feature", "properties": {"collection_times": [{"days": "Mon-Fri", "time": "5:00pm"}, {"days": "Sat", "time": "11:30am"}, {"days": "Sun", "time": "Closed"}], "id": "1274100001", "name": "USPS COLLECTION BOX - BLUE BOX", "address": {"city": "HANKINS", "state": "NY", "street": "10816 STATE ROUTE 97", "postcode": "12741"}}},
{"geometry": {"type": "Point", "coordinates": [-75.0868554135, 41.8143929796]}, "type": "Feature", "properties": {"collection_times": [{"days": "Mon-Sat", "time": "12:00pm"}, {"days": "Sun", "time": "Closed"}], "id": "1274100002", "name": "USPS COLLECTION BOX - PO LOBBY", "address": {"city": "HANKINS", "state": "NY", "street": "10816 STATE ROUTE 97 LBBY SLOT", "postcode": "12741"}}},
{"geometry": {"type": "Point", "coordinates": [-74.7310556683, 41.7076464751]}, "type": "Feature", "properties": {"collection_times": [{"days": "Mon-Fri", "time": "5:00pm"}, {"days": "Sat", "time": "12:00pm"}, {"days": "Sun", "time": "Closed"}], "id": "1274200001", "name": "USPS COLLECTION BOX - BLUE BOX", "address": {"city": "HARRIS", "state": "NY", "street": "798 OLD ROUTE 17", "postcode": "12742"}}},
{"geometry": {"type": "Point", "coordinates": [-74.7310556683, 41.7076464751]}, "type": "Feature", "properties": {"collection_times": [{"days": "Mon-Fri", "time": "5:00pm"}, {"days": "Sat", "time": "12:00pm"}, {"days": "Sun", "time": "Closed"}], "id": "1274200002", "name": "USPS COLLECTION BOX - PO LOBBY", "address": {"city": "HARRIS", "state": "NY", "street": "798 OLD ROUTE 17 LBBY SLOT", "postcode": "12742"}}},
{"geometry": {"type": "Point", "coordinates": [-74.8537802858, 41.5252845069]}, "type": "Feature", "properties": {"collection_times": [{"days": "Mon-Fri", "time": "5:00pm"}, {"days": "Sat", "time": "12:00pm"}, {"days": "Sun", "time": "Closed"}], "id": "1274300001", "name": "USPS COLLECTION BOX - BLUE BOX", "address": {"city": "HIGHLAND LAKE", "state": "NY", "street": "112 HIGHLAND LAKE RD", "postcode": "12743"}}},
{"geometry": {"type": "Point", "coordinates": [-74.8537802858, 41.5252845069]}, "type": "Feature", "properties": {"collection_times": [{"days": "Mon-Fri", "time": "5:00pm"}, {"days": "Sat", "time": "12:00pm"}, {"days": "Sun", "time": "Closed"}], "id": "1274300002", "name": "USPS COLLECTION BOX - PO LOBBY", "address": {"city": "HIGHLAND LAKE", "state": "NY", "street": "112 HIGHLAND LAKE RD LBBY SLOT", "postcode": "12743"}}},
{"geometry": {"type": "Point", "coordinates": [-75.0236482236, 41.7819390957]}, "type": "Feature", "properties": {"collection_times": [{"days": "Mon-Fri", "time": "5:00pm"}, {"days": "Sat", "time": "12:00pm"}, {"days": "Sun", "time": "Closed"}], "id": "1274500001", "name": "USPS COLLECTION BOX - BLUE BOX", "address": {"city": "HORTONVILLE", "state": "NY", "street": "82 MAIN ST", "postcode": "12745"}}},
{"geometry": {"type": "Point", "coordinates": [-75.0236482236, 41.7819390957]}, "type": "Feature", "properties": {"collection_times": [{"days": "Mon-Sat", "time": "12:00pm"}, {"days": "Sun", "time": "Closed"}], "id": "1274500002", "name": "USPS COLLECTION BOX - PO LOBBY", "address": {"city": "HORTONVILLE", "state": "NY", "street": "82 MAIN ST LBBY SLOT", "postcode": "12745"}}},
{"geometry": {"type": "Point", "coordinates": [-74.6301520957, 41.4203999985]}, "type": "Feature", "properties": {"collection_times": [{"days": "Mon-Fri", "time": "5:00pm"}, {"days": "Sat", "time": "12:00pm"}, {"days": "Sun", "time": "Closed"}], "id": "1274600001", "name": "USPS COLLECTION BOX - BLUE BOX", "address": {"city": "HUGUENOT", "state": "NY", "street": "435 ROUTE 209", "postcode": "12746"}}},
{"geometry": {"type": "Point", "coordinates": [-74.6301520957, 41.4203999985]}, "type": "Feature", "properties": {"collection_times": [{"days": "Mon-Fri", "time": "5:00pm"}, {"days": "Sat", "time": "12:00pm"}, {"days": "Sun", "time": "Closed"}], "id": "1274600002", "name": "USPS COLLECTION BOX - PO LOBBY", "address": {"city": "HUGUENOT", "state": "NY", "street": "435 ROUTE 209 LBBY SLOT", "postcode": "12746"}}},
{"geometry": {"type": "Point", "coordinates": [-74.674337508, 41.7356749554]}, "type": "Feature", "properties": {"collection_times": [{"days": "Mon-Fri", "time": "5:00pm"}, {"days": "Sat", "time": "12:00pm"}, {"days": "Sun", "time": "Closed"}], "id": "1274700001", "name": "USPS COLLECTION BOX - BLUE BOX", "address": {"city": "HURLEYVILLE", "state": "NY", "street": "6 MONGAUP RD", "postcode": "12747"}}},
{"geometry": {"type": "Point", "coordinates": [-74.674337508, 41.7356749554]}, "type": "Feature", "properties": {"collection_times": [{"days": "Mon-Fri", "time": "4:00pm"}, {"days": "Sat", "time": "12:00pm"}, {"days": "Sun", "time": "Closed"}], "id": "1274700003", "name": "USPS COLLECTION BOX - PO LOBBY", "address": {"city": "HURLEYVILLE", "state": "NY", "street": "6 MONGAUP RD LBBY SLOT", "postcode": "12747"}}},
{"geometry": {"type": "Point", "coordinates": [-74.9365941138, 41.7781724437]}, "type": "Feature", "properties": {"collection_times": [{"days": "Mon-Fri", "time": "5:00pm"}, {"days": "Sat", "time": "12:00pm"}, {"days": "Sun", "time": "Closed"}], "id": "1274800001", "name": "USPS COLLECTION BOX - BLUE BOX", "address": {"city": "JEFFERSONVILLE", "state": "NY", "street": "4915 STATE ROUTE 52", "postcode": "12748"}}},
{"geometry": {"type": "Point", "coordinates": [-74.9365941138, 41.7781724437]}, "type": "Feature", "properties": {"collection_times": [{"days": "Mon-Fri", "time": "5:00pm"}, {"days": "Sat", "time": "12:00pm"}, {"days": "Sun", "time": "Closed"}], "id": "1274800002", "name": "USPS COLLECTION BOX - PO LOBBY", "address": {"city": "JEFFERSONVILLE", "state": "NY", "street": "4915 STATE ROUTE 52 LBBY SLOT", "postcode": "12748"}}},
{"geometry": {"type": "Point", "coordinates": [-74.8359142168, 41.6900214093]}, "type": "Feature", "properties": {"collection_times": [{"days": "Mon-Fri", "time": "5:00pm"}, {"days": "Sat", "time": "12:00pm"}, {"days": "Sun", "time": "Closed"}], "id": "1274900001", "name": "USPS COLLECTION BOX - BLUE BOX", "address": {"city": "KAUNEONGA LAKE", "state": "NY", "street": "3584 STATE ROUTE 55", "postcode": "12749"}}},
{"geometry": {"type": "Point", "coordinates": [-74.8359142168, 41.6900214093]}, "type": "Feature", "properties": {"collection_times": [{"days": "Mon-Fri", "time": "5:00pm"}, {"days": "Sat", "time": "12:00pm"}, {"days": "Sun", "time": "Closed"}], "id": "1274900002", "name": "USPS COLLECTION BOX - PO LOBBY", "address": {"city": "KAUNEONGA LAKE", "state": "NY", "street": "3584 STATE ROUTE 55 LBBY SLOT", "postcode": "12749"}}},
{"geometry": {"type": "Point", "coordinates": [-74.9492524724, 41.7329447699]}, "type": "Feature", "properties": {"collection_times": [{"days": "Mon-Fri", "time": "5:00pm"}, {"days": "Sat", "time": "12:00pm"}, {"days": "Sun", "time": "Closed"}], "id": "1275000001", "name": "USPS COLLECTION BOX - BLUE BOX", "address": {"city": "KENOZA LAKE", "state": "NY", "street": "5691 STATE ROUTE 52", "postcode": "12750"}}},
{"geometry": {"type": "Point", "coordinates": [-74.9492524724, 41.7329447699]}, "type": "Feature", "properties": {"collection_times": [{"days": "Mon-Fri", "time": "1:00pm"}, {"days": "Sat", "time": "12:00pm"}, {"days": "Sun", "time": "Closed"}], "id": "1275000002", "name": "USPS COLLECTION BOX - PO LOBBY", "address": {"city": "KENOZA LAKE", "state": "NY", "street": "5691 STATE ROUTE 52 LBBY SLOT", "postcode": "12750"}}},
{"geometry": {"type": "Point", "coordinates": [-74.6629224625, 41.6822871945]}, "type": "Feature", "properties": {"collection_times": [{"days": "Mon-Fri", "time": "5:00pm"}, {"days": "Sat", "time": "12:00pm"}, {"days": "Sun", "time": "Closed"}], "id": "1275100001", "name": "USPS COLLECTION BOX - BLUE BOX", "address": {"city": "KIAMESHA LAKE", "state": "NY", "street": "4668 STATE ROUTE 42", "postcode": "12751"}}},
{"geometry": {"type": "Point", "coordinates": [-74.6629224625, 41.6822871945]}, "type": "Feature", "properties": {"collection_times": [{"days": "Mon-Fri", "time": "5:00pm"}, {"days": "Sat", "time": "12:00pm"}, {"days": "Sun", "time": "Closed"}], "id": "1275100002", "name": "USPS COLLECTION BOX - PO LOBBY", "address": {"city": "KIAMESHA LAKE", "state": "NY", "street": "4668 STATE ROUTE 42 LBBY SLOT", "postcode": "12751"}}},
{"geometry": {"type": "Point", "coordinates": [-74.9827130176, 41.6924116677]}, "type": "Feature", "properties": {"collection_times": [{"days": "Mon-Fri", "time": "5:00pm"}, {"days": "Sat", "time": "12:00pm"}, {"days": "Sun", "time": "Closed"}], "id": "1275200001", "name": "USPS COLLECTION BOX - BLUE BOX", "address": {"city": "LAKE HUNTINGTON", "state": "NY", "street": "6736 STATE ROUTE 52", "postcode": "12752"}}},
{"geometry": {"type": "Point", "coordinates": [-74.9827130176, 41.6924116677]}, "type": "Feature", "properties": {"collection_times": [{"days": "Mon-Sat", "time": "12:00pm"}, {"days": "Sun", "time": "Closed"}], "id": "1275200002", "name": "USPS COLLECTION BOX - PO LOBBY", "address": {"city": "LAKE HUNTINGTON", "state": "NY", "street": "6736 STATE ROUTE 52 LBBY SLOT", "postcode": "12752"}}},
{"geometry": {"type": "Point", "coordinates": [-74.7473623701, 41.7986333196]}, "type": "Feature", "properties": {"collection_times": [{"days": "Mon-Sat", "time": "10:00am"}, {"days": "Sun", "time": "Closed"}], "id": "1275400002", "name": "USPS COLLECTION BOX - BLUE BOX", "address": {"city": "LIBERTY", "state": "NY", "street": "56 GOLDEN PARK LN", "postcode": "12754"}}},
{"geometry": {"type": "Point", "coordinates": [-74.7461265885, 41.7994412592]}, "type": "Feature", "properties": {"collection_times": [{"days": "Mon-Fri", "time": "5:00pm"}, {"days": "Sat", "time": "2:00pm"}, {"days": "Sun", "time": "Closed"}], "id": "1275400015", "name": "USPS COLLECTION BOX - BLUE BOX", "address": {"city": "LIBERTY", "state": "NY", "street": "14 CHESTNUT ST", "postcode": "12754"}}},
{"geometry": {"type": "Point", "coordinates": [-74.7471392014, 41.806165198]}, "type": "Feature", "properties": {"collection_times": [{"days": "Mon-Sat", "time": "12:00pm"}, {"days": "Sun", "time": "Closed"}], "id": "1275400016", "name": "USPS COLLECTION BOX - BLUE BOX", "address": {"city": "LIBERTY", "state": "NY", "street": "311 N MAIN ST", "postcode": "12754"}}},
{"geometry": {"type": "Point", "coordinates": [-74.7471261888, 41.8022827267]}, "type": "Feature", "properties": {"collection_times": [{"days": "Mon-Sat", "time": "1:00pm"}, {"days": "Sun", "time": "Closed"}], "id": "1275400017", "name": "USPS COLLECTION BOX - BLUE BOX", "address": {"city": "LIBERTY", "state": "NY", "street": "167 N MAIN ST", "postcode": "12754"}}},
{"geometry": {"type": "Point", "coordinates": [-74.7405442051, 41.7959408837]}, "type": "Feature", "properties": {"collection_times": [{"days": "Mon-Sat", "time": "9:30am"}, {"days": "Sun", "time": "Closed"}], "id": "1275400019", "name": "USPS COLLECTION BOX - BLUE BOX", "address": {"city": "LIBERTY", "state": "NY", "street": "248 S MAIN ST", "postcode": "12754"}}},
{"geometry": {"type": "Point", "coordinates": [-74.7474623695, 41.8042937756]}, "type": "Feature", "properties": {"collection_times": [{"days": "Mon-Sat", "time": "1:15pm"}, {"days": "Sun", "time": "Closed"}], "id": "1275400024", "name": "USPS COLLECTION BOX - BLUE BOX", "address": {"city": "LIBERTY", "state": "NY", "street": "261 N MAIN ST", "postcode": "12754"}}},
{"geometry": {"type": "Point", "coordinates": [-74.7442859043, 41.7992969382]}, "type": "Feature", "properties": {"collection_times": [{"days": "Mon-Sat", "time": "9:00am"}, {"days": "Sun", "time": "Closed"}], "id": "1275400025", "name": "USPS COLLECTION BOX - BLUE BOX", "address": {"city": "LIBERTY", "state": "NY", "street": "19 JOHN ST", "postcode": "12754"}}},
{"geometry": {"type": "Point", "coordinates": [-74.7240254773, 41.784937402]}, "type": "Feature", "properties": {"collection_times": [{"days": "Mon-Sat", "time": "1:00pm"}, {"days": "Sun", "time": "Closed"}], "id": "1275400030", "name": "USPS COLLECTION BOX - BLUE BOX", "address": {"city": "LIBERTY", "state": "NY", "street": "1945 STATE ROUTE 52", "postcode": "12754"}}},
{"geometry": {"type": "Point", "coordinates": [-74.7461265885, 41.7994412592]}, "type": "Feature", "properties": {"collection_times": [{"days": "Mon-Fri", "time": "5:00pm"}, {"days": "Sat", "time": "2:00pm"}, {"days": "Sun", "time": "Closed"}], "id": "1275400032", "name": "USPS COLLECTION BOX - PO LOBBY", "address": {"city": "LIBERTY", "state": "NY", "street": "14 CHESNUT ST ( LOBBY SLOT )", "postcode": "12754"}}},
{"geometry": {"type": "Point", "coordinates": [-74.825592051, 41.9021218161]}, "type": "Feature", "properties": {"collection_times": [{"days": "Mon-Fri", "time": "5:00pm"}, {"days": "Sat", "time": "12:30pm"}, {"days": "Sun", "time": "Closed"}], "id": "1275800001", "name": "USPS COLLECTION BOX - BLUE BOX", "address": {"city": "LIVINGSTN MNR", "state": "NY", "street": "23 MAIN ST", "postcode": "12758"}}},
{"geometry": {"type": "Point", "coordinates": [-74.825592051, 41.9021218161]}, "type": "Feature", "properties": {"collection_times": [{"days": "Mon-Fri", "time": "5:00pm"}, {"days": "Sat", "time": "12:30pm"}, {"days": "Sun", "time": "Closed"}], "id": "1275800003", "name": "USPS COLLECTION BOX - PO LOBBY", "address": {"city": "LIVINGSTN MNR", "state": "NY", "street": "23 MAIN ST LBBY SLOT", "postcode": "12758"}}},
{"geometry": {"type": "Point", "coordinates": [-74.6564157989, 41.7825932975]}, "type": "Feature", "properties": {"collection_times": [{"days": "Mon-Fri", "time": "5:00pm"}, {"days": "Sat", "time": "12:00pm"}, {"days": "Sun", "time": "Closed"}], "id": "1275900001", "name": "USPS COLLECTION BOX - BLUE BOX", "address": {"city": "LOCH SHELDRAKE", "state": "NY", "street": "739 LOCH SHELDRAKE HURLEYVILLE RD", "postcode": "12759"}}},
{"geometry": {"type": "Point", "coordinates": [-74.6564157989, 41.7825932975]}, "type": "Feature", "properties": {"collection_times": [{"days": "Mon-Fri", "time": "5:00pm"}, {"days": "Sat", "time": "12:00pm"}, {"days": "Sun", "time": "Closed"}], "id": "1275900004", "name": "USPS COLLECTION BOX - PO LOBBY", "address": {"city": "LOCH SHELDRAKE", "state": "NY", "street": "739 LOCH SHELDRAKE HURLEYVL RD LBBY SLOT", "postcode": "12759"}}},
{"geometry": {"type": "Point", "coordinates": [-75.1096469196, 41.9130050923]}, "type": "Feature", "properties": {"collection_times": [{"days": "Mon-Fri", "time": "5:00pm"}, {"days": "Sat", "time": "11:00am"}, {"days": "Sun", "time": "Closed"}], "id": "1276000001", "name": "USPS COLLECTION BOX - BLUE BOX", "address": {"city": "LONG EDDY", "state": "NY", "street": "13 CHESTNUT ST", "postcode": "12760"}}},
{"geometry": {"type": "Point", "coordinates": [-75.1096469196, 41.9130050923]}, "type": "Feature", "properties": {"collection_times": [{"days": "Mon-Fri", "time": "5:00pm"}, {"days": "Sat", "time": "11:00am"}, {"days": "Sun", "time": "Closed"}], "id": "1276000002", "name": "USPS COLLECTION BOX - PO LOBBY", "address": {"city": "LONG EDDY", "state": "NY", "street": "13 CHESNUT ST ( LOBBY SLOT )", "postcode": "12760"}}},
{"geometry": {"type": "Point", "coordinates": [-74.7895227445, 41.6797633415]}, "type": "Feature", "properties": {"collection_times": [{"days": "Mon-Fri", "time": "5:00pm"}, {"days": "Sat", "time": "12:00pm"}, {"days": "Sun", "time": "Closed"}], "id": "1276200001", "name": "USPS COLLECTION BOX - BLUE BOX", "address": {"city": "MONGAUP VALLEY", "state": "NY", "street": "933 STATE ROUTE 17B", "postcode": "12762"}}},
{"geometry": {"type": "Point", "coordinates": [-74.7895227445, 41.6797633415]}, "type": "Feature", "properties": {"collection_times": [{"days": "Mon-Fri", "time": "5:00pm"}, {"days": "Sat", "time": "12:00pm"}, {"days": "Sun", "time": "Closed"}], "id": "1276200002", "name": "USPS COLLECTION BOX - PO LOBBY", "address": {"city": "MONGAUP VALLEY", "state": "NY", "street": "933 STATE ROUTE 17B LBBY SLOT", "postcode": "12762"}}},
{"geometry": {"type": "Point", "coordinates": [-74.5305560384, 41.6900514022]}, "type": "Feature", "properties": {"collection_times": [{"days": "Mon-Fri", "time": "5:00pm"}, {"days": "Sat", "time": "11:00am"}, {"days": "Sun", "time": "Closed"}], "id": "1276300001", "name": "USPS COLLECTION BOX - BLUE BOX", "address": {"city": "MOUNTAIN DALE", "state": "NY", "street": "12 POST HILL RD", "postcode": "12763"}}},
{"geometry": {"type": "Point", "coordinates": [-74.5305560384, 41.6900514022]}, "type": "Feature", "properties": {"collection_times": [{"days": "Mon-Fri", "time": "5:00pm"}, {"days": "Sat", "time": "11:00am"}, {"days": "Sun", "time": "Closed"}], "id": "1276300002", "name": "USPS COLLECTION BOX - PO LOBBY", "address": {"city": "MOUNTAIN DALE", "state": "NY", "street": "12 POST HILL RD LBBY SLOT", "postcode": "12763"}}},
{"geometry": {"type": "Point", "coordinates": [-75.0612889317, 41.6079250018]}, "type": "Feature", "properties": {"collection_times": [{"days": "Mon-Fri", "time": "5:00pm"}, {"days": "Sat", "time": "12:00pm"}, {"days": "Sun", "time": "Closed"}], "id": "1276400001", "name": "USPS COLLECTION BOX - BLUE BOX", "address": {"city": "NARROWSBURG", "state": "NY", "street": "75 MAIN ST", "postcode": "12764"}}},
{"geometry": {"type": "Point", "coordinates": [-75.0612889317, 41.6079250018]}, "type": "Feature", "properties": {"collection_times": [{"days": "Mon-Fri", "time": "5:00pm"}, {"days": "Sat", "time": "12:00pm"}, {"days": "Sun", "time": "Closed"}], "id": "1276400005", "name": "USPS COLLECTION BOX - PO LOBBY", "address": {"city": "NARROWSBURG", "state": "NY", "street": "75 MAIN ST LBBY SLOT", "postcode": "12764"}}},
{"geometry": {"type": "Point", "coordinates": [-74.6309235869, 41.8425276422]}, "type": "Feature", "properties": {"collection_times": [{"days": "Mon-Fri", "time": "5:00pm"}, {"days": "Sat", "time": "12:00pm"}, {"days": "Sun", "time": "Closed"}], "id": "1276500001", "name": "USPS COLLECTION BOX - BLUE BOX", "address": {"city": "NEVERSINK", "state": "NY", "street": "7420 STATE ROUTE 55", "postcode": "12765"}}},
{"geometry": {"type": "Point", "coordinates": [-74.6309235869, 41.8425276422]}, "type": "Feature", "properties": {"collection_times": [{"days": "Mon-Fri", "time": "3:30pm"}, {"days": "Sat", "time": "12:00pm"}, {"days": "Sun", "time": "Closed"}], "id": "1276500002", "name": "USPS COLLECTION BOX - PO LOBBY", "address": {"city": "NEVERSINK", "state": "NY", "street": "7420 STATE ROUTE 55 LBBY SLOT", "postcode": "12765"}}},
{"geometry": {"type": "Point", "coordinates": [-74.970107816, 41.8158108646]}, "type": "Feature", "properties": {"collection_times": [{"days": "Mon-Fri", "time": "5:00pm"}, {"days": "Sat", "time": "12:00pm"}, {"days": "Sun", "time": "Closed"}], "id": "1276600001", "name": "USPS COLLECTION BOX - BLUE BOX", "address": {"city": "NORTH BRANCH", "state": "NY", "street": "868 N BRANCH RD", "postcode": "12766"}}},
{"geometry": {"type": "Point", "coordinates": [-75.0077411146, 41.8449125498]}, "type": "Feature", "properties": {"collection_times": [{"days": "Mon-Fri", "time": "5:00pm"}, {"days": "Sat", "time": "12:00pm"}, {"days": "Sun", "time": "Closed"}], "id": "1276700001", "name": "USPS COLLECTION BOX - BLUE BOX", "address": {"city": "OBERNBURG", "state": "NY", "street": "361 COUNTY ROAD 95", "postcode": "12767"}}},
{"geometry": {"type": "Point", "coordinates": [-75.0077411146, 41.8449125498]}, "type": "Feature", "properties": {"collection_times": [{"days": "Mon-Sat", "time": "12:00pm"}, {"days": "Sun", "time": "Closed"}], "id": "1276700002", "name": "USPS COLLECTION BOX - PO LOBBY", "address": {"city": "OBERNBURG", "state": "NY", "street": "361 COUNTY ROAD 95 LBBY SLOT", "postcode": "12767"}}},
{"geometry": {"type": "Point", "coordinates": [-74.7572715909, 41.857134679]}, "type": "Feature", "properties": {"collection_times": [{"days": "Mon-Fri", "time": "5:00pm"}, {"days": "Sat", "time": "12:00pm"}, {"days": "Sun", "time": "Closed"}], "id": "1276800001", "name": "USPS COLLECTION BOX - BLUE BOX", "address": {"city": "PARKSVILLE", "state": "NY", "street": "12 COOLEY RD", "postcode": "12768"}}},
{"geometry": {"type": "Point", "coordinates": [-74.7572715909, 41.857134679]}, "type": "Feature", "properties": {"collection_times": [{"days": "Mon-Fri", "time": "5:00pm"}, {"days": "Sat", "time": "12:00pm"}, {"days": "Sun", "time": "Closed"}], "id": "1276800005", "name": "USPS COLLECTION BOX - PO LOBBY", "address": {"city": "PARKSVILLE", "state": "NY", "street": "12 COOLEY RD LBBY SLOT", "postcode": "12768"}}},
{"geometry": {"type": "Point", "coordinates": [-74.4457211872, 41.6395806998]}, "type": "Feature", "properties": {"collection_times": [{"days": "Mon-Fri", "time": "5:00pm"}, {"days": "Sat", "time": "12:00pm"}, {"days": "Sun", "time": "Closed"}], "id": "1276900001", "name": "USPS COLLECTION BOX - BLUE BOX", "address": {"city": "PHILLIPSPORT", "state": "NY", "street": "17 PHILLIPSPORT RD", "postcode": "12769"}}},
{"geometry": {"type": "Point", "coordinates": [-74.4457211872, 41.6395806998]}, "type": "Feature", "properties": {"collection_times": [{"days": "Mon-Sat", "time": "12:00pm"}, {"days": "Sun", "time": "Closed"}], "id": "1276900002", "name": "USPS COLLECTION BOX - PO LOBBY", "address": {"city": "PHILLIPSPORT", "state": "NY", "street": "17 PHILLIPSPORT RD LBBY SLOT", "postcode": "12769"}}},
{"geometry": {"type": "Point", "coordinates": [-74.821919695, 41.4420679096]}, "type": "Feature", "properties": {"collection_times": [{"days": "Mon-Fri", "time": "1:00pm"}, {"days": "Sat", "time": "12:00pm"}, {"days": "Sun", "time": "Closed"}], "id": "1277000001", "name": "USPS COLLECTION BOX - BLUE BOX", "address": {"city": "POND EDDY", "state": "NY", "street": "43 HOLLOW RD", "postcode": "12770"}}},
{"geometry": {"type": "Point", "coordinates": [-74.821919695, 41.4420679096]}, "type": "Feature", "properties": {"collection_times": [{"days": "Mon-Fri", "time": "1:00pm"}, {"days": "Sat", "time": "12:00pm"}, {"days": "Sun", "time": "Closed"}], "id": "1277000002", "name": "USPS COLLECTION BOX - PO LOBBY", "address": {"city": "POND EDDY", "state": "NY", "street": "43 HOLLOW RD LBBY SLOT", "postcode": "12770"}}},
{"geometry": {"type": "Point", "coordinates": [-74.6921062495, 41.3747281148]}, "type": "Feature", "properties": {"collection_times": [{"days": "Mon-Fri", "time": "5:00pm"}, {"days": "Sat", "time": "3:30pm"}, {"days": "Sun", "time": "Closed"}], "id": "1277100001", "name": "USPS COLLECTION BOX - BLUE BOX", "address": {"city": "PORT JERVIS", "state": "NY", "street": "20 SUSSEX ST", "postcode": "12771"}}},
{"geometry": {"type": "Point", "coordinates": [-74.6912348256, 41.3726284654]}, "type": "Feature", "properties": {"collection_times": [{"days": "Mon-Fri", "time": "9:30am"}, {"days": "Sat", "time": "10:00am"}, {"days": "Sun", "time": "Closed"}], "id": "1277100005", "name": "USPS COLLECTION BOX - BLUE BOX", "address": {"city": "PORT JERVIS", "state": "NY", "street": "75 FRONT ST", "postcode": "12771"}}},
{"geometry": {"type": "Point", "coordinates": [-74.70491703, 41.3806146377]}, "type": "Feature", "properties": {"collection_times": [{"days": "Mon-Fri", "time": "9:00am"}, {"days": "Sat", "time": "9:30am"}, {"days": "Sun", "time": "Closed"}], "id": "1277100009", "name": "USPS COLLECTION BOX - BLUE BOX", "address": {"city": "PORT JERVIS", "state": "NY", "street": "184 W MAIN ST", "postcode": "12771"}}},
{"geometry": {"type": "Point", "coordinates": [-74.6895456612, 41.3781670956]}, "type": "Feature", "properties": {"collection_times": [{"days": "Mon-Fri", "time": "9:00am"}, {"days": "Sat", "time": "9:30am"}, {"days": "Sun", "time": "Closed"}], "id": "1277100010", "name": "USPS COLLECTION BOX - BLUE BOX", "address": {"city": "PORT JERVIS", "state": "NY", "street": "9 W MAIN ST", "postcode": "12771"}}},
{"geometry": {"type": "Point", "coordinates": [-74.6867988305, 41.3844509736]}, "type": "Feature", "properties": {"collection_times": [{"days": "Mon-Fri", "time": "9:30am"}, {"days": "Sat", "time": "10:00am"}, {"days": "Sun", "time": "Closed"}], "id": "1277100013", "name": "USPS COLLECTION BOX - BLUE BOX", "address": {"city": "PORT JERVIS", "state": "NY", "street": "4 RESERVOIR AVE", "postcode": "12771"}}},
{"geometry": {"type": "Point", "coordinates": [-74.677816623, 41.382624485]}, "type": "Feature", "properties": {"collection_times": [{"days": "Mon-Fri", "time": "9:30am"}, {"days": "Sat", "time": "10:00am"}, {"days": "Sun", "time": "Closed"}], "id": "1277100015", "name": "USPS COLLECTION BOX - BLUE BOX", "address": {"city": "PORT JERVIS", "state": "NY", "street": "113 MOHAWK ST", "postcode": "12771"}}},
{"geometry": {"type": "Point", "coordinates": [-74.6828974318, 41.3776903631]}, "type": "Feature", "properties": {"collection_times": [{"days": "Mon-Fri", "time": "9:30am"}, {"days": "Sat", "time": "10:00am"}, {"days": "Sun", "time": "Closed"}], "id": "1277100016", "name": "USPS COLLECTION BOX - BLUE BOX", "address": {"city": "PORT JERVIS", "state": "NY", "street": "36 KINGSTON AVE", "postcode": "12771"}}},
{"geometry": {"type": "Point", "coordinates": [-74.6850870888, 41.3683059497]}, "type": "Feature", "properties": {"collection_times": [{"days": "Mon-Fri", "time": "9:00am"}, {"days": "Sat", "time": "9:30am"}, {"days": "Sun", "time": "Closed"}], "id": "1277100020", "name": "USPS COLLECTION BOX - BLUE BOX", "address": {"city": "PORT JERVIS", "state": "NY", "street": "164 BALL ST", "postcode": "12771"}}},
{"geometry": {"type": "Point", "coordinates": [-74.6825839477, 41.3678126558]}, "type": "Feature", "properties": {"collection_times": [{"days": "Mon-Fri", "time": "9:30am"}, {"days": "Sat", "time": "10:00am"}, {"days": "Sun", "time": "Closed"}], "id": "1277100023", "name": "USPS COLLECTION BOX - BLUE BOX", "address": {"city": "PORT JERVIS", "state": "NY", "street": "160 E MAIN ST", "postcode": "12771"}}},
{"geometry": {"type": "Point", "coordinates": [-74.5607935904, 41.3750488158]}, "type": "Feature", "properties": {"collection_times": [{"days": "Mon-Sat", "time": "9:00am"}, {"days": "Sun", "time": "Closed"}], "id": "1277100028", "name": "USPS COLLECTION BOX - BLUE BOX", "address": {"city": "PORT JERVIS", "state": "NY", "street": "1537 ROUTE 6", "postcode": "12771"}}},
{"geometry": {"type": "Point", "coordinates": [-74.6921062495, 41.3747281148]}, "type": "Feature", "properties": {"collection_times": [{"days": "Mon-Fri", "time": "5:00pm"}, {"days": "Sat", "time": "3:30pm"}, {"days": "Sun", "time": "Closed"}], "id": "1277100029", "name": "USPS COLLECTION BOX - PO LOBBY", "address": {"city": "PORT JERVIS", "state": "NY", "street": "20 SUSSEX ST", "postcode": "12771"}}},
{"geometry": {"type": "Point", "coordinates": [-74.5825072554, 41.6166140874]}, "type": "Feature", "properties": {"collection_times": [{"days": "Mon-Fri", "time": "5:00pm"}, {"days": "Sat", "time": "2:00pm"}, {"days": "Sun", "time": "Closed"}], "id": "1277500001", "name": "USPS COLLECTION BOX - BLUE BOX", "address": {"city": "ROCK HILL", "state": "NY", "street": "240 ROCK HILL DR", "postcode": "12775"}}},
{"geometry": {"type": "Point", "coordinates": [-74.5973880676, 41.625720002]}, "type": "Feature", "properties": {"collection_times": [{"days": "Mon-Fri", "time": "5:00pm"}, {"days": "Sat", "time": "2:00pm"}, {"days": "Sun", "time": "Closed"}], "id": "1277500003", "name": "USPS COLLECTION BOX - PO LOBBY", "address": {"city": "ROCK HILL", "state": "NY", "street": "240 ROCK HILL DR LBBY SLOT", "postcode": "12775"}}},
{"geometry": {"type": "Point", "coordinates": [-74.9142842489, 41.9338365832]}, "type": "Feature", "properties": {"collection_times": [{"days": "Mon-Fri", "time": "5:00pm"}, {"days": "Sat", "time": "12:00pm"}, {"days": "Sun", "time": "Closed"}], "id": "1277600001", "name": "USPS COLLECTION BOX - BLUE BOX", "address": {"city": "ROSCOE", "state": "NY", "street": "2 MAPLE ST", "postcode": "12776"}}},
{"geometry": {"type": "Point", "coordinates": [-74.9142842489, 41.9338365832]}, "type": "Feature", "properties": {"collection_times": [{"days": "Mon-Fri", "time": "5:00pm"}, {"days": "Sat", "time": "12:00pm"}, {"days": "Sun", "time": "Closed"}], "id": "1277600003", "name": "USPS COLLECTION BOX - PO LOBBY", "address": {"city": "ROSCOE", "state": "NY", "street": "2 MAPLE ST LBBY SLOT", "postcode": "12776"}}},
{"geometry": {"type": "Point", "coordinates": [-74.7415474917, 41.5653126075]}, "type": "Feature", "properties": {"collection_times": [{"days": "Mon-Fri", "time": "10:00am"}, {"days": "Sat-Sun", "time": "Closed"}], "id": "1277700000", "name": "USPS COLLECTION BOX - BLUE BOX", "address": {"city": "FORESTBURGH", "state": "NY", "street": "2841 STATE ROUTE 42", "postcode": "12777"}}},
{"geometry": {"type": "Point", "coordinates": [-74.8280478612, 41.6631143363]}, "type": "Feature", "properties": {"collection_times": [{"days": "Mon-Fri", "time": "5:00pm"}, {"days": "Sat", "time": "12:00pm"}, {"days": "Sun", "time": "Closed"}], "id": "1277800002", "name": "USPS COLLECTION BOX - BLUE BOX", "address": {"city": "SMALLWOOD", "state": "NY", "street": "220 PINE GROVE RD", "postcode": "12778"}}},
{"geometry": {"type": "Point", "coordinates": [-74.8280478612, 41.6631143363]}, "type": "Feature", "properties": {"collection_times": [{"days": "Mon-Fri", "time": "5:00pm"}, {"days": "Sat", "time": "12:00pm"}, {"days": "Sun", "time": "Closed"}], "id": "1277800003", "name": "USPS COLLECTION BOX - PO LOBBY", "address": {"city": "SMALLWOOD", "state": "NY", "street": "220 PINE GROVE RD LBBY SLOT", "postcode": "12778"}}},
{"geometry": {"type": "Point", "coordinates": [-74.6298865604, 41.7083352778]}, "type": "Feature", "properties": {"collection_times": [{"days": "Mon-Fri", "time": "5:00pm"}, {"days": "Sat", "time": "12:00pm"}, {"days": "Sun", "time": "Closed"}], "id": "1277900002", "name": "USPS COLLECTION BOX - BLUE BOX", "address": {"city": "SOUTH FALLSBURG", "state": "NY", "street": "25 RAILROAD PLZ", "postcode": "12779"}}},
{"geometry": {"type": "Point", "coordinates": [-74.6298865604, 41.7083352778]}, "type": "Feature", "properties": {"collection_times": [{"days": "Mon-Fri", "time": "5:00pm"}, {"days": "Sat", "time": "12:00pm"}, {"days": "Sun", "time": "Closed"}], "id": "1277900005", "name": "USPS COLLECTION BOX - PO LOBBY", "address": {"city": "SOUTH FALLSBURG", "state": "NY", "street": "25 RAILROAD PLZ LBBY SLOT", "postcode": "12779"}}},
{"geometry": {"type": "Point", "coordinates": [-74.7313492652, 41.4076468661]}, "type": "Feature", "properties": {"collection_times": [{"days": "Mon-Fri", "time": "5:00pm"}, {"days": "Sat", "time": "12:00pm"}, {"days": "Sun", "time": "Closed"}], "id": "1278000001", "name": "USPS COLLECTION BOX - BLUE BOX", "address": {"city": "SPARROW BUSH", "state": "NY", "street": "505 STATE ROUTE 42", "postcode": "12780"}}},
{"geometry": {"type": "Point", "coordinates": [-74.7274713799, 41.4444287744]}, "type": "Feature", "properties": {"collection_times": [{"days": "Mon-Fri", "time": "5:00pm"}, {"days": "Sat", "time": "12:00pm"}, {"days": "Sun", "time": "Closed"}], "id": "1278000002", "name": "USPS COLLECTION BOX - PO LOBBY", "address": {"city": "SPARROW BUSH", "state": "NY", "street": "505 STATE ROUTE 42 LBBY SLOT", "postcode": "12780"}}},
{"geometry": {"type": "Point", "coordinates": [-74.451096909, 41.6213023484]}, "type": "Feature", "properties": {"collection_times": [{"days": "Mon-Fri", "time": "5:00pm"}, {"days": "Sat", "time": "12:00pm"}, {"days": "Sun", "time": "Closed"}], "id": "1278100001", "name": "USPS COLLECTION BOX - BLUE BOX", "address": {"city": "SUMMITVILLE", "state": "NY", "street": "3868 ROUTE 209", "postcode": "12781"}}},
{"geometry": {"type": "Point", "coordinates": [-74.451096909, 41.6213023484]}, "type": "Feature", "properties": {"collection_times": [{"days": "Mon-Fri", "time": "5:00pm"}, {"days": "Sat", "time": "12:00pm"}, {"days": "Sun", "time": "Closed"}], "id": "1278100002", "name": "USPS COLLECTION BOX - PO LOBBY", "address": {"city": "SUMMITVILLE", "state": "NY", "street": "3868 ROUTE 209 LBBY SLOT", "postcode": "12781"}}},
{"geometry": {"type": "Point", "coordinates": [-74.8382940317, 41.7378322457]}, "type": "Feature", "properties": {"collection_times": [{"days": "Mon-Fri", "time": "5:00pm"}, {"days": "Sat", "time": "12:00pm"}, {"days": "Sun", "time": "Closed"}], "id": "1278300001", "name": "USPS COLLECTION BOX - BLUE BOX", "address": {"city": "SWAN LAKE", "state": "NY", "street": "35 STANTON CORNERS RD", "postcode": "12783"}}},
{"geometry": {"type": "Point", "coordinates": [-74.7785587888, 41.7504918317]}, "type": "Feature", "properties": {"collection_times": [{"days": "Mon-Fri", "time": "5:00pm"}, {"days": "Sat", "time": "12:00pm"}, {"days": "Sun", "time": "Closed"}], "id": "1278300002", "name": "USPS COLLECTION BOX - PO LOBBY", "address": {"city": "SWAN LAKE", "state": "NY", "street": "35 STANTON CORNER RD LBBY SLOT", "postcode": "12783"}}},
{"geometry": {"type": "Point", "coordinates": [-74.6248608655, 41.6681981515]}, "type": "Feature", "properties": {"collection_times": [{"days": "Mon-Fri", "time": "5:00pm"}, {"days": "Sat", "time": "12:00pm"}, {"days": "Sun", "time": "Closed"}], "id": "1278400001", "name": "USPS COLLECTION BOX - BLUE BOX", "address": {"city": "THOMPSONVILLE", "state": "NY", "street": "558 THOMPSON RD", "postcode": "12784"}}},
{"geometry": {"type": "Point", "coordinates": [-74.6248608655, 41.6681981515]}, "type": "Feature", "properties": {"collection_times": [{"days": "Mon-Fri", "time": "5:00pm"}, {"days": "Sat", "time": "12:00pm"}, {"days": "Sun", "time": "Closed"}], "id": "1278400002", "name": "USPS COLLECTION BOX - PO LOBBY", "address": {"city": "THOMPSONVILLE", "state": "NY", "street": "558 THOMPSON RD LBBY SLOT", "postcode": "12784"}}},
{"geometry": {"type": "Point", "coordinates": [-74.5527929665, 41.4986146732]}, "type": "Feature", "properties": {"collection_times": [{"days": "Mon-Fri", "time": "5:00pm"}, {"days": "Sat", "time": "12:00pm"}, {"days": "Sun", "time": "Closed"}], "id": "1278500000", "name": "USPS COLLECTION BOX - BLUE BOX", "address": {"city": "WESTBROOKVILLE", "state": "NY", "street": "1755 ROUTE 209", "postcode": "12785"}}},
{"geometry": {"type": "Point", "coordinates": [-74.8265194282, 41.674210275]}, "type": "Feature", "properties": {"collection_times": [{"days": "Mon-Fri", "time": "5:00pm"}, {"days": "Sat", "time": "11:00am"}, {"days": "Sun", "time": "Closed"}], "id": "1278600001", "name": "USPS COLLECTION BOX - BLUE BOX", "address": {"city": "WHITE LAKE", "state": "NY", "street": "1447 STATE ROUTE 17B", "postcode": "12786"}}},
{"geometry": {"type": "Point", "coordinates": [-74.8265194282, 41.674210275]}, "type": "Feature", "properties": {"collection_times": [{"days": "Mon-Fri", "time": "5:00pm"}, {"days": "Sat", "time": "11:00am"}, {"days": "Sun", "time": "Closed"}], "id": "1278600002", "name": "USPS COLLECTION BOX - PO LOBBY", "address": {"city": "WHITE LAKE", "state": "NY", "street": "1447 STATE ROUTE 17B LBBY SLOT", "postcode": "12786"}}},
{"geometry": {"type": "Point", "coordinates": [-74.8629295653, 41.8173707215]}, "type": "Feature", "properties": {"collection_times": [{"days": "Mon-Fri", "time": "5:00pm"}, {"days": "Sat", "time": "12:00pm"}, {"days": "Sun", "time": "Closed"}], "id": "1278700001", "name": "USPS COLLECTION BOX - BLUE BOX", "address": {"city": "WHITE SULPHUR SP", "state": "NY", "street": "3300 STATE ROUTE 52", "postcode": "12787"}}},
{"geometry": {"type": "Point", "coordinates": [-74.8629295653, 41.8173707215]}, "type": "Feature", "properties": {"collection_times": [{"days": "Mon-Fri", "time": "5:00pm"}, {"days": "Sat", "time": "12:00pm"}, {"days": "Sun", "time": "Closed"}], "id": "1278700002", "name": "USPS COLLECTION BOX - PO LOBBY", "address": {"city": "WHITE SULPHUR SP", "state": "NY", "street": "3300 STATE ROUTE 52 LBBY SLOT", "postcode": "12787"}}},
{"geometry": {"type": "Point", "coordinates": [-74.5970195737, 41.7882635297]}, "type": "Feature", "properties": {"collection_times": [{"days": "Mon-Fri", "time": "5:00pm"}, {"days": "Sat", "time": "12:00pm"}, {"days": "Sun", "time": "Closed"}], "id": "1278800001", "name": "USPS COLLECTION BOX - BLUE BOX", "address": {"city": "WOODBOURNE", "state": "NY", "street": "6169 STATE ROUTE 42", "postcode": "12788"}}},
{"geometry": {"type": "Point", "coordinates": [-74.5852621664, 41.7958329523]}, "type": "Feature", "properties": {"collection_times": [{"days": "Mon-Fri", "time": "5:00pm"}, {"days": "Sat", "time": "12:00pm"}, {"days": "Sun", "time": "Closed"}], "id": "1278800002", "name": "USPS COLLECTION BOX - PO LOBBY", "address": {"city": "WOODBOURNE", "state": "NY", "street": "6169 ROUTE 42 ( LOBBY DROP SLOT )", "postcode": "12788"}}},
{"geometry": {"type": "Point", "coordinates": [-74.5709612522, 41.7078908887]}, "type": "Feature", "properties": {"collection_times": [{"days": "Mon-Fri", "time": "5:00pm"}, {"days": "Sat", "time": "12:00pm"}, {"days": "Sun", "time": "Closed"}], "id": "1278900001", "name": "USPS COLLECTION BOX - BLUE BOX", "address": {"city": "WOODRIDGE", "state": "NY", "street": "47 BROADWAY", "postcode": "12789"}}},
{"geometry": {"type": "Point", "coordinates": [-74.5709612522, 41.7078908887]}, "type": "Feature", "properties": {"collection_times": [{"days": "Mon-Fri", "time": "5:00pm"}, {"days": "Sat", "time": "12:00pm"}, {"days": "Sun", "time": "Closed"}], "id": "1278900003", "name": "USPS COLLECTION BOX - PO LOBBY", "address": {"city": "WOODRIDGE", "state": "NY", "street": "47 BROADWAY LBBY SLOT", "postcode": "12789"}}},
{"geometry": {"type": "Point", "coordinates": [-74.4784466339, 41.5728927879]}, "type": "Feature", "properties": {"collection_times": [{"days": "Mon-Fri", "time": "5:00pm"}, {"days": "Sat", "time": "12:00pm"}, {"days": "Sun", "time": "Closed"}], "id": "1279000002", "name": "USPS COLLECTION BOX - BLUE BOX", "address": {"city": "WURTSBORO", "state": "NY", "street": "39 SULLIVAN ST", "postcode": "12790"}}},
{"geometry": {"type": "Point", "coordinates": [-74.4784466339, 41.5728927879]}, "type": "Feature", "properties": {"collection_times": [{"days": "Mon-Fri", "time": "5:00pm"}, {"days": "Sat", "time": "12:00pm"}, {"days": "Sun", "time": "Closed"}], "id": "1279000003", "name": "USPS COLLECTION BOX - PO LOBBY", "address": {"city": "WURTSBORO", "state": "NY", "street": "39 SULLIVAN ST LBBY SLOT", "postcode": "12790"}}},
{"geometry": {"type": "Point", "coordinates": [-74.8906772687, 41.8048829143]}, "type": "Feature", "properties": {"collection_times": [{"days": "Mon-Fri", "time": "5:00pm"}, {"days": "Sat", "time": "12:00pm"}, {"days": "Sun", "time": "Closed"}], "id": "1279100001", "name": "USPS COLLECTION BOX - BLUE BOX", "address": {"city": "YOUNGSVILLE", "state": "NY", "street": "4068 STATE ROUTE 52", "postcode": "12791"}}},
{"geometry": {"type": "Point", "coordinates": [-74.8906772687, 41.8048829143]}, "type": "Feature", "properties": {"collection_times": [{"days": "Mon-Fri", "time": "5:00pm"}, {"days": "Sat", "time": "12:00pm"}, {"days": "Sun", "time": "Closed"}], "id": "1279100002", "name": "USPS COLLECTION BOX - PO LOBBY", "address": {"city": "YOUNGSVILLE", "state": "NY", "street": "4068 STATE ROUTE 52 LBBY SLOT", "postcode": "12791"}}},
{"geometry": {"type": "Point", "coordinates": [-74.9329702252, 41.5226643502]}, "type": "Feature", "properties": {"collection_times": [{"days": "Mon-Fri", "time": "5:00pm"}, {"days": "Sat", "time": "12:00pm"}, {"days": "Sun", "time": "Closed"}], "id": "1279200001", "name": "USPS COLLECTION BOX - BLUE BOX", "address": {"city": "YULAN", "state": "NY", "street": "219 AIRPORT RD", "postcode": "12792"}}},
{"geometry": {"type": "Point", "coordinates": [-74.9329702252, 41.5226643502]}, "type": "Feature", "properties": {"collection_times": [{"days": "Mon-Fri", "time": "1:00pm"}, {"days": "Sat", "time": "12:00pm"}, {"days": "Sun", "time": "Closed"}], "id": "1279200002", "name": "USPS COLLECTION BOX - PO LOBBY", "address": {"city": "YULAN", "state": "NY", "street": "219 AIRPORT RD LBBY SLOT", "postcode": "12792"}}}
]}
