{"type": "FeatureCollection", "features": [
{"geometry": {"type": "Point", "coordinates": [-73.6463788809, 43.3080429292]}, "type": "Feature", "properties": {"collection_times": [{"days": "Mon-Fri", "time": "5:30pm"}, {"days": "Sat", "time": "3:30pm"}, {"days": "Sun", "time": "Closed"}], "id": "1280100002", "name": "USPS COLLECTION BOX - EXPRESS", "address": {"city": "GLENS FALLS", "state": "NY", "street": "16 HUDSON AVE", "postcode": "12801"}}},
{"geometry": {"type": "Point", "coordinates": [-73.6463788809, 43.3080429292]}, "type": "Feature", "properties": {"collection_times": [{"days": "Mon-Fri", "time": "5:30pm"}, {"days": "Sat", "time": "3:30pm"}, {"days": "Sun", "time": "Closed"}], "id": "1280100003", "name": "USPS COLLECTION BOX - BLUE BOX", "address": {"city": "GLENS FALLS", "state": "NY", "street": "16 HUDSON AVE", "postcode": "12801"}}},
{"geometry": {"type": "Point", "coordinates": [-73.6463788809, 43.3080429292]}, "type": "Feature", "properties": {"collection_times": [{"days": "Mon-Fri", "time": "5:30pm"}, {"days": "Sat", "time": "3:30pm"}, {"days": "Sun", "time": "Closed"}], "id": "1280100004", "name": "USPS COLLECTION BOX - BLUE BOX", "address": {"city": "GLENS FALLS", "state": "NY", "street": "16 HUDSON AVE", "postcode": "12801"}}},
{"geometry": {"type": "Point", "coordinates": [-73.647600067, 43.308852409]}, "type": "Feature", "properties": {"collection_times": [{"days": "Mon-Fri", "time": "5:00pm"}, {"days": "Sat", "time": "12:30pm"}, {"days": "Sun", "time": "Closed"}], "id": "1280100005", "name": "USPS COLLECTION BOX - BLUE BOX", "address": {"city": "GLENS FALLS", "state": "NY", "street": "1 BROAD ST", "postcode": "12801"}}},
{"geometry": {"type": "Point", "coordinates": [-73.647600067, 43.308852409]}, "type": "Feature", "properties": {"collection_times": [{"days": "Mon-Fri", "time": "5:00pm"}, {"days": "Sat", "time": "12:30pm"}, {"days": "Sun", "time": "Closed"}], "id": "1280100006", "name": "USPS COLLECTION BOX - BLUE BOX", "address": {"city": "GLENS FALLS", "state": "NY", "street": "1 BROAD ST", "postcode": "12801"}}},
{"geometry": {"type": "Point", "coordinates": [-73.6466147318, 43.3108949163]}, "type": "Feature", "properties": {"collection_times": [{"days": "Mon-Fri", "time": "5:00pm"}, {"days": "Sat", "time": "1:30pm"}, {"days": "Sun", "time": "Closed"}], "id": "1280100009", "name": "USPS COLLECTION BOX - BLUE BOX", "address": {"city": "GLENS FALLS", "state": "NY", "street": "274 GLEN ST", "postcode": "12801"}}},
{"geometry": {"type": "Point", "coordinates": [-73.6466064511, 43.3118270879]}, "type": "Feature", "properties": {"collection_times": [{"days": "Mon-Fri", "time": "5:00pm"}, {"days": "Sat", "time": "1:30pm"}, {"days": "Sun", "time": "Closed"}], "id": "1280100010", "name": "USPS COLLECTION BOX - BLUE BOX", "address": {"city": "GLENS FALLS", "state": "NY", "street": "21 BAY ST", "postcode": "12801"}}},
{"geometry": {"type": "Point", "coordinates": [-73.6459264137, 43.3073959471]}, "type": "Feature", "properties": {"collection_times": [{"days": "Mon-Fri", "time": "4:30pm"}, {"days": "Sat", "time": "12:30pm"}, {"days": "Sun", "time": "Closed"}], "id": "1280100014", "name": "USPS COLLECTION BOX - BLUE BOX", "address": {"city": "GLENS FALLS", "state": "NY", "street": "100 PARK ST", "postcode": "12801"}}},
{"geometry": {"type": "Point", "coordinates": [-73.652290167, 43.3068026634]}, "type": "Feature", "properties": {"collection_times": [{"days": "Mon-Fri", "time": "4:30pm"}, {"days": "Sat", "time": "12:30pm"}, {"days": "Sun", "time": "Closed"}], "id": "1280100015", "name": "USPS COLLECTION BOX - BLUE BOX", "address": {"city": "GLENS FALLS", "state": "NY", "street": "88 BROAD ST", "postcode": "12801"}}},
{"geometry": {"type": "Point", "coordinates": [-73.6648204703, 43.314188274]}, "type": "Feature", "properties": {"collection_times": [{"days": "Mon-Sat", "time": "11:00am"}, {"days": "Sun", "time": "Closed"}], "id": "1280100018", "name": "USPS COLLECTION BOX - BLUE BOX", "address": {"city": "GLENS FALLS", "state": "NY", "street": "88 COOLIDGE AVE", "postcode": "12801"}}},
{"geometry": {"type": "Point", "coordinates": [-73.6597432104, 43.317446143]}, "type": "Feature", "properties": {"collection_times": [{"days": "Mon-Sat", "time": "11:00am"}, {"days": "Sun", "time": "Closed"}], "id": "1280100019", "name": "USPS COLLECTION BOX - BLUE BOX", "address": {"city": "GLENS FALLS", "state": "NY", "street": "16 HORICON AVE", "postcode": "12801"}}},
{"geometry": {"type": "Point", "coordinates": [-73.6536119341, 43.298592143]}, "type": "Feature", "properties": {"collection_times": [{"days": "Mon-Sat", "time": "10:00am"}, {"days": "Sun", "time": "Closed"}], "id": "1280100021", "name": "USPS COLLECTION BOX - BLUE BOX", "address": {"city": "GLENS FALLS", "state": "NY", "street": "229 SOUTH ST", "postcode": "12801"}}},
{"geometry": {"type": "Point", "coordinates": [-73.6435970035, 43.3156373988]}, "type": "Feature", "properties": {"collection_times": [{"days": "Mon-Sat", "time": "10:00am"}, {"days": "Sun", "time": "Closed"}], "id": "1280100022", "name": "USPS COLLECTION BOX - BLUE BOX", "address": {"city": "GLENS FALLS", "state": "NY", "street": "161 RIDGE ST", "postcode": "12801"}}},
{"geometry": {"type": "Point", "coordinates": [-73.6433433972, 43.3215484232]}, "type": "Feature", "properties": {"collection_times": [{"days": "Mon-Sat", "time": "9:00am"}, {"days": "Sun", "time": "Closed"}], "id": "1280100023", "name": "USPS COLLECTION BOX - BLUE BOX", "address": {"city": "GLENS FALLS", "state": "NY", "street": "243 RIDGE ST", "postcode": "12801"}}},
{"geometry": {"type": "Point", "coordinates": [-73.6297043334, 43.3106086402]}, "type": "Feature", "properties": {"collection_times": [{"days": "Mon-Sat", "time": "11:00am"}, {"days": "Sun", "time": "Closed"}], "id": "1280100026", "name": "USPS COLLECTION BOX - BLUE BOX", "address": {"city": "GLENS FALLS", "state": "NY", "street": "216 WARREN ST", "postcode": "12801"}}},
{"geometry": {"type": "Point", "coordinates": [-73.6359941262, 43.3197600108]}, "type": "Feature", "properties": {"collection_times": [{"days": "Mon-Sat", "time": "11:00am"}, {"days": "Sun", "time": "Closed"}], "id": "1280100027", "name": "USPS COLLECTION BOX - BLUE BOX", "address": {"city": "GLENS FALLS", "state": "NY", "street": "131 HUNTER ST", "postcode": "12801"}}},
{"geometry": {"type": "Point", "coordinates": [-73.6350371103, 43.3106560813]}, "type": "Feature", "properties": {"collection_times": [{"days": "Mon-Sat", "time": "11:00am"}, {"days": "Sun", "time": "Closed"}], "id": "1280100030", "name": "USPS COLLECTION BOX - BLUE BOX", "address": {"city": "GLENS FALLS", "state": "NY", "street": "156 WARREN ST", "postcode": "12801"}}},
{"geometry": {"type": "Point", "coordinates": [-73.6411293511, 43.3114260649]}, "type": "Feature", "properties": {"collection_times": [{"days": "Mon-Sat", "time": "11:00am"}, {"days": "Sun", "time": "Closed"}], "id": "1280100032", "name": "USPS COLLECTION BOX - BLUE BOX", "address": {"city": "GLENS FALLS", "state": "NY", "street": "130 MAPLE ST", "postcode": "12801"}}},
{"geometry": {"type": "Point", "coordinates": [-73.6399641365, 43.3136074412]}, "type": "Feature", "properties": {"collection_times": [{"days": "Mon-Sat", "time": "11:00am"}, {"days": "Sun", "time": "Closed"}], "id": "1280100033", "name": "USPS COLLECTION BOX - BLUE BOX", "address": {"city": "GLENS FALLS", "state": "NY", "street": "38 LAWRENCE ST", "postcode": "12801"}}},
{"geometry": {"type": "Point", "coordinates": [-73.6538284156, 43.3160892891]}, "type": "Feature", "properties": {"collection_times": [{"days": "Mon-Fri", "time": "5:00pm"}, {"days": "Sat", "time": "1:30pm"}, {"days": "Sun", "time": "Closed"}], "id": "1280100035", "name": "USPS COLLECTION BOX - BLUE BOX", "address": {"city": "GLENS FALLS", "state": "NY", "street": "484 GLEN ST", "postcode": "12801"}}},
{"geometry": {"type": "Point", "coordinates": [-73.656266494, 43.3180991364]}, "type": "Feature", "properties": {"collection_times": [{"days": "Mon-Fri", "time": "5:00pm"}, {"days": "Sat", "time": "1:30pm"}, {"days": "Sun", "time": "Closed"}], "id": "1280100036", "name": "USPS COLLECTION BOX - BLUE BOX", "address": {"city": "GLENS FALLS", "state": "NY", "street": "526 GLEN ST", "postcode": "12801"}}},
{"geometry": {"type": "Point", "coordinates": [-73.6604565347, 43.3034671169]}, "type": "Feature", "properties": {"collection_times": [{"days": "Mon-Fri", "time": "5:00pm"}, {"days": "Sat", "time": "12:30pm"}, {"days": "Sun", "time": "Closed"}], "id": "1280100037", "name": "USPS COLLECTION BOX - BLUE BOX", "address": {"city": "GLENS FALLS", "state": "NY", "street": "175 BROAD ST", "postcode": "12801"}}},
{"geometry": {"type": "Point", "coordinates": [-73.6471365957, 43.3094543116]}, "type": "Feature", "properties": {"collection_times": [{"days": "Mon-Fri", "time": "4:30pm"}, {"days": "Sat", "time": "12:30pm"}, {"days": "Sun", "time": "Closed"}], "id": "1280100038", "name": "USPS COLLECTION BOX - BLUE BOX", "address": {"city": "GLENS FALLS", "state": "NY", "street": "48 SOUTH ST", "postcode": "12801"}}},
{"geometry": {"type": "Point", "coordinates": [-73.6463367365, 43.3202852445]}, "type": "Feature", "properties": {"collection_times": [{"days": "Mon-Sat", "time": "11:00am"}, {"days": "Sun", "time": "Closed"}], "id": "1280100039", "name": "USPS COLLECTION BOX - BLUE BOX", "address": {"city": "GLENS FALLS", "state": "NY", "street": "98 SANFORD ST", "postcode": "12801"}}},
{"geometry": {"type": "Point", "coordinates": [-73.6485225454, 43.3162353969]}, "type": "Feature", "properties": {"collection_times": [{"days": "Mon-Sat", "time": "10:00am"}, {"days": "Sun", "time": "Closed"}], "id": "1280100040", "name": "USPS COLLECTION BOX - BLUE BOX", "address": {"city": "GLENS FALLS", "state": "NY", "street": "112 BAY ST", "postcode": "12801"}}},
{"geometry": {"type": "Point", "coordinates": [-73.6511572943, 43.3135080726]}, "type": "Feature", "properties": {"collection_times": [{"days": "Mon-Fri", "time": "5:00pm"}, {"days": "Sat", "time": "1:30pm"}, {"days": "Sun", "time": "Closed"}], "id": "1280100042", "name": "USPS COLLECTION BOX - BLUE BOX", "address": {"city": "GLENS FALLS", "state": "NY", "street": "420 GLEN ST", "postcode": "12801"}}},
{"geometry": {"type": "Point", "coordinates": [-73.6478501021, 43.3079577777]}, "type": "Feature", "properties": {"collection_times": [{"days": "Mon-Fri", "time": "4:30pm"}, {"days": "Sat", "time": "12:30pm"}, {"days": "Sun", "time": "Closed"}], "id": "1280100043", "name": "USPS COLLECTION BOX - BLUE BOX", "address": {"city": "GLENS FALLS", "state": "NY", "street": "90 SOUTH ST", "postcode": "12801"}}},
{"geometry": {"type": "Point", "coordinates": [-73.6456068508, 43.3104477578]}, "type": "Feature", "properties": {"collection_times": [{"days": "Mon-Fri", "time": "5:00pm"}, {"days": "Sat", "time": "1:30pm"}, {"days": "Sun", "time": "Closed"}], "id": "1280100044", "name": "USPS COLLECTION BOX - BLUE BOX", "address": {"city": "GLENS FALLS", "state": "NY", "street": "237 GLEN ST", "postcode": "12801"}}},
{"geometry": {"type": "Point", "coordinates": [-73.6438513397, 43.3107931818]}, "type": "Feature", "properties": {"collection_times": [{"days": "Mon-Fri", "time": "4:30pm"}, {"days": "Sat", "time": "1:30pm"}, {"days": "Sun", "time": "Closed"}], "id": "1280100048", "name": "USPS COLLECTION BOX - BLUE BOX", "address": {"city": "GLENS FALLS", "state": "NY", "street": "42 RIDGE ST", "postcode": "12801"}}},
{"geometry": {"type": "Point", "coordinates": [-73.6434491336, 43.3095936614]}, "type": "Feature", "properties": {"collection_times": [{"days": "Mon-Fri", "time": "4:30pm"}, {"days": "Sat", "time": "1:30pm"}, {"days": "Sun", "time": "Closed"}], "id": "1280100049", "name": "USPS COLLECTION BOX - BLUE BOX", "address": {"city": "GLENS FALLS", "state": "NY", "street": "12 WARREN ST", "postcode": "12801"}}},
{"geometry": {"type": "Point", "coordinates": [-73.6438726329, 43.310614555]}, "type": "Feature", "properties": {"collection_times": [{"days": "Mon-Sat", "time": "10:00am"}, {"days": "Sun", "time": "Closed"}], "id": "1280100050", "name": "USPS COLLECTION BOX - BLUE BOX", "address": {"city": "GLENS FALLS", "state": "NY", "street": "43 RIDGE ST", "postcode": "12801"}}},
{"geometry": {"type": "Point", "coordinates": [-73.6383090319, 43.3174142882]}, "type": "Feature", "properties": {"collection_times": [{"days": "Mon-Sat", "time": "11:00am"}, {"days": "Sun", "time": "Closed"}], "id": "1280100052", "name": "USPS COLLECTION BOX - BLUE BOX", "address": {"city": "GLENS FALLS", "state": "NY", "street": "84 COOPER ST", "postcode": "12801"}}},
{"geometry": {"type": "Point", "coordinates": [-73.6595775962, 43.3105908958]}, "type": "Feature", "properties": {"collection_times": [{"days": "Mon-Sat", "time": "10:00am"}, {"days": "Sun", "time": "Closed"}], "id": "1280100053", "name": "USPS COLLECTION BOX - BLUE BOX", "address": {"city": "GLENS FALLS", "state": "NY", "street": "15 QUADE ST", "postcode": "12801"}}},
{"geometry": {"type": "Point", "coordinates": [-73.6472543238, 43.3074638969]}, "type": "Feature", "properties": {"collection_times": [{"days": "Mon-Fri", "time": "5:30pm"}, {"days": "Sat", "time": "3:30pm"}, {"days": "Sun", "time": "Closed"}], "id": "1280100054", "name": "USPS COLLECTION BOX - BLUE BOX", "address": {"city": "GLENS FALLS", "state": "NY", "street": "16 HUDSON AVE", "postcode": "12801"}}},
{"geometry": {"type": "Point", "coordinates": [-73.6472543238, 43.3074638969]}, "type": "Feature", "properties": {"collection_times": [{"days": "Mon-Fri", "time": "5:30pm"}, {"days": "Sat", "time": "3:30pm"}, {"days": "Sun", "time": "Closed"}], "id": "1280100055", "name": "USPS COLLECTION BOX - BLUE BOX", "address": {"city": "GLENS FALLS", "state": "NY", "street": "16 HUDSON AVE", "postcode": "12801"}}},
{"geometry": {"type": "Point", "coordinates": [-73.6472543238, 43.3074638969]}, "type": "Feature", "properties": {"collection_times": [{"days": "Mon-Fri", "time": "5:30pm"}, {"days": "Sat", "time": "3:30pm"}, {"days": "Sun", "time": "Closed"}], "id": "1280100058", "name": "USPS COLLECTION BOX - PO LOBBY", "address": {"city": "GLENS FALLS", "state": "NY", "street": "16 HUDSON AVE", "postcode": "12801"}}},
{"geometry": {"type": "Point", "coordinates": [-73.6408592647, 43.3159876686]}, "type": "Feature", "properties": {"collection_times": [{"days": "Mon-Fri", "time": "3:00pm"}, {"days": "Sat", "time": "9:00am"}, {"days": "Sun", "time": "Closed"}], "id": "1280100059", "name": "USPS COLLECTION BOX - BLUE BOX", "address": {"city": "GLENS FALLS", "state": "NY", "street": "2 IRONGATE CTR", "postcode": "12801"}}},
{"geometry": {"type": "Point", "coordinates": [-73.6408592647, 43.3159876686]}, "type": "Feature", "properties": {"collection_times": [{"days": "Mon-Fri", "time": "5:00pm"}, {"days": "Sat", "time": "1:30pm"}, {"days": "Sun", "time": "Closed"}], "id": "1280100060", "name": "USPS COLLECTION BOX - BLUE BOX", "address": {"city": "GLENS FALLS", "state": "NY", "street": "206 GLENT ST", "postcode": "12801"}}},
{"geometry": {"type": "Point", "coordinates": [-73.6554116985, 43.3025472873]}, "type": "Feature", "properties": {"collection_times": [{"days": "Mon-Sat", "time": "10:00am"}, {"days": "Sun", "time": "Closed"}], "id": "1280100061", "name": "USPS COLLECTION BOX - BLUE BOX", "address": {"city": "GLENS FALLS", "state": "NY", "street": "37 2ND ST", "postcode": "12801"}}},
{"geometry": {"type": "Point", "coordinates": [-73.6495796724, 43.3188158586]}, "type": "Feature", "properties": {"collection_times": [{"days": "Mon-Sat", "time": "10:00am"}, {"days": "Sun", "time": "Closed"}], "id": "1280100062", "name": "USPS COLLECTION BOX - BLUE BOX", "address": {"city": "GLENS FALLS", "state": "NY", "street": "149 BAY ST", "postcode": "12801"}}},
{"geometry": {"type": "Point", "coordinates": [-73.6306412369, 43.2941347537]}, "type": "Feature", "properties": {"collection_times": [{"days": "Mon-Sat", "time": "10:00am"}, {"days": "Sun", "time": "Closed"}], "id": "1280300001", "name": "USPS COLLECTION BOX - BLUE BOX", "address": {"city": "GLENS FALLS", "state": "NY", "street": "192 MAIN ST", "postcode": "12803"}}},
{"geometry": {"type": "Point", "coordinates": [-73.6398386099, 43.2991261619]}, "type": "Feature", "properties": {"collection_times": [{"days": "Mon-Sat", "time": "10:00am"}, {"days": "Sun", "time": "Closed"}], "id": "1280300003", "name": "USPS COLLECTION BOX - BLUE BOX", "address": {"city": "GLENS FALLS", "state": "NY", "street": "20 RIVERVIEW ST", "postcode": "12803"}}},
{"geometry": {"type": "Point", "coordinates": [-73.6395619361, 43.2999688699]}, "type": "Feature", "properties": {"collection_times": [{"days": "Mon-Sat", "time": "10:00am"}, {"days": "Sun", "time": "Closed"}], "id": "1280300004", "name": "USPS COLLECTION BOX - BLUE BOX", "address": {"city": "GLENS FALLS", "state": "NY", "street": "18 RIVERVIEW ST", "postcode": "12803"}}},
{"geometry": {"type": "Point", "coordinates": [-73.6342043093, 43.300006962]}, "type": "Feature", "properties": {"collection_times": [{"days": "Mon-Fri", "time": "5:00pm"}, {"days": "Sat", "time": "1:30pm"}, {"days": "Sun", "time": "Closed"}], "id": "1280300007", "name": "USPS COLLECTION BOX - BLUE BOX", "address": {"city": "GLENS FALLS", "state": "NY", "street": "61 HUDSON ST", "postcode": "12803"}}},
{"geometry": {"type": "Point", "coordinates": [-73.6378769896, 43.2898409454]}, "type": "Feature", "properties": {"collection_times": [{"days": "Mon-Sat", "time": "11:00am"}, {"days": "Sun", "time": "Closed"}], "id": "1280300008", "name": "USPS COLLECTION BOX - BLUE BOX", "address": {"city": "GLENS FALLS", "state": "NY", "street": "27 GANSEVOORT RD", "postcode": "12803"}}},
{"geometry": {"type": "Point", "coordinates": [-73.6568378632, 43.2865791948]}, "type": "Feature", "properties": {"collection_times": [{"days": "Mon-Sat", "time": "9:00am"}, {"days": "Sun", "time": "Closed"}], "id": "1280300010", "name": "USPS COLLECTION BOX - BLUE BOX", "address": {"city": "GLENS FALLS", "state": "NY", "street": "22 HUDSON FALLS RD", "postcode": "12803"}}},
{"geometry": {"type": "Point", "coordinates": [-73.6356507963, 43.2994970933]}, "type": "Feature", "properties": {"collection_times": [{"days": "Mon-Fri", "time": "5:00pm"}, {"days": "Sat", "time": "1:30pm"}, {"days": "Sun", "time": "Closed"}], "id": "1280300011", "name": "USPS COLLECTION BOX - BLUE BOX", "address": {"city": "GLENS FALLS", "state": "NY", "street": "110 MAIN ST", "postcode": "12803"}}},
{"geometry": {"type": "Point", "coordinates": [-73.6356507963, 43.2994970933]}, "type": "Feature", "properties": {"collection_times": [{"days": "Mon-Fri", "time": "5:00pm"}, {"days": "Sat", "time": "1:30pm"}, {"days": "Sun", "time": "Closed"}], "id": "1280300012", "name": "USPS COLLECTION BOX - BLUE BOX", "address": {"city": "GLENS FALLS", "state": "NY", "street": "110 MAIN ST", "postcode": "12803"}}},
{"geometry": {"type": "Point", "coordinates": [-73.6729822265, 43.3093131619]}, "type": "Feature", "properties": {"collection_times": [{"days": "Mon-Fri", "time": "5:00pm"}, {"days": "Sat", "time": "1:30pm"}, {"days": "Sun", "time": "Closed"}], "id": "1280400002", "name": "USPS COLLECTION BOX - BLUE BOX", "address": {"city": "GLENS FALLS", "state": "NY", "street": "1 NORTHWAY LN", "postcode": "12804"}}},
{"geometry": {"type": "Point", "coordinates": [-73.6729822265, 43.3093131619]}, "type": "Feature", "properties": {"collection_times": [{"days": "Mon-Fri", "time": "5:00pm"}, {"days": "Sat", "time": "1:30pm"}, {"days": "Sun", "time": "Closed"}], "id": "1280400003", "name": "USPS COLLECTION BOX - BLUE BOX", "address": {"city": "GLENS FALLS", "state": "NY", "street": "1 NORTHWAY LN", "postcode": "12804"}}},
{"geometry": {"type": "Point", "coordinates": [-73.6993439447, 43.3147750217]}, "type": "Feature", "properties": {"collection_times": [{"days": "Mon-Sat", "time": "10:00am"}, {"days": "Sun", "time": "Closed"}], "id": "1280400007", "name": "USPS COLLECTION BOX - BLUE BOX", "address": {"city": "GLENS FALLS", "state": "NY", "street": "1 MARGARET DR", "postcode": "12804"}}},
{"geometry": {"type": "Point", "coordinates": [-73.6876977137, 43.3262934931]}, "type": "Feature", "properties": {"collection_times": [{"days": "Mon-Sat", "time": "11:00am"}, {"days": "Sun", "time": "Closed"}], "id": "1280400008", "name": "USPS COLLECTION BOX - BLUE BOX", "address": {"city": "GLENS FALLS", "state": "NY", "street": "220 BURKE DR", "postcode": "12804"}}},
{"geometry": {"type": "Point", "coordinates": [-73.6818949726, 43.3372450684]}, "type": "Feature", "properties": {"collection_times": [{"days": "Mon-Sat", "time": "10:00am"}, {"days": "Sun", "time": "Closed"}], "id": "1280400009", "name": "USPS COLLECTION BOX - BLUE BOX", "address": {"city": "GLENS FALLS", "state": "NY", "street": "220 ROBERT GDNS N", "postcode": "12804"}}},
{"geometry": {"type": "Point", "coordinates": [-73.6842331924, 43.3342086303]}, "type": "Feature", "properties": {"collection_times": [{"days": "Mon-Sat", "time": "10:00am"}, {"days": "Sun", "time": "Closed"}], "id": "1280400010", "name": "USPS COLLECTION BOX - BLUE BOX", "address": {"city": "GLENS FALLS", "state": "NY", "street": "105 NEEDLE PARK CIR", "postcode": "12804"}}},
{"geometry": {"type": "Point", "coordinates": [-73.6871610544, 43.3018424375]}, "type": "Feature", "properties": {"collection_times": [{"days": "Mon-Sat", "time": "10:00am"}, {"days": "Sun", "time": "Closed"}], "id": "1280400011", "name": "USPS COLLECTION BOX - BLUE BOX", "address": {"city": "GLENS FALLS", "state": "NY", "street": "198 LUZERNE RD", "postcode": "12804"}}},
{"geometry": {"type": "Point", "coordinates": [-73.6558003406, 43.3319568923]}, "type": "Feature", "properties": {"collection_times": [{"days": "Mon-Sat", "time": "11:00am"}, {"days": "Sun", "time": "Closed"}], "id": "1280400012", "name": "USPS COLLECTION BOX - BLUE BOX", "address": {"city": "GLENS FALLS", "state": "NY", "street": "190 QUAKER RD", "postcode": "12804"}}},
{"geometry": {"type": "Point", "coordinates": [-73.6746733355, 43.3307922861]}, "type": "Feature", "properties": {"collection_times": [{"days": "Mon-Sat", "time": "9:00am"}, {"days": "Sun", "time": "Closed"}], "id": "1280400014", "name": "USPS COLLECTION BOX - BLUE BOX", "address": {"city": "GLENS FALLS", "state": "NY", "street": "797 STATE ROUTE 9", "postcode": "12804"}}},
{"geometry": {"type": "Point", "coordinates": [-73.6621965773, 43.3238798375]}, "type": "Feature", "properties": {"collection_times": [{"days": "Mon-Fri", "time": "5:00pm"}, {"days": "Sat", "time": "12:30pm"}, {"days": "Sun", "time": "Closed"}], "id": "1280400016", "name": "USPS COLLECTION BOX - BLUE BOX", "address": {"city": "GLENS FALLS", "state": "NY", "street": "696 STATE ROUTE 9", "postcode": "12804"}}},
{"geometry": {"type": "Point", "coordinates": [-73.6750658917, 43.3309533875]}, "type": "Feature", "properties": {"collection_times": [{"days": "Mon-Fri", "time": "5:00pm"}, {"days": "Sat-Sun", "time": "Closed"}], "id": "1280400017", "name": "USPS COLLECTION BOX - BLUE BOX", "address": {"city": "GLENS FALLS", "state": "NY", "street": "640 BAY RD", "postcode": "12804"}}},
{"geometry": {"type": "Point", "coordinates": [-73.6750658917, 43.3309533875]}, "type": "Feature", "properties": {"collection_times": [{"days": "Mon-Fri", "time": "5:00pm"}, {"days": "Sat-Sun", "time": "Closed"}], "id": "1280400018", "name": "USPS COLLECTION BOX - BLUE BOX", "address": {"city": "GLENS FALLS", "state": "NY", "street": "640 BAY RD", "postcode": "12804"}}},
{"geometry": {"type": "Point", "coordinates": [-73.6511120058, 43.3323573127]}, "type": "Feature", "properties": {"collection_times": [{"days": "Mon-Sat", "time": "9:00am"}, {"days": "Sun", "time": "Closed"}], "id": "1280400020", "name": "USPS COLLECTION BOX - BLUE BOX", "address": {"city": "GLENS FALLS", "state": "NY", "street": "251 QUAKER RD", "postcode": "12804"}}},
{"geometry": {"type": "Point", "coordinates": [-73.6411294217, 43.3382491701]}, "type": "Feature", "properties": {"collection_times": [{"days": "Mon-Sat", "time": "11:00am"}, {"days": "Sun", "time": "Closed"}], "id": "1280400022", "name": "USPS COLLECTION BOX - BLUE BOX", "address": {"city": "GLENS FALLS", "state": "NY", "street": "140 CRONIN RD", "postcode": "12804"}}},
{"geometry": {"type": "Point", "coordinates": [-73.6673431386, 43.331590759]}, "type": "Feature", "properties": {"collection_times": [{"days": "Mon-Sat", "time": "11:00am"}, {"days": "Sun", "time": "Closed"}], "id": "1280400027", "name": "USPS COLLECTION BOX - BLUE BOX", "address": {"city": "GLENS FALLS", "state": "NY", "street": "63 QUAKER RD", "postcode": "12804"}}},
{"geometry": {"type": "Point", "coordinates": [-73.6618131443, 43.3236506611]}, "type": "Feature", "properties": {"collection_times": [{"days": "Mon-Sat", "time": "1:30pm"}, {"days": "Sun", "time": "Closed"}], "id": "1280400028", "name": "USPS COLLECTION BOX - BLUE BOX", "address": {"city": "GLENS FALLS", "state": "NY", "street": "677 STATE ROUTE 9", "postcode": "12804"}}},
{"geometry": {"type": "Point", "coordinates": [-73.6982639032, 43.3303676038]}, "type": "Feature", "properties": {"collection_times": [{"days": "Mon-Fri", "time": "5:00pm"}, {"days": "Sat", "time": "1:00pm"}, {"days": "Sun", "time": "Closed"}], "id": "1280400030", "name": "USPS COLLECTION BOX - BLUE BOX", "address": {"city": "GLENS FALLS", "state": "NY", "street": "340 AVIATION RD", "postcode": "12804"}}},
{"geometry": {"type": "Point", "coordinates": [-73.6982639032, 43.3303676038]}, "type": "Feature", "properties": {"collection_times": [{"days": "Mon-Fri", "time": "5:00pm"}, {"days": "Sat", "time": "1:00pm"}, {"days": "Sun", "time": "Closed"}], "id": "1280400031", "name": "USPS COLLECTION BOX - BLUE BOX", "address": {"city": "GLENS FALLS", "state": "NY", "street": "340 AVIATION RD", "postcode": "12804"}}},
{"geometry": {"type": "Point", "coordinates": [-73.6775680361, 43.328804915]}, "type": "Feature", "properties": {"collection_times": [{"days": "Mon-Fri", "time": "5:00pm"}, {"days": "Sat", "time": "1:30pm"}, {"days": "Sun", "time": "Closed"}], "id": "1280400034", "name": "USPS COLLECTION BOX - BLUE BOX", "address": {"city": "GLENS FALLS", "state": "NY", "street": "578 AVIATION RD", "postcode": "12804"}}},
{"geometry": {"type": "Point", "coordinates": [-73.7109672151, 43.2954513131]}, "type": "Feature", "properties": {"collection_times": [{"days": "Mon-Sat", "time": "10:30am"}, {"days": "Sun", "time": "Closed"}], "id": "1280400035", "name": "USPS COLLECTION BOX - BLUE BOX", "address": {"city": "GLENS FALLS", "state": "NY", "street": "183 PITCHER RD", "postcode": "12804"}}},
{"geometry": {"type": "Point", "coordinates": [-73.6711869601, 43.3295242993]}, "type": "Feature", "properties": {"collection_times": [{"days": "Mon-Fri", "time": "5:00pm"}, {"days": "Sat", "time": "12:30pm"}, {"days": "Sun", "time": "Closed"}], "id": "1280400037", "name": "USPS COLLECTION BOX - BLUE BOX", "address": {"city": "GLENS FALLS", "state": "NY", "street": "756 UPPER GLEN ST", "postcode": "12804"}}},
{"geometry": {"type": "Point", "coordinates": [-73.6116503883, 43.3154748907]}, "type": "Feature", "properties": {"collection_times": [{"days": "Mon-Sat", "time": "9:00am"}, {"days": "Sun", "time": "Closed"}], "id": "1280400038", "name": "USPS COLLECTION BOX - BLUE BOX", "address": {"city": "GLENS FALLS", "state": "NY", "street": "308 DIX AVE", "postcode": "12804"}}},
{"geometry": {"type": "Point", "coordinates": [-73.6579001604, 43.3596482041]}, "type": "Feature", "properties": {"collection_times": [{"days": "Mon-Fri", "time": "5:00pm"}, {"days": "Sat-Sun", "time": "Closed"}], "id": "1280400039", "name": "USPS COLLECTION BOX - BLUE BOX", "address": {"city": "GLENS FALLS", "state": "NY", "street": "742 BAY RD", "postcode": "12804"}}},
{"geometry": {"type": "Point", "coordinates": [-73.6682368558, 43.3313447279]}, "type": "Feature", "properties": {"collection_times": [{"days": "Mon-Fri", "time": "5:00pm"}, {"days": "Sat", "time": "12:30pm"}, {"days": "Sun", "time": "Closed"}], "id": "1280400040", "name": "USPS COLLECTION BOX - BLUE BOX", "address": {"city": "GLENS FALLS", "state": "NY", "street": "54 QUAKER RD", "postcode": "12804"}}},
{"geometry": {"type": "Point", "coordinates": [-73.6729822265, 43.3093131619]}, "type": "Feature", "properties": {"collection_times": [{"days": "Mon-Fri", "time": "5:00pm"}, {"days": "Sat", "time": "1:30pm"}, {"days": "Sun", "time": "Closed"}], "id": "1280400041", "name": "USPS COLLECTION BOX - PO LOBBY", "address": {"city": "GLENS FALLS", "state": "NY", "street": "1 NORTHWAY LN", "postcode": "12804"}}},
{"geometry": {"type": "Point", "coordinates": [-73.7180490936, 43.3255339231]}, "type": "Feature", "properties": {"collection_times": [{"days": "Mon-Sat", "time": "10:00am"}, {"days": "Sun", "time": "Closed"}], "id": "1280400042", "name": "USPS COLLECTION BOX - BLUE BOX", "address": {"city": "GLENS FALLS", "state": "NY", "street": "3 KENWOOD CIR", "postcode": "12804"}}},
{"geometry": {"type": "Point", "coordinates": [-73.6908680437, 43.3293407954]}, "type": "Feature", "properties": {"collection_times": [{"days": "Mon-Fri", "time": "5:00pm"}, {"days": "Sat-Sun", "time": "Closed"}], "id": "1280400043", "name": "USPS COLLECTION BOX - BLUE BOX", "address": {"city": "GLENS FALLS", "state": "NY", "street": "431 AVIATION RD", "postcode": "12804"}}},
{"geometry": {"type": "Point", "coordinates": [-73.7559588308, 43.7648842485]}, "type": "Feature", "properties": {"collection_times": [{"days": "Mon-Fri", "time": "4:00pm"}, {"days": "Sat", "time": "11:45am"}, {"days": "Sun", "time": "Closed"}], "id": "1280800001", "name": "USPS COLLECTION BOX - BLUE BOX", "address": {"city": "ADIRONDACK", "state": "NY", "street": "5 REDWING RD", "postcode": "12808"}}},
{"geometry": {"type": "Point", "coordinates": [-73.7559286987, 43.7648404468]}, "type": "Feature", "properties": {"collection_times": [{"days": "Mon-Fri", "time": "4:00pm"}, {"days": "Sat", "time": "11:45am"}, {"days": "Sun", "time": "Closed"}], "id": "1280800002", "name": "USPS COLLECTION BOX - PO LOBBY", "address": {"city": "ADIRONDACK", "state": "NY", "street": "5 RED WING RD", "postcode": "12808"}}},
{"geometry": {"type": "Point", "coordinates": [-73.4903458526, 43.2341267942]}, "type": "Feature", "properties": {"collection_times": [{"days": "Mon-Fri", "time": "4:30pm"}, {"days": "Sat", "time": "11:00am"}, {"days": "Sun", "time": "Closed"}], "id": "1280900001", "name": "USPS COLLECTION BOX - BLUE BOX", "address": {"city": "ARGYLE", "state": "NY", "street": "38 MAIN ST", "postcode": "12809"}}},
{"geometry": {"type": "Point", "coordinates": [-73.4903458526, 43.2341267942]}, "type": "Feature", "properties": {"collection_times": [{"days": "Mon-Fri", "time": "4:30pm"}, {"days": "Sat", "time": "11:00am"}, {"days": "Sun", "time": "Closed"}], "id": "1280900002", "name": "USPS COLLECTION BOX - PO LOBBY", "address": {"city": "ARGYLE", "state": "NY", "street": "38 MAIN ST", "postcode": "12809"}}},
{"geometry": {"type": "Point", "coordinates": [-73.8416518846, 43.4918874253]}, "type": "Feature", "properties": {"collection_times": [{"days": "Mon-Fri", "time": "4:15pm"}, {"days": "Sat", "time": "12:00pm"}, {"days": "Sun", "time": "Closed"}], "id": "1281000001", "name": "USPS COLLECTION BOX - BLUE BOX", "address": {"city": "ATHOL", "state": "NY", "street": "274 ATHOL RD", "postcode": "12810"}}},
{"geometry": {"type": "Point", "coordinates": [-73.8416518846, 43.4918874253]}, "type": "Feature", "properties": {"collection_times": [{"days": "Mon-Fri", "time": "12:30pm"}, {"days": "Sat", "time": "12:00pm"}, {"days": "Sun", "time": "Closed"}], "id": "1281000002", "name": "USPS COLLECTION BOX - PO LOBBY", "address": {"city": "ATHOL", "state": "NY", "street": "274 ATHOL RD", "postcode": "12810"}}},
{"geometry": {"type": "Point", "coordinates": [-74.0256192249, 43.6168365518]}, "type": "Feature", "properties": {"collection_times": [{"days": "Mon-Fri", "time": "4:15pm"}, {"days": "Sat", "time": "11:30am"}, {"days": "Sun", "time": "Closed"}], "id": "1281100001", "name": "USPS COLLECTION BOX - BLUE BOX", "address": {"city": "BAKERS MILLS", "state": "NY", "street": "3 POST OFFICE LOOP", "postcode": "12811"}}},
{"geometry": {"type": "Point", "coordinates": [-74.0131660317, 43.6150487059]}, "type": "Feature", "properties": {"collection_times": [{"days": "Mon-Fri", "time": "4:15pm"}, {"days": "Sat", "time": "11:45am"}, {"days": "Sun", "time": "Closed"}], "id": "1281100002", "name": "USPS COLLECTION BOX - PO LOBBY", "address": {"city": "BAKERS MILLS", "state": "NY", "street": "3 POST OFFICE LOOP", "postcode": "12811"}}},
{"geometry": {"type": "Point", "coordinates": [-74.0131660317, 43.6150487059]}, "type": "Feature", "properties": {"collection_times": [{"days": "Mon-Fri", "time": "4:15pm"}, {"days": "Sat", "time": "11:45am"}, {"days": "Sun", "time": "Closed"}], "id": "1281100003", "name": "USPS COLLECTION BOX - PO LOBBY", "address": {"city": "BAKERS MILLS", "state": "NY", "street": "3 POST OFFICE LOOP", "postcode": "12811"}}},
{"geometry": {"type": "Point", "coordinates": [-74.4262919522, 43.8376203612]}, "type": "Feature", "properties": {"collection_times": [{"days": "Mon-Fri", "time": "4:00pm"}, {"days": "Sat", "time": "11:40am"}, {"days": "Sun", "time": "Closed"}], "id": "1281200001", "name": "USPS COLLECTION BOX - BLUE BOX", "address": {"city": "BLUE MOUNTAIN LA", "state": "NY", "street": "1 ROUTE 28", "postcode": "12812"}}},
{"geometry": {"type": "Point", "coordinates": [-74.4262919522, 43.8376203612]}, "type": "Feature", "properties": {"collection_times": [{"days": "Mon-Fri", "time": "4:00pm"}, {"days": "Sat", "time": "12:00pm"}, {"days": "Sun", "time": "Closed"}], "id": "1281200002", "name": "USPS COLLECTION BOX - PO LOBBY", "address": {"city": "BLUE MOUNTAIN LA", "state": "NY", "street": "1 ROUTE 28", "postcode": "12812"}}},
{"geometry": {"type": "Point", "coordinates": [-73.6543915041, 43.560005964]}, "type": "Feature", "properties": {"collection_times": [{"days": "Mon-Fri", "time": "4:30pm"}, {"days": "Sat", "time": "12:00pm"}, {"days": "Sun", "time": "Closed"}], "id": "1281400001", "name": "USPS COLLECTION BOX - BLUE BOX", "address": {"city": "BOLTON LANDING", "state": "NY", "street": "5000 LAKESHORE DR", "postcode": "12814"}}},
{"geometry": {"type": "Point", "coordinates": [-73.6543915041, 43.560005964]}, "type": "Feature", "properties": {"collection_times": [{"days": "Mon-Fri", "time": "5:00pm"}, {"days": "Sat", "time": "12:00pm"}, {"days": "Sun", "time": "Closed"}], "id": "1281400004", "name": "USPS COLLECTION BOX - PO LOBBY", "address": {"city": "BOLTON LANDING", "state": "NY", "street": "5000 LAKESHORE DR", "postcode": "12814"}}},
{"geometry": {"type": "Point", "coordinates": [-73.6543915041, 43.560005964]}, "type": "Feature", "properties": {"collection_times": [{"days": "Mon-Fri", "time": "5:00pm"}, {"days": "Sat", "time": "12:00pm"}, {"days": "Sun", "time": "Closed"}], "id": "1281400005", "name": "USPS COLLECTION BOX - PO LOBBY", "address": {"city": "BOLTON LANDING", "state": "NY", "street": "5000 LAKE SHORE DR", "postcode": "12814"}}},
{"geometry": {"type": "Point", "coordinates": [-73.7520219058, 43.6759021983]}, "type": "Feature", "properties": {"collection_times": [{"days": "Mon-Fri", "time": "4:30pm"}, {"days": "Sat", "time": "11:30am"}, {"days": "Sun", "time": "Closed"}], "id": "1281500001", "name": "USPS COLLECTION BOX - BLUE BOX", "address": {"city": "BRANT LAKE", "state": "NY", "street": "6580 STATE ROUTE 8", "postcode": "12815"}}},
{"geometry": {"type": "Point", "coordinates": [-73.7520219058, 43.6759021983]}, "type": "Feature", "properties": {"collection_times": [{"days": "Mon-Fri", "time": "4:30pm"}, {"days": "Sat", "time": "11:30am"}, {"days": "Sun", "time": "Closed"}], "id": "1281500002", "name": "USPS COLLECTION BOX - PO LOBBY", "address": {"city": "BRANT LAKE", "state": "NY", "street": "6580 STATE ROUTE 8", "postcode": "12815"}}},
{"geometry": {"type": "Point", "coordinates": [-73.3844899525, 43.0281452474]}, "type": "Feature", "properties": {"collection_times": [{"days": "Mon-Sat", "time": "11:00am"}, {"days": "Sun", "time": "Closed"}], "id": "1281600002", "name": "USPS COLLECTION BOX - BLUE BOX", "address": {"city": "CAMBRIDGE", "state": "NY", "street": "25 W MAIN ST", "postcode": "12816"}}},
{"geometry": {"type": "Point", "coordinates": [-73.3785608207, 43.0279465578]}, "type": "Feature", "properties": {"collection_times": [{"days": "Mon-Fri", "time": "5:00pm"}, {"days": "Sat", "time": "1:00pm"}, {"days": "Sun", "time": "Closed"}], "id": "1281600006", "name": "USPS COLLECTION BOX - BLUE BOX", "address": {"city": "CAMBRIDGE", "state": "NY", "street": "51 E MAIN ST", "postcode": "12816"}}},
{"geometry": {"type": "Point", "coordinates": [-73.3785608207, 43.0279465578]}, "type": "Feature", "properties": {"collection_times": [{"days": "Mon-Fri", "time": "4:15pm"}, {"days": "Sat", "time": "1:00pm"}, {"days": "Sun", "time": "Closed"}], "id": "1281600008", "name": "USPS COLLECTION BOX - PO LOBBY", "address": {"city": "CAMBRIDGE", "state": "NY", "street": "51 E MAIN ST", "postcode": "12816"}}},
{"geometry": {"type": "Point", "coordinates": [-73.8009506562, 43.6506726709]}, "type": "Feature", "properties": {"collection_times": [{"days": "Mon-Fri", "time": "4:30pm"}, {"days": "Sat", "time": "12:00pm"}, {"days": "Sun", "time": "Closed"}], "id": "1281700001", "name": "USPS COLLECTION BOX - BLUE BOX", "address": {"city": "CHESTERTOWN", "state": "NY", "street": "6323 STATE ROUTE 9", "postcode": "12817"}}},
{"geometry": {"type": "Point", "coordinates": [-73.8009506562, 43.6506726709]}, "type": "Feature", "properties": {"collection_times": [{"days": "Mon-Fri", "time": "4:30pm"}, {"days": "Sat", "time": "12:00pm"}, {"days": "Sun", "time": "Closed"}], "id": "1281700002", "name": "USPS COLLECTION BOX - PO LOBBY", "address": {"city": "CHESTERTOWN", "state": "NY", "street": "6323 STATE ROUTE 9", "postcode": "12817"}}},
{"geometry": {"type": "Point", "coordinates": [-73.4463456938, 43.6323119648]}, "type": "Feature", "properties": {"collection_times": [{"days": "Mon-Fri", "time": "3:00pm"}, {"days": "Sat", "time": "11:30am"}, {"days": "Sun", "time": "Closed"}], "id": "1281900001", "name": "USPS COLLECTION BOX - BLUE BOX", "address": {"city": "CLEMONS", "state": "NY", "street": "14007 STATE ROUTE 22", "postcode": "12819"}}},
{"geometry": {"type": "Point", "coordinates": [-73.4463456938, 43.6323119648]}, "type": "Feature", "properties": {"collection_times": [{"days": "Mon-Fri", "time": "10:00am"}, {"days": "Sat", "time": "11:30am"}, {"days": "Sun", "time": "Closed"}], "id": "1281900002", "name": "USPS COLLECTION BOX - PO LOBBY", "address": {"city": "CLEMONS", "state": "NY", "street": "14007 STATE ROUTE 22", "postcode": "12819"}}},
{"geometry": {"type": "Point", "coordinates": [-73.635993076, 43.4555954247]}, "type": "Feature", "properties": {"collection_times": [{"days": "Mon-Fri", "time": "4:00pm"}, {"days": "Sat", "time": "12:00pm"}, {"days": "Sun", "time": "Closed"}], "id": "1282000001", "name": "USPS COLLECTION BOX - BLUE BOX", "address": {"city": "CLEVERDALE", "state": "NY", "street": "2663 ROUTE 9L", "postcode": "12820"}}},
{"geometry": {"type": "Point", "coordinates": [-73.635993076, 43.4555954247]}, "type": "Feature", "properties": {"collection_times": [{"days": "Mon-Fri", "time": "2:00pm"}, {"days": "Sat", "time": "12:00pm"}, {"days": "Sun", "time": "Closed"}], "id": "1282000002", "name": "USPS COLLECTION BOX - PO LOBBY", "address": {"city": "CLEVERDALE", "state": "NY", "street": "2663 STATE ROUTE 9L", "postcode": "12820"}}},
{"geometry": {"type": "Point", "coordinates": [-73.4394695704, 43.4572801095]}, "type": "Feature", "properties": {"collection_times": [{"days": "Mon-Fri", "time": "4:15pm"}, {"days": "Sat", "time": "11:15am"}, {"days": "Sun", "time": "Closed"}], "id": "1282100001", "name": "USPS COLLECTION BOX - BLUE BOX", "address": {"city": "COMSTOCK", "state": "NY", "street": "11762 STATE ROUTE 22", "postcode": "12821"}}},
{"geometry": {"type": "Point", "coordinates": [-73.4394695704, 43.4572801095]}, "type": "Feature", "properties": {"collection_times": [{"days": "Mon-Fri", "time": "4:30pm"}, {"days": "Sat", "time": "11:30am"}, {"days": "Sun", "time": "Closed"}], "id": "1282100002", "name": "USPS COLLECTION BOX - PO LOBBY", "address": {"city": "COMSTOCK", "state": "NY", "street": "11762 STATE ROUTE 22", "postcode": "12821"}}},
{"geometry": {"type": "Point", "coordinates": [-73.8338780807, 43.247796913]}, "type": "Feature", "properties": {"collection_times": [{"days": "Mon-Fri", "time": "5:00pm"}, {"days": "Sat", "time": "12:00pm"}, {"days": "Sun", "time": "Closed"}], "id": "1282200002", "name": "USPS COLLECTION BOX - BLUE BOX", "address": {"city": "CORINTH", "state": "NY", "street": "97 MAIN ST", "postcode": "12822"}}},
{"geometry": {"type": "Point", "coordinates": [-73.8153176928, 43.2465561441]}, "type": "Feature", "properties": {"collection_times": [{"days": "Mon-Sat", "time": "9:30am"}, {"days": "Sun", "time": "Closed"}], "id": "1282200004", "name": "USPS COLLECTION BOX - BLUE BOX", "address": {"city": "CORINTH", "state": "NY", "street": "600 PALMER AVE", "postcode": "12822"}}},
{"geometry": {"type": "Point", "coordinates": [-73.8336712522, 43.2472299217]}, "type": "Feature", "properties": {"collection_times": [{"days": "Mon-Sat", "time": "8:30am"}, {"days": "Sun", "time": "Closed"}], "id": "1282200011", "name": "USPS COLLECTION BOX - BLUE BOX", "address": {"city": "CORINTH", "state": "NY", "street": "132 MAIN ST", "postcode": "12822"}}},
{"geometry": {"type": "Point", "coordinates": [-73.8338780807, 43.247796913]}, "type": "Feature", "properties": {"collection_times": [{"days": "Mon-Fri", "time": "4:30pm"}, {"days": "Sat", "time": "2:00pm"}, {"days": "Sun", "time": "Closed"}], "id": "1282200014", "name": "USPS COLLECTION BOX - PO LOBBY", "address": {"city": "CORINTH", "state": "NY", "street": "97 MAIN ST", "postcode": "12822"}}},
{"geometry": {"type": "Point", "coordinates": [-73.4036009547, 43.1792570021]}, "type": "Feature", "properties": {"collection_times": [{"days": "Mon-Fri", "time": "4:00pm"}, {"days": "Sat", "time": "11:00am"}, {"days": "Sun", "time": "Closed"}], "id": "1282300001", "name": "USPS COLLECTION BOX - BLUE BOX", "address": {"city": "COSSAYUNA", "state": "NY", "street": "703 COUNTY ROUTE 49", "postcode": "12823"}}},
{"geometry": {"type": "Point", "coordinates": [-73.4298755789, 43.1826523638]}, "type": "Feature", "properties": {"collection_times": [{"days": "Mon-Fri", "time": "12:00pm"}, {"days": "Sat", "time": "11:00am"}, {"days": "Sun", "time": "Closed"}], "id": "1282300002", "name": "USPS COLLECTION BOX - PO LOBBY", "address": {"city": "COSSAYUNA", "state": "NY", "street": "703 COUNTY ROUTE 49", "postcode": "12823"}}},
{"geometry": {"type": "Point", "coordinates": [-73.6906077928, 43.4814350125]}, "type": "Feature", "properties": {"collection_times": [{"days": "Mon-Fri", "time": "4:30pm"}, {"days": "Sat", "time": "11:00am"}, {"days": "Sun", "time": "Closed"}], "id": "1282400001", "name": "USPS COLLECTION BOX - BLUE BOX", "address": {"city": "DIAMOND POINT", "state": "NY", "street": "801 DIAMOND POINT RD", "postcode": "12824"}}},
{"geometry": {"type": "Point", "coordinates": [-73.6906077928, 43.4814350125]}, "type": "Feature", "properties": {"collection_times": [{"days": "Mon-Fri", "time": "4:45pm"}, {"days": "Sat", "time": "11:00am"}, {"days": "Sun", "time": "Closed"}], "id": "1282400004", "name": "USPS COLLECTION BOX - PO LOBBY", "address": {"city": "DIAMOND POINT", "state": "NY", "street": "801 DIAMOND POINT RD", "postcode": "12824"}}},
{"geometry": {"type": "Point", "coordinates": [-73.4875051005, 43.4152529728]}, "type": "Feature", "properties": {"collection_times": [{"days": "Mon-Fri", "time": "5:00pm"}, {"days": "Sat", "time": "12:00pm"}, {"days": "Sun", "time": "Closed"}], "id": "1282700001", "name": "USPS COLLECTION BOX - PO LOBBY", "address": {"city": "FORT ANN", "state": "NY", "street": "86 GEORGE ST", "postcode": "12827"}}},
{"geometry": {"type": "Point", "coordinates": [-73.4875051005, 43.4152529728]}, "type": "Feature", "properties": {"collection_times": [{"days": "Mon-Fri", "time": "4:45pm"}, {"days": "Sat", "time": "11:45am"}, {"days": "Sun", "time": "Closed"}], "id": "1282700002", "name": "USPS COLLECTION BOX - BLUE BOX", "address": {"city": "FORT ANN", "state": "NY", "street": "86 GEORGE ST", "postcode": "12827"}}},
{"geometry": {"type": "Point", "coordinates": [-73.5857447603, 43.2681712947]}, "type": "Feature", "properties": {"collection_times": [{"days": "Mon-Fri", "time": "5:00pm"}, {"days": "Sat", "time": "2:45pm"}, {"days": "Sun", "time": "Closed"}], "id": "1282800002", "name": "USPS COLLECTION BOX - BLUE BOX", "address": {"city": "FORT EDWARD", "state": "NY", "street": "126 BROADWAY", "postcode": "12828"}}},
{"geometry": {"type": "Point", "coordinates": [-73.5865692254, 43.282875903]}, "type": "Feature", "properties": {"collection_times": [{"days": "Mon-Sat", "time": "11:00am"}, {"days": "Sun", "time": "Closed"}], "id": "1282800011", "name": "USPS COLLECTION BOX - BLUE BOX", "address": {"city": "FORT EDWARD", "state": "NY", "street": "343 BROADWAY", "postcode": "12828"}}},
{"geometry": {"type": "Point", "coordinates": [-73.5866712707, 43.2864874789]}, "type": "Feature", "properties": {"collection_times": [{"days": "Mon-Sat", "time": "11:00am"}, {"days": "Sun", "time": "Closed"}], "id": "1282800012", "name": "USPS COLLECTION BOX - BLUE BOX", "address": {"city": "FORT EDWARD", "state": "NY", "street": "383 BROADWAY", "postcode": "12828"}}},
{"geometry": {"type": "Point", "coordinates": [-73.6681333618, 43.2518523946]}, "type": "Feature", "properties": {"collection_times": [{"days": "Mon-Sat", "time": "9:00am"}, {"days": "Sun", "time": "Closed"}], "id": "1282800013", "name": "USPS COLLECTION BOX - BLUE BOX", "address": {"city": "FORT EDWARD", "state": "NY", "street": "1403 ROUTE 9", "postcode": "12828"}}},
{"geometry": {"type": "Point", "coordinates": [-73.5857447603, 43.2681712947]}, "type": "Feature", "properties": {"collection_times": [{"days": "Mon-Fri", "time": "4:45pm"}, {"days": "Sat", "time": "2:45pm"}, {"days": "Sun", "time": "Closed"}], "id": "1282800018", "name": "USPS COLLECTION BOX - PO LOBBY", "address": {"city": "FORT EDWARD", "state": "NY", "street": "126 BROADWAY", "postcode": "12828"}}},
{"geometry": {"type": "Point", "coordinates": [-73.652474169, 43.2515720617]}, "type": "Feature", "properties": {"collection_times": [{"days": "Mon-Sat", "time": "9:00am"}, {"days": "Sun", "time": "Closed"}], "id": "1282800019", "name": "USPS COLLECTION BOX - BLUE BOX", "address": {"city": "FORT EDWARD", "state": "NY", "street": "343 REYNOLDS RD", "postcode": "12828"}}},
{"geometry": {"type": "Point", "coordinates": [-73.5868883501, 43.2662606006]}, "type": "Feature", "properties": {"collection_times": [{"days": "Mon-Sat", "time": "10:00am"}, {"days": "Sun", "time": "Closed"}], "id": "1282800024", "name": "USPS COLLECTION BOX - BLUE BOX", "address": {"city": "FORT EDWARD", "state": "NY", "street": "351 REYNOLDS RD", "postcode": "12828"}}},
{"geometry": {"type": "Point", "coordinates": [-73.6459660908, 43.2021315674]}, "type": "Feature", "properties": {"collection_times": [{"days": "Mon-Fri", "time": "4:30pm"}, {"days": "Sat", "time": "12:00pm"}, {"days": "Sun", "time": "Closed"}], "id": "1283100001", "name": "USPS COLLECTION BOX - BLUE BOX", "address": {"city": "GANSEVOORT", "state": "NY", "street": "50 LEONARD ST", "postcode": "12831"}}},
{"geometry": {"type": "Point", "coordinates": [-73.7142640379, 43.1721379834]}, "type": "Feature", "properties": {"collection_times": [{"days": "Mon-Sat", "time": "10:00am"}, {"days": "Sun", "time": "Closed"}], "id": "1283100002", "name": "USPS COLLECTION BOX - BLUE BOX", "address": {"city": "GANSEVOORT", "state": "NY", "street": "100 GORDON LN", "postcode": "12831"}}},
{"geometry": {"type": "Point", "coordinates": [-73.7149581003, 43.1706469355]}, "type": "Feature", "properties": {"collection_times": [{"days": "Mon-Sat", "time": "10:00am"}, {"days": "Sun", "time": "Closed"}], "id": "1283100005", "name": "USPS COLLECTION BOX - BLUE BOX", "address": {"city": "GANSEVOORT", "state": "NY", "street": "215 BALLARD RD", "postcode": "12831"}}},
{"geometry": {"type": "Point", "coordinates": [-73.6880293271, 43.1965138569]}, "type": "Feature", "properties": {"collection_times": [{"days": "Mon-Sat", "time": "10:00am"}, {"days": "Sun", "time": "Closed"}], "id": "1283100006", "name": "USPS COLLECTION BOX - BLUE BOX", "address": {"city": "GANSEVOORT", "state": "NY", "street": "19 ELM ST", "postcode": "12831"}}},
{"geometry": {"type": "Point", "coordinates": [-73.6459660908, 43.2021315674]}, "type": "Feature", "properties": {"collection_times": [{"days": "Mon-Fri", "time": "4:30pm"}, {"days": "Sat", "time": "12:00pm"}, {"days": "Sun", "time": "Closed"}], "id": "1283100010", "name": "USPS COLLECTION BOX - PO LOBBY", "address": {"city": "GANSEVOORT", "state": "NY", "street": "50 LEONARD ST", "postcode": "12831"}}},
{"geometry": {"type": "Point", "coordinates": [-73.7576833284, 43.1588747659]}, "type": "Feature", "properties": {"collection_times": [{"days": "Mon-Sat", "time": "9:30am"}, {"days": "Sun", "time": "Closed"}], "id": "1283100014", "name": "USPS COLLECTION BOX - BLUE BOX", "address": {"city": "GANSEVOORT", "state": "NY", "street": "654 SARATOGA RD", "postcode": "12831"}}},
{"geometry": {"type": "Point", "coordinates": [-73.2660296247, 43.4082311458]}, "type": "Feature", "properties": {"collection_times": [{"days": "Mon-Sat", "time": "11:00am"}, {"days": "Sun", "time": "Closed"}], "id": "1283200003", "name": "USPS COLLECTION BOX - BLUE BOX", "address": {"city": "GRANVILLE", "state": "NY", "street": "26 METTOWEE ST", "postcode": "12832"}}},
{"geometry": {"type": "Point", "coordinates": [-73.2658013137, 43.4029468681]}, "type": "Feature", "properties": {"collection_times": [{"days": "Mon-Sat", "time": "12:00pm"}, {"days": "Sun", "time": "Closed"}], "id": "1283200007", "name": "USPS COLLECTION BOX - BLUE BOX", "address": {"city": "GRANVILLE", "state": "NY", "street": "41 QUAKER ST", "postcode": "12832"}}},
{"geometry": {"type": "Point", "coordinates": [-73.2550801566, 43.4073687688]}, "type": "Feature", "properties": {"collection_times": [{"days": "Mon-Fri", "time": "5:00pm"}, {"days": "Sat", "time": "3:00pm"}, {"days": "Sun", "time": "Closed"}], "id": "1283200019", "name": "USPS COLLECTION BOX - BLUE BOX", "address": {"city": "GRANVILLE", "state": "NY", "street": "41 MAIN ST", "postcode": "12832"}}},
{"geometry": {"type": "Point", "coordinates": [-73.2646896048, 43.3948881747]}, "type": "Feature", "properties": {"collection_times": [{"days": "Mon-Sat", "time": "8:30am"}, {"days": "Sun", "time": "Closed"}], "id": "1283200021", "name": "USPS COLLECTION BOX - BLUE BOX", "address": {"city": "GRANVILLE", "state": "NY", "street": "8648 STATE ROUTE 22", "postcode": "12832"}}},
{"geometry": {"type": "Point", "coordinates": [-73.2550801566, 43.4073687688]}, "type": "Feature", "properties": {"collection_times": [{"days": "Mon-Fri", "time": "4:00pm"}, {"days": "Sat", "time": "3:00pm"}, {"days": "Sun", "time": "Closed"}], "id": "1283200022", "name": "USPS COLLECTION BOX - PO LOBBY", "address": {"city": "GRANVILLE", "state": "NY", "street": "41 MAIN ST", "postcode": "12832"}}},
{"geometry": {"type": "Point", "coordinates": [-73.8460911873, 43.1283761776]}, "type": "Feature", "properties": {"collection_times": [{"days": "Mon-Fri", "time": "4:00pm"}, {"days": "Sat", "time": "11:30am"}, {"days": "Sun", "time": "Closed"}], "id": "1283300001", "name": "USPS COLLECTION BOX - BLUE BOX", "address": {"city": "GREENFLD CTR", "state": "NY", "street": "20 WILTON RD", "postcode": "12833"}}},
{"geometry": {"type": "Point", "coordinates": [-73.8460911873, 43.1283761776]}, "type": "Feature", "properties": {"collection_times": [{"days": "Mon-Fri", "time": "4:00pm"}, {"days": "Sat", "time": "11:30am"}, {"days": "Sun", "time": "Closed"}], "id": "1283300002", "name": "USPS COLLECTION BOX - PO LOBBY", "address": {"city": "GREENFLD CTR", "state": "NY", "street": "20 WILTON RD", "postcode": "12833"}}},
{"geometry": {"type": "Point", "coordinates": [-73.8460911873, 43.1283761776]}, "type": "Feature", "properties": {"collection_times": [{"days": "Mon-Fri", "time": "4:00pm"}, {"days": "Sat", "time": "11:30am"}, {"days": "Sun", "time": "Closed"}], "id": "1283300003", "name": "USPS COLLECTION BOX - PO LOBBY", "address": {"city": "GREENFLD CTR", "state": "NY", "street": "20 WILTON RD", "postcode": "12833"}}},
{"geometry": {"type": "Point", "coordinates": [-73.4972725807, 43.0884515494]}, "type": "Feature", "properties": {"collection_times": [{"days": "Mon-Fri", "time": "5:00pm"}, {"days": "Sat", "time": "3:30pm"}, {"days": "Sun", "time": "Closed"}], "id": "1283400001", "name": "USPS COLLECTION BOX - BLUE BOX", "address": {"city": "GREENWICH", "state": "NY", "street": "39 MAIN ST", "postcode": "12834"}}},
{"geometry": {"type": "Point", "coordinates": [-73.4972725807, 43.0884515494]}, "type": "Feature", "properties": {"collection_times": [{"days": "Mon-Fri", "time": "5:00pm"}, {"days": "Sat", "time": "3:30pm"}, {"days": "Sun", "time": "Closed"}], "id": "1283400002", "name": "USPS COLLECTION BOX - BLUE BOX", "address": {"city": "GREENWICH", "state": "NY", "street": "39 MAIN ST", "postcode": "12834"}}},
{"geometry": {"type": "Point", "coordinates": [-73.5030899976, 43.0898114098]}, "type": "Feature", "properties": {"collection_times": [{"days": "Mon-Sat", "time": "9:00am"}, {"days": "Sun", "time": "Closed"}], "id": "1283400005", "name": "USPS COLLECTION BOX - BLUE BOX", "address": {"city": "GREENWICH", "state": "NY", "street": "36 BLEEKER ST", "postcode": "12834"}}},
{"geometry": {"type": "Point", "coordinates": [-73.4995347061, 43.0904544407]}, "type": "Feature", "properties": {"collection_times": [{"days": "Mon-Fri", "time": "2:00pm"}, {"days": "Sat", "time": "9:00am"}, {"days": "Sun", "time": "Closed"}], "id": "1283400016", "name": "USPS COLLECTION BOX - BLUE BOX", "address": {"city": "GREENWICH", "state": "NY", "street": "131 MAIN ST", "postcode": "12834"}}},
{"geometry": {"type": "Point", "coordinates": [-73.5146217998, 43.1019561633]}, "type": "Feature", "properties": {"collection_times": [{"days": "Mon-Fri", "time": "10:00am"}, {"days": "Sat", "time": "9:00am"}, {"days": "Sun", "time": "Closed"}], "id": "1283400017", "name": "USPS COLLECTION BOX - BLUE BOX", "address": {"city": "GREENWICH", "state": "NY", "street": "1165 STATE ROUTE 29", "postcode": "12834"}}},
{"geometry": {"type": "Point", "coordinates": [-73.4972725807, 43.0884515494]}, "type": "Feature", "properties": {"collection_times": [{"days": "Mon-Fri", "time": "4:30pm"}, {"days": "Sat", "time": "3:30pm"}, {"days": "Sun", "time": "Closed"}], "id": "1283400019", "name": "USPS COLLECTION BOX - PO LOBBY", "address": {"city": "GREENWICH", "state": "NY", "street": "39 MAIN ST", "postcode": "12834"}}},
{"geometry": {"type": "Point", "coordinates": [-73.8466703879, 43.3152403811]}, "type": "Feature", "properties": {"collection_times": [{"days": "Mon-Fri", "time": "4:00pm"}, {"days": "Sat", "time": "11:30am"}, {"days": "Sun", "time": "Closed"}], "id": "1283500001", "name": "USPS COLLECTION BOX - BLUE BOX", "address": {"city": "HADLEY", "state": "NY", "street": "343 OLD CORINTH RD", "postcode": "12835"}}},
{"geometry": {"type": "Point", "coordinates": [-73.846650212, 43.315331514]}, "type": "Feature", "properties": {"collection_times": [{"days": "Mon-Fri", "time": "3:00pm"}, {"days": "Sat", "time": "11:30am"}, {"days": "Sun", "time": "Closed"}], "id": "1283500003", "name": "USPS COLLECTION BOX - PO LOBBY", "address": {"city": "HADLEY", "state": "NY", "street": "343 OLD CORINTH RD", "postcode": "12835"}}},
{"geometry": {"type": "Point", "coordinates": [-73.4997280554, 43.7461250856]}, "type": "Feature", "properties": {"collection_times": [{"days": "Mon-Fri", "time": "4:00pm"}, {"days": "Sat", "time": "11:30am"}, {"days": "Sun", "time": "Closed"}], "id": "1283600001", "name": "USPS COLLECTION BOX - BLUE BOX", "address": {"city": "HAGUE", "state": "NY", "street": "9840 GRAPHITE MOUNTAIN RD", "postcode": "12836"}}},
{"geometry": {"type": "Point", "coordinates": [-73.499728055, 43.746125086]}, "type": "Feature", "properties": {"collection_times": [{"days": "Mon-Fri", "time": "3:00pm"}, {"days": "Sat", "time": "11:30am"}, {"days": "Sun", "time": "Closed"}], "id": "1283600002", "name": "USPS COLLECTION BOX - PO LOBBY", "address": {"city": "HAGUE", "state": "NY", "street": "9840 GRAPHITE MOUNTAIN RD", "postcode": "12836"}}},
{"geometry": {"type": "Point", "coordinates": [-73.2535977371, 43.5240629407]}, "type": "Feature", "properties": {"collection_times": [{"days": "Mon-Fri", "time": "4:00pm"}, {"days": "Sat", "time": "11:00am"}, {"days": "Sun", "time": "Closed"}], "id": "1283700001", "name": "USPS COLLECTION BOX - BLUE BOX", "address": {"city": "HAMPTON", "state": "NY", "street": "2522 COUNTY ROUTE 18", "postcode": "12837"}}},
{"geometry": {"type": "Point", "coordinates": [-73.2535977371, 43.5240629407]}, "type": "Feature", "properties": {"collection_times": [{"days": "Mon-Fri", "time": "1:00pm"}, {"days": "Sat", "time": "11:30am"}, {"days": "Sun", "time": "Closed"}], "id": "1283700002", "name": "USPS COLLECTION BOX - PO LOBBY", "address": {"city": "HAMPTON", "state": "NY", "street": "2522 COUNTY ROUTE 18", "postcode": "12837"}}},
{"geometry": {"type": "Point", "coordinates": [-73.4044917869, 43.3361542911]}, "type": "Feature", "properties": {"collection_times": [{"days": "Mon-Fri", "time": "4:15pm"}, {"days": "Sat", "time": "11:15am"}, {"days": "Sun", "time": "Closed"}], "id": "1283800001", "name": "USPS COLLECTION BOX - BLUE BOX", "address": {"city": "HARTFORD", "state": "NY", "street": "46 COUNTY ROUTE 23", "postcode": "12838"}}},
{"geometry": {"type": "Point", "coordinates": [-73.393410468, 43.364043415]}, "type": "Feature", "properties": {"collection_times": [{"days": "Mon-Fri", "time": "4:30pm"}, {"days": "Sat", "time": "11:45am"}, {"days": "Sun", "time": "Closed"}], "id": "1283800002", "name": "USPS COLLECTION BOX - PO LOBBY", "address": {"city": "HARTFORD", "state": "NY", "street": "46 COUNTY ROUTE 23", "postcode": "12838"}}},
{"geometry": {"type": "Point", "coordinates": [-73.5854088135, 43.299698183]}, "type": "Feature", "properties": {"collection_times": [{"days": "Mon-Fri", "time": "5:00pm"}, {"days": "Sat", "time": "3:00pm"}, {"days": "Sun", "time": "Closed"}], "id": "1283900021", "name": "USPS COLLECTION BOX - BLUE BOX", "address": {"city": "HUDSON FALLS", "state": "NY", "street": "114 MAIN ST", "postcode": "12839"}}},
{"geometry": {"type": "Point", "coordinates": [-73.5710937659, 43.3188213991]}, "type": "Feature", "properties": {"collection_times": [{"days": "Mon-Sat", "time": "9:00am"}, {"days": "Sun", "time": "Closed"}], "id": "1283900022", "name": "USPS COLLECTION BOX - BLUE BOX", "address": {"city": "HUDSON FALLS", "state": "NY", "street": "3758 BURGOYNE AVE", "postcode": "12839"}}},
{"geometry": {"type": "Point", "coordinates": [-73.5846412637, 43.3035846875]}, "type": "Feature", "properties": {"collection_times": [{"days": "Mon-Sat", "time": "8:00am"}, {"days": "Sun", "time": "Closed"}], "id": "1283900028", "name": "USPS COLLECTION BOX - BLUE BOX", "address": {"city": "HUDSON FALLS", "state": "NY", "street": "220 MAIN ST", "postcode": "12839"}}},
{"geometry": {"type": "Point", "coordinates": [-73.5854088135, 43.299698183]}, "type": "Feature", "properties": {"collection_times": [{"days": "Mon-Fri", "time": "4:30pm"}, {"days": "Sat", "time": "3:00pm"}, {"days": "Sun", "time": "Closed"}], "id": "1283900043", "name": "USPS COLLECTION BOX - PO LOBBY", "address": {"city": "HUDSON FALLS", "state": "NY", "street": "114 MAIN ST", "postcode": "12839"}}},
{"geometry": {"type": "Point", "coordinates": [-73.5640553666, 43.3061047048]}, "type": "Feature", "properties": {"collection_times": [{"days": "Mon-Sat", "time": "11:00am"}, {"days": "Sun", "time": "Closed"}], "id": "1283900051", "name": "USPS COLLECTION BOX - BLUE BOX", "address": {"city": "HUDSON FALLS", "state": "NY", "street": "1075 STATE ROUTE 196", "postcode": "12839"}}},
{"geometry": {"type": "Point", "coordinates": [-73.5778063583, 43.313266834]}, "type": "Feature", "properties": {"collection_times": [{"days": "Mon-Sat", "time": "8:00am"}, {"days": "Sun", "time": "Closed"}], "id": "1283900052", "name": "USPS COLLECTION BOX - BLUE BOX", "address": {"city": "HUDSON FALLS", "state": "NY", "street": "343 MAIN ST", "postcode": "12839"}}},
{"geometry": {"type": "Point", "coordinates": [-73.552122716, 43.3468002331]}, "type": "Feature", "properties": {"collection_times": [{"days": "Mon-Sat", "time": "8:00am"}, {"days": "Sun", "time": "Closed"}], "id": "1283900053", "name": "USPS COLLECTION BOX - BLUE BOX", "address": {"city": "HUDSON FALLS", "state": "NY", "street": "1 QUEENS DR", "postcode": "12839"}}},
{"geometry": {"type": "Point", "coordinates": [-73.5068110403, 43.638944889]}, "type": "Feature", "properties": {"collection_times": [{"days": "Mon-Fri", "time": "3:45pm"}, {"days": "Sat", "time": "11:45am"}, {"days": "Sun", "time": "Closed"}], "id": "1284100001", "name": "USPS COLLECTION BOX - BLUE BOX", "address": {"city": "HULETTS LANDING", "state": "NY", "street": "962 COUNTY ROUTE 6", "postcode": "12841"}}},
{"geometry": {"type": "Point", "coordinates": [-73.5084261382, 43.6414756151]}, "type": "Feature", "properties": {"collection_times": [{"days": "Mon-Fri", "time": "1:00pm"}, {"days": "Sat", "time": "11:45am"}, {"days": "Sun", "time": "Closed"}], "id": "1284100002", "name": "USPS COLLECTION BOX - PO LOBBY", "address": {"city": "HULETTS LANDING", "state": "NY", "street": "962 COUNTY ROUTE 6", "postcode": "12841"}}},
{"geometry": {"type": "Point", "coordinates": [-74.2537418528, 43.781098801]}, "type": "Feature", "properties": {"collection_times": [{"days": "Mon-Fri", "time": "4:00pm"}, {"days": "Sat", "time": "11:00am"}, {"days": "Sun", "time": "Closed"}], "id": "1284200001", "name": "USPS COLLECTION BOX - BLUE BOX", "address": {"city": "INDIAN LAKE", "state": "NY", "street": "1 MAIN ST", "postcode": "12842"}}},
{"geometry": {"type": "Point", "coordinates": [-74.2537418528, 43.781098801]}, "type": "Feature", "properties": {"collection_times": [{"days": "Mon-Fri", "time": "4:00pm"}, {"days": "Sat", "time": "11:15am"}, {"days": "Sun", "time": "Closed"}], "id": "1284200003", "name": "USPS COLLECTION BOX - PO LOBBY", "address": {"city": "INDIAN LAKE", "state": "NY", "street": "1 MAIN ST", "postcode": "12842"}}},
{"geometry": {"type": "Point", "coordinates": [-74.2537418528, 43.781098801]}, "type": "Feature", "properties": {"collection_times": [{"days": "Mon-Fri", "time": "4:00pm"}, {"days": "Sat", "time": "11:15am"}, {"days": "Sun", "time": "Closed"}], "id": "1284200005", "name": "USPS COLLECTION BOX - PO LOBBY", "address": {"city": "INDIAN LAKE", "state": "NY", "street": "1 MAIN ST", "postcode": "12842"}}},
{"geometry": {"type": "Point", "coordinates": [-74.0804643554, 43.5950284243]}, "type": "Feature", "properties": {"collection_times": [{"days": "Mon-Fri", "time": "4:00pm"}, {"days": "Sat", "time": "11:45am"}, {"days": "Sun", "time": "Closed"}], "id": "1284300001", "name": "USPS COLLECTION BOX - BLUE BOX", "address": {"city": "JOHNSBURG", "state": "NY", "street": "3462 NYS RTE 8", "postcode": "12843"}}},
{"geometry": {"type": "Point", "coordinates": [-74.0804643554, 43.5950284243]}, "type": "Feature", "properties": {"collection_times": [{"days": "Mon-Fri", "time": "12:00pm"}, {"days": "Sat", "time": "11:45am"}, {"days": "Sun", "time": "Closed"}], "id": "1284300002", "name": "USPS COLLECTION BOX - PO LOBBY", "address": {"city": "JOHNSBURG", "state": "NY", "street": "3462 NYS RTE 8", "postcode": "12843"}}},
{"geometry": {"type": "Point", "coordinates": [-73.6274874683, 43.4931463063]}, "type": "Feature", "properties": {"collection_times": [{"days": "Mon-Fri", "time": "12:30pm"}, {"days": "Sat", "time": "12:00pm"}, {"days": "Sun", "time": "Closed"}], "id": "1284400001", "name": "USPS COLLECTION BOX - PO LOBBY", "address": {"city": "KATTSKILL BAY", "state": "NY", "street": "1488 PILOT KNOB RD", "postcode": "12844"}}},
{"geometry": {"type": "Point", "coordinates": [-73.6274874683, 43.4931463063]}, "type": "Feature", "properties": {"collection_times": [{"days": "Mon-Fri", "time": "4:00pm"}, {"days": "Sat", "time": "11:45am"}, {"days": "Sun", "time": "Closed"}], "id": "1284400002", "name": "USPS COLLECTION BOX - BLUE BOX", "address": {"city": "KATTSKILL BAY", "state": "NY", "street": "1488 PILOT KNOB RD", "postcode": "12844"}}},
{"geometry": {"type": "Point", "coordinates": [-73.7116620964, 43.4283793029]}, "type": "Feature", "properties": {"collection_times": [{"days": "Mon-Sat", "time": "10:00am"}, {"days": "Sun", "time": "Closed"}], "id": "1284500005", "name": "USPS COLLECTION BOX - BLUE BOX", "address": {"city": "LAKE GEORGE", "state": "NY", "street": "381 CANADA ST", "postcode": "12845"}}},
{"geometry": {"type": "Point", "coordinates": [-73.7141439252, 43.4265769913]}, "type": "Feature", "properties": {"collection_times": [{"days": "Mon-Sat", "time": "9:00am"}, {"days": "Sun", "time": "Closed"}], "id": "1284500006", "name": "USPS COLLECTION BOX - BLUE BOX", "address": {"city": "LAKE GEORGE", "state": "NY", "street": "59 AMHERST ST", "postcode": "12845"}}},
{"geometry": {"type": "Point", "coordinates": [-73.6998585319, 43.3656079514]}, "type": "Feature", "properties": {"collection_times": [{"days": "Mon-Sat", "time": "10:30am"}, {"days": "Sun", "time": "Closed"}], "id": "1284500010", "name": "USPS COLLECTION BOX - BLUE BOX", "address": {"city": "LAKE GEORGE", "state": "NY", "street": "1439 STATE ROUTE 9", "postcode": "12845"}}},
{"geometry": {"type": "Point", "coordinates": [-73.7015525291, 43.3601485957]}, "type": "Feature", "properties": {"collection_times": [{"days": "Mon-Fri", "time": "11:00am"}, {"days": "Sat-Sun", "time": "Closed"}], "id": "1284500011", "name": "USPS COLLECTION BOX - BLUE BOX", "address": {"city": "LAKE GEORGE", "state": "NY", "street": "1340 STATE ROUTE 9", "postcode": "12845"}}},
{"geometry": {"type": "Point", "coordinates": [-73.7134542793, 43.423822545]}, "type": "Feature", "properties": {"collection_times": [{"days": "Mon-Fri", "time": "3:00pm"}, {"days": "Sat", "time": "12:15pm"}, {"days": "Sun", "time": "Closed"}], "id": "1284500020", "name": "USPS COLLECTION BOX - PO LOBBY", "address": {"city": "LAKE GEORGE", "state": "NY", "street": "180 CANADA ST", "postcode": "12845"}}},
{"geometry": {"type": "Point", "coordinates": [-73.7134542793, 43.423822545]}, "type": "Feature", "properties": {"collection_times": [{"days": "Mon-Fri", "time": "5:00pm"}, {"days": "Sat", "time": "11:00am"}, {"days": "Sun", "time": "Closed"}], "id": "1284500021", "name": "USPS COLLECTION BOX - BLUE BOX", "address": {"city": "LAKE GEORGE", "state": "NY", "street": "180 CANADA ST", "postcode": "12845"}}},
{"geometry": {"type": "Point", "coordinates": [-73.8395608455, 43.3167357001]}, "type": "Feature", "properties": {"collection_times": [{"days": "Mon-Fri", "time": "3:45pm"}, {"days": "Sat", "time": "11:30am"}, {"days": "Sun", "time": "Closed"}], "id": "1284600001", "name": "USPS COLLECTION BOX - BLUE BOX", "address": {"city": "LAKE LUZERNE", "state": "NY", "street": "8 SCHOOL ST", "postcode": "12846"}}},
{"geometry": {"type": "Point", "coordinates": [-73.8395608455, 43.3167357001]}, "type": "Feature", "properties": {"collection_times": [{"days": "Mon-Fri", "time": "4:30pm"}, {"days": "Sat", "time": "12:15pm"}, {"days": "Sun", "time": "Closed"}], "id": "1284600003", "name": "USPS COLLECTION BOX - PO LOBBY", "address": {"city": "LAKE LUZERNE", "state": "NY", "street": "8 SCHOOL ST", "postcode": "12846"}}},
{"geometry": {"type": "Point", "coordinates": [-74.4999087008, 43.9021608455]}, "type": "Feature", "properties": {"collection_times": [{"days": "Mon-Fri", "time": "3:30pm"}, {"days": "Sat", "time": "11:30am"}, {"days": "Sun", "time": "Closed"}], "id": "1284700001", "name": "USPS COLLECTION BOX - BLUE BOX", "address": {"city": "LONG LAKE", "state": "NY", "street": "1095 DEERLAND RD", "postcode": "12847"}}},
{"geometry": {"type": "Point", "coordinates": [-74.4999087008, 43.9021608455]}, "type": "Feature", "properties": {"collection_times": [{"days": "Mon-Fri", "time": "3:45pm"}, {"days": "Sat", "time": "12:00pm"}, {"days": "Sun", "time": "Closed"}], "id": "1284700002", "name": "USPS COLLECTION BOX - PO LOBBY", "address": {"city": "LONG LAKE", "state": "NY", "street": "1095 DEERLAND RD", "postcode": "12847"}}},
{"geometry": {"type": "Point", "coordinates": [-74.4999087008, 43.9021608455]}, "type": "Feature", "properties": {"collection_times": [{"days": "Mon-Fri", "time": "3:45pm"}, {"days": "Sat", "time": "12:00pm"}, {"days": "Sun", "time": "Closed"}], "id": "1284700003", "name": "USPS COLLECTION BOX - PO LOBBY", "address": {"city": "LONG LAKE", "state": "NY", "street": "1095 DEERLAND RD", "postcode": "12847"}}},
{"geometry": {"type": "Point", "coordinates": [-73.5244174082, 43.1008254071]}, "type": "Feature", "properties": {"collection_times": [{"days": "Mon-Fri", "time": "4:00pm"}, {"days": "Sat", "time": "11:30am"}, {"days": "Sun", "time": "Closed"}], "id": "1284800001", "name": "USPS COLLECTION BOX - BLUE BOX", "address": {"city": "MIDDLE FALLS", "state": "NY", "street": "1079 STATE ROUTE 29", "postcode": "12848"}}},
{"geometry": {"type": "Point", "coordinates": [-73.5244174082, 43.1008254071]}, "type": "Feature", "properties": {"collection_times": [{"days": "Mon-Fri", "time": "11:45am"}, {"days": "Sat", "time": "11:30am"}, {"days": "Sun", "time": "Closed"}], "id": "1284800002", "name": "USPS COLLECTION BOX - PO LOBBY", "address": {"city": "MIDDLE FALLS", "state": "NY", "street": "1079 STATE ROUTE 29", "postcode": "12848"}}},
{"geometry": {"type": "Point", "coordinates": [-73.2830748805, 43.4337274604]}, "type": "Feature", "properties": {"collection_times": [{"days": "Mon-Fri", "time": "4:00pm"}, {"days": "Sat", "time": "11:30am"}, {"days": "Sun", "time": "Closed"}], "id": "1284900001", "name": "USPS COLLECTION BOX - BLUE BOX", "address": {"city": "MDL GRANVILLE", "state": "NY", "street": "5 RIVERSIDE DR", "postcode": "12849"}}},
{"geometry": {"type": "Point", "coordinates": [-73.2830351682, 43.4337653067]}, "type": "Feature", "properties": {"collection_times": [{"days": "Mon-Fri", "time": "4:15pm"}, {"days": "Sat", "time": "11:45am"}, {"days": "Sun", "time": "Closed"}], "id": "1284900002", "name": "USPS COLLECTION BOX - PO LOBBY", "address": {"city": "MDL GRANVILLE", "state": "NY", "street": "5 RIVERSIDE DR", "postcode": "12849"}}},
{"geometry": {"type": "Point", "coordinates": [-73.9180499584, 43.0900066892]}, "type": "Feature", "properties": {"collection_times": [{"days": "Mon-Fri", "time": "4:30pm"}, {"days": "Sat", "time": "11:45am"}, {"days": "Sun", "time": "Closed"}], "id": "1285000001", "name": "USPS COLLECTION BOX - BLUE BOX", "address": {"city": "MIDDLE GROVE", "state": "NY", "street": "3B LAKE DESOLATION RD", "postcode": "12850"}}},
{"geometry": {"type": "Point", "coordinates": [-73.9180499584, 43.0900066892]}, "type": "Feature", "properties": {"collection_times": [{"days": "Mon-Fri", "time": "4:30pm"}, {"days": "Sat", "time": "11:45am"}, {"days": "Sun", "time": "Closed"}], "id": "1285000002", "name": "USPS COLLECTION BOX - PO LOBBY", "address": {"city": "MIDDLE GROVE", "state": "NY", "street": "3B LAKE DESOLATION RD", "postcode": "12850"}}},
{"geometry": {"type": "Point", "coordinates": [-73.9838763327, 43.7908450276]}, "type": "Feature", "properties": {"collection_times": [{"days": "Mon-Fri", "time": "4:00pm"}, {"days": "Sat", "time": "12:00pm"}, {"days": "Sun", "time": "Closed"}], "id": "1285100001", "name": "USPS COLLECTION BOX - BLUE BOX", "address": {"city": "MINERVA", "state": "NY", "street": "1709 STATE ROUTE 28N", "postcode": "12851"}}},
{"geometry": {"type": "Point", "coordinates": [-73.9838763327, 43.7908450276]}, "type": "Feature", "properties": {"collection_times": [{"days": "Mon-Fri", "time": "2:00pm"}, {"days": "Sat", "time": "12:00pm"}, {"days": "Sun", "time": "Closed"}], "id": "1285100002", "name": "USPS COLLECTION BOX - PO LOBBY", "address": {"city": "MINERVA", "state": "NY", "street": "1709 STATE ROUTE 28N", "postcode": "12851"}}},
{"geometry": {"type": "Point", "coordinates": [-74.122354636, 43.9650426214]}, "type": "Feature", "properties": {"collection_times": [{"days": "Mon-Fri", "time": "4:00pm"}, {"days": "Sat", "time": "11:45am"}, {"days": "Sun", "time": "Closed"}], "id": "1285200002", "name": "USPS COLLECTION BOX - PO LOBBY", "address": {"city": "NEWCOMB", "state": "NY", "street": "28 BISSELL LOOP", "postcode": "12852"}}},
{"geometry": {"type": "Point", "coordinates": [-73.9855312923, 43.6996542698]}, "type": "Feature", "properties": {"collection_times": [{"days": "Mon-Fri", "time": "4:30pm"}, {"days": "Sat", "time": "11:30am"}, {"days": "Sun", "time": "Closed"}], "id": "1285300001", "name": "USPS COLLECTION BOX - BLUE BOX", "address": {"city": "NORTH CREEK", "state": "NY", "street": "26 CIRCLE AVE", "postcode": "12853"}}},
{"geometry": {"type": "Point", "coordinates": [-73.9855312923, 43.6996542698]}, "type": "Feature", "properties": {"collection_times": [{"days": "Mon-Fri", "time": "4:30pm"}, {"days": "Sat", "time": "11:30am"}, {"days": "Sun", "time": "Closed"}], "id": "1285300003", "name": "USPS COLLECTION BOX - PO LOBBY", "address": {"city": "NORTH CREEK", "state": "NY", "street": "26 CIRCLE AVE", "postcode": "12853"}}},
{"geometry": {"type": "Point", "coordinates": [-73.3521387007, 43.499950912]}, "type": "Feature", "properties": {"collection_times": [{"days": "Mon-Sat", "time": "12:00pm"}, {"days": "Sun", "time": "Closed"}], "id": "1285400002", "name": "USPS COLLECTION BOX - PO LOBBY", "address": {"city": "NORTH GRANVILLE", "state": "NY", "street": "10217 STATE ROUTE 22", "postcode": "12854"}}},
{"geometry": {"type": "Point", "coordinates": [-73.3521387007, 43.499950912]}, "type": "Feature", "properties": {"collection_times": [{"days": "Mon-Fri", "time": "4:15pm"}, {"days": "Sat", "time": "11:30am"}, {"days": "Sun", "time": "Closed"}], "id": "1285400003", "name": "USPS COLLECTION BOX - BLUE BOX", "address": {"city": "NORTH GRANVILLE", "state": "NY", "street": "10217 STATE ROUTE 22", "postcode": "12854"}}},
{"geometry": {"type": "Point", "coordinates": [-73.7270878813, 43.9545334255]}, "type": "Feature", "properties": {"collection_times": [{"days": "Mon-Fri", "time": "4:00pm"}, {"days": "Sat", "time": "11:45am"}, {"days": "Sun", "time": "Closed"}], "id": "1285500001", "name": "USPS COLLECTION BOX - BLUE BOX", "address": {"city": "NORTH HUDSON", "state": "NY", "street": "2940 ROUTE 9", "postcode": "12855"}}},
{"geometry": {"type": "Point", "coordinates": [-73.7270878813, 43.9545334255]}, "type": "Feature", "properties": {"collection_times": [{"days": "Mon-Fri", "time": "12:00pm"}, {"days": "Sat", "time": "11:45am"}, {"days": "Sun", "time": "Closed"}], "id": "1285500002", "name": "USPS COLLECTION BOX - PO LOBBY", "address": {"city": "NORTH HUDSON", "state": "NY", "street": "2940 ROUTE 9", "postcode": "12855"}}},
{"geometry": {"type": "Point", "coordinates": [-74.0489953882, 43.7383728449]}, "type": "Feature", "properties": {"collection_times": [{"days": "Mon-Fri", "time": "4:00pm"}, {"days": "Sat", "time": "10:45am"}, {"days": "Sun", "time": "Closed"}], "id": "1285600001", "name": "USPS COLLECTION BOX - BLUE BOX", "address": {"city": "NORTH RIVER", "state": "NY", "street": "4631 STATE ROUTE 28", "postcode": "12856"}}},
{"geometry": {"type": "Point", "coordinates": [-74.0489953882, 43.7383728449]}, "type": "Feature", "properties": {"collection_times": [{"days": "Mon-Fri", "time": "12:00pm"}, {"days": "Sat", "time": "11:45am"}, {"days": "Sun", "time": "Closed"}], "id": "1285600002", "name": "USPS COLLECTION BOX - PO LOBBY", "address": {"city": "NORTH RIVER", "state": "NY", "street": "4631 STATE ROUTE 28", "postcode": "12856"}}},
{"geometry": {"type": "Point", "coordinates": [-73.9312464884, 43.7710872469]}, "type": "Feature", "properties": {"collection_times": [{"days": "Mon-Fri", "time": "4:15pm"}, {"days": "Sat", "time": "12:00pm"}, {"days": "Sun", "time": "Closed"}], "id": "1285700001", "name": "USPS COLLECTION BOX - BLUE BOX", "address": {"city": "OLMSTEDVILLE", "state": "NY", "street": "622 CHURCH RD", "postcode": "12857"}}},
{"geometry": {"type": "Point", "coordinates": [-73.9312464884, 43.7710872469]}, "type": "Feature", "properties": {"collection_times": [{"days": "Mon-Fri", "time": "4:30pm"}, {"days": "Sat", "time": "12:00pm"}, {"days": "Sun", "time": "Closed"}], "id": "1285700002", "name": "USPS COLLECTION BOX - PO LOBBY", "address": {"city": "OLMSTEDVILLE", "state": "NY", "street": "622 CHURCH RD", "postcode": "12857"}}},
{"geometry": {"type": "Point", "coordinates": [-73.8872995628, 43.1492293782]}, "type": "Feature", "properties": {"collection_times": [{"days": "Mon-Fri", "time": "4:15pm"}, {"days": "Sat", "time": "11:00am"}, {"days": "Sun", "time": "Closed"}], "id": "1285900001", "name": "USPS COLLECTION BOX - BLUE BOX", "address": {"city": "PORTER CORNERS", "state": "NY", "street": "515 ALLEN RD", "postcode": "12859"}}},
{"geometry": {"type": "Point", "coordinates": [-73.8875492412, 43.1495519166]}, "type": "Feature", "properties": {"collection_times": [{"days": "Mon-Fri", "time": "12:00pm"}, {"days": "Sat", "time": "11:00am"}, {"days": "Sun", "time": "Closed"}], "id": "1285900002", "name": "USPS COLLECTION BOX - PO LOBBY", "address": {"city": "PORTER CORNERS", "state": "NY", "street": "515 ALLEN RD", "postcode": "12859"}}},
{"geometry": {"type": "Point", "coordinates": [-73.8246465072, 43.7235985422]}, "type": "Feature", "properties": {"collection_times": [{"days": "Mon-Fri", "time": "4:00pm"}, {"days": "Sat", "time": "11:45am"}, {"days": "Sun", "time": "Closed"}], "id": "1286000001", "name": "USPS COLLECTION BOX - BLUE BOX", "address": {"city": "POTTERSVILLE", "state": "NY", "street": "37 VALLEY FARM RD", "postcode": "12860"}}},
{"geometry": {"type": "Point", "coordinates": [-73.8246465072, 43.7235985422]}, "type": "Feature", "properties": {"collection_times": [{"days": "Mon-Fri", "time": "12:30pm"}, {"days": "Sat", "time": "11:45am"}, {"days": "Sun", "time": "Closed"}], "id": "1286000002", "name": "USPS COLLECTION BOX - PO LOBBY", "address": {"city": "POTTERSVILLE", "state": "NY", "street": "37 VALLEY FARM RD", "postcode": "12860"}}},
{"geometry": {"type": "Point", "coordinates": [-73.4020971138, 43.7416753382]}, "type": "Feature", "properties": {"collection_times": [{"days": "Mon-Fri", "time": "3:00pm"}, {"days": "Sat", "time": "11:30am"}, {"days": "Sun", "time": "Closed"}], "id": "1286100001", "name": "USPS COLLECTION BOX - BLUE BOX", "address": {"city": "PUTNAM STATION", "state": "NY", "street": "16783 STATE ROUTE 22", "postcode": "12861"}}},
{"geometry": {"type": "Point", "coordinates": [-73.4019857496, 43.7418904497]}, "type": "Feature", "properties": {"collection_times": [{"days": "Mon-Fri", "time": "12:00pm"}, {"days": "Sat", "time": "11:30am"}, {"days": "Sun", "time": "Closed"}], "id": "1286100003", "name": "USPS COLLECTION BOX - PO LOBBY", "address": {"city": "PUTNAM STATION", "state": "NY", "street": "16783 STATE ROUTE 22", "postcode": "12861"}}},
{"geometry": {"type": "Point", "coordinates": [-73.8884438402, 43.6614075]}, "type": "Feature", "properties": {"collection_times": [{"days": "Mon-Fri", "time": "4:45pm"}, {"days": "Sat", "time": "11:45am"}, {"days": "Sun", "time": "Closed"}], "id": "1286200001", "name": "USPS COLLECTION BOX - BLUE BOX", "address": {"city": "RIPARIUS", "state": "NY", "street": "465 RIVERSIDE STATION RD", "postcode": "12862"}}},
{"geometry": {"type": "Point", "coordinates": [-73.8884438402, 43.6614075]}, "type": "Feature", "properties": {"collection_times": [{"days": "Mon-Fri", "time": "4:45pm"}, {"days": "Sat", "time": "11:45am"}, {"days": "Sun", "time": "Closed"}], "id": "1286200002", "name": "USPS COLLECTION BOX - PO LOBBY", "address": {"city": "RIPARIUS", "state": "NY", "street": "465 RIVERSIDE STATION RD", "postcode": "12862"}}},
{"geometry": {"type": "Point", "coordinates": [-73.9189567277, 43.0647187897]}, "type": "Feature", "properties": {"collection_times": [{"days": "Mon-Fri", "time": "4:30pm"}, {"days": "Sat", "time": "11:45am"}, {"days": "Sun", "time": "Closed"}], "id": "1286300002", "name": "USPS COLLECTION BOX - PO LOBBY", "address": {"city": "ROCK CITY FALLS", "state": "NY", "street": "744 ROUTE 29", "postcode": "12863"}}},
{"geometry": {"type": "Point", "coordinates": [-73.3286368398, 43.1721575879]}, "type": "Feature", "properties": {"collection_times": [{"days": "Mon-Fri", "time": "3:45pm"}, {"days": "Sat", "time": "11:00am"}, {"days": "Sun", "time": "Closed"}], "id": "1286500002", "name": "USPS COLLECTION BOX - BLUE BOX", "address": {"city": "SALEM", "state": "NY", "street": "12 W BROADWAY", "postcode": "12865"}}},
{"geometry": {"type": "Point", "coordinates": [-73.3286368398, 43.1721575879]}, "type": "Feature", "properties": {"collection_times": [{"days": "Mon-Fri", "time": "4:00pm"}, {"days": "Sat", "time": "11:00am"}, {"days": "Sun", "time": "Closed"}], "id": "1286500003", "name": "USPS COLLECTION BOX - PO LOBBY", "address": {"city": "SALEM", "state": "NY", "street": "12 W BROADWAY", "postcode": "12865"}}},
{"geometry": {"type": "Point", "coordinates": [-73.7846378, 43.083446661]}, "type": "Feature", "properties": {"collection_times": [{"days": "Mon-Fri", "time": "3:15pm"}, {"days": "Sat", "time": "2:00pm"}, {"days": "Sun", "time": "Closed"}], "id": "1286600001", "name": "USPS COLLECTION BOX - BLUE BOX", "address": {"city": "SARATOGA SPGS", "state": "NY", "street": "474 BROADWAY", "postcode": "12866"}}},
{"geometry": {"type": "Point", "coordinates": [-73.7846755067, 43.0834580427]}, "type": "Feature", "properties": {"collection_times": [{"days": "Mon-Fri", "time": "5:00pm"}, {"days": "Sat", "time": "2:00pm"}, {"days": "Sun", "time": "Closed"}], "id": "1286600002", "name": "USPS COLLECTION BOX - BLUE BOX", "address": {"city": "SARATOGA SPGS", "state": "NY", "street": "475 BROADWAY", "postcode": "12866"}}},
{"geometry": {"type": "Point", "coordinates": [-73.7738495917, 43.078543328]}, "type": "Feature", "properties": {"collection_times": [{"days": "Mon-Fri", "time": "4:30pm"}, {"days": "Sat", "time": "1:00pm"}, {"days": "Sun", "time": "Closed"}], "id": "1286600005", "name": "USPS COLLECTION BOX - EXPRESS", "address": {"city": "SARATOGA SPGS", "state": "NY", "street": "245 WASHINGTON ST", "postcode": "12866"}}},
{"geometry": {"type": "Point", "coordinates": [-73.803989087, 43.0795295631]}, "type": "Feature", "properties": {"collection_times": [{"days": "Mon-Fri", "time": "5:00pm"}, {"days": "Sat", "time": "3:00pm"}, {"days": "Sun", "time": "Closed"}], "id": "1286600007", "name": "USPS COLLECTION BOX - BLUE BOX", "address": {"city": "SARATOGA SPGS", "state": "NY", "street": "245 WASHINGTON ST", "postcode": "12866"}}},
{"geometry": {"type": "Point", "coordinates": [-73.7495700165, 43.1257145199]}, "type": "Feature", "properties": {"collection_times": [{"days": "Mon-Sat", "time": "10:00am"}, {"days": "Sun", "time": "Closed"}], "id": "1286600011", "name": "USPS COLLECTION BOX - BLUE BOX", "address": {"city": "SARATOGA SPGS", "state": "NY", "street": "214 JONES RD", "postcode": "12866"}}},
{"geometry": {"type": "Point", "coordinates": [-73.74300092, 43.0689515161]}, "type": "Feature", "properties": {"collection_times": [{"days": "Mon-Fri", "time": "3:00pm"}, {"days": "Sat", "time": "12:00pm"}, {"days": "Sun", "time": "Closed"}], "id": "1286600019", "name": "USPS COLLECTION BOX - BLUE BOX", "address": {"city": "SARATOGA SPGS", "state": "NY", "street": "315 CHRUCH ST", "postcode": "12866"}}},
{"geometry": {"type": "Point", "coordinates": [-73.7945189083, 43.0866662274]}, "type": "Feature", "properties": {"collection_times": [{"days": "Mon-Sat", "time": "12:00pm"}, {"days": "Sun", "time": "Closed"}], "id": "1286600020", "name": "USPS COLLECTION BOX - BLUE BOX", "address": {"city": "SARATOGA SPGS", "state": "NY", "street": "11 PEARL ST", "postcode": "12866"}}},
{"geometry": {"type": "Point", "coordinates": [-73.7763025232, 43.0806591618]}, "type": "Feature", "properties": {"collection_times": [{"days": "Mon-Sat", "time": "10:30am"}, {"days": "Sun", "time": "Closed"}], "id": "1286600022", "name": "USPS COLLECTION BOX - BLUE BOX", "address": {"city": "SARATOGA SPGS", "state": "NY", "street": "173 CAROLINE ST", "postcode": "12866"}}},
{"geometry": {"type": "Point", "coordinates": [-73.7875808539, 43.0735968968]}, "type": "Feature", "properties": {"collection_times": [{"days": "Mon-Sat", "time": "10:30am"}, {"days": "Sun", "time": "Closed"}], "id": "1286600025", "name": "USPS COLLECTION BOX - BLUE BOX", "address": {"city": "SARATOGA SPGS", "state": "NY", "street": "188 BROADWAY", "postcode": "12866"}}},
{"geometry": {"type": "Point", "coordinates": [-73.7764739183, 43.076597224]}, "type": "Feature", "properties": {"collection_times": [{"days": "Mon-Sat", "time": "11:30am"}, {"days": "Sun", "time": "Closed"}], "id": "1286600027", "name": "USPS COLLECTION BOX - BLUE BOX", "address": {"city": "SARATOGA SPGS", "state": "NY", "street": "125 UNION AVE", "postcode": "12866"}}},
{"geometry": {"type": "Point", "coordinates": [-73.7813447503, 43.0793675741]}, "type": "Feature", "properties": {"collection_times": [{"days": "Mon-Sat", "time": "12:00pm"}, {"days": "Sun", "time": "Closed"}], "id": "1286600028", "name": "USPS COLLECTION BOX - BLUE BOX", "address": {"city": "SARATOGA SPGS", "state": "NY", "street": "88 CIRCULAR ST", "postcode": "12866"}}},
{"geometry": {"type": "Point", "coordinates": [-73.7663065199, 43.0799967048]}, "type": "Feature", "properties": {"collection_times": [{"days": "Mon-Sat", "time": "11:00am"}, {"days": "Sun", "time": "Closed"}], "id": "1286600029", "name": "USPS COLLECTION BOX - BLUE BOX", "address": {"city": "SARATOGA SPGS", "state": "NY", "street": "95 5TH AVE", "postcode": "12866"}}},
{"geometry": {"type": "Point", "coordinates": [-73.7825272532, 43.0887068316]}, "type": "Feature", "properties": {"collection_times": [{"days": "Mon-Sat", "time": "10:00am"}, {"days": "Sun", "time": "Closed"}], "id": "1286600030", "name": "USPS COLLECTION BOX - BLUE BOX", "address": {"city": "SARATOGA SPGS", "state": "NY", "street": "630 N BROADWAY", "postcode": "12866"}}},
{"geometry": {"type": "Point", "coordinates": [-73.7897839679, 43.089674736]}, "type": "Feature", "properties": {"collection_times": [{"days": "Mon-Sat", "time": "9:00am"}, {"days": "Sun", "time": "Closed"}], "id": "1286600031", "name": "USPS COLLECTION BOX - BLUE BOX", "address": {"city": "SARATOGA SPGS", "state": "NY", "street": "133 LAWRENCE ST", "postcode": "12866"}}},
{"geometry": {"type": "Point", "coordinates": [-73.7878943381, 43.078635119]}, "type": "Feature", "properties": {"collection_times": [{"days": "Mon-Sat", "time": "10:00am"}, {"days": "Sun", "time": "Closed"}], "id": "1286600033", "name": "USPS COLLECTION BOX - BLUE BOX", "address": {"city": "SARATOGA SPGS", "state": "NY", "street": "22 CONGRESS ST", "postcode": "12866"}}},
{"geometry": {"type": "Point", "coordinates": [-73.7856871952, 43.0808090962]}, "type": "Feature", "properties": {"collection_times": [{"days": "Mon-Sat", "time": "1:00pm"}, {"days": "Sun", "time": "Closed"}], "id": "1286600034", "name": "USPS COLLECTION BOX - BLUE BOX", "address": {"city": "SARATOGA SPGS", "state": "NY", "street": "376 BROADWAY", "postcode": "12866"}}},
{"geometry": {"type": "Point", "coordinates": [-73.7883533261, 43.0855388675]}, "type": "Feature", "properties": {"collection_times": [{"days": "Mon-Sat", "time": "1:00pm"}, {"days": "Sun", "time": "Closed"}], "id": "1286600036", "name": "USPS COLLECTION BOX - BLUE BOX", "address": {"city": "SARATOGA SPGS", "state": "NY", "street": "77 VAN DAM ST", "postcode": "12866"}}},
{"geometry": {"type": "Point", "coordinates": [-73.7918371403, 43.0860321614]}, "type": "Feature", "properties": {"collection_times": [{"days": "Mon-Sat", "time": "1:00pm"}, {"days": "Sun", "time": "Closed"}], "id": "1286600037", "name": "USPS COLLECTION BOX - BLUE BOX", "address": {"city": "SARATOGA SPGS", "state": "NY", "street": "7 WELLS ST", "postcode": "12866"}}},
{"geometry": {"type": "Point", "coordinates": [-73.7879191802, 43.0866271898]}, "type": "Feature", "properties": {"collection_times": [{"days": "Mon-Sat", "time": "9:00am"}, {"days": "Sun", "time": "Closed"}], "id": "1286600038", "name": "USPS COLLECTION BOX - BLUE BOX", "address": {"city": "SARATOGA SPGS", "state": "NY", "street": "1 WATERBURY ST", "postcode": "12866"}}},
{"geometry": {"type": "Point", "coordinates": [-73.7914775208, 43.0825601769]}, "type": "Feature", "properties": {"collection_times": [{"days": "Mon-Sat", "time": "9:30am"}, {"days": "Sun", "time": "Closed"}], "id": "1286600039", "name": "USPS COLLECTION BOX - BLUE BOX", "address": {"city": "SARATOGA SPGS", "state": "NY", "street": "121 DIVISION ST", "postcode": "12866"}}},
{"geometry": {"type": "Point", "coordinates": [-73.7892444866, 43.0768321321]}, "type": "Feature", "properties": {"collection_times": [{"days": "Mon-Sat", "time": "9:30am"}, {"days": "Sun", "time": "Closed"}], "id": "1286600042", "name": "USPS COLLECTION BOX - BLUE BOX", "address": {"city": "SARATOGA SPGS", "state": "NY", "street": "10 S FEDERAL ST", "postcode": "12866"}}},
{"geometry": {"type": "Point", "coordinates": [-73.7914574105, 43.0840956576]}, "type": "Feature", "properties": {"collection_times": [{"days": "Mon-Sat", "time": "12:00pm"}, {"days": "Sun", "time": "Closed"}], "id": "1286600046", "name": "USPS COLLECTION BOX - BLUE BOX", "address": {"city": "SARATOGA SPGS", "state": "NY", "street": "45 PARK PL", "postcode": "12866"}}},
{"geometry": {"type": "Point", "coordinates": [-73.7800058356, 43.0759490522]}, "type": "Feature", "properties": {"collection_times": [{"days": "Mon-Sat", "time": "10:00am"}, {"days": "Sun", "time": "Closed"}], "id": "1286600047", "name": "USPS COLLECTION BOX - BLUE BOX", "address": {"city": "SARATOGA SPGS", "state": "NY", "street": "59 WHITE ST", "postcode": "12866"}}},
{"geometry": {"type": "Point", "coordinates": [-73.771907476, 43.0840703556]}, "type": "Feature", "properties": {"collection_times": [{"days": "Mon-Sat", "time": "9:30am"}, {"days": "Sun", "time": "Closed"}], "id": "1286600050", "name": "USPS COLLECTION BOX - BLUE BOX", "address": {"city": "SARATOGA SPGS", "state": "NY", "street": "205 LAKE AVE", "postcode": "12866"}}},
{"geometry": {"type": "Point", "coordinates": [-73.7889006176, 43.0687373156]}, "type": "Feature", "properties": {"collection_times": [{"days": "Mon-Sat", "time": "12:00pm"}, {"days": "Sun", "time": "Closed"}], "id": "1286600053", "name": "USPS COLLECTION BOX - BLUE BOX", "address": {"city": "SARATOGA SPGS", "state": "NY", "street": "112 S BROADWAY", "postcode": "12866"}}},
{"geometry": {"type": "Point", "coordinates": [-73.771147188, 43.0869158318]}, "type": "Feature", "properties": {"collection_times": [{"days": "Mon-Sat", "time": "1:00pm"}, {"days": "Sun", "time": "Closed"}], "id": "1286600054", "name": "USPS COLLECTION BOX - BLUE BOX", "address": {"city": "SARATOGA SPGS", "state": "NY", "street": "34 PINEWOOD AVE", "postcode": "12866"}}},
{"geometry": {"type": "Point", "coordinates": [-73.7712841108, 43.0925467068]}, "type": "Feature", "properties": {"collection_times": [{"days": "Mon-Sat", "time": "9:00am"}, {"days": "Sun", "time": "Closed"}], "id": "1286600057", "name": "USPS COLLECTION BOX - BLUE BOX", "address": {"city": "SARATOGA SPGS", "state": "NY", "street": "58 MARION AVE", "postcode": "12866"}}},
{"geometry": {"type": "Point", "coordinates": [-73.7873146882, 43.0818184616]}, "type": "Feature", "properties": {"collection_times": [{"days": "Mon-Fri", "time": "10:00am"}, {"days": "Sat", "time": "2:00pm"}, {"days": "Sun", "time": "Closed"}], "id": "1286600059", "name": "USPS COLLECTION BOX - BLUE BOX", "address": {"city": "SARATOGA SPGS", "state": "NY", "street": "27 DIVISION ST", "postcode": "12866"}}},
{"geometry": {"type": "Point", "coordinates": [-73.7893529199, 43.0790568862]}, "type": "Feature", "properties": {"collection_times": [{"days": "Mon-Fri", "time": "9:00am"}, {"days": "Sat", "time": "2:00pm"}, {"days": "Sun", "time": "Closed"}], "id": "1286600060", "name": "USPS COLLECTION BOX - BLUE BOX", "address": {"city": "SARATOGA SPGS", "state": "NY", "street": "64 CONGRESS ST", "postcode": "12866"}}},
{"geometry": {"type": "Point", "coordinates": [-73.7855284201, 43.081430451]}, "type": "Feature", "properties": {"collection_times": [{"days": "Mon-Sat", "time": "1:00pm"}, {"days": "Sun", "time": "Closed"}], "id": "1286600062", "name": "USPS COLLECTION BOX - BLUE BOX", "address": {"city": "SARATOGA SPGS", "state": "NY", "street": "402 BROADWAY", "postcode": "12866"}}},
{"geometry": {"type": "Point", "coordinates": [-73.7720896785, 43.0973111915]}, "type": "Feature", "properties": {"collection_times": [{"days": "Mon-Sat", "time": "9:00am"}, {"days": "Sun", "time": "Closed"}], "id": "1286600068", "name": "USPS COLLECTION BOX - BLUE BOX", "address": {"city": "SARATOGA SPGS", "state": "NY", "street": "414 MAPLE AVE", "postcode": "12866"}}},
{"geometry": {"type": "Point", "coordinates": [-73.7841509174, 43.0846375833]}, "type": "Feature", "properties": {"collection_times": [{"days": "Mon-Fri", "time": "3:15pm"}, {"days": "Sat", "time": "9:30am"}, {"days": "Sun", "time": "Closed"}], "id": "1286600071", "name": "USPS COLLECTION BOX - BLUE BOX", "address": {"city": "SARATOGA SPGS", "state": "NY", "street": "516 BROADWAY", "postcode": "12866"}}},
{"geometry": {"type": "Point", "coordinates": [-73.7884293651, 43.0809686995]}, "type": "Feature", "properties": {"collection_times": [{"days": "Mon-Fri", "time": "3:15pm"}, {"days": "Sat", "time": "2:00pm"}, {"days": "Sun", "time": "Closed"}], "id": "1286600075", "name": "USPS COLLECTION BOX - BLUE BOX", "address": {"city": "SARATOGA SPGS", "state": "NY", "street": "60 RAILROAD PL", "postcode": "12866"}}},
{"geometry": {"type": "Point", "coordinates": [-73.7738495917, 43.078543328]}, "type": "Feature", "properties": {"collection_times": [{"days": "Mon-Fri", "time": "3:15pm"}, {"days": "Sat", "time": "2:00pm"}, {"days": "Sun", "time": "Closed"}], "id": "1286600076", "name": "USPS COLLECTION BOX - EXPRESS", "address": {"city": "SARATOGA SPGS", "state": "NY", "street": "60 RAILROAD PL", "postcode": "12866"}}},
{"geometry": {"type": "Point", "coordinates": [-73.8015204663, 43.0570205441]}, "type": "Feature", "properties": {"collection_times": [{"days": "Mon-Sat", "time": "10:00am"}, {"days": "Sun", "time": "Closed"}], "id": "1286600085", "name": "USPS COLLECTION BOX - BLUE BOX", "address": {"city": "SARATOGA SPGS", "state": "NY", "street": "19 ROOSEVELT DR", "postcode": "12866"}}},
{"geometry": {"type": "Point", "coordinates": [-73.7856871952, 43.0808090962]}, "type": "Feature", "properties": {"collection_times": [{"days": "Mon-Fri", "time": "1:00pm"}, {"days": "Sat", "time": "2:00pm"}, {"days": "Sun", "time": "Closed"}], "id": "1286600086", "name": "USPS COLLECTION BOX - BLUE BOX", "address": {"city": "SARATOGA SPGS", "state": "NY", "street": "376 BROADWAY", "postcode": "12866"}}},
{"geometry": {"type": "Point", "coordinates": [-73.7933776938, 43.070499227]}, "type": "Feature", "properties": {"collection_times": [{"days": "Mon-Sat", "time": "1:30pm"}, {"days": "Sun", "time": "Closed"}], "id": "1286600087", "name": "USPS COLLECTION BOX - BLUE BOX", "address": {"city": "SARATOGA SPGS", "state": "NY", "street": "155 BALLSTON AVE", "postcode": "12866"}}},
{"geometry": {"type": "Point", "coordinates": [-73.803989087, 43.0795295631]}, "type": "Feature", "properties": {"collection_times": [{"days": "Mon-Fri", "time": "5:30pm"}, {"days": "Sat", "time": "4:00pm"}, {"days": "Sun", "time": "Closed"}], "id": "1286600090", "name": "USPS COLLECTION BOX - PO LOBBY", "address": {"city": "SARATOGA SPGS", "state": "NY", "street": "245 WASHINGTON ST", "postcode": "12866"}}},
{"geometry": {"type": "Point", "coordinates": [-73.7885567951, 43.083362223]}, "type": "Feature", "properties": {"collection_times": [{"days": "Mon-Fri", "time": "3:00pm"}, {"days": "Sat", "time": "2:00pm"}, {"days": "Sun", "time": "Closed"}], "id": "1286600091", "name": "USPS COLLECTION BOX - BLUE BOX", "address": {"city": "SARATOGA SPGS", "state": "NY", "street": "28 CLINTON ST", "postcode": "12866"}}},
{"geometry": {"type": "Point", "coordinates": [-73.7450585912, 43.0972768469]}, "type": "Feature", "properties": {"collection_times": [{"days": "Mon-Sat", "time": "10:00am"}, {"days": "Sun", "time": "Closed"}], "id": "1286600094", "name": "USPS COLLECTION BOX - BLUE BOX", "address": {"city": "SARATOGA SPGS", "state": "NY", "street": "95 WEIBEL AVE", "postcode": "12866"}}},
{"geometry": {"type": "Point", "coordinates": [-73.7868781763, 43.075926143]}, "type": "Feature", "properties": {"collection_times": [{"days": "Mon-Sat", "time": "10:00am"}, {"days": "Sun", "time": "Closed"}], "id": "1286600096", "name": "USPS COLLECTION BOX - BLUE BOX", "address": {"city": "SARATOGA SPGS", "state": "NY", "street": "232 BROADWAY", "postcode": "12866"}}},
{"geometry": {"type": "Point", "coordinates": [-73.782592316, 43.0802321136]}, "type": "Feature", "properties": {"collection_times": [{"days": "Mon-Fri", "time": "12:00pm"}, {"days": "Sat", "time": "11:00am"}, {"days": "Sun", "time": "Closed"}], "id": "1286600097", "name": "USPS COLLECTION BOX - BLUE BOX", "address": {"city": "SARATOGA SPGS", "state": "NY", "street": "60 PHILA ST", "postcode": "12866"}}},
{"geometry": {"type": "Point", "coordinates": [-73.7761099279, 43.0733301116]}, "type": "Feature", "properties": {"collection_times": [{"days": "Mon-Sat", "time": "9:00am"}, {"days": "Sun", "time": "Closed"}], "id": "1286600098", "name": "USPS COLLECTION BOX - BLUE BOX", "address": {"city": "SARATOGA SPGS", "state": "NY", "street": "65 WEBSTER ST", "postcode": "12866"}}},
{"geometry": {"type": "Point", "coordinates": [-73.7846755067, 43.0834580427]}, "type": "Feature", "properties": {"collection_times": [{"days": "Mon-Fri", "time": "5:00pm"}, {"days": "Sat", "time": "12:00pm"}, {"days": "Sun", "time": "Closed"}], "id": "1286600100", "name": "USPS COLLECTION BOX - PO LOBBY", "address": {"city": "SARATOGA SPGS", "state": "NY", "street": "475 BROADWAY", "postcode": "12866"}}},
{"geometry": {"type": "Point", "coordinates": [-73.7864582259, 43.0828251597]}, "type": "Feature", "properties": {"collection_times": [{"days": "Mon-Fri", "time": "10:00am"}, {"days": "Sat", "time": "2:00pm"}, {"days": "Sun", "time": "Closed"}], "id": "1286600102", "name": "USPS COLLECTION BOX - BLUE BOX", "address": {"city": "SARATOGA SPGS", "state": "NY", "street": "31 WOODLAWN AVE", "postcode": "12866"}}},
{"geometry": {"type": "Point", "coordinates": [-73.7462217419, 43.1012311249]}, "type": "Feature", "properties": {"collection_times": [{"days": "Mon-Sat", "time": "9:00am"}, {"days": "Sun", "time": "Closed"}], "id": "1286600103", "name": "USPS COLLECTION BOX - BLUE BOX", "address": {"city": "SARATOGA SPGS", "state": "NY", "street": "3027 ROUTE 50", "postcode": "12866"}}},
{"geometry": {"type": "Point", "coordinates": [-73.7846755067, 43.0834580427]}, "type": "Feature", "properties": {"collection_times": [{"days": "Mon-Fri", "time": "5:00pm"}, {"days": "Sat", "time": "2:00pm"}, {"days": "Sun", "time": "Closed"}], "id": "1286600110", "name": "USPS COLLECTION BOX - BLUE BOX", "address": {"city": "SARATOGA SPGS", "state": "NY", "street": "475 BROADWAY", "postcode": "12866"}}},
{"geometry": {"type": "Point", "coordinates": [-73.7615805988, 43.8371235652]}, "type": "Feature", "properties": {"collection_times": [{"days": "Mon-Fri", "time": "4:00pm"}, {"days": "Sat", "time": "11:30am"}, {"days": "Sun", "time": "Closed"}], "id": "1287000001", "name": "USPS COLLECTION BOX - BLUE BOX", "address": {"city": "SCHROON LAKE", "state": "NY", "street": "1097 US ROUTE 9 STE 1", "postcode": "12870"}}},
{"geometry": {"type": "Point", "coordinates": [-73.7615805988, 43.8371235652]}, "type": "Feature", "properties": {"collection_times": [{"days": "Mon-Fri", "time": "4:15pm"}, {"days": "Sat", "time": "11:45am"}, {"days": "Sun", "time": "Closed"}], "id": "1287000002", "name": "USPS COLLECTION BOX - PO LOBBY", "address": {"city": "SCHROON LAKE", "state": "NY", "street": "1097 US ROUTE 9 STE 1", "postcode": "12870"}}},
{"geometry": {"type": "Point", "coordinates": [-73.5801592522, 43.0995975021]}, "type": "Feature", "properties": {"collection_times": [{"days": "Mon-Fri", "time": "5:00pm"}, {"days": "Sat", "time": "12:00pm"}, {"days": "Sun", "time": "Closed"}], "id": "1287100002", "name": "USPS COLLECTION BOX - BLUE BOX", "address": {"city": "SCHUYLERVILLE", "state": "NY", "street": "25 FERRY ST", "postcode": "12871"}}},
{"geometry": {"type": "Point", "coordinates": [-73.581778294, 43.0989626259]}, "type": "Feature", "properties": {"collection_times": [{"days": "Mon-Sat", "time": "12:00pm"}, {"days": "Sun", "time": "Closed"}], "id": "1287100003", "name": "USPS COLLECTION BOX - BLUE BOX", "address": {"city": "SCHUYLERVILLE", "state": "NY", "street": "73 BROAD ST", "postcode": "12871"}}},
{"geometry": {"type": "Point", "coordinates": [-73.5801592522, 43.0995975021]}, "type": "Feature", "properties": {"collection_times": [{"days": "Mon-Fri", "time": "4:30pm"}, {"days": "Sat", "time": "12:00pm"}, {"days": "Sun", "time": "Closed"}], "id": "1287100007", "name": "USPS COLLECTION BOX - PO LOBBY", "address": {"city": "SCHUYLERVILLE", "state": "NY", "street": "25 FERRY ST", "postcode": "12871"}}},
{"geometry": {"type": "Point", "coordinates": [-73.5801592522, 43.0995975021]}, "type": "Feature", "properties": {"collection_times": [{"days": "Mon-Fri", "time": "4:30pm"}, {"days": "Sat", "time": "12:00pm"}, {"days": "Sun", "time": "Closed"}], "id": "1287100008", "name": "USPS COLLECTION BOX - PO LOBBY", "address": {"city": "SCHUYLERVILLE", "state": "NY", "street": "25 FERRY ST", "postcode": "12871"}}},
{"geometry": {"type": "Point", "coordinates": [-73.7228456639, 43.8744201138]}, "type": "Feature", "properties": {"collection_times": [{"days": "Mon-Fri", "time": "3:45pm"}, {"days": "Sat", "time": "11:45am"}, {"days": "Sun", "time": "Closed"}], "id": "1287200001", "name": "USPS COLLECTION BOX - BLUE BOX", "address": {"city": "SEVERANCE", "state": "NY", "street": "229 NYS ROUTE 74", "postcode": "12872"}}},
{"geometry": {"type": "Point", "coordinates": [-73.7228456639, 43.8744201138]}, "type": "Feature", "properties": {"collection_times": [{"days": "Mon-Fri", "time": "10:00am"}, {"days": "Sat", "time": "11:45am"}, {"days": "Sun", "time": "Closed"}], "id": "1287200002", "name": "USPS COLLECTION BOX - PO LOBBY", "address": {"city": "SEVERANCE", "state": "NY", "street": "229 NYS ROUTE 74", "postcode": "12872"}}},
{"geometry": {"type": "Point", "coordinates": [-73.3436025997, 43.0903622088]}, "type": "Feature", "properties": {"collection_times": [{"days": "Mon-Fri", "time": "12:00pm"}, {"days": "Sat", "time": "11:30am"}, {"days": "Sun", "time": "Closed"}], "id": "1287300001", "name": "USPS COLLECTION BOX - BLUE BOX", "address": {"city": "SHUSHAN", "state": "NY", "street": "1042 COUNTY ROUTE 61", "postcode": "12873"}}},
{"geometry": {"type": "Point", "coordinates": [-73.5025208662, 43.7064397224]}, "type": "Feature", "properties": {"collection_times": [{"days": "Mon-Fri", "time": "4:00pm"}, {"days": "Sat", "time": "11:30am"}, {"days": "Sun", "time": "Closed"}], "id": "1287400001", "name": "USPS COLLECTION BOX - BLUE BOX", "address": {"city": "SILVER BAY", "state": "NY", "street": "8461 LAKESHORE DR", "postcode": "12874"}}},
{"geometry": {"type": "Point", "coordinates": [-73.5025208662, 43.7064397224]}, "type": "Feature", "properties": {"collection_times": [{"days": "Mon-Sat", "time": "11:30am"}, {"days": "Sun", "time": "Closed"}], "id": "1287400002", "name": "USPS COLLECTION BOX - PO LOBBY", "address": {"city": "SILVER BAY", "state": "NY", "street": "8461 LAKESHORE DR", "postcode": "12874"}}},
{"geometry": {"type": "Point", "coordinates": [-73.9293313344, 43.4237138505]}, "type": "Feature", "properties": {"collection_times": [{"days": "Mon-Fri", "time": "4:15pm"}, {"days": "Sat", "time": "11:45am"}, {"days": "Sun", "time": "Closed"}], "id": "1287800001", "name": "USPS COLLECTION BOX - BLUE BOX", "address": {"city": "STONY CREEK", "state": "NY", "street": "6 HADLEY RD", "postcode": "12878"}}},
{"geometry": {"type": "Point", "coordinates": [-73.9294042387, 43.4238443061]}, "type": "Feature", "properties": {"collection_times": [{"days": "Mon-Fri", "time": "12:00pm"}, {"days": "Sat", "time": "11:45am"}, {"days": "Sun", "time": "Closed"}], "id": "1287800002", "name": "USPS COLLECTION BOX - PO LOBBY", "address": {"city": "STONY CREEK", "state": "NY", "street": "6 HADLEY RD", "postcode": "12878"}}},
{"geometry": {"type": "Point", "coordinates": [-73.4234057536, 43.8367154444]}, "type": "Feature", "properties": {"collection_times": [{"days": "Mon-Sat", "time": "12:00pm"}, {"days": "Sun", "time": "Closed"}], "id": "1288300002", "name": "USPS COLLECTION BOX - BLUE BOX", "address": {"city": "TICONDEROGA", "state": "NY", "street": "68 THE PORTAGE", "postcode": "12883"}}},
{"geometry": {"type": "Point", "coordinates": [-73.4379152265, 43.8596966067]}, "type": "Feature", "properties": {"collection_times": [{"days": "Mon-Fri", "time": "11:30am"}, {"days": "Sat", "time": "12:00pm"}, {"days": "Sun", "time": "Closed"}], "id": "1288300006", "name": "USPS COLLECTION BOX - BLUE BOX", "address": {"city": "TICONDEROGA", "state": "NY", "street": "1171 NYS ROUTE 9N", "postcode": "12883"}}},
{"geometry": {"type": "Point", "coordinates": [-73.4295518238, 43.8507018707]}, "type": "Feature", "properties": {"collection_times": [{"days": "Mon-Fri", "time": "11:00am"}, {"days": "Sat", "time": "12:00pm"}, {"days": "Sun", "time": "Closed"}], "id": "1288300008", "name": "USPS COLLECTION BOX - BLUE BOX", "address": {"city": "TICONDEROGA", "state": "NY", "street": "71 SAINT CLAIRE ST", "postcode": "12883"}}},
{"geometry": {"type": "Point", "coordinates": [-73.4232732622, 43.8480351787]}, "type": "Feature", "properties": {"collection_times": [{"days": "Mon-Fri", "time": "5:00pm"}, {"days": "Sat", "time": "12:00pm"}, {"days": "Sun", "time": "Closed"}], "id": "1288300010", "name": "USPS COLLECTION BOX - BLUE BOX", "address": {"city": "TICONDEROGA", "state": "NY", "street": "169 CHAMPLAIN AVE", "postcode": "12883"}}},
{"geometry": {"type": "Point", "coordinates": [-73.4232732622, 43.8480351787]}, "type": "Feature", "properties": {"collection_times": [{"days": "Mon-Fri", "time": "4:30pm"}, {"days": "Sat", "time": "12:00pm"}, {"days": "Sun", "time": "Closed"}], "id": "1288300015", "name": "USPS COLLECTION BOX - PO LOBBY", "address": {"city": "TICONDEROGA", "state": "NY", "street": "169 CHAMPLAIN AVE", "postcode": "12883"}}},
{"geometry": {"type": "Point", "coordinates": [-73.4380519685, 43.8575781087]}, "type": "Feature", "properties": {"collection_times": [{"days": "Mon-Fri", "time": "11:30am"}, {"days": "Sat", "time": "12:00pm"}, {"days": "Sun", "time": "Closed"}], "id": "1288300016", "name": "USPS COLLECTION BOX - BLUE BOX", "address": {"city": "TICONDEROGA", "state": "NY", "street": "1134 WICKER ST", "postcode": "12883"}}},
{"geometry": {"type": "Point", "coordinates": [-73.5776329109, 43.0990551089]}, "type": "Feature", "properties": {"collection_times": [{"days": "Mon-Fri", "time": "4:30pm"}, {"days": "Sat", "time": "11:30am"}, {"days": "Sun", "time": "Closed"}], "id": "1288400001", "name": "USPS COLLECTION BOX - BLUE BOX", "address": {"city": "VICTORY MILLS", "state": "NY", "street": "51 GATES AVE", "postcode": "12884"}}},
{"geometry": {"type": "Point", "coordinates": [-73.5776329109, 43.0990551089]}, "type": "Feature", "properties": {"collection_times": [{"days": "Mon-Fri", "time": "4:45pm"}, {"days": "Sat", "time": "11:45am"}, {"days": "Sun", "time": "Closed"}], "id": "1288400002", "name": "USPS COLLECTION BOX - PO LOBBY", "address": {"city": "VICTORY MILLS", "state": "NY", "street": "51 GATES AVE", "postcode": "12884"}}},
{"geometry": {"type": "Point", "coordinates": [-73.7800856259, 43.499468039]}, "type": "Feature", "properties": {"collection_times": [{"days": "Mon-Fri", "time": "5:00pm"}, {"days": "Sat", "time": "3:30pm"}, {"days": "Sun", "time": "Closed"}], "id": "1288500001", "name": "USPS COLLECTION BOX - BLUE BOX", "address": {"city": "WARRENSBURG", "state": "NY", "street": "3930 MAIN ST", "postcode": "12885"}}},
{"geometry": {"type": "Point", "coordinates": [-73.7763817814, 43.4969613489]}, "type": "Feature", "properties": {"collection_times": [{"days": "Mon-Sat", "time": "12:00pm"}, {"days": "Sun", "time": "Closed"}], "id": "1288500004", "name": "USPS COLLECTION BOX - BLUE BOX", "address": {"city": "WARRENSBURG", "state": "NY", "street": "3872 MAIN ST", "postcode": "12885"}}},
{"geometry": {"type": "Point", "coordinates": [-73.7817790518, 43.4973931226]}, "type": "Feature", "properties": {"collection_times": [{"days": "Mon-Sat", "time": "9:00am"}, {"days": "Sun", "time": "Closed"}], "id": "1288500006", "name": "USPS COLLECTION BOX - BLUE BOX", "address": {"city": "WARRENSBURG", "state": "NY", "street": "65 HUDSON ST", "postcode": "12885"}}},
{"geometry": {"type": "Point", "coordinates": [-73.7736136753, 43.4943057089]}, "type": "Feature", "properties": {"collection_times": [{"days": "Mon-Sat", "time": "9:00am"}, {"days": "Sun", "time": "Closed"}], "id": "1288500008", "name": "USPS COLLECTION BOX - BLUE BOX", "address": {"city": "WARRENSBURG", "state": "NY", "street": "39 ELM ST", "postcode": "12885"}}},
{"geometry": {"type": "Point", "coordinates": [-73.7800856259, 43.499468039]}, "type": "Feature", "properties": {"collection_times": [{"days": "Mon-Fri", "time": "5:00pm"}, {"days": "Sat", "time": "3:30pm"}, {"days": "Sun", "time": "Closed"}], "id": "1288500010", "name": "USPS COLLECTION BOX - PO LOBBY", "address": {"city": "WARRENSBURG", "state": "NY", "street": "3930 MAIN ST", "postcode": "12885"}}},
{"geometry": {"type": "Point", "coordinates": [-73.7800856259, 43.499468039]}, "type": "Feature", "properties": {"collection_times": [{"days": "Mon-Fri", "time": "5:00pm"}, {"days": "Sat", "time": "3:30pm"}, {"days": "Sun", "time": "Closed"}], "id": "1288500011", "name": "USPS COLLECTION BOX - PO LOBBY", "address": {"city": "WARRENSBURG", "state": "NY", "street": "3930 MAIN ST", "postcode": "12885"}}},
{"geometry": {"type": "Point", "coordinates": [-73.7684767378, 43.4924341057]}, "type": "Feature", "properties": {"collection_times": [{"days": "Mon-Sat", "time": "9:00am"}, {"days": "Sun", "time": "Closed"}], "id": "1288500012", "name": "USPS COLLECTION BOX - BLUE BOX", "address": {"city": "WARRENSBURG", "state": "NY", "street": "3767 MAIN ST", "postcode": "12885"}}},
{"geometry": {"type": "Point", "coordinates": [-73.9397768055, 43.6342401879]}, "type": "Feature", "properties": {"collection_times": [{"days": "Mon-Fri", "time": "4:30pm"}, {"days": "Sat", "time": "11:30am"}, {"days": "Sun", "time": "Closed"}], "id": "1288600001", "name": "USPS COLLECTION BOX - BLUE BOX", "address": {"city": "WEVERTOWN", "state": "NY", "street": "3854 STATE ROUTE 8", "postcode": "12886"}}},
{"geometry": {"type": "Point", "coordinates": [-73.9397768055, 43.6342401879]}, "type": "Feature", "properties": {"collection_times": [{"days": "Mon-Fri", "time": "5:00pm"}, {"days": "Sat", "time": "11:45am"}, {"days": "Sun", "time": "Closed"}], "id": "1288600002", "name": "USPS COLLECTION BOX - PO LOBBY", "address": {"city": "WEVERTOWN", "state": "NY", "street": "3854 STATE ROUTE 8", "postcode": "12886"}}},
{"geometry": {"type": "Point", "coordinates": [-73.4037955793, 43.5531630854]}, "type": "Feature", "properties": {"collection_times": [{"days": "Mon-Fri", "time": "5:00pm"}, {"days": "Sat", "time": "3:00pm"}, {"days": "Sun", "time": "Closed"}], "id": "1288700001", "name": "USPS COLLECTION BOX - BLUE BOX", "address": {"city": "WHITEHALL", "state": "NY", "street": "88 BROADWAY", "postcode": "12887"}}},
{"geometry": {"type": "Point", "coordinates": [-73.405891592, 43.5477371045]}, "type": "Feature", "properties": {"collection_times": [{"days": "Mon-Sat", "time": "9:30am"}, {"days": "Sun", "time": "Closed"}], "id": "1288700003", "name": "USPS COLLECTION BOX - BLUE BOX", "address": {"city": "WHITEHALL", "state": "NY", "street": "170 BROADWAY", "postcode": "12887"}}},
{"geometry": {"type": "Point", "coordinates": [-73.3920542349, 43.5538526538]}, "type": "Feature", "properties": {"collection_times": [{"days": "Mon-Sat", "time": "9:30am"}, {"days": "Sun", "time": "Closed"}], "id": "1288700010", "name": "USPS COLLECTION BOX - BLUE BOX", "address": {"city": "WHITEHALL", "state": "NY", "street": "0 SAUNDERS & MAIN ST", "postcode": "12887"}}},
{"geometry": {"type": "Point", "coordinates": [-73.4037955793, 43.5531630854]}, "type": "Feature", "properties": {"collection_times": [{"days": "Mon-Fri", "time": "4:30pm"}, {"days": "Sat", "time": "3:00pm"}, {"days": "Sun", "time": "Closed"}], "id": "1288700018", "name": "USPS COLLECTION BOX - PO LOBBY", "address": {"city": "WHITEHALL", "state": "NY", "street": "88 BROADWAY", "postcode": "12887"}}}
]}
