{"type": "FeatureCollection", "features": [
{"geometry": {"type": "Point", "coordinates": [-73.4746929395, 44.7024000831]}, "type": "Feature", "properties": {"collection_times": [{"days": "Mon-Fri", "time": "2:00pm"}, {"days": "Sat", "time": "12:00pm"}, {"days": "Sun", "time": "Closed"}], "id": "1290100013", "name": "USPS COLLECTION BOX - BLUE BOX", "address": {"city": "PLATTSBURGH", "state": "NY", "street": "1 E GATE", "postcode": "12901"}}},
{"geometry": {"type": "Point", "coordinates": [-73.4574183022, 44.6825856104]}, "type": "Feature", "properties": {"collection_times": [{"days": "Mon-Sat", "time": "12:00pm"}, {"days": "Sun", "time": "Closed"}], "id": "1290100022", "name": "USPS COLLECTION BOX - BLUE BOX", "address": {"city": "PLATTSBURGH", "state": "NY", "street": "74 BUSHEY BLVD", "postcode": "12901"}}},
{"geometry": {"type": "Point", "coordinates": [-73.4513224022, 44.6847846412]}, "type": "Feature", "properties": {"collection_times": [{"days": "Mon-Sat", "time": "12:00pm"}, {"days": "Sun", "time": "Closed"}], "id": "1290100035", "name": "USPS COLLECTION BOX - BLUE BOX", "address": {"city": "PLATTSBURGH", "state": "NY", "street": "97 JOHNSON AVE", "postcode": "12901"}}},
{"geometry": {"type": "Point", "coordinates": [-73.4543125564, 44.6969681976]}, "type": "Feature", "properties": {"collection_times": [{"days": "Mon-Fri", "time": "3:00pm"}, {"days": "Sat", "time": "12:00pm"}, {"days": "Sun", "time": "Closed"}], "id": "1290100041", "name": "USPS COLLECTION BOX - BLUE BOX", "address": {"city": "PLATTSBURGH", "state": "NY", "street": "29 BRINKERHOFF ST", "postcode": "12901"}}},
{"geometry": {"type": "Point", "coordinates": [-73.4530341438, 44.6989659533]}, "type": "Feature", "properties": {"collection_times": [{"days": "Mon-Fri", "time": "3:00pm"}, {"days": "Sat", "time": "12:00pm"}, {"days": "Sun", "time": "Closed"}], "id": "1290100043", "name": "USPS COLLECTION BOX - BLUE BOX", "address": {"city": "PLATTSBURGH", "state": "NY", "street": "137 MARGARET ST", "postcode": "12901"}}},
{"geometry": {"type": "Point", "coordinates": [-73.4046239332, 44.7364151673]}, "type": "Feature", "properties": {"collection_times": [{"days": "Mon-Fri", "time": "3:00pm"}, {"days": "Sat", "time": "10:00am"}, {"days": "Sun", "time": "Closed"}], "id": "1290100044", "name": "USPS COLLECTION BOX - BLUE BOX", "address": {"city": "PLATTSBURGH", "state": "NY", "street": "101 W BAY PLZ", "postcode": "12901"}}},
{"geometry": {"type": "Point", "coordinates": [-73.4771798106, 44.6975165687]}, "type": "Feature", "properties": {"collection_times": [{"days": "Mon-Sat", "time": "11:00am"}, {"days": "Sun", "time": "Closed"}], "id": "1290100050", "name": "USPS COLLECTION BOX - BLUE BOX", "address": {"city": "PLATTSBURGH", "state": "NY", "street": "26 PLATTSBURGH PLZ", "postcode": "12901"}}},
{"geometry": {"type": "Point", "coordinates": [-73.4829097725, 44.6955105301]}, "type": "Feature", "properties": {"collection_times": [{"days": "Mon-Fri", "time": "2:00pm"}, {"days": "Sat", "time": "10:00am"}, {"days": "Sun", "time": "Closed"}], "id": "1290100053", "name": "USPS COLLECTION BOX - BLUE BOX", "address": {"city": "PLATTSBURGH", "state": "NY", "street": "10 HEALEY AVE", "postcode": "12901"}}},
{"geometry": {"type": "Point", "coordinates": [-73.4947902294, 44.7026508704]}, "type": "Feature", "properties": {"collection_times": [{"days": "Mon-Fri", "time": "4:00pm"}, {"days": "Sat", "time": "10:00am"}, {"days": "Sun", "time": "Closed"}], "id": "1290100054", "name": "USPS COLLECTION BOX - BLUE BOX", "address": {"city": "PLATTSBURGH", "state": "NY", "street": "60 SMITHFIELD BLVD", "postcode": "12901"}}},
{"geometry": {"type": "Point", "coordinates": [-73.4659163242, 44.6750935766]}, "type": "Feature", "properties": {"collection_times": [{"days": "Mon-Fri", "time": "12:00pm"}, {"days": "Sat", "time": "9:30am"}, {"days": "Sun", "time": "Closed"}], "id": "1290100056", "name": "USPS COLLECTION BOX - BLUE BOX", "address": {"city": "PLATTSBURGH", "state": "NY", "street": "1 PLANT ST", "postcode": "12901"}}},
{"geometry": {"type": "Point", "coordinates": [-73.4947902294, 44.7026508704]}, "type": "Feature", "properties": {"collection_times": [{"days": "Mon-Fri", "time": "4:00pm"}, {"days": "Sat", "time": "10:00am"}, {"days": "Sun", "time": "Closed"}], "id": "1290100057", "name": "USPS COLLECTION BOX - BLUE BOX", "address": {"city": "PLATTSBURGH", "state": "NY", "street": "60 SMITHFIELD BLVD", "postcode": "12901"}}},
{"geometry": {"type": "Point", "coordinates": [-73.49944399, 44.6916422543]}, "type": "Feature", "properties": {"collection_times": [{"days": "Mon-Fri", "time": "1:30pm"}, {"days": "Sat", "time": "10:00am"}, {"days": "Sun", "time": "Closed"}], "id": "1290100059", "name": "USPS COLLECTION BOX - BLUE BOX", "address": {"city": "PLATTSBURGH", "state": "NY", "street": "79 HAMMOND LN", "postcode": "12901"}}},
{"geometry": {"type": "Point", "coordinates": [-73.4512477794, 44.6796038758]}, "type": "Feature", "properties": {"collection_times": [{"days": "Mon-Sat", "time": "12:00pm"}, {"days": "Sun", "time": "Closed"}], "id": "1290100061", "name": "USPS COLLECTION BOX - BLUE BOX", "address": {"city": "PLATTSBURGH", "state": "NY", "street": "12 SKYWAY SHOPPING CTR", "postcode": "12901"}}},
{"geometry": {"type": "Point", "coordinates": [-73.4520014207, 44.7005452035]}, "type": "Feature", "properties": {"collection_times": [{"days": "Mon-Fri", "time": "5:00pm"}, {"days": "Sat", "time": "4:00pm"}, {"days": "Sun", "time": "Closed"}], "id": "1290100066", "name": "USPS COLLECTION BOX - BLUE BOX", "address": {"city": "PLATTSBURGH", "state": "NY", "street": "10 MILLER ST", "postcode": "12901"}}},
{"geometry": {"type": "Point", "coordinates": [-73.4582841157, 44.7115952232]}, "type": "Feature", "properties": {"collection_times": [{"days": "Mon-Fri", "time": "7:00pm"}, {"days": "Sat", "time": "5:00pm"}, {"days": "Sun", "time": "Closed"}], "id": "1290100069", "name": "USPS COLLECTION BOX - BLUE BOX", "address": {"city": "PLATTSBURGH", "state": "NY", "street": "46 VETERANS LN", "postcode": "12901"}}},
{"geometry": {"type": "Point", "coordinates": [-73.4889061915, 44.6930972938]}, "type": "Feature", "properties": {"collection_times": [{"days": "Mon-Sat", "time": "11:00am"}, {"days": "Sun", "time": "Closed"}], "id": "1290100071", "name": "USPS COLLECTION BOX - BLUE BOX", "address": {"city": "PLATTSBURGH", "state": "NY", "street": "31 CONSUMER SQ", "postcode": "12901"}}},
{"geometry": {"type": "Point", "coordinates": [-73.3947793005, 44.6850546858]}, "type": "Feature", "properties": {"collection_times": [{"days": "Mon-Sat", "time": "11:00am"}, {"days": "Sun", "time": "Closed"}], "id": "1290100073", "name": "USPS COLLECTION BOX - BLUE BOX", "address": {"city": "PLATTSBURGH", "state": "NY", "street": "114 CONSUMER SQ", "postcode": "12901"}}},
{"geometry": {"type": "Point", "coordinates": [-73.4169919218, 44.7242453265]}, "type": "Feature", "properties": {"collection_times": [{"days": "Mon-Sat", "time": "12:30pm"}, {"days": "Sun", "time": "Closed"}], "id": "1290100076", "name": "USPS COLLECTION BOX - BLUE BOX", "address": {"city": "PLATTSBURGH", "state": "NY", "street": "1544 CUMBERLAND HEAD RD", "postcode": "12901"}}},
{"geometry": {"type": "Point", "coordinates": [-73.506794897, 44.6858374747]}, "type": "Feature", "properties": {"collection_times": [{"days": "Mon-Sat", "time": "10:00am"}, {"days": "Sun", "time": "Closed"}], "id": "1290100077", "name": "USPS COLLECTION BOX - BLUE BOX", "address": {"city": "PLATTSBURGH", "state": "NY", "street": "495 RUGAR ST", "postcode": "12901"}}},
{"geometry": {"type": "Point", "coordinates": [-73.4519854477, 44.6988553819]}, "type": "Feature", "properties": {"collection_times": [{"days": "Mon-Fri", "time": "5:00pm"}, {"days": "Sat", "time": "12:00pm"}, {"days": "Sun", "time": "Closed"}], "id": "1290100079", "name": "USPS COLLECTION BOX - BLUE BOX", "address": {"city": "PLATTSBURGH", "state": "NY", "street": "20 TRINITY PL", "postcode": "12901"}}},
{"geometry": {"type": "Point", "coordinates": [-73.3947793005, 44.6850546858]}, "type": "Feature", "properties": {"collection_times": [{"days": "Mon-Sat", "time": "10:00am"}, {"days": "Sun", "time": "Closed"}], "id": "1290100081", "name": "USPS COLLECTION BOX - BLUE BOX", "address": {"city": "PLATTSBURGH", "state": "NY", "street": "770 AIRPORT PLZ", "postcode": "12901"}}},
{"geometry": {"type": "Point", "coordinates": [-73.4661971323, 44.6977574226]}, "type": "Feature", "properties": {"collection_times": [{"days": "Mon-Fri", "time": "7:00pm"}, {"days": "Sat", "time": "5:00pm"}, {"days": "Sun", "time": "Closed"}], "id": "1290100084", "name": "USPS COLLECTION BOX - EXPRESS", "address": {"city": "PLATTSBURGH", "state": "NY", "street": "46 VETERANS LN", "postcode": "12901"}}},
{"geometry": {"type": "Point", "coordinates": [-73.4519854477, 44.6988553819]}, "type": "Feature", "properties": {"collection_times": [{"days": "Mon-Fri", "time": "5:00pm"}, {"days": "Sat", "time": "12:00pm"}, {"days": "Sun", "time": "Closed"}], "id": "1290100087", "name": "USPS COLLECTION BOX - BLUE BOX", "address": {"city": "PLATTSBURGH", "state": "NY", "street": "20 TRINITY PL", "postcode": "12901"}}},
{"geometry": {"type": "Point", "coordinates": [-73.4581087974, 44.6877031089]}, "type": "Feature", "properties": {"collection_times": [{"days": "Mon-Sat", "time": "9:30am"}, {"days": "Sun", "time": "Closed"}], "id": "1290100089", "name": "USPS COLLECTION BOX - BLUE BOX", "address": {"city": "PLATTSBURGH", "state": "NY", "street": "4990 S CATHERINE ST", "postcode": "12901"}}},
{"geometry": {"type": "Point", "coordinates": [-73.4520014207, 44.7005452035]}, "type": "Feature", "properties": {"collection_times": [{"days": "Mon-Fri", "time": "5:00pm"}, {"days": "Sat", "time": "4:00pm"}, {"days": "Sun", "time": "Closed"}], "id": "1290100093", "name": "USPS COLLECTION BOX - PO LOBBY", "address": {"city": "PLATTSBURGH", "state": "NY", "street": "10 MILLER ST", "postcode": "12901"}}},
{"geometry": {"type": "Point", "coordinates": [-73.4661971324, 44.6977574683]}, "type": "Feature", "properties": {"collection_times": [{"days": "Mon-Fri", "time": "10:30am"}, {"days": "Sat", "time": "10:00am"}, {"days": "Sun", "time": "Closed"}], "id": "1290100096", "name": "USPS COLLECTION BOX - BLUE BOX", "address": {"city": "PLATTSBURGH", "state": "NY", "street": "6 VETERANS LN", "postcode": "12901"}}},
{"geometry": {"type": "Point", "coordinates": [-73.4965705826, 44.6962770875]}, "type": "Feature", "properties": {"collection_times": [{"days": "Mon-Fri", "time": "5:00pm"}, {"days": "Sat", "time": "11:30am"}, {"days": "Sun", "time": "Closed"}], "id": "1290100099", "name": "USPS COLLECTION BOX - BLUE BOX", "address": {"city": "PLATTSBURGH", "state": "NY", "street": "500 STATE ROUTE 3", "postcode": "12901"}}},
{"geometry": {"type": "Point", "coordinates": [-73.4915394581, 44.6952798531]}, "type": "Feature", "properties": {"collection_times": [{"days": "Mon-Sat", "time": "11:00am"}, {"days": "Sun", "time": "Closed"}], "id": "1290100101", "name": "USPS COLLECTION BOX - BLUE BOX", "address": {"city": "PLATTSBURGH", "state": "NY", "street": "19 CENTRE DR", "postcode": "12901"}}},
{"geometry": {"type": "Point", "coordinates": [-73.4876651614, 44.6968400867]}, "type": "Feature", "properties": {"collection_times": [{"days": "Mon-Fri", "time": "5:00pm"}, {"days": "Sat", "time": "11:30am"}, {"days": "Sun", "time": "Closed"}], "id": "1290100102", "name": "USPS COLLECTION BOX - BLUE BOX", "address": {"city": "PLATTSBURGH", "state": "NY", "street": "400 STATE ROUTE 3", "postcode": "12901"}}},
{"geometry": {"type": "Point", "coordinates": [-73.468193527, 44.6812767559]}, "type": "Feature", "properties": {"collection_times": [{"days": "Mon-Sat", "time": "10:00am"}, {"days": "Sun", "time": "Closed"}], "id": "1290100107", "name": "USPS COLLECTION BOX - BLUE BOX", "address": {"city": "PLATTSBURGH", "state": "NY", "street": "1 DISTRIBUTION WAY", "postcode": "12901"}}},
{"geometry": {"type": "Point", "coordinates": [-73.4521858357, 44.6954247065]}, "type": "Feature", "properties": {"collection_times": [{"days": "Mon-Fri", "time": "4:00pm"}, {"days": "Sat", "time": "10:00am"}, {"days": "Sun", "time": "Closed"}], "id": "1290100112", "name": "USPS COLLECTION BOX - BLUE BOX", "address": {"city": "PLATTSBURGH", "state": "NY", "street": "14 DURKEE ST", "postcode": "12901"}}},
{"geometry": {"type": "Point", "coordinates": [-73.4687781447, 44.7181582795]}, "type": "Feature", "properties": {"collection_times": [{"days": "Mon-Fri", "time": "4:00pm"}, {"days": "Sat-Sun", "time": "Closed"}], "id": "1290100115", "name": "USPS COLLECTION BOX - BLUE BOX", "address": {"city": "PLATTSBURGH", "state": "NY", "street": "20 TRADE RD", "postcode": "12901"}}},
{"geometry": {"type": "Point", "coordinates": [-73.4678081398, 44.698344822]}, "type": "Feature", "properties": {"collection_times": [{"days": "Mon-Fri", "time": "3:30pm"}, {"days": "Sat", "time": "9:00am"}, {"days": "Sun", "time": "Closed"}], "id": "1290100116", "name": "USPS COLLECTION BOX - BLUE BOX", "address": {"city": "PLATTSBURGH", "state": "NY", "street": "212 CORNELIA ST", "postcode": "12901"}}},
{"geometry": {"type": "Point", "coordinates": [-73.5015352635, 44.6846324444]}, "type": "Feature", "properties": {"collection_times": [{"days": "Mon-Fri", "time": "12:00pm"}, {"days": "Sat", "time": "10:00am"}, {"days": "Sun", "time": "Closed"}], "id": "1290100117", "name": "USPS COLLECTION BOX - BLUE BOX", "address": {"city": "PLATTSBURGH", "state": "NY", "street": "47 HUNTINGTON DR", "postcode": "12901"}}},
{"geometry": {"type": "Point", "coordinates": [-73.4661971324, 44.6977574683]}, "type": "Feature", "properties": {"collection_times": [{"days": "Mon-Fri", "time": "5:00pm"}, {"days": "Sat", "time": "4:00pm"}, {"days": "Sun", "time": "Closed"}], "id": "1290100120", "name": "USPS COLLECTION BOX - APC", "address": {"city": "PLATTSBURGH", "state": "NY", "street": "10 MILLER ST", "postcode": "12901"}}},
{"geometry": {"type": "Point", "coordinates": [-73.4496666842, 44.6764108854]}, "type": "Feature", "properties": {"collection_times": [{"days": "Mon-Sat", "time": "10:00am"}, {"days": "Sun", "time": "Closed"}], "id": "1290300000", "name": "USPS COLLECTION BOX - BLUE BOX", "address": {"city": "PLATTSBURGH", "state": "NY", "street": "10 MAINE RD", "postcode": "12903"}}},
{"geometry": {"type": "Point", "coordinates": [-73.4490872487, 44.6846344113]}, "type": "Feature", "properties": {"collection_times": [{"days": "Mon-Fri", "time": "4:00pm"}, {"days": "Sat", "time": "10:00am"}, {"days": "Sun", "time": "Closed"}], "id": "1290300001", "name": "USPS COLLECTION BOX - BLUE BOX", "address": {"city": "PLATTSBURGH", "state": "NY", "street": "202 US OVAL", "postcode": "12903"}}},
{"geometry": {"type": "Point", "coordinates": [-73.4515291303, 44.6725298657]}, "type": "Feature", "properties": {"collection_times": [{"days": "Mon-Fri", "time": "4:00pm"}, {"days": "Sat", "time": "9:00am"}, {"days": "Sun", "time": "Closed"}], "id": "1290300002", "name": "USPS COLLECTION BOX - BLUE BOX", "address": {"city": "PLATTSBURGH", "state": "NY", "street": "335 NEW YORK RD", "postcode": "12903"}}},
{"geometry": {"type": "Point", "coordinates": [-73.4501366973, 44.6731158894]}, "type": "Feature", "properties": {"collection_times": [{"days": "Mon-Sat", "time": "10:00am"}, {"days": "Sun", "time": "Closed"}], "id": "1290300003", "name": "USPS COLLECTION BOX - BLUE BOX", "address": {"city": "PLATTSBURGH", "state": "NY", "street": "77 MAINE RD", "postcode": "12903"}}},
{"geometry": {"type": "Point", "coordinates": [-73.4512655541, 44.6689732293]}, "type": "Feature", "properties": {"collection_times": [{"days": "Mon-Sat", "time": "10:00am"}, {"days": "Sun", "time": "Closed"}], "id": "1290300004", "name": "USPS COLLECTION BOX - BLUE BOX", "address": {"city": "PLATTSBURGH", "state": "NY", "street": "19 IOWA ST", "postcode": "12903"}}},
{"geometry": {"type": "Point", "coordinates": [-73.4486591902, 44.6734750572]}, "type": "Feature", "properties": {"collection_times": [{"days": "Mon-Sat", "time": "10:00am"}, {"days": "Sun", "time": "Closed"}], "id": "1290300005", "name": "USPS COLLECTION BOX - BLUE BOX", "address": {"city": "PLATTSBURGH", "state": "NY", "street": "145 MARYLAND RD", "postcode": "12903"}}},
{"geometry": {"type": "Point", "coordinates": [-73.4624583946, 44.655783673]}, "type": "Feature", "properties": {"collection_times": [{"days": "Mon-Sat", "time": "10:00am"}, {"days": "Sun", "time": "Closed"}], "id": "1290300006", "name": "USPS COLLECTION BOX - BLUE BOX", "address": {"city": "PLATTSBURGH", "state": "NY", "street": "14 DORMITORY DR", "postcode": "12903"}}},
{"geometry": {"type": "Point", "coordinates": [-73.4476321374, 44.6809961388]}, "type": "Feature", "properties": {"collection_times": [{"days": "Mon-Fri", "time": "4:45pm"}, {"days": "Sat", "time": "12:00pm"}, {"days": "Sun", "time": "Closed"}], "id": "1290300007", "name": "USPS COLLECTION BOX - BLUE BOX", "address": {"city": "PLATTSBURGH", "state": "NY", "street": "5023 US AVE", "postcode": "12903"}}},
{"geometry": {"type": "Point", "coordinates": [-73.6557896476, 44.8883785921]}, "type": "Feature", "properties": {"collection_times": [{"days": "Mon-Fri", "time": "3:00pm"}, {"days": "Sat", "time": "10:45am"}, {"days": "Sun", "time": "Closed"}], "id": "1291000001", "name": "USPS COLLECTION BOX - PO LOBBY", "address": {"city": "ALTONA", "state": "NY", "street": "499 DEVILS DEN RD", "postcode": "12910"}}},
{"geometry": {"type": "Point", "coordinates": [-73.6557637365, 44.8881080792]}, "type": "Feature", "properties": {"collection_times": [{"days": "Mon-Fri", "time": "4:45pm"}, {"days": "Sat", "time": "10:45am"}, {"days": "Sun", "time": "Closed"}], "id": "1291000002", "name": "USPS COLLECTION BOX - BLUE BOX", "address": {"city": "ALTONA", "state": "NY", "street": "499 DEVILS DEN RD", "postcode": "12910"}}},
{"geometry": {"type": "Point", "coordinates": [-73.6785532379, 44.4410260641]}, "type": "Feature", "properties": {"collection_times": [{"days": "Mon-Fri", "time": "4:15pm"}, {"days": "Sat", "time": "11:15am"}, {"days": "Sun", "time": "Closed"}], "id": "1291200001", "name": "USPS COLLECTION BOX - BLUE BOX", "address": {"city": "AU SABLE FORKS", "state": "NY", "street": "35 FORGE ST", "postcode": "12912"}}},
{"geometry": {"type": "Point", "coordinates": [-73.6785532379, 44.4410260641]}, "type": "Feature", "properties": {"collection_times": [{"days": "Mon-Fri", "time": "4:30pm"}, {"days": "Sat", "time": "11:30am"}, {"days": "Sun", "time": "Closed"}], "id": "1291200002", "name": "USPS COLLECTION BOX - PO LOBBY", "address": {"city": "AU SABLE FORKS", "state": "NY", "street": "35 FORGE ST", "postcode": "12912"}}},
{"geometry": {"type": "Point", "coordinates": [-73.6785532379, 44.4410260641]}, "type": "Feature", "properties": {"collection_times": [{"days": "Mon-Fri", "time": "4:30pm"}, {"days": "Sat", "time": "11:30am"}, {"days": "Sun", "time": "Closed"}], "id": "1291200004", "name": "USPS COLLECTION BOX - PO LOBBY", "address": {"city": "AU SABLE FORKS", "state": "NY", "street": "35 FORGE ST", "postcode": "12912"}}},
{"geometry": {"type": "Point", "coordinates": [-74.0179259307, 44.3851516569]}, "type": "Feature", "properties": {"collection_times": [{"days": "Mon-Fri", "time": "4:15pm"}, {"days": "Sat", "time": "11:30am"}, {"days": "Sun", "time": "Closed"}], "id": "1291300001", "name": "USPS COLLECTION BOX - BLUE BOX", "address": {"city": "BLOOMINGDALE", "state": "NY", "street": "1711 STATE ROUTE 3", "postcode": "12913"}}},
{"geometry": {"type": "Point", "coordinates": [-74.085688879, 44.4081697975]}, "type": "Feature", "properties": {"collection_times": [{"days": "Mon-Fri", "time": "12:00pm"}, {"days": "Sat", "time": "11:30am"}, {"days": "Sun", "time": "Closed"}], "id": "1291300002", "name": "USPS COLLECTION BOX - PO LOBBY", "address": {"city": "BLOOMINGDALE", "state": "NY", "street": "1711 ROUTE 3", "postcode": "12913"}}},
{"geometry": {"type": "Point", "coordinates": [-74.5675575569, 44.9377467611]}, "type": "Feature", "properties": {"collection_times": [{"days": "Mon-Fri", "time": "4:00pm"}, {"days": "Sat", "time": "11:30am"}, {"days": "Sun", "time": "Closed"}], "id": "1291400001", "name": "USPS COLLECTION BOX - BLUE BOX", "address": {"city": "BOMBAY", "state": "NY", "street": "1794 STATE ROUTE 95", "postcode": "12914"}}},
{"geometry": {"type": "Point", "coordinates": [-74.5675575569, 44.9377467611]}, "type": "Feature", "properties": {"collection_times": [{"days": "Mon-Fri", "time": "12:00pm"}, {"days": "Sat", "time": "11:30am"}, {"days": "Sun", "time": "Closed"}], "id": "1291400002", "name": "USPS COLLECTION BOX - PO LOBBY", "address": {"city": "BOMBAY", "state": "NY", "street": "1794 STATE ROUTE 95", "postcode": "12914"}}},
{"geometry": {"type": "Point", "coordinates": [-74.0347790133, 44.854704941]}, "type": "Feature", "properties": {"collection_times": [{"days": "Mon-Fri", "time": "4:30pm"}, {"days": "Sat", "time": "11:30am"}, {"days": "Sun", "time": "Closed"}], "id": "1291500001", "name": "USPS COLLECTION BOX - BLUE BOX", "address": {"city": "BRAINARDSVILLE", "state": "NY", "street": "2399 COUNTY ROUTE 24", "postcode": "12915"}}},
{"geometry": {"type": "Point", "coordinates": [-74.0347790133, 44.854704941]}, "type": "Feature", "properties": {"collection_times": [{"days": "Mon-Fri", "time": "1:00pm"}, {"days": "Sat", "time": "11:30am"}, {"days": "Sun", "time": "Closed"}], "id": "1291500002", "name": "USPS COLLECTION BOX - PO LOBBY", "address": {"city": "BRAINARDSVILLE", "state": "NY", "street": "2399 COUNTY ROUTE 24", "postcode": "12915"}}},
{"geometry": {"type": "Point", "coordinates": [-74.5151066371, 44.83001886]}, "type": "Feature", "properties": {"collection_times": [{"days": "Mon-Fri", "time": "4:15pm"}, {"days": "Sat", "time": "11:15am"}, {"days": "Sun", "time": "Closed"}], "id": "1291600001", "name": "USPS COLLECTION BOX - BLUE BOX", "address": {"city": "BRUSHTON", "state": "NY", "street": "1249 WASHINGTON ST", "postcode": "12916"}}},
{"geometry": {"type": "Point", "coordinates": [-74.5151066371, 44.83001886]}, "type": "Feature", "properties": {"collection_times": [{"days": "Mon-Fri", "time": "3:00pm"}, {"days": "Sat", "time": "11:15am"}, {"days": "Sun", "time": "Closed"}], "id": "1291600004", "name": "USPS COLLECTION BOX - PO LOBBY", "address": {"city": "BRUSHTON", "state": "NY", "street": "1249 WASHINGTON ST", "postcode": "12916"}}},
{"geometry": {"type": "Point", "coordinates": [-74.1687181623, 44.9011728474]}, "type": "Feature", "properties": {"collection_times": [{"days": "Mon-Fri", "time": "4:15pm"}, {"days": "Sat", "time": "10:45am"}, {"days": "Sun", "time": "Closed"}], "id": "1291700001", "name": "USPS COLLECTION BOX - BLUE BOX", "address": {"city": "BURKE", "state": "NY", "street": "822 DEPOT ST", "postcode": "12917"}}},
{"geometry": {"type": "Point", "coordinates": [-74.1687181623, 44.9011728474]}, "type": "Feature", "properties": {"collection_times": [{"days": "Mon-Fri", "time": "3:00pm"}, {"days": "Sat", "time": "11:15am"}, {"days": "Sun", "time": "Closed"}], "id": "1291700002", "name": "USPS COLLECTION BOX - PO LOBBY", "address": {"city": "BURKE", "state": "NY", "street": "822 DEPOT ST", "postcode": "12917"}}},
{"geometry": {"type": "Point", "coordinates": [-73.6328143325, 44.6975014501]}, "type": "Feature", "properties": {"collection_times": [{"days": "Mon-Fri", "time": "4:45pm"}, {"days": "Sat", "time": "10:30am"}, {"days": "Sun", "time": "Closed"}], "id": "1291800001", "name": "USPS COLLECTION BOX - BLUE BOX", "address": {"city": "CADYVILLE", "state": "NY", "street": "2106 STATE ROUTE 3", "postcode": "12918"}}},
{"geometry": {"type": "Point", "coordinates": [-73.6328143325, 44.6975014501]}, "type": "Feature", "properties": {"collection_times": [{"days": "Mon-Fri", "time": "2:45pm"}, {"days": "Sat", "time": "10:45am"}, {"days": "Sun", "time": "Closed"}], "id": "1291800002", "name": "USPS COLLECTION BOX - PO LOBBY", "address": {"city": "CADYVILLE", "state": "NY", "street": "2106 STATE ROUTE 3", "postcode": "12918"}}},
{"geometry": {"type": "Point", "coordinates": [-73.4439821418, 44.9783642994]}, "type": "Feature", "properties": {"collection_times": [{"days": "Mon-Fri", "time": "5:00pm"}, {"days": "Sat", "time": "12:00pm"}, {"days": "Sun", "time": "Closed"}], "id": "1291900001", "name": "USPS COLLECTION BOX - BLUE BOX", "address": {"city": "CHAMPLAIN", "state": "NY", "street": "880 STATE ROUTE 11", "postcode": "12919"}}},
{"geometry": {"type": "Point", "coordinates": [-73.4439821418, 44.9783642994]}, "type": "Feature", "properties": {"collection_times": [{"days": "Mon-Fri", "time": "5:00pm"}, {"days": "Sat", "time": "12:00pm"}, {"days": "Sun", "time": "Closed"}], "id": "1291900002", "name": "USPS COLLECTION BOX - BLUE BOX", "address": {"city": "CHAMPLAIN", "state": "NY", "street": "880 STATE ROUTE 11", "postcode": "12919"}}},
{"geometry": {"type": "Point", "coordinates": [-73.4439821418, 44.9783642994]}, "type": "Feature", "properties": {"collection_times": [{"days": "Mon-Fri", "time": "5:00pm"}, {"days": "Sat", "time": "12:00pm"}, {"days": "Sun", "time": "Closed"}], "id": "1291900005", "name": "USPS COLLECTION BOX - PO LOBBY", "address": {"city": "CHAMPLAIN", "state": "NY", "street": "880 STATE ROUTE 11", "postcode": "12919"}}},
{"geometry": {"type": "Point", "coordinates": [-73.4439821418, 44.9783642994]}, "type": "Feature", "properties": {"collection_times": [{"days": "Mon-Fri", "time": "5:00pm"}, {"days": "Sat", "time": "12:00pm"}, {"days": "Sun", "time": "Closed"}], "id": "1291900006", "name": "USPS COLLECTION BOX - PO LOBBY", "address": {"city": "CHAMPLAIN", "state": "NY", "street": "880 STATE ROUTE 11", "postcode": "12919"}}},
{"geometry": {"type": "Point", "coordinates": [-74.0798773577, 44.9278127345]}, "type": "Feature", "properties": {"collection_times": [{"days": "Mon-Fri", "time": "4:15pm"}, {"days": "Sat", "time": "12:00pm"}, {"days": "Sun", "time": "Closed"}], "id": "1292000001", "name": "USPS COLLECTION BOX - BLUE BOX", "address": {"city": "CHATEAUGAY", "state": "NY", "street": "19 RIVER ST", "postcode": "12920"}}},
{"geometry": {"type": "Point", "coordinates": [-74.0618669711, 44.9073996392]}, "type": "Feature", "properties": {"collection_times": [{"days": "Mon-Sat", "time": "10:00am"}, {"days": "Sun", "time": "Closed"}], "id": "1292000002", "name": "USPS COLLECTION BOX - BLUE BOX", "address": {"city": "CHATEAUGAY", "state": "NY", "street": "21 LA COUNT ST", "postcode": "12920"}}},
{"geometry": {"type": "Point", "coordinates": [-74.0798773577, 44.9278127345]}, "type": "Feature", "properties": {"collection_times": [{"days": "Mon-Fri", "time": "4:30pm"}, {"days": "Sat", "time": "12:00pm"}, {"days": "Sun", "time": "Closed"}], "id": "1292000004", "name": "USPS COLLECTION BOX - PO LOBBY", "address": {"city": "CHATEAUGAY", "state": "NY", "street": "19 RIVER ST", "postcode": "12920"}}},
{"geometry": {"type": "Point", "coordinates": [-73.4336359827, 44.8840540788]}, "type": "Feature", "properties": {"collection_times": [{"days": "Mon-Fri", "time": "5:00pm"}, {"days": "Sat", "time": "12:00pm"}, {"days": "Sun", "time": "Closed"}], "id": "1292100001", "name": "USPS COLLECTION BOX - BLUE BOX", "address": {"city": "CHAZY", "state": "NY", "street": "9578 STATE ROUTE 9", "postcode": "12921"}}},
{"geometry": {"type": "Point", "coordinates": [-73.4336359827, 44.8840540788]}, "type": "Feature", "properties": {"collection_times": [{"days": "Mon-Fri", "time": "5:00pm"}, {"days": "Sat", "time": "12:00pm"}, {"days": "Sun", "time": "Closed"}], "id": "1292100002", "name": "USPS COLLECTION BOX - PO LOBBY", "address": {"city": "CHAZY", "state": "NY", "street": "9578 ROUTE 9", "postcode": "12921"}}},
{"geometry": {"type": "Point", "coordinates": [-73.9280075468, 44.954275706]}, "type": "Feature", "properties": {"collection_times": [{"days": "Mon-Fri", "time": "4:30pm"}, {"days": "Sat", "time": "11:30am"}, {"days": "Sun", "time": "Closed"}], "id": "1292300001", "name": "USPS COLLECTION BOX - BLUE BOX", "address": {"city": "CHURUBUSCO", "state": "NY", "street": "1306 CLINTON MILLS RD", "postcode": "12923"}}},
{"geometry": {"type": "Point", "coordinates": [-73.9280075468, 44.954275706]}, "type": "Feature", "properties": {"collection_times": [{"days": "Mon-Fri", "time": "12:00pm"}, {"days": "Sat", "time": "11:30am"}, {"days": "Sun", "time": "Closed"}], "id": "1292300002", "name": "USPS COLLECTION BOX - PO LOBBY", "address": {"city": "CHURUBUSCO", "state": "NY", "street": "1306 CLINTON MILLS RD", "postcode": "12923"}}},
{"geometry": {"type": "Point", "coordinates": [-74.2974224123, 44.9292573626]}, "type": "Feature", "properties": {"collection_times": [{"days": "Mon-Fri", "time": "4:30pm"}, {"days": "Sat", "time": "10:30am"}, {"days": "Sun", "time": "Closed"}], "id": "1292600001", "name": "USPS COLLECTION BOX - BLUE BOX", "address": {"city": "CONSTABLE", "state": "NY", "street": "1138 STATE ROUTE 122", "postcode": "12926"}}},
{"geometry": {"type": "Point", "coordinates": [-74.297326149, 44.929307124]}, "type": "Feature", "properties": {"collection_times": [{"days": "Mon-Fri", "time": "3:00pm"}, {"days": "Sat", "time": "10:30am"}, {"days": "Sun", "time": "Closed"}], "id": "1292600002", "name": "USPS COLLECTION BOX - PO LOBBY", "address": {"city": "CONSTABLE", "state": "NY", "street": "1138 STATE ROUTE 122", "postcode": "12926"}}},
{"geometry": {"type": "Point", "coordinates": [-74.837256456, 44.2225705704]}, "type": "Feature", "properties": {"collection_times": [{"days": "Mon-Fri", "time": "3:45pm"}, {"days": "Sat", "time": "10:00am"}, {"days": "Sun", "time": "Closed"}], "id": "1292700001", "name": "USPS COLLECTION BOX - BLUE BOX", "address": {"city": "CRANBERRY LAKE", "state": "NY", "street": "7171 STATE HIGHWAY 3", "postcode": "12927"}}},
{"geometry": {"type": "Point", "coordinates": [-74.837256456, 44.22257057]}, "type": "Feature", "properties": {"collection_times": [{"days": "Mon-Fri", "time": "2:00pm"}, {"days": "Sat", "time": "11:45am"}, {"days": "Sun", "time": "Closed"}], "id": "1292700002", "name": "USPS COLLECTION BOX - PO LOBBY", "address": {"city": "CRANBERRY LAKE", "state": "NY", "street": "7171 STATE HIGHWAY 3", "postcode": "12927"}}},
{"geometry": {"type": "Point", "coordinates": [-73.4284437874, 43.950929915]}, "type": "Feature", "properties": {"collection_times": [{"days": "Mon-Fri", "time": "4:30pm"}, {"days": "Sat", "time": "11:30am"}, {"days": "Sun", "time": "Closed"}], "id": "1292800001", "name": "USPS COLLECTION BOX - BLUE BOX", "address": {"city": "CROWN POINT", "state": "NY", "street": "2752 MAIN ST", "postcode": "12928"}}},
{"geometry": {"type": "Point", "coordinates": [-73.4284437874, 43.950929915]}, "type": "Feature", "properties": {"collection_times": [{"days": "Mon-Fri", "time": "3:15pm"}, {"days": "Sat", "time": "11:45am"}, {"days": "Sun", "time": "Closed"}], "id": "1292800002", "name": "USPS COLLECTION BOX - PO LOBBY", "address": {"city": "CROWN POINT", "state": "NY", "street": "2752 MAIN ST", "postcode": "12928"}}},
{"geometry": {"type": "Point", "coordinates": [-73.7166062618, 44.7226587742]}, "type": "Feature", "properties": {"collection_times": [{"days": "Mon-Fri", "time": "4:45pm"}, {"days": "Sat", "time": "11:45am"}, {"days": "Sun", "time": "Closed"}], "id": "1292900001", "name": "USPS COLLECTION BOX - BLUE BOX", "address": {"city": "DANNEMORA", "state": "NY", "street": "1079 COOK ST", "postcode": "12929"}}},
{"geometry": {"type": "Point", "coordinates": [-73.7166062618, 44.7226587742]}, "type": "Feature", "properties": {"collection_times": [{"days": "Mon-Fri", "time": "5:15pm"}, {"days": "Sat", "time": "12:00pm"}, {"days": "Sun", "time": "Closed"}], "id": "1292900002", "name": "USPS COLLECTION BOX - PO LOBBY", "address": {"city": "DANNEMORA", "state": "NY", "street": "1079 COOK ST", "postcode": "12929"}}},
{"geometry": {"type": "Point", "coordinates": [-73.7166062618, 44.7226587742]}, "type": "Feature", "properties": {"collection_times": [{"days": "Mon-Fri", "time": "5:15pm"}, {"days": "Sat", "time": "12:00pm"}, {"days": "Sun", "time": "Closed"}], "id": "1292900003", "name": "USPS COLLECTION BOX - PO LOBBY", "address": {"city": "DANNEMORA", "state": "NY", "street": "1079 COOK ST", "postcode": "12929"}}},
{"geometry": {"type": "Point", "coordinates": [-74.5528901272, 44.7142073554]}, "type": "Feature", "properties": {"collection_times": [{"days": "Mon-Fri", "time": "4:15pm"}, {"days": "Sat", "time": "12:00pm"}, {"days": "Sun", "time": "Closed"}], "id": "1293000001", "name": "USPS COLLECTION BOX - BLUE BOX", "address": {"city": "DICKINSON CTR", "state": "NY", "street": "7 CHURCH ST", "postcode": "12930"}}},
{"geometry": {"type": "Point", "coordinates": [-74.5528901272, 44.7142073554]}, "type": "Feature", "properties": {"collection_times": [{"days": "Mon-Fri", "time": "1:00pm"}, {"days": "Sat", "time": "12:00pm"}, {"days": "Sun", "time": "Closed"}], "id": "1293000002", "name": "USPS COLLECTION BOX - PO LOBBY", "address": {"city": "DICKINSON CTR", "state": "NY", "street": "7 CHURCH ST", "postcode": "12930"}}},
{"geometry": {"type": "Point", "coordinates": [-73.5935992429, 44.2176258652]}, "type": "Feature", "properties": {"collection_times": [{"days": "Mon-Fri", "time": "4:30pm"}, {"days": "Sat", "time": "11:00am"}, {"days": "Sun", "time": "Closed"}], "id": "1293200001", "name": "USPS COLLECTION BOX - BLUE BOX", "address": {"city": "ELIZABETHTOWN", "state": "NY", "street": "190 WATER ST", "postcode": "12932"}}},
{"geometry": {"type": "Point", "coordinates": [-73.5935992429, 44.2176258652]}, "type": "Feature", "properties": {"collection_times": [{"days": "Mon-Fri", "time": "4:30pm"}, {"days": "Sat", "time": "11:00am"}, {"days": "Sun", "time": "Closed"}], "id": "1293200002", "name": "USPS COLLECTION BOX - PO LOBBY", "address": {"city": "ELIZABETHTOWN", "state": "NY", "street": "190 WATER ST", "postcode": "12932"}}},
{"geometry": {"type": "Point", "coordinates": [-73.8373538319, 44.8932252643]}, "type": "Feature", "properties": {"collection_times": [{"days": "Mon-Fri", "time": "4:15pm"}, {"days": "Sat", "time": "11:30am"}, {"days": "Sun", "time": "Closed"}], "id": "1293300001", "name": "USPS COLLECTION BOX - BLUE BOX", "address": {"city": "ELLENBURG", "state": "NY", "street": "16 ST EDMUNDS WAY STE 3", "postcode": "12933"}}},
{"geometry": {"type": "Point", "coordinates": [-73.8373538319, 44.8932252643]}, "type": "Feature", "properties": {"collection_times": [{"days": "Mon-Fri", "time": "11:00am"}, {"days": "Sat", "time": "11:45am"}, {"days": "Sun", "time": "Closed"}], "id": "1293300002", "name": "USPS COLLECTION BOX - PO LOBBY", "address": {"city": "ELLENBURG", "state": "NY", "street": "16 ST EDMUNDS WAY STE 3", "postcode": "12933"}}},
{"geometry": {"type": "Point", "coordinates": [-73.89375584, 44.867435892]}, "type": "Feature", "properties": {"collection_times": [{"days": "Mon-Fri", "time": "12:00pm"}, {"days": "Sat", "time": "11:30am"}, {"days": "Sun", "time": "Closed"}], "id": "1293400002", "name": "USPS COLLECTION BOX - PO LOBBY", "address": {"city": "ELLENBURG CTR", "state": "NY", "street": "40 BRANDY BROOK RD", "postcode": "12934"}}},
{"geometry": {"type": "Point", "coordinates": [-73.841986866, 44.891791651]}, "type": "Feature", "properties": {"collection_times": [{"days": "Mon-Sat", "time": "10:00am"}, {"days": "Sun", "time": "Closed"}], "id": "1293400003", "name": "USPS COLLECTION BOX - BLUE BOX", "address": {"city": "ELLENBURG CTR", "state": "NY", "street": "5581 STATE ROUTE 11", "postcode": "12934"}}},
{"geometry": {"type": "Point", "coordinates": [-73.7886041134, 44.9057211552]}, "type": "Feature", "properties": {"collection_times": [{"days": "Mon-Fri", "time": "4:30pm"}, {"days": "Sat", "time": "11:00am"}, {"days": "Sun", "time": "Closed"}], "id": "1293500001", "name": "USPS COLLECTION BOX - BLUE BOX", "address": {"city": "ELLENBURG DEPOT", "state": "NY", "street": "4959 ROUTE 11", "postcode": "12935"}}},
{"geometry": {"type": "Point", "coordinates": [-73.7886041134, 44.9057211552]}, "type": "Feature", "properties": {"collection_times": [{"days": "Mon-Fri", "time": "4:30pm"}, {"days": "Sat", "time": "11:00am"}, {"days": "Sun", "time": "Closed"}], "id": "1293500002", "name": "USPS COLLECTION BOX - PO LOBBY", "address": {"city": "ELLENBURG DEPOT", "state": "NY", "street": "4959 STATE ROUTE 11", "postcode": "12935"}}},
{"geometry": {"type": "Point", "coordinates": [-73.3515212583, 44.3091091891]}, "type": "Feature", "properties": {"collection_times": [{"days": "Mon-Fri", "time": "4:30pm"}, {"days": "Sat", "time": "11:30am"}, {"days": "Sun", "time": "Closed"}], "id": "1293600001", "name": "USPS COLLECTION BOX - BLUE BOX", "address": {"city": "ESSEX", "state": "NY", "street": "2303 MAIN ST", "postcode": "12936"}}},
{"geometry": {"type": "Point", "coordinates": [-73.3515212583, 44.3091091891]}, "type": "Feature", "properties": {"collection_times": [{"days": "Mon-Fri", "time": "3:15pm"}, {"days": "Sat", "time": "11:45am"}, {"days": "Sun", "time": "Closed"}], "id": "1293600002", "name": "USPS COLLECTION BOX - PO LOBBY", "address": {"city": "ESSEX", "state": "NY", "street": "2303 MAIN ST", "postcode": "12936"}}},
{"geometry": {"type": "Point", "coordinates": [-74.4941506729, 44.9886628936]}, "type": "Feature", "properties": {"collection_times": [{"days": "Mon-Fri", "time": "4:00pm"}, {"days": "Sat", "time": "10:45am"}, {"days": "Sun", "time": "Closed"}], "id": "1293700001", "name": "USPS COLLECTION BOX - BLUE BOX", "address": {"city": "FORT COVINGTON", "state": "NY", "street": "15 S WATER ST", "postcode": "12937"}}},
{"geometry": {"type": "Point", "coordinates": [-74.4939865045, 44.9884425724]}, "type": "Feature", "properties": {"collection_times": [{"days": "Mon-Fri", "time": "3:00pm"}, {"days": "Sat", "time": "11:00am"}, {"days": "Sun", "time": "Closed"}], "id": "1293700002", "name": "USPS COLLECTION BOX - PO LOBBY", "address": {"city": "FORT COVINGTON", "state": "NY", "street": "15 S WATER ST", "postcode": "12937"}}},
{"geometry": {"type": "Point", "coordinates": [-74.180780302, 44.4319347319]}, "type": "Feature", "properties": {"collection_times": [{"days": "Mon-Fri", "time": "4:30pm"}, {"days": "Sat", "time": "12:00pm"}, {"days": "Sun", "time": "Closed"}], "id": "1293900001", "name": "USPS COLLECTION BOX - BLUE BOX", "address": {"city": "GABRIELS", "state": "NY", "street": "846 STATE ROUTE 86", "postcode": "12939"}}},
{"geometry": {"type": "Point", "coordinates": [-74.180780302, 44.4319347319]}, "type": "Feature", "properties": {"collection_times": [{"days": "Mon-Fri", "time": "4:30pm"}, {"days": "Sat", "time": "12:00pm"}, {"days": "Sun", "time": "Closed"}], "id": "1293900003", "name": "USPS COLLECTION BOX - PO LOBBY", "address": {"city": "GABRIELS", "state": "NY", "street": "846 STATE ROUTE 86", "postcode": "12939"}}},
{"geometry": {"type": "Point", "coordinates": [-73.7121954594, 44.3538867489]}, "type": "Feature", "properties": {"collection_times": [{"days": "Mon-Fri", "time": "4:30pm"}, {"days": "Sat", "time": "11:00am"}, {"days": "Sun", "time": "Closed"}], "id": "1294100001", "name": "USPS COLLECTION BOX - BLUE BOX", "address": {"city": "JAY", "state": "NY", "street": "12941 NYS RT 9N", "postcode": "12941"}}},
{"geometry": {"type": "Point", "coordinates": [-73.729415827, 44.373697805]}, "type": "Feature", "properties": {"collection_times": [{"days": "Mon-Fri", "time": "3:00pm"}, {"days": "Sat", "time": "11:15am"}, {"days": "Sun", "time": "Closed"}], "id": "1294100002", "name": "USPS COLLECTION BOX - PO LOBBY", "address": {"city": "JAY", "state": "NY", "street": "12941 NYS RT 9N", "postcode": "12941"}}},
{"geometry": {"type": "Point", "coordinates": [-73.793141077, 44.2564210993]}, "type": "Feature", "properties": {"collection_times": [{"days": "Mon-Fri", "time": "4:15pm"}, {"days": "Sat", "time": "10:45am"}, {"days": "Sun", "time": "Closed"}], "id": "1294200001", "name": "USPS COLLECTION BOX - BLUE BOX", "address": {"city": "KEENE", "state": "NY", "street": "2841 NYS ROUTE 73 STE 2", "postcode": "12942"}}},
{"geometry": {"type": "Point", "coordinates": [-73.793141077, 44.2564210993]}, "type": "Feature", "properties": {"collection_times": [{"days": "Mon-Fri", "time": "4:15pm"}, {"days": "Sat", "time": "10:45am"}, {"days": "Sun", "time": "Closed"}], "id": "1294200002", "name": "USPS COLLECTION BOX - PO LOBBY", "address": {"city": "KEENE", "state": "NY", "street": "2841 NYS ROUTE 73 STE 2", "postcode": "12942"}}},
{"geometry": {"type": "Point", "coordinates": [-73.4793135087, 44.5049947506]}, "type": "Feature", "properties": {"collection_times": [{"days": "Mon-Fri", "time": "5:00pm"}, {"days": "Sat", "time": "11:20am"}, {"days": "Sun", "time": "Closed"}], "id": "1294400001", "name": "USPS COLLECTION BOX - BLUE BOX", "address": {"city": "KEESEVILLE", "state": "NY", "street": "100 KENT ST", "postcode": "12944"}}},
{"geometry": {"type": "Point", "coordinates": [-73.4793135087, 44.5049947506]}, "type": "Feature", "properties": {"collection_times": [{"days": "Mon-Fri", "time": "5:15pm"}, {"days": "Sat", "time": "11:50am"}, {"days": "Sun", "time": "Closed"}], "id": "1294400003", "name": "USPS COLLECTION BOX - PO LOBBY", "address": {"city": "KEESEVILLE", "state": "NY", "street": "100 KENT ST", "postcode": "12944"}}},
{"geometry": {"type": "Point", "coordinates": [-74.2371076266, 44.3636692472]}, "type": "Feature", "properties": {"collection_times": [{"days": "Mon-Fri", "time": "4:30pm"}, {"days": "Sat", "time": "11:15am"}, {"days": "Sun", "time": "Closed"}], "id": "1294500001", "name": "USPS COLLECTION BOX - BLUE BOX", "address": {"city": "LAKE CLEAR", "state": "NY", "street": "6379 STATE ROUTE 30", "postcode": "12945"}}},
{"geometry": {"type": "Point", "coordinates": [-74.23789246, 44.363325251]}, "type": "Feature", "properties": {"collection_times": [{"days": "Mon-Fri", "time": "12:00pm"}, {"days": "Sat", "time": "11:30am"}, {"days": "Sun", "time": "Closed"}], "id": "1294500002", "name": "USPS COLLECTION BOX - PO LOBBY", "address": {"city": "LAKE CLEAR", "state": "NY", "street": "6379 STATE ROUTE 30", "postcode": "12945"}}},
{"geometry": {"type": "Point", "coordinates": [-73.9851908654, 44.2887016472]}, "type": "Feature", "properties": {"collection_times": [{"days": "Mon-Sat", "time": "10:00am"}, {"days": "Sun", "time": "Closed"}], "id": "1294600005", "name": "USPS COLLECTION BOX - BLUE BOX", "address": {"city": "LAKE PLACID", "state": "NY", "street": "2483 MAIN ST", "postcode": "12946"}}},
{"geometry": {"type": "Point", "coordinates": [-73.9827639327, 44.2822067663]}, "type": "Feature", "properties": {"collection_times": [{"days": "Mon-Fri", "time": "2:45pm"}, {"days": "Sat", "time": "2:00pm"}, {"days": "Sun", "time": "Closed"}], "id": "1294600007", "name": "USPS COLLECTION BOX - BLUE BOX", "address": {"city": "LAKE PLACID", "state": "NY", "street": "2693 MAIN ST", "postcode": "12946"}}},
{"geometry": {"type": "Point", "coordinates": [-73.9804127504, 44.2710282465]}, "type": "Feature", "properties": {"collection_times": [{"days": "Mon-Sat", "time": "1:00pm"}, {"days": "Sun", "time": "Closed"}], "id": "1294600010", "name": "USPS COLLECTION BOX - BLUE BOX", "address": {"city": "LAKE PLACID", "state": "NY", "street": "163 NEWMAN RD", "postcode": "12946"}}},
{"geometry": {"type": "Point", "coordinates": [-73.9990497161, 44.2966793716]}, "type": "Feature", "properties": {"collection_times": [{"days": "Mon-Sat", "time": "11:00am"}, {"days": "Sun", "time": "Closed"}], "id": "1294600014", "name": "USPS COLLECTION BOX - BLUE BOX", "address": {"city": "LAKE PLACID", "state": "NY", "street": "45 HADJIS WAY", "postcode": "12946"}}},
{"geometry": {"type": "Point", "coordinates": [-74.0062912495, 44.2966069553]}, "type": "Feature", "properties": {"collection_times": [{"days": "Mon-Sat", "time": "12:10pm"}, {"days": "Sun", "time": "Closed"}], "id": "1294600015", "name": "USPS COLLECTION BOX - BLUE BOX", "address": {"city": "LAKE PLACID", "state": "NY", "street": "1996 SARANAC AVE", "postcode": "12946"}}},
{"geometry": {"type": "Point", "coordinates": [-73.9926718761, 44.2915483914]}, "type": "Feature", "properties": {"collection_times": [{"days": "Mon-Sat", "time": "12:30pm"}, {"days": "Sun", "time": "Closed"}], "id": "1294600017", "name": "USPS COLLECTION BOX - BLUE BOX", "address": {"city": "LAKE PLACID", "state": "NY", "street": "38 ACORN ST", "postcode": "12946"}}},
{"geometry": {"type": "Point", "coordinates": [-73.9911857166, 44.2778794491]}, "type": "Feature", "properties": {"collection_times": [{"days": "Mon-Sat", "time": "9:30am"}, {"days": "Sun", "time": "Closed"}], "id": "1294600022", "name": "USPS COLLECTION BOX - BLUE BOX", "address": {"city": "LAKE PLACID", "state": "NY", "street": "000 THE COMMONS WAY", "postcode": "12946"}}},
{"geometry": {"type": "Point", "coordinates": [-73.9839524293, 44.2852998294]}, "type": "Feature", "properties": {"collection_times": [{"days": "Mon-Fri", "time": "4:55pm"}, {"days": "Sat", "time": "3:00pm"}, {"days": "Sun", "time": "Closed"}], "id": "1294600026", "name": "USPS COLLECTION BOX - PO LOBBY", "address": {"city": "LAKE PLACID", "state": "NY", "street": "2591 MAIN ST", "postcode": "12946"}}},
{"geometry": {"type": "Point", "coordinates": [-74.0115508172, 44.294585551]}, "type": "Feature", "properties": {"collection_times": [{"days": "Mon-Sat", "time": "12:00pm"}, {"days": "Sun", "time": "Closed"}], "id": "1294600028", "name": "USPS COLLECTION BOX - BLUE BOX", "address": {"city": "LAKE PLACID", "state": "NY", "street": "1930 SARANAC AVE", "postcode": "12946"}}},
{"geometry": {"type": "Point", "coordinates": [-73.9839524293, 44.2852998294]}, "type": "Feature", "properties": {"collection_times": [{"days": "Mon-Fri", "time": "5:00pm"}, {"days": "Sat", "time": "3:00pm"}, {"days": "Sun", "time": "Closed"}], "id": "1294600029", "name": "USPS COLLECTION BOX - BLUE BOX", "address": {"city": "LAKE PLACID", "state": "NY", "street": "2591 MAIN ST", "postcode": "12946"}}},
{"geometry": {"type": "Point", "coordinates": [-74.0117622089, 44.2945047681]}, "type": "Feature", "properties": {"collection_times": [{"days": "Mon-Sat", "time": "12:00pm"}, {"days": "Sun", "time": "Closed"}], "id": "1294600030", "name": "USPS COLLECTION BOX - BLUE BOX", "address": {"city": "LAKE PLACID", "state": "NY", "street": "1927 SARANAC AVE", "postcode": "12946"}}},
{"geometry": {"type": "Point", "coordinates": [-73.5657429251, 44.274855054]}, "type": "Feature", "properties": {"collection_times": [{"days": "Mon-Fri", "time": "4:15pm"}, {"days": "Sat", "time": "11:00am"}, {"days": "Sun", "time": "Closed"}], "id": "1295000001", "name": "USPS COLLECTION BOX - BLUE BOX", "address": {"city": "LEWIS", "state": "NY", "street": "8550 US ROUTE 9", "postcode": "12950"}}},
{"geometry": {"type": "Point", "coordinates": [-73.5656800571, 44.2748726414]}, "type": "Feature", "properties": {"collection_times": [{"days": "Mon-Fri", "time": "2:45pm"}, {"days": "Sat", "time": "11:15am"}, {"days": "Sun", "time": "Closed"}], "id": "1295000002", "name": "USPS COLLECTION BOX - PO LOBBY", "address": {"city": "LEWIS", "state": "NY", "street": "8550 US ROUTE 9", "postcode": "12950"}}},
{"geometry": {"type": "Point", "coordinates": [-73.950897287, 44.7289938831]}, "type": "Feature", "properties": {"collection_times": [{"days": "Mon-Fri", "time": "4:30pm"}, {"days": "Sat", "time": "11:30am"}, {"days": "Sun", "time": "Closed"}], "id": "1295200001", "name": "USPS COLLECTION BOX - BLUE BOX", "address": {"city": "LYON MOUNTAIN", "state": "NY", "street": "8 LANGLEY ST", "postcode": "12952"}}},
{"geometry": {"type": "Point", "coordinates": [-73.90700552, 44.72949967]}, "type": "Feature", "properties": {"collection_times": [{"days": "Mon-Fri", "time": "3:00pm"}, {"days": "Sat", "time": "11:30am"}, {"days": "Sun", "time": "Closed"}], "id": "1295200002", "name": "USPS COLLECTION BOX - PO LOBBY", "address": {"city": "LYON MOUNTAIN", "state": "NY", "street": "8 LANGEY ST", "postcode": "12952"}}},
{"geometry": {"type": "Point", "coordinates": [-74.2985599789, 44.853434369]}, "type": "Feature", "properties": {"collection_times": [{"days": "Mon-Fri", "time": "2:30pm"}, {"days": "Sat", "time": "2:15pm"}, {"days": "Sun", "time": "Closed"}], "id": "1295300001", "name": "USPS COLLECTION BOX - BLUE BOX", "address": {"city": "MALONE", "state": "NY", "street": "74 RENNIE ST", "postcode": "12953"}}},
{"geometry": {"type": "Point", "coordinates": [-74.3051537921, 44.850291247]}, "type": "Feature", "properties": {"collection_times": [{"days": "Mon-Fri", "time": "10:30am"}, {"days": "Sat", "time": "10:15am"}, {"days": "Sun", "time": "Closed"}], "id": "1295300007", "name": "USPS COLLECTION BOX - BLUE BOX", "address": {"city": "MALONE", "state": "NY", "street": "59 SAWYER AVE", "postcode": "12953"}}},
{"geometry": {"type": "Point", "coordinates": [-74.3018048353, 44.8521437608]}, "type": "Feature", "properties": {"collection_times": [{"days": "Mon-Fri", "time": "1:45pm"}, {"days": "Sat", "time": "1:30pm"}, {"days": "Sun", "time": "Closed"}], "id": "1295300008", "name": "USPS COLLECTION BOX - BLUE BOX", "address": {"city": "MALONE", "state": "NY", "street": "8 MAPLE ST", "postcode": "12953"}}},
{"geometry": {"type": "Point", "coordinates": [-74.295291949, 44.846274607]}, "type": "Feature", "properties": {"collection_times": [{"days": "Mon-Sat", "time": "10:30am"}, {"days": "Sun", "time": "Closed"}], "id": "1295300009", "name": "USPS COLLECTION BOX - BLUE BOX", "address": {"city": "MALONE", "state": "NY", "street": "54 ACADEMY ST", "postcode": "12953"}}},
{"geometry": {"type": "Point", "coordinates": [-74.2913250018, 44.8489166487]}, "type": "Feature", "properties": {"collection_times": [{"days": "Mon-Fri", "time": "5:00pm"}, {"days": "Sat", "time": "3:00pm"}, {"days": "Sun", "time": "Closed"}], "id": "1295300011", "name": "USPS COLLECTION BOX - BLUE BOX", "address": {"city": "MALONE", "state": "NY", "street": "436 E MAIN ST", "postcode": "12953"}}},
{"geometry": {"type": "Point", "coordinates": [-74.2892382622, 44.8511784662]}, "type": "Feature", "properties": {"collection_times": [{"days": "Mon-Sat", "time": "10:00am"}, {"days": "Sun", "time": "Closed"}], "id": "1295300014", "name": "USPS COLLECTION BOX - BLUE BOX", "address": {"city": "MALONE", "state": "NY", "street": "64 ELM ST", "postcode": "12953"}}},
{"geometry": {"type": "Point", "coordinates": [-74.2852410439, 44.8541618888]}, "type": "Feature", "properties": {"collection_times": [{"days": "Mon-Sat", "time": "10:30am"}, {"days": "Sun", "time": "Closed"}], "id": "1295300015", "name": "USPS COLLECTION BOX - BLUE BOX", "address": {"city": "MALONE", "state": "NY", "street": "150 ELM ST", "postcode": "12953"}}},
{"geometry": {"type": "Point", "coordinates": [-74.2820759347, 44.8551573295]}, "type": "Feature", "properties": {"collection_times": [{"days": "Mon-Fri", "time": "11:00am"}, {"days": "Sat", "time": "10:15am"}, {"days": "Sun", "time": "Closed"}], "id": "1295300016", "name": "USPS COLLECTION BOX - BLUE BOX", "address": {"city": "MALONE", "state": "NY", "street": "215 ELM ST", "postcode": "12953"}}},
{"geometry": {"type": "Point", "coordinates": [-74.2872285592, 44.8552262918]}, "type": "Feature", "properties": {"collection_times": [{"days": "Mon-Sat", "time": "12:00pm"}, {"days": "Sun", "time": "Closed"}], "id": "1295300017", "name": "USPS COLLECTION BOX - BLUE BOX", "address": {"city": "MALONE", "state": "NY", "street": "46 CONSTABLE ST", "postcode": "12953"}}},
{"geometry": {"type": "Point", "coordinates": [-74.2926818558, 44.8586015338]}, "type": "Feature", "properties": {"collection_times": [{"days": "Mon-Sat", "time": "1:30pm"}, {"days": "Sun", "time": "Closed"}], "id": "1295300018", "name": "USPS COLLECTION BOX - BLUE BOX", "address": {"city": "MALONE", "state": "NY", "street": "177 PARK ST", "postcode": "12953"}}},
{"geometry": {"type": "Point", "coordinates": [-74.2918026572, 44.8474048433]}, "type": "Feature", "properties": {"collection_times": [{"days": "Mon-Sat", "time": "8:45am"}, {"days": "Sun", "time": "Closed"}], "id": "1295300020", "name": "USPS COLLECTION BOX - BLUE BOX", "address": {"city": "MALONE", "state": "NY", "street": "77 CATHERINE ST", "postcode": "12953"}}},
{"geometry": {"type": "Point", "coordinates": [-74.2791958983, 44.8541363506]}, "type": "Feature", "properties": {"collection_times": [{"days": "Mon-Sat", "time": "12:00pm"}, {"days": "Sun", "time": "Closed"}], "id": "1295300022", "name": "USPS COLLECTION BOX - BLUE BOX", "address": {"city": "MALONE", "state": "NY", "street": "95 RAYMOND ST", "postcode": "12953"}}},
{"geometry": {"type": "Point", "coordinates": [-74.2784357921, 44.8502415828]}, "type": "Feature", "properties": {"collection_times": [{"days": "Mon-Sat", "time": "12:30pm"}, {"days": "Sun", "time": "Closed"}], "id": "1295300023", "name": "USPS COLLECTION BOX - BLUE BOX", "address": {"city": "MALONE", "state": "NY", "street": "619 E MAIN ST", "postcode": "12953"}}},
{"geometry": {"type": "Point", "coordinates": [-74.2819204781, 44.8498405397]}, "type": "Feature", "properties": {"collection_times": [{"days": "Mon-Sat", "time": "2:00pm"}, {"days": "Sun", "time": "Closed"}], "id": "1295300024", "name": "USPS COLLECTION BOX - BLUE BOX", "address": {"city": "MALONE", "state": "NY", "street": "571 E MAIN ST", "postcode": "12953"}}},
{"geometry": {"type": "Point", "coordinates": [-74.2908035308, 44.8489972635]}, "type": "Feature", "properties": {"collection_times": [{"days": "Mon-Fri", "time": "9:30am"}, {"days": "Sat", "time": "9:00am"}, {"days": "Sun", "time": "Closed"}], "id": "1295300025", "name": "USPS COLLECTION BOX - BLUE BOX", "address": {"city": "MALONE", "state": "NY", "street": "451 E MAIN ST", "postcode": "12953"}}},
{"geometry": {"type": "Point", "coordinates": [-74.2879402771, 44.8492815689]}, "type": "Feature", "properties": {"collection_times": [{"days": "Mon-Fri", "time": "5:00pm"}, {"days": "Sat", "time": "3:00pm"}, {"days": "Sun", "time": "Closed"}], "id": "1295300026", "name": "USPS COLLECTION BOX - BLUE BOX", "address": {"city": "MALONE", "state": "NY", "street": "485 E MAIN ST", "postcode": "12953"}}},
{"geometry": {"type": "Point", "coordinates": [-74.2885177954, 44.8490914941]}, "type": "Feature", "properties": {"collection_times": [{"days": "Mon-Fri", "time": "5:00pm"}, {"days": "Sat", "time": "3:00pm"}, {"days": "Sun", "time": "Closed"}], "id": "1295300027", "name": "USPS COLLECTION BOX - BLUE BOX", "address": {"city": "MALONE", "state": "NY", "street": "482 E MAIN ST", "postcode": "12953"}}},
{"geometry": {"type": "Point", "coordinates": [-74.2949458183, 44.8488498211]}, "type": "Feature", "properties": {"collection_times": [{"days": "Mon-Fri", "time": "5:00pm"}, {"days": "Sat-Sun", "time": "Closed"}], "id": "1295300029", "name": "USPS COLLECTION BOX - BLUE BOX", "address": {"city": "MALONE", "state": "NY", "street": "355 W MAIN ST", "postcode": "12953"}}},
{"geometry": {"type": "Point", "coordinates": [-74.3037895427, 44.8440745908]}, "type": "Feature", "properties": {"collection_times": [{"days": "Mon-Fri", "time": "11:30am"}, {"days": "Sat", "time": "11:15am"}, {"days": "Sun", "time": "Closed"}], "id": "1295300031", "name": "USPS COLLECTION BOX - BLUE BOX", "address": {"city": "MALONE", "state": "NY", "street": "75 PLEASANT ST", "postcode": "12953"}}},
{"geometry": {"type": "Point", "coordinates": [-74.2885177954, 44.8490914941]}, "type": "Feature", "properties": {"collection_times": [{"days": "Mon-Fri", "time": "5:00pm"}, {"days": "Sat", "time": "4:00pm"}, {"days": "Sun", "time": "Closed"}], "id": "1295300033", "name": "USPS COLLECTION BOX - PO LOBBY", "address": {"city": "MALONE", "state": "NY", "street": "482 E MAIN ST", "postcode": "12953"}}},
{"geometry": {"type": "Point", "coordinates": [-74.3081171043, 44.848215154]}, "type": "Feature", "properties": {"collection_times": [{"days": "Mon-Sat", "time": "8:45am"}, {"days": "Sun", "time": "Closed"}], "id": "1295300034", "name": "USPS COLLECTION BOX - BLUE BOX", "address": {"city": "MALONE", "state": "NY", "street": "228 W MAIN ST", "postcode": "12953"}}},
{"geometry": {"type": "Point", "coordinates": [-74.3051537921, 44.850291247]}, "type": "Feature", "properties": {"collection_times": [{"days": "Mon-Fri", "time": "10:30am"}, {"days": "Sat", "time": "10:15am"}, {"days": "Sun", "time": "Closed"}], "id": "1295300035", "name": "USPS COLLECTION BOX - BLUE BOX", "address": {"city": "MALONE", "state": "NY", "street": "59 SAWYER AVE", "postcode": "12953"}}},
{"geometry": {"type": "Point", "coordinates": [-73.5221568021, 44.0878836578]}, "type": "Feature", "properties": {"collection_times": [{"days": "Mon-Fri", "time": "4:15pm"}, {"days": "Sat", "time": "11:30am"}, {"days": "Sun", "time": "Closed"}], "id": "1295600001", "name": "USPS COLLECTION BOX - BLUE BOX", "address": {"city": "MINEVILLE", "state": "NY", "street": "137 RAYMOND WRIGHT AVE", "postcode": "12956"}}},
{"geometry": {"type": "Point", "coordinates": [-73.5222321192, 44.0879172217]}, "type": "Feature", "properties": {"collection_times": [{"days": "Mon-Fri", "time": "3:00pm"}, {"days": "Sat", "time": "12:00pm"}, {"days": "Sun", "time": "Closed"}], "id": "1295600004", "name": "USPS COLLECTION BOX - PO LOBBY", "address": {"city": "MINEVILLE", "state": "NY", "street": "137 RAYMOND WRIGHT AVE", "postcode": "12956"}}},
{"geometry": {"type": "Point", "coordinates": [-74.553306008, 44.819365777]}, "type": "Feature", "properties": {"collection_times": [{"days": "Mon-Fri", "time": "4:30pm"}, {"days": "Sat", "time": "11:15am"}, {"days": "Sun", "time": "Closed"}], "id": "1295700001", "name": "USPS COLLECTION BOX - BLUE BOX", "address": {"city": "MOIRA", "state": "NY", "street": "816 STATE ROUTE 11", "postcode": "12957"}}},
{"geometry": {"type": "Point", "coordinates": [-74.553306008, 44.819365777]}, "type": "Feature", "properties": {"collection_times": [{"days": "Mon-Fri", "time": "3:15pm"}, {"days": "Sat", "time": "11:30am"}, {"days": "Sun", "time": "Closed"}], "id": "1295700003", "name": "USPS COLLECTION BOX - PO LOBBY", "address": {"city": "MOIRA", "state": "NY", "street": "816 STATE ROUTE 11", "postcode": "12957"}}},
{"geometry": {"type": "Point", "coordinates": [-73.5952998478, 44.9602163476]}, "type": "Feature", "properties": {"collection_times": [{"days": "Mon-Fri", "time": "4:30pm"}, {"days": "Sat", "time": "10:45am"}, {"days": "Sun", "time": "Closed"}], "id": "1295800001", "name": "USPS COLLECTION BOX - BLUE BOX", "address": {"city": "MOOERS", "state": "NY", "street": "2578 ROUTE 11", "postcode": "12958"}}},
{"geometry": {"type": "Point", "coordinates": [-73.5952998478, 44.9602163476]}, "type": "Feature", "properties": {"collection_times": [{"days": "Mon-Fri", "time": "4:30pm"}, {"days": "Sat", "time": "11:15am"}, {"days": "Sun", "time": "Closed"}], "id": "1295800002", "name": "USPS COLLECTION BOX - PO LOBBY", "address": {"city": "MOOERS", "state": "NY", "street": "2578 ROUTE 11", "postcode": "12958"}}},
{"geometry": {"type": "Point", "coordinates": [-73.6384381195, 44.9581073101]}, "type": "Feature", "properties": {"collection_times": [{"days": "Mon-Fri", "time": "4:30pm"}, {"days": "Sat", "time": "11:00am"}, {"days": "Sun", "time": "Closed"}], "id": "1295900001", "name": "USPS COLLECTION BOX - BLUE BOX", "address": {"city": "MOOERS FORKS", "state": "NY", "street": "3071 ROUTE 11", "postcode": "12959"}}},
{"geometry": {"type": "Point", "coordinates": [-73.6384381195, 44.9581073101]}, "type": "Feature", "properties": {"collection_times": [{"days": "Mon-Fri", "time": "12:00pm"}, {"days": "Sat", "time": "11:00am"}, {"days": "Sun", "time": "Closed"}], "id": "1295900002", "name": "USPS COLLECTION BOX - PO LOBBY", "address": {"city": "MOOERS FORKS", "state": "NY", "street": "3071 ROUTE 11", "postcode": "12959"}}},
{"geometry": {"type": "Point", "coordinates": [-73.5049707742, 44.0461938179]}, "type": "Feature", "properties": {"collection_times": [{"days": "Mon-Fri", "time": "4:30pm"}, {"days": "Sat", "time": "11:30am"}, {"days": "Sun", "time": "Closed"}], "id": "1296000001", "name": "USPS COLLECTION BOX - BLUE BOX", "address": {"city": "MORIAH", "state": "NY", "street": "619 TARBELL HILL RD STE 1", "postcode": "12960"}}},
{"geometry": {"type": "Point", "coordinates": [-73.5049707742, 44.0461938179]}, "type": "Feature", "properties": {"collection_times": [{"days": "Mon-Fri", "time": "4:45pm"}, {"days": "Sat", "time": "12:00pm"}, {"days": "Sun", "time": "Closed"}], "id": "1296000002", "name": "USPS COLLECTION BOX - PO LOBBY", "address": {"city": "MORIAH", "state": "NY", "street": "619 TARBELL HILL RD STE 1", "postcode": "12960"}}},
{"geometry": {"type": "Point", "coordinates": [-73.5136763568, 44.0643879059]}, "type": "Feature", "properties": {"collection_times": [{"days": "Mon-Fri", "time": "4:30pm"}, {"days": "Sat", "time": "11:30am"}, {"days": "Sun", "time": "Closed"}], "id": "1296100001", "name": "USPS COLLECTION BOX - BLUE BOX", "address": {"city": "MORIAH CENTER", "state": "NY", "street": "54 WITHERBEE RD-SUITE 1", "postcode": "12961"}}},
{"geometry": {"type": "Point", "coordinates": [-73.5136763568, 44.0643879059]}, "type": "Feature", "properties": {"collection_times": [{"days": "Mon-Fri", "time": "12:00pm"}, {"days": "Sat", "time": "11:00am"}, {"days": "Sun", "time": "Closed"}], "id": "1296100002", "name": "USPS COLLECTION BOX - PO LOBBY", "address": {"city": "MORIAH CENTER", "state": "NY", "street": "54 WITHERBEE RD-SUITE 1", "postcode": "12961"}}},
{"geometry": {"type": "Point", "coordinates": [-73.5629759841, 44.6946079324]}, "type": "Feature", "properties": {"collection_times": [{"days": "Mon-Fri", "time": "4:30pm"}, {"days": "Sat", "time": "11:30am"}, {"days": "Sun", "time": "Closed"}], "id": "1296200001", "name": "USPS COLLECTION BOX - BLUE BOX", "address": {"city": "MORRISONVILLE", "state": "NY", "street": "1934 STATE ROUTE 22B", "postcode": "12962"}}},
{"geometry": {"type": "Point", "coordinates": [-73.5629759841, 44.6946079324]}, "type": "Feature", "properties": {"collection_times": [{"days": "Mon-Fri", "time": "5:15pm"}, {"days": "Sat", "time": "11:30am"}, {"days": "Sun", "time": "Closed"}], "id": "1296200002", "name": "USPS COLLECTION BOX - PO LOBBY", "address": {"city": "MORRISONVILLE", "state": "NY", "street": "1934 STATE ROUTE 22B", "postcode": "12962"}}},
{"geometry": {"type": "Point", "coordinates": [-73.5542114412, 44.6971879659]}, "type": "Feature", "properties": {"collection_times": [{"days": "Mon-Sat", "time": "10:00am"}, {"days": "Sun", "time": "Closed"}], "id": "1296200008", "name": "USPS COLLECTION BOX - BLUE BOX", "address": {"city": "MORRISONVILLE", "state": "NY", "street": "2025 STATE ROUTE 22B", "postcode": "12962"}}},
{"geometry": {"type": "Point", "coordinates": [-73.5898175631, 44.1396977251]}, "type": "Feature", "properties": {"collection_times": [{"days": "Mon-Fri", "time": "4:45pm"}, {"days": "Sat", "time": "11:45am"}, {"days": "Sun", "time": "Closed"}], "id": "1296400001", "name": "USPS COLLECTION BOX - BLUE BOX", "address": {"city": "NEW RUSSIA", "state": "NY", "street": "1 ROUTE 9", "postcode": "12964"}}},
{"geometry": {"type": "Point", "coordinates": [-73.5898175631, 44.1396977251]}, "type": "Feature", "properties": {"collection_times": [{"days": "Mon-Fri", "time": "11:00am"}, {"days": "Sat", "time": "11:45am"}, {"days": "Sun", "time": "Closed"}], "id": "1296400002", "name": "USPS COLLECTION BOX - PO LOBBY", "address": {"city": "NEW RUSSIA", "state": "NY", "street": "1 ROUTE 9", "postcode": "12964"}}},
{"geometry": {"type": "Point", "coordinates": [-74.6585012691, 44.6970377301]}, "type": "Feature", "properties": {"collection_times": [{"days": "Mon-Fri", "time": "3:40pm"}, {"days": "Sat", "time": "11:45am"}, {"days": "Sun", "time": "Closed"}], "id": "1296500001", "name": "USPS COLLECTION BOX - BLUE BOX", "address": {"city": "NICHOLVILLE", "state": "NY", "street": "6 PORT KENT RD", "postcode": "12965"}}},
{"geometry": {"type": "Point", "coordinates": [-74.6585012691, 44.6970377301]}, "type": "Feature", "properties": {"collection_times": [{"days": "Mon-Fri", "time": "12:30pm"}, {"days": "Sat", "time": "12:00pm"}, {"days": "Sun", "time": "Closed"}], "id": "1296500002", "name": "USPS COLLECTION BOX - PO LOBBY", "address": {"city": "NICHOLVILLE", "state": "NY", "street": "6 PORT KENT RD", "postcode": "12965"}}},
{"geometry": {"type": "Point", "coordinates": [-74.4008012357, 44.8420937545]}, "type": "Feature", "properties": {"collection_times": [{"days": "Mon-Fri", "time": "4:15pm"}, {"days": "Sat", "time": "10:45am"}, {"days": "Sun", "time": "Closed"}], "id": "1296600001", "name": "USPS COLLECTION BOX - BLUE BOX", "address": {"city": "NORTH BANGOR", "state": "NY", "street": "2449 STATE ROUTE 11", "postcode": "12966"}}},
{"geometry": {"type": "Point", "coordinates": [-74.4021000928, 44.8420009031]}, "type": "Feature", "properties": {"collection_times": [{"days": "Mon-Fri", "time": "3:00pm"}, {"days": "Sat", "time": "10:45am"}, {"days": "Sun", "time": "Closed"}], "id": "1296600004", "name": "USPS COLLECTION BOX - PO LOBBY", "address": {"city": "NORTH BANGOR", "state": "NY", "street": "2449 STATE ROUTE 11", "postcode": "12966"}}},
{"geometry": {"type": "Point", "coordinates": [-74.6779372849, 44.8043474867]}, "type": "Feature", "properties": {"collection_times": [{"days": "Mon-Fri", "time": "4:15pm"}, {"days": "Sat", "time": "11:15am"}, {"days": "Sun", "time": "Closed"}], "id": "1296700001", "name": "USPS COLLECTION BOX - BLUE BOX", "address": {"city": "NORTH LAWRENCE", "state": "NY", "street": "1971 STATE HIGHWAY 11C", "postcode": "12967"}}},
{"geometry": {"type": "Point", "coordinates": [-74.677902795, 44.804346136]}, "type": "Feature", "properties": {"collection_times": [{"days": "Mon-Fri", "time": "12:00pm"}, {"days": "Sat", "time": "11:30am"}, {"days": "Sun", "time": "Closed"}], "id": "1296700003", "name": "USPS COLLECTION BOX - PO LOBBY", "address": {"city": "NORTH LAWRENCE", "state": "NY", "street": "1971 STATE HIGHWAY 11C", "postcode": "12967"}}},
{"geometry": {"type": "Point", "coordinates": [-74.1721633292, 44.7337375209]}, "type": "Feature", "properties": {"collection_times": [{"days": "Mon-Fri", "time": "4:00pm"}, {"days": "Sat", "time": "11:00am"}, {"days": "Sun", "time": "Closed"}], "id": "1296900001", "name": "USPS COLLECTION BOX - BLUE BOX", "address": {"city": "OWLS HEAD", "state": "NY", "street": "16 RAGGED LAKE RD", "postcode": "12969"}}},
{"geometry": {"type": "Point", "coordinates": [-74.1710946842, 44.733612164]}, "type": "Feature", "properties": {"collection_times": [{"days": "Mon-Fri", "time": "12:00pm"}, {"days": "Sat", "time": "11:15am"}, {"days": "Sun", "time": "Closed"}], "id": "1296900002", "name": "USPS COLLECTION BOX - PO LOBBY", "address": {"city": "OWLS HEAD", "state": "NY", "street": "16 RAGGED LAKE RD", "postcode": "12969"}}},
{"geometry": {"type": "Point", "coordinates": [-74.2768187384, 44.4696489789]}, "type": "Feature", "properties": {"collection_times": [{"days": "Mon-Sat", "time": "12:00pm"}, {"days": "Sun", "time": "Closed"}], "id": "1297000001", "name": "USPS COLLECTION BOX - PO LOBBY", "address": {"city": "PAUL SMITHS", "state": "NY", "street": "7833 STATE ROUTE 30", "postcode": "12970"}}},
{"geometry": {"type": "Point", "coordinates": [-74.2768187384, 44.4696489789]}, "type": "Feature", "properties": {"collection_times": [{"days": "Mon-Fri", "time": "4:15pm"}, {"days": "Sat", "time": "11:15am"}, {"days": "Sun", "time": "Closed"}], "id": "1297000002", "name": "USPS COLLECTION BOX - BLUE BOX", "address": {"city": "PAUL SMITHS", "state": "NY", "street": "7833 STATE ROUTE 30", "postcode": "12970"}}},
{"geometry": {"type": "Point", "coordinates": [-73.5145996573, 44.5769589107]}, "type": "Feature", "properties": {"collection_times": [{"days": "Mon-Fri", "time": "4:45pm"}, {"days": "Sat", "time": "11:30am"}, {"days": "Sun", "time": "Closed"}], "id": "1297200003", "name": "USPS COLLECTION BOX - BLUE BOX", "address": {"city": "PERU", "state": "NY", "street": "742 BEAR SWAMP RD", "postcode": "12972"}}},
{"geometry": {"type": "Point", "coordinates": [-73.5030035135, 44.5991857305]}, "type": "Feature", "properties": {"collection_times": [{"days": "Mon-Sat", "time": "10:30am"}, {"days": "Sun", "time": "Closed"}], "id": "1297200005", "name": "USPS COLLECTION BOX - BLUE BOX", "address": {"city": "PERU", "state": "NY", "street": "3384 STATE ROUTE 22", "postcode": "12972"}}},
{"geometry": {"type": "Point", "coordinates": [-73.5145996573, 44.5769589107]}, "type": "Feature", "properties": {"collection_times": [{"days": "Mon-Fri", "time": "4:45pm"}, {"days": "Sat", "time": "11:30am"}, {"days": "Sun", "time": "Closed"}], "id": "1297200006", "name": "USPS COLLECTION BOX - PO LOBBY", "address": {"city": "PERU", "state": "NY", "street": "742 BEAR SWAMP RD", "postcode": "12972"}}},
{"geometry": {"type": "Point", "coordinates": [-73.5244895972, 44.5773814308]}, "type": "Feature", "properties": {"collection_times": [{"days": "Mon-Sat", "time": "11:30am"}, {"days": "Sun", "time": "Closed"}], "id": "1297200010", "name": "USPS COLLECTION BOX - BLUE BOX", "address": {"city": "PERU", "state": "NY", "street": "3 GORMAN WAY", "postcode": "12972"}}},
{"geometry": {"type": "Point", "coordinates": [-74.566080234, 44.2314948761]}, "type": "Feature", "properties": {"collection_times": [{"days": "Mon-Fri", "time": "4:15pm"}, {"days": "Sat", "time": "12:15pm"}, {"days": "Sun", "time": "Closed"}], "id": "1297300001", "name": "USPS COLLECTION BOX - BLUE BOX", "address": {"city": "PIERCEFIELD", "state": "NY", "street": "39 WALLER ST", "postcode": "12973"}}},
{"geometry": {"type": "Point", "coordinates": [-74.566080234, 44.2314948761]}, "type": "Feature", "properties": {"collection_times": [{"days": "Mon-Fri", "time": "12:00pm"}, {"days": "Sat", "time": "1:00pm"}, {"days": "Sun", "time": "Closed"}], "id": "1297300002", "name": "USPS COLLECTION BOX - PO LOBBY", "address": {"city": "PIERCEFIELD", "state": "NY", "street": "39 WALLER ST", "postcode": "12973"}}},
{"geometry": {"type": "Point", "coordinates": [-73.4596066638, 44.0482864723]}, "type": "Feature", "properties": {"collection_times": [{"days": "Mon-Sat", "time": "2:30pm"}, {"days": "Sun", "time": "Closed"}], "id": "1297400008", "name": "USPS COLLECTION BOX - BLUE BOX", "address": {"city": "PORT HENRY", "state": "NY", "street": "4318 MAIN ST", "postcode": "12974"}}},
{"geometry": {"type": "Point", "coordinates": [-73.460525823, 44.0486035053]}, "type": "Feature", "properties": {"collection_times": [{"days": "Mon-Fri", "time": "4:45pm"}, {"days": "Sat", "time": "3:45pm"}, {"days": "Sun", "time": "Closed"}], "id": "1297400009", "name": "USPS COLLECTION BOX - BLUE BOX", "address": {"city": "PORT HENRY", "state": "NY", "street": "3260 BROAD ST", "postcode": "12974"}}},
{"geometry": {"type": "Point", "coordinates": [-73.460551626, 44.048602518]}, "type": "Feature", "properties": {"collection_times": [{"days": "Mon-Fri", "time": "3:00pm"}, {"days": "Sat", "time": "11:00am"}, {"days": "Sun", "time": "Closed"}], "id": "1297400010", "name": "USPS COLLECTION BOX - PO LOBBY", "address": {"city": "PORT HENRY", "state": "NY", "street": "3260 BROAD ST", "postcode": "12974"}}},
{"geometry": {"type": "Point", "coordinates": [-73.4595960172, 44.0474193634]}, "type": "Feature", "properties": {"collection_times": [{"days": "Mon-Sat", "time": "2:30pm"}, {"days": "Sun", "time": "Closed"}], "id": "1297400011", "name": "USPS COLLECTION BOX - BLUE BOX", "address": {"city": "PORT HENRY", "state": "NY", "street": "4308 MAIN ST", "postcode": "12974"}}},
{"geometry": {"type": "Point", "coordinates": [-73.4073873467, 44.5224387372]}, "type": "Feature", "properties": {"collection_times": [{"days": "Mon-Fri", "time": "12:00pm"}, {"days": "Sat", "time": "11:30am"}, {"days": "Sun", "time": "Closed"}], "id": "1297500002", "name": "USPS COLLECTION BOX - PO LOBBY", "address": {"city": "PORT KENT", "state": "NY", "street": "31 FIRST ST", "postcode": "12975"}}},
{"geometry": {"type": "Point", "coordinates": [-74.171186174, 44.4674245385]}, "type": "Feature", "properties": {"collection_times": [{"days": "Mon-Fri", "time": "4:30pm"}, {"days": "Sat", "time": "11:30am"}, {"days": "Sun", "time": "Closed"}], "id": "1297600001", "name": "USPS COLLECTION BOX - BLUE BOX", "address": {"city": "RAINBOW LAKE", "state": "NY", "street": "555 COUNTY ROUTE 60", "postcode": "12976"}}},
{"geometry": {"type": "Point", "coordinates": [-74.1230239705, 44.4926605042]}, "type": "Feature", "properties": {"collection_times": [{"days": "Mon-Sat", "time": "11:30am"}, {"days": "Sun", "time": "Closed"}], "id": "1297600002", "name": "USPS COLLECTION BOX - PO LOBBY", "address": {"city": "RAINBOW LAKE", "state": "NY", "street": "1 MAIN ST", "postcode": "12976"}}},
{"geometry": {"type": "Point", "coordinates": [-74.0923520636, 44.2997704685]}, "type": "Feature", "properties": {"collection_times": [{"days": "Mon-Fri", "time": "4:30pm"}, {"days": "Sat", "time": "11:30am"}, {"days": "Sun", "time": "Closed"}], "id": "1297700001", "name": "USPS COLLECTION BOX - BLUE BOX", "address": {"city": "RAYBROOK", "state": "NY", "street": "900 NYS ROUTE 86", "postcode": "12977"}}},
{"geometry": {"type": "Point", "coordinates": [-74.0923520636, 44.2997704685]}, "type": "Feature", "properties": {"collection_times": [{"days": "Mon-Fri", "time": "3:00pm"}, {"days": "Sat", "time": "11:30am"}, {"days": "Sun", "time": "Closed"}], "id": "1297700002", "name": "USPS COLLECTION BOX - PO LOBBY", "address": {"city": "RAYBROOK", "state": "NY", "street": "900 NYS ROUTE 86", "postcode": "12977"}}},
{"geometry": {"type": "Point", "coordinates": [-73.7947208288, 44.6104653728]}, "type": "Feature", "properties": {"collection_times": [{"days": "Mon-Fri", "time": "4:00pm"}, {"days": "Sat", "time": "10:00am"}, {"days": "Sun", "time": "Closed"}], "id": "1297800001", "name": "USPS COLLECTION BOX - BLUE BOX", "address": {"city": "REDFORD", "state": "NY", "street": "4314 ROUTE 3", "postcode": "12978"}}},
{"geometry": {"type": "Point", "coordinates": [-73.7947208288, 44.6104653728]}, "type": "Feature", "properties": {"collection_times": [{"days": "Mon-Fri", "time": "12:00pm"}, {"days": "Sat", "time": "10:00am"}, {"days": "Sun", "time": "Closed"}], "id": "1297800002", "name": "USPS COLLECTION BOX - PO LOBBY", "address": {"city": "REDFORD", "state": "NY", "street": "4314 ROUTE 3", "postcode": "12978"}}},
{"geometry": {"type": "Point", "coordinates": [-73.3655673409, 44.9923646187]}, "type": "Feature", "properties": {"collection_times": [{"days": "Mon-Fri", "time": "4:30pm"}, {"days": "Sat", "time": "12:00pm"}, {"days": "Sun", "time": "Closed"}], "id": "1297900001", "name": "USPS COLLECTION BOX - BLUE BOX", "address": {"city": "ROUSES POINT", "state": "NY", "street": "9 CHAPMAN ST", "postcode": "12979"}}},
{"geometry": {"type": "Point", "coordinates": [-73.3636793384, 44.9892120331]}, "type": "Feature", "properties": {"collection_times": [{"days": "Mon-Sat", "time": "2:00pm"}, {"days": "Sun", "time": "Closed"}], "id": "1297900004", "name": "USPS COLLECTION BOX - BLUE BOX", "address": {"city": "ROUSES POINT", "state": "NY", "street": "154 LAKE ST", "postcode": "12979"}}},
{"geometry": {"type": "Point", "coordinates": [-73.3649107987, 44.9946134237]}, "type": "Feature", "properties": {"collection_times": [{"days": "Mon-Sat", "time": "9:00am"}, {"days": "Sun", "time": "Closed"}], "id": "1297900005", "name": "USPS COLLECTION BOX - BLUE BOX", "address": {"city": "ROUSES POINT", "state": "NY", "street": "64 LAKE ST", "postcode": "12979"}}},
{"geometry": {"type": "Point", "coordinates": [-73.3665314525, 44.9850752256]}, "type": "Feature", "properties": {"collection_times": [{"days": "Mon-Sat", "time": "12:30pm"}, {"days": "Sun", "time": "Closed"}], "id": "1297900008", "name": "USPS COLLECTION BOX - BLUE BOX", "address": {"city": "ROUSES POINT", "state": "NY", "street": "99 MAPLE ST", "postcode": "12979"}}},
{"geometry": {"type": "Point", "coordinates": [-73.3671105522, 44.9913018843]}, "type": "Feature", "properties": {"collection_times": [{"days": "Mon-Sat", "time": "11:45am"}, {"days": "Sun", "time": "Closed"}], "id": "1297900009", "name": "USPS COLLECTION BOX - BLUE BOX", "address": {"city": "ROUSES POINT", "state": "NY", "street": "6 CLINTON ST", "postcode": "12979"}}},
{"geometry": {"type": "Point", "coordinates": [-73.3663197028, 44.9877120411]}, "type": "Feature", "properties": {"collection_times": [{"days": "Mon-Sat", "time": "12:00pm"}, {"days": "Sun", "time": "Closed"}], "id": "1297900010", "name": "USPS COLLECTION BOX - BLUE BOX", "address": {"city": "ROUSES POINT", "state": "NY", "street": "22 ACADEMY ST", "postcode": "12979"}}},
{"geometry": {"type": "Point", "coordinates": [-73.3655673409, 44.9923646187]}, "type": "Feature", "properties": {"collection_times": [{"days": "Mon-Fri", "time": "4:30pm"}, {"days": "Sat", "time": "12:00pm"}, {"days": "Sun", "time": "Closed"}], "id": "1297900019", "name": "USPS COLLECTION BOX - PO LOBBY", "address": {"city": "ROUSES POINT", "state": "NY", "street": "9 CHAPMAN ST", "postcode": "12979"}}},
{"geometry": {"type": "Point", "coordinates": [-73.3605373994, 45.0003247496]}, "type": "Feature", "properties": {"collection_times": [{"days": "Mon-Fri", "time": "8:30am"}, {"days": "Sat-Sun", "time": "Closed"}], "id": "1297900020", "name": "USPS COLLECTION BOX - BLUE BOX", "address": {"city": "ROUSES POINT", "state": "NY", "street": "1 LINCOLN BLVD", "postcode": "12979"}}},
{"geometry": {"type": "Point", "coordinates": [-73.3629691232, 44.9828763543]}, "type": "Feature", "properties": {"collection_times": [{"days": "Mon-Sat", "time": "1:15pm"}, {"days": "Sun", "time": "Closed"}], "id": "1297900021", "name": "USPS COLLECTION BOX - BLUE BOX", "address": {"city": "ROUSES POINT", "state": "NY", "street": "222 LAKE ST", "postcode": "12979"}}},
{"geometry": {"type": "Point", "coordinates": [-74.5446414687, 44.6747898209]}, "type": "Feature", "properties": {"collection_times": [{"days": "Mon-Fri", "time": "4:15pm"}, {"days": "Sat", "time": "12:00pm"}, {"days": "Sun", "time": "Closed"}], "id": "1298000001", "name": "USPS COLLECTION BOX - BLUE BOX", "address": {"city": "ST REGIS FLS", "state": "NY", "street": "25 N MAIN ST", "postcode": "12980"}}},
{"geometry": {"type": "Point", "coordinates": [-74.5447266716, 44.6746499037]}, "type": "Feature", "properties": {"collection_times": [{"days": "Mon-Fri", "time": "3:30pm"}, {"days": "Sat", "time": "12:00pm"}, {"days": "Sun", "time": "Closed"}], "id": "1298000004", "name": "USPS COLLECTION BOX - PO LOBBY", "address": {"city": "ST REGIS FLS", "state": "NY", "street": "25 N MAIN ST", "postcode": "12980"}}},
{"geometry": {"type": "Point", "coordinates": [-73.739319677, 44.6532185642]}, "type": "Feature", "properties": {"collection_times": [{"days": "Mon-Fri", "time": "4:45pm"}, {"days": "Sat", "time": "11:15am"}, {"days": "Sun", "time": "Closed"}], "id": "1298100001", "name": "USPS COLLECTION BOX - BLUE BOX", "address": {"city": "SARANAC", "state": "NY", "street": "3439 STATE ROUTE 3", "postcode": "12981"}}},
{"geometry": {"type": "Point", "coordinates": [-73.739319677, 44.6532185642]}, "type": "Feature", "properties": {"collection_times": [{"days": "Mon-Fri", "time": "3:00pm"}, {"days": "Sat", "time": "11:15am"}, {"days": "Sun", "time": "Closed"}], "id": "1298100002", "name": "USPS COLLECTION BOX - PO LOBBY", "address": {"city": "SARANAC", "state": "NY", "street": "3439 STATE ROUTE 3", "postcode": "12981"}}},
{"geometry": {"type": "Point", "coordinates": [-74.1323672568, 44.3284028745]}, "type": "Feature", "properties": {"collection_times": [{"days": "Mon-Fri", "time": "5:00pm"}, {"days": "Sat", "time": "4:00pm"}, {"days": "Sun", "time": "Closed"}], "id": "1298300002", "name": "USPS COLLECTION BOX - BLUE BOX", "address": {"city": "SARANAC LAKE", "state": "NY", "street": "51 BROADWAY", "postcode": "12983"}}},
{"geometry": {"type": "Point", "coordinates": [-74.1407118494, 44.3463933145]}, "type": "Feature", "properties": {"collection_times": [{"days": "Mon-Fri", "time": "12:00pm"}, {"days": "Sat", "time": "11:00am"}, {"days": "Sun", "time": "Closed"}], "id": "1298300004", "name": "USPS COLLECTION BOX - BLUE BOX", "address": {"city": "SARANAC LAKE", "state": "NY", "street": "309 COUNTY ROUTE 47", "postcode": "12983"}}},
{"geometry": {"type": "Point", "coordinates": [-74.1315592959, 44.3265349823]}, "type": "Feature", "properties": {"collection_times": [{"days": "Mon-Fri", "time": "3:30pm"}, {"days": "Sat", "time": "10:30am"}, {"days": "Sun", "time": "Closed"}], "id": "1298300005", "name": "USPS COLLECTION BOX - BLUE BOX", "address": {"city": "SARANAC LAKE", "state": "NY", "street": "75 MAIN ST", "postcode": "12983"}}},
{"geometry": {"type": "Point", "coordinates": [-74.1281902287, 44.3258086455]}, "type": "Feature", "properties": {"collection_times": [{"days": "Mon-Fri", "time": "9:30am"}, {"days": "Sat", "time": "9:00am"}, {"days": "Sun", "time": "Closed"}], "id": "1298300006", "name": "USPS COLLECTION BOX - BLUE BOX", "address": {"city": "SARANAC LAKE", "state": "NY", "street": "48 CHURCH ST", "postcode": "12983"}}},
{"geometry": {"type": "Point", "coordinates": [-74.1317592159, 44.3255673219]}, "type": "Feature", "properties": {"collection_times": [{"days": "Mon-Fri", "time": "3:30pm"}, {"days": "Sat", "time": "11:00am"}, {"days": "Sun", "time": "Closed"}], "id": "1298300007", "name": "USPS COLLECTION BOX - BLUE BOX", "address": {"city": "SARANAC LAKE", "state": "NY", "street": "39 MAIN ST", "postcode": "12983"}}},
{"geometry": {"type": "Point", "coordinates": [-74.1223925468, 44.3229778247]}, "type": "Feature", "properties": {"collection_times": [{"days": "Mon-Sat", "time": "9:00am"}, {"days": "Sun", "time": "Closed"}], "id": "1298300011", "name": "USPS COLLECTION BOX - BLUE BOX", "address": {"city": "SARANAC LAKE", "state": "NY", "street": "209 LAKE FLOWER AVE", "postcode": "12983"}}},
{"geometry": {"type": "Point", "coordinates": [-74.1390403284, 44.334212386]}, "type": "Feature", "properties": {"collection_times": [{"days": "Mon-Sat", "time": "1:30pm"}, {"days": "Sun", "time": "Closed"}], "id": "1298300013", "name": "USPS COLLECTION BOX - BLUE BOX", "address": {"city": "SARANAC LAKE", "state": "NY", "street": "277 BROADWAY", "postcode": "12983"}}},
{"geometry": {"type": "Point", "coordinates": [-74.1323672568, 44.3284028745]}, "type": "Feature", "properties": {"collection_times": [{"days": "Mon-Fri", "time": "5:00pm"}, {"days": "Sat", "time": "4:00pm"}, {"days": "Sun", "time": "Closed"}], "id": "1298300016", "name": "USPS COLLECTION BOX - PO LOBBY", "address": {"city": "SARANAC LAKE", "state": "NY", "street": "51 BROADWAY", "postcode": "12983"}}},
{"geometry": {"type": "Point", "coordinates": [-73.7845858766, 44.5524258257]}, "type": "Feature", "properties": {"collection_times": [{"days": "Mon-Fri", "time": "5:00pm"}, {"days": "Sat", "time": "12:15pm"}, {"days": "Sun", "time": "Closed"}], "id": "1298500001", "name": "USPS COLLECTION BOX - BLUE BOX", "address": {"city": "SCHUYLER FALLS", "state": "NY", "street": "954 ROUTE 22B", "postcode": "12985"}}},
{"geometry": {"type": "Point", "coordinates": [-73.7845858766, 44.5524258257]}, "type": "Feature", "properties": {"collection_times": [{"days": "Mon-Fri", "time": "12:30pm"}, {"days": "Sat", "time": "12:15pm"}, {"days": "Sun", "time": "Closed"}], "id": "1298500002", "name": "USPS COLLECTION BOX - PO LOBBY", "address": {"city": "SCHUYLER FALLS", "state": "NY", "street": "954 ROUTE 22B", "postcode": "12985"}}},
{"geometry": {"type": "Point", "coordinates": [-74.4632195861, 44.2276538083]}, "type": "Feature", "properties": {"collection_times": [{"days": "Mon-Sat", "time": "9:00am"}, {"days": "Sun", "time": "Closed"}], "id": "1298600001", "name": "USPS COLLECTION BOX - BLUE BOX", "address": {"city": "TUPPER LAKE", "state": "NY", "street": "16 DEMARS BLVD", "postcode": "12986"}}},
{"geometry": {"type": "Point", "coordinates": [-74.4632195861, 44.2276538083]}, "type": "Feature", "properties": {"collection_times": [{"days": "Mon-Sat", "time": "9:00am"}, {"days": "Sun", "time": "Closed"}], "id": "1298600002", "name": "USPS COLLECTION BOX - BLUE BOX", "address": {"city": "TUPPER LAKE", "state": "NY", "street": "94 DEMARS BLVD", "postcode": "12986"}}},
{"geometry": {"type": "Point", "coordinates": [-74.4783682364, 44.2396722037]}, "type": "Feature", "properties": {"collection_times": [{"days": "Mon-Sat", "time": "1:00pm"}, {"days": "Sun", "time": "Closed"}], "id": "1298600003", "name": "USPS COLLECTION BOX - BLUE BOX", "address": {"city": "TUPPER LAKE", "state": "NY", "street": "58 MAIN ST", "postcode": "12986"}}},
{"geometry": {"type": "Point", "coordinates": [-74.4662124723, 44.2224357763]}, "type": "Feature", "properties": {"collection_times": [{"days": "Mon-Fri", "time": "3:30pm"}, {"days": "Sat", "time": "12:30pm"}, {"days": "Sun", "time": "Closed"}], "id": "1298600006", "name": "USPS COLLECTION BOX - BLUE BOX", "address": {"city": "TUPPER LAKE", "state": "NY", "street": "48 PARK ST", "postcode": "12986"}}},
{"geometry": {"type": "Point", "coordinates": [-74.4644664248, 44.2237382142]}, "type": "Feature", "properties": {"collection_times": [{"days": "Mon-Fri", "time": "3:30pm"}, {"days": "Sat", "time": "12:30pm"}, {"days": "Sun", "time": "Closed"}], "id": "1298600008", "name": "USPS COLLECTION BOX - BLUE BOX", "address": {"city": "TUPPER LAKE", "state": "NY", "street": "117 PARK ST", "postcode": "12986"}}},
{"geometry": {"type": "Point", "coordinates": [-74.4659971737, 44.2235725999]}, "type": "Feature", "properties": {"collection_times": [{"days": "Mon-Fri", "time": "5:00pm"}, {"days": "Sat", "time": "4:15pm"}, {"days": "Sun", "time": "Closed"}], "id": "1298600013", "name": "USPS COLLECTION BOX - BLUE BOX", "address": {"city": "TUPPER LAKE", "state": "NY", "street": "9 CLIFF AVE", "postcode": "12986"}}},
{"geometry": {"type": "Point", "coordinates": [-74.4659971737, 44.2235725999]}, "type": "Feature", "properties": {"collection_times": [{"days": "Mon-Fri", "time": "5:00pm"}, {"days": "Sat", "time": "4:15pm"}, {"days": "Sun", "time": "Closed"}], "id": "1298600014", "name": "USPS COLLECTION BOX - PO LOBBY", "address": {"city": "TUPPER LAKE", "state": "NY", "street": "9 CLIFF AVE", "postcode": "12986"}}},
{"geometry": {"type": "Point", "coordinates": [-73.7720488696, 44.3204045292]}, "type": "Feature", "properties": {"collection_times": [{"days": "Mon-Fri", "time": "4:20pm"}, {"days": "Sat", "time": "11:20am"}, {"days": "Sun", "time": "Closed"}], "id": "1298700001", "name": "USPS COLLECTION BOX - BLUE BOX", "address": {"city": "UPPER JAY", "state": "NY", "street": "12197 STATE ROUTE 9N", "postcode": "12987"}}},
{"geometry": {"type": "Point", "coordinates": [-73.7720488696, 44.3204045292]}, "type": "Feature", "properties": {"collection_times": [{"days": "Mon-Fri", "time": "1:00pm"}, {"days": "Sat", "time": "12:00pm"}, {"days": "Sun", "time": "Closed"}], "id": "1298700002", "name": "USPS COLLECTION BOX - PO LOBBY", "address": {"city": "UPPER JAY", "state": "NY", "street": "12197 STATE ROUTE 9N", "postcode": "12987"}}},
{"geometry": {"type": "Point", "coordinates": [-74.0647571085, 44.4514623909]}, "type": "Feature", "properties": {"collection_times": [{"days": "Mon-Fri", "time": "4:30pm"}, {"days": "Sat", "time": "11:30am"}, {"days": "Sun", "time": "Closed"}], "id": "1298900001", "name": "USPS COLLECTION BOX - BLUE BOX", "address": {"city": "VERMONTVILLE", "state": "NY", "street": "6 COLD BROOK RD", "postcode": "12989"}}},
{"geometry": {"type": "Point", "coordinates": [-74.0647571085, 44.4514623909]}, "type": "Feature", "properties": {"collection_times": [{"days": "Mon-Fri", "time": "12:00pm"}, {"days": "Sat", "time": "11:30am"}, {"days": "Sun", "time": "Closed"}], "id": "1298900003", "name": "USPS COLLECTION BOX - PO LOBBY", "address": {"city": "VERMONTVILLE", "state": "NY", "street": "6 COLD BROOK RD", "postcode": "12989"}}},
{"geometry": {"type": "Point", "coordinates": [-74.058578256, 44.549671816]}, "type": "Feature", "properties": {"collection_times": [{"days": "Mon-Sat", "time": "10:00am"}, {"days": "Sun", "time": "Closed"}], "id": "1298900004", "name": "USPS COLLECTION BOX - BLUE BOX", "address": {"city": "VERMONTVILLE", "state": "NY", "street": "294 BLUE SPRUCE DR", "postcode": "12989"}}},
{"geometry": {"type": "Point", "coordinates": [-73.5061539276, 44.7799070279]}, "type": "Feature", "properties": {"collection_times": [{"days": "Mon-Sat", "time": "8:30am"}, {"days": "Sun", "time": "Closed"}], "id": "1299200002", "name": "USPS COLLECTION BOX - BLUE BOX", "address": {"city": "WEST CHAZY", "state": "NY", "street": "22 STONY ACRES DR", "postcode": "12992"}}},
{"geometry": {"type": "Point", "coordinates": [-73.5078216077, 44.8158164675]}, "type": "Feature", "properties": {"collection_times": [{"days": "Mon-Fri", "time": "4:30pm"}, {"days": "Sat", "time": "10:45am"}, {"days": "Sun", "time": "Closed"}], "id": "1299200004", "name": "USPS COLLECTION BOX - BLUE BOX", "address": {"city": "WEST CHAZY", "state": "NY", "street": "7634 ROUTE 22", "postcode": "12992"}}},
{"geometry": {"type": "Point", "coordinates": [-73.5078216077, 44.8158164675]}, "type": "Feature", "properties": {"collection_times": [{"days": "Mon-Fri", "time": "4:45pm"}, {"days": "Sat", "time": "10:45am"}, {"days": "Sun", "time": "Closed"}], "id": "1299200006", "name": "USPS COLLECTION BOX - PO LOBBY", "address": {"city": "WEST CHAZY", "state": "NY", "street": "7634 ROUTE 22", "postcode": "12992"}}},
{"geometry": {"type": "Point", "coordinates": [-73.4344321141, 44.1822080738]}, "type": "Feature", "properties": {"collection_times": [{"days": "Mon-Fri", "time": "3:30pm"}, {"days": "Sat", "time": "9:15am"}, {"days": "Sun", "time": "Closed"}], "id": "1299300001", "name": "USPS COLLECTION BOX - BLUE BOX", "address": {"city": "WESTPORT", "state": "NY", "street": "9 HARRIS LN", "postcode": "12993"}}},
{"geometry": {"type": "Point", "coordinates": [-73.4330918216, 44.1822494773]}, "type": "Feature", "properties": {"collection_times": [{"days": "Mon-Fri", "time": "1:30pm"}, {"days": "Sat", "time": "9:15am"}, {"days": "Sun", "time": "Closed"}], "id": "1299300002", "name": "USPS COLLECTION BOX - BLUE BOX", "address": {"city": "WESTPORT", "state": "NY", "street": "6474 MAIN ST", "postcode": "12993"}}},
{"geometry": {"type": "Point", "coordinates": [-73.4344321141, 44.1822080738]}, "type": "Feature", "properties": {"collection_times": [{"days": "Mon-Fri", "time": "4:50pm"}, {"days": "Sat", "time": "11:00am"}, {"days": "Sun", "time": "Closed"}], "id": "1299300003", "name": "USPS COLLECTION BOX - PO LOBBY", "address": {"city": "WESTPORT", "state": "NY", "street": "9 HARRIS LN", "postcode": "12993"}}},
{"geometry": {"type": "Point", "coordinates": [-73.3889808043, 44.3572830372]}, "type": "Feature", "properties": {"collection_times": [{"days": "Mon-Fri", "time": "4:30pm"}, {"days": "Sat", "time": "11:30am"}, {"days": "Sun", "time": "Closed"}], "id": "1299600001", "name": "USPS COLLECTION BOX - BLUE BOX", "address": {"city": "WILLSBORO", "state": "NY", "street": "3665 ESSEX RD STE 2", "postcode": "12996"}}},
{"geometry": {"type": "Point", "coordinates": [-73.3889808043, 44.3572830372]}, "type": "Feature", "properties": {"collection_times": [{"days": "Mon-Fri", "time": "4:30pm"}, {"days": "Sat", "time": "11:30am"}, {"days": "Sun", "time": "Closed"}], "id": "1299600004", "name": "USPS COLLECTION BOX - PO LOBBY", "address": {"city": "WILLSBORO", "state": "NY", "street": "3665 ESSEX RD STE 2", "postcode": "12996"}}},
{"geometry": {"type": "Point", "coordinates": [-73.8352539117, 44.3850246732]}, "type": "Feature", "properties": {"collection_times": [{"days": "Mon-Fri", "time": "4:30pm"}, {"days": "Sat", "time": "11:30am"}, {"days": "Sun", "time": "Closed"}], "id": "1299700001", "name": "USPS COLLECTION BOX - BLUE BOX", "address": {"city": "WILMINGTON", "state": "NY", "street": "100 ROUTE 86", "postcode": "12997"}}},
{"geometry": {"type": "Point", "coordinates": [-73.833495978, 44.3787484584]}, "type": "Feature", "properties": {"collection_times": [{"days": "Mon-Fri", "time": "3:00pm"}, {"days": "Sat", "time": "11:30am"}, {"days": "Sun", "time": "Closed"}], "id": "1299700002", "name": "USPS COLLECTION BOX - PO LOBBY", "address": {"city": "WILMINGTON", "state": "NY", "street": "100 ROUTE 86", "postcode": "12997"}}}
]}
