{"type": "FeatureCollection", "features": [
{"geometry": {"type": "Point", "coordinates": [-76.070144474, 42.8170861154]}, "type": "Feature", "properties": {"collection_times": [{"days": "Mon-Fri", "time": "11:00am"}, {"days": "Sat", "time": "11:45am"}, {"days": "Sun", "time": "Closed"}], "id": "1302000002", "name": "USPS COLLECTION BOX - PO LOBBY", "address": {"city": "APULIA STATION", "state": "NY", "street": "979 APULIA RD", "postcode": "13020"}}},
{"geometry": {"type": "Point", "coordinates": [-76.070144474, 42.8170861154]}, "type": "Feature", "properties": {"collection_times": [{"days": "Mon-Fri", "time": "11:00am"}, {"days": "Sat", "time": "11:30am"}, {"days": "Sun", "time": "Closed"}], "id": "1302000003", "name": "USPS COLLECTION BOX - BLUE BOX", "address": {"city": "APULIA STATION", "state": "NY", "street": "979 APULIA RD", "postcode": "13020"}}},
{"geometry": {"type": "Point", "coordinates": [-76.571469122, 42.9291652567]}, "type": "Feature", "properties": {"collection_times": [{"days": "Mon-Fri", "time": "5:30pm"}, {"days": "Sat", "time": "4:45pm"}, {"days": "Sun", "time": "Closed"}], "id": "1302100002", "name": "USPS COLLECTION BOX - BLUE BOX", "address": {"city": "AUBURN", "state": "NY", "street": "1 JAMES ST", "postcode": "13021"}}},
{"geometry": {"type": "Point", "coordinates": [-76.571469122, 42.9291652567]}, "type": "Feature", "properties": {"collection_times": [{"days": "Mon-Fri", "time": "5:00pm"}, {"days": "Sat", "time": "4:00pm"}, {"days": "Sun", "time": "Closed"}], "id": "1302100004", "name": "USPS COLLECTION BOX - PO LOBBY", "address": {"city": "AUBURN", "state": "NY", "street": "1 JAMES ST", "postcode": "13021"}}},
{"geometry": {"type": "Point", "coordinates": [-76.5663368959, 42.9317452103]}, "type": "Feature", "properties": {"collection_times": [{"days": "Mon-Fri", "time": "4:15pm"}, {"days": "Sat", "time": "11:00am"}, {"days": "Sun", "time": "Closed"}], "id": "1302100008", "name": "USPS COLLECTION BOX - BLUE BOX", "address": {"city": "AUBURN", "state": "NY", "street": "75 GENESEE ST", "postcode": "13021"}}},
{"geometry": {"type": "Point", "coordinates": [-76.5634213132, 42.9330148727]}, "type": "Feature", "properties": {"collection_times": [{"days": "Mon-Fri", "time": "4:00pm"}, {"days": "Sat", "time": "10:00am"}, {"days": "Sun", "time": "Closed"}], "id": "1302100010", "name": "USPS COLLECTION BOX - BLUE BOX", "address": {"city": "AUBURN", "state": "NY", "street": "161 GENESEE ST", "postcode": "13021"}}},
{"geometry": {"type": "Point", "coordinates": [-76.5725767757, 42.9402736446]}, "type": "Feature", "properties": {"collection_times": [{"days": "Mon-Sat", "time": "2:00pm"}, {"days": "Sun", "time": "Closed"}], "id": "1302100011", "name": "USPS COLLECTION BOX - BLUE BOX", "address": {"city": "AUBURN", "state": "NY", "street": "213 STATE ST", "postcode": "13021"}}},
{"geometry": {"type": "Point", "coordinates": [-76.5627265639, 42.9408351685]}, "type": "Feature", "properties": {"collection_times": [{"days": "Mon-Fri", "time": "3:00pm"}, {"days": "Sat", "time": "10:00am"}, {"days": "Sun", "time": "Closed"}], "id": "1302100012", "name": "USPS COLLECTION BOX - BLUE BOX", "address": {"city": "AUBURN", "state": "NY", "street": "77 NELSON ST", "postcode": "13021"}}},
{"geometry": {"type": "Point", "coordinates": [-76.5701229445, 42.9297324248]}, "type": "Feature", "properties": {"collection_times": [{"days": "Mon-Fri", "time": "4:00pm"}, {"days": "Sat", "time": "10:00am"}, {"days": "Sun", "time": "Closed"}], "id": "1302100015", "name": "USPS COLLECTION BOX - BLUE BOX", "address": {"city": "AUBURN", "state": "NY", "street": "160 GENESEE ST", "postcode": "13021"}}},
{"geometry": {"type": "Point", "coordinates": [-76.5668894111, 42.9288537248]}, "type": "Feature", "properties": {"collection_times": [{"days": "Mon-Sat", "time": "10:00am"}, {"days": "Sun", "time": "Closed"}], "id": "1302100016", "name": "USPS COLLECTION BOX - BLUE BOX", "address": {"city": "AUBURN", "state": "NY", "street": "33 WILLIAM ST", "postcode": "13021"}}},
{"geometry": {"type": "Point", "coordinates": [-76.5566155791, 42.9224486903]}, "type": "Feature", "properties": {"collection_times": [{"days": "Mon-Sat", "time": "12:30pm"}, {"days": "Sun", "time": "Closed"}], "id": "1302100018", "name": "USPS COLLECTION BOX - BLUE BOX", "address": {"city": "AUBURN", "state": "NY", "street": "TH1 STANDART WOODS", "postcode": "13021"}}},
{"geometry": {"type": "Point", "coordinates": [-76.5574894003, 42.9295429395]}, "type": "Feature", "properties": {"collection_times": [{"days": "Mon-Sat", "time": "2:30pm"}, {"days": "Sun", "time": "Closed"}], "id": "1302100019", "name": "USPS COLLECTION BOX - BLUE BOX", "address": {"city": "AUBURN", "state": "NY", "street": "66 OWASCO ST", "postcode": "13021"}}},
{"geometry": {"type": "Point", "coordinates": [-76.6084643498, 42.928651001]}, "type": "Feature", "properties": {"collection_times": [{"days": "Mon-Sat", "time": "9:00am"}, {"days": "Sun", "time": "Closed"}], "id": "1302100023", "name": "USPS COLLECTION BOX - BLUE BOX", "address": {"city": "AUBURN", "state": "NY", "street": "2000 CLARK STREET RD", "postcode": "13021"}}},
{"geometry": {"type": "Point", "coordinates": [-76.5677752229, 42.9308958643]}, "type": "Feature", "properties": {"collection_times": [{"days": "Mon-Fri", "time": "4:00pm"}, {"days": "Sat", "time": "11:00am"}, {"days": "Sun", "time": "Closed"}], "id": "1302100028", "name": "USPS COLLECTION BOX - BLUE BOX", "address": {"city": "AUBURN", "state": "NY", "street": "120 GENESEE ST", "postcode": "13021"}}},
{"geometry": {"type": "Point", "coordinates": [-76.55923, 42.92606]}, "type": "Feature", "properties": {"collection_times": [{"days": "Mon-Sat", "time": "1:00pm"}, {"days": "Sun", "time": "Closed"}], "id": "1302100030", "name": "USPS COLLECTION BOX - BLUE BOX", "address": {"city": "AUBURN", "state": "NY", "street": "54 ELIZABETH ST", "postcode": "13021"}}},
{"geometry": {"type": "Point", "coordinates": [-76.5688392779, 42.9305036858]}, "type": "Feature", "properties": {"collection_times": [{"days": "Mon-Fri", "time": "4:15pm"}, {"days": "Sat", "time": "11:00am"}, {"days": "Sun", "time": "Closed"}], "id": "1302100035", "name": "USPS COLLECTION BOX - BLUE BOX", "address": {"city": "AUBURN", "state": "NY", "street": "149 GENESEE ST", "postcode": "13021"}}},
{"geometry": {"type": "Point", "coordinates": [-76.5659407168, 42.9301025704]}, "type": "Feature", "properties": {"collection_times": [{"days": "Mon-Sat", "time": "3:00pm"}, {"days": "Sun", "time": "Closed"}], "id": "1302100037", "name": "USPS COLLECTION BOX - BLUE BOX", "address": {"city": "AUBURN", "state": "NY", "street": "24 SOUTH ST", "postcode": "13021"}}},
{"geometry": {"type": "Point", "coordinates": [-76.5449886085, 42.941424441]}, "type": "Feature", "properties": {"collection_times": [{"days": "Mon-Sat", "time": "10:30am"}, {"days": "Sun", "time": "Closed"}], "id": "1302100042", "name": "USPS COLLECTION BOX - BLUE BOX", "address": {"city": "AUBURN", "state": "NY", "street": "191 FRANKLIN ST", "postcode": "13021"}}},
{"geometry": {"type": "Point", "coordinates": [-76.5727166592, 42.9283834715]}, "type": "Feature", "properties": {"collection_times": [{"days": "Mon-Sat", "time": "10:30am"}, {"days": "Sun", "time": "Closed"}], "id": "1302100043", "name": "USPS COLLECTION BOX - BLUE BOX", "address": {"city": "AUBURN", "state": "NY", "street": "188 GENESEE ST", "postcode": "13021"}}},
{"geometry": {"type": "Point", "coordinates": [-76.5474705903, 42.9494458298]}, "type": "Feature", "properties": {"collection_times": [{"days": "Mon-Fri", "time": "5:00pm"}, {"days": "Sat", "time": "10:30am"}, {"days": "Sun", "time": "Closed"}], "id": "1302100045", "name": "USPS COLLECTION BOX - BLUE BOX", "address": {"city": "AUBURN", "state": "NY", "street": "217 GRANT AVE", "postcode": "13021"}}},
{"geometry": {"type": "Point", "coordinates": [-76.5474705903, 42.9494458298]}, "type": "Feature", "properties": {"collection_times": [{"days": "Mon-Fri", "time": "5:00pm"}, {"days": "Sat", "time": "10:30am"}, {"days": "Sun", "time": "Closed"}], "id": "1302100046", "name": "USPS COLLECTION BOX - BLUE BOX", "address": {"city": "AUBURN", "state": "NY", "street": "217 GRANT AVE", "postcode": "13021"}}},
{"geometry": {"type": "Point", "coordinates": [-76.5916709749, 42.9193421101]}, "type": "Feature", "properties": {"collection_times": [{"days": "Mon-Sat", "time": "10:00am"}, {"days": "Sun", "time": "Closed"}], "id": "1302100047", "name": "USPS COLLECTION BOX - BLUE BOX", "address": {"city": "AUBURN", "state": "NY", "street": "352 GENESEE ST", "postcode": "13021"}}},
{"geometry": {"type": "Point", "coordinates": [-76.5701229445, 42.9297324248]}, "type": "Feature", "properties": {"collection_times": [{"days": "Mon-Fri", "time": "4:00pm"}, {"days": "Sat", "time": "10:00am"}, {"days": "Sun", "time": "Closed"}], "id": "1302100049", "name": "USPS COLLECTION BOX - BLUE BOX", "address": {"city": "AUBURN", "state": "NY", "street": "160 GENESEE ST", "postcode": "13021"}}},
{"geometry": {"type": "Point", "coordinates": [-76.5785542942, 42.9254912624]}, "type": "Feature", "properties": {"collection_times": [{"days": "Mon-Sat", "time": "1:00pm"}, {"days": "Sun", "time": "Closed"}], "id": "1302100058", "name": "USPS COLLECTION BOX - BLUE BOX", "address": {"city": "AUBURN", "state": "NY", "street": "232 GENESEE ST", "postcode": "13021"}}},
{"geometry": {"type": "Point", "coordinates": [-76.5637521369, 42.9309548575]}, "type": "Feature", "properties": {"collection_times": [{"days": "Mon-Sat", "time": "9:00am"}, {"days": "Sun", "time": "Closed"}], "id": "1302100087", "name": "USPS COLLECTION BOX - BLUE BOX", "address": {"city": "AUBURN", "state": "NY", "street": "1 LOOP RD", "postcode": "13021"}}},
{"geometry": {"type": "Point", "coordinates": [-76.571469122, 42.9291652567]}, "type": "Feature", "properties": {"collection_times": [{"days": "Mon-Fri", "time": "5:30pm"}, {"days": "Sat", "time": "4:00pm"}, {"days": "Sun", "time": "Closed"}], "id": "1302100088", "name": "USPS COLLECTION BOX - BLUE BOX", "address": {"city": "AUBURN", "state": "NY", "street": "1 JAMES ST", "postcode": "13021"}}},
{"geometry": {"type": "Point", "coordinates": [-76.5441194807, 42.9548424743]}, "type": "Feature", "properties": {"collection_times": [{"days": "Mon-Sat", "time": "9:00am"}, {"days": "Sun", "time": "Closed"}], "id": "1302100090", "name": "USPS COLLECTION BOX - BLUE BOX", "address": {"city": "AUBURN", "state": "NY", "street": "297 GRANT AVE", "postcode": "13021"}}},
{"geometry": {"type": "Point", "coordinates": [-76.5700226932, 42.9345093015]}, "type": "Feature", "properties": {"collection_times": [{"days": "Mon-Sat", "time": "12:00pm"}, {"days": "Sun", "time": "Closed"}], "id": "1302100091", "name": "USPS COLLECTION BOX - BLUE BOX", "address": {"city": "AUBURN", "state": "NY", "street": "37 W GARDEN ST", "postcode": "13021"}}},
{"geometry": {"type": "Point", "coordinates": [-76.5663680077, 42.9360539505]}, "type": "Feature", "properties": {"collection_times": [{"days": "Mon-Sat", "time": "9:00am"}, {"days": "Sun", "time": "Closed"}], "id": "1302100092", "name": "USPS COLLECTION BOX - BLUE BOX", "address": {"city": "AUBURN", "state": "NY", "street": "90 NORTH ST", "postcode": "13021"}}},
{"geometry": {"type": "Point", "coordinates": [-76.5633267429, 42.9311468288]}, "type": "Feature", "properties": {"collection_times": [{"days": "Mon-Sat", "time": "9:00am"}, {"days": "Sun", "time": "Closed"}], "id": "1302100093", "name": "USPS COLLECTION BOX - BLUE BOX", "address": {"city": "AUBURN", "state": "NY", "street": "2 LOOP RD", "postcode": "13021"}}},
{"geometry": {"type": "Point", "coordinates": [-76.5634995429, 42.9297138546]}, "type": "Feature", "properties": {"collection_times": [{"days": "Mon-Fri", "time": "5:30pm"}, {"days": "Sat", "time": "4:00pm"}, {"days": "Sun", "time": "Closed"}], "id": "1302100096", "name": "USPS COLLECTION BOX - EXPRESS", "address": {"city": "AUBURN", "state": "NY", "street": "1 JAMES ST", "postcode": "13021"}}},
{"geometry": {"type": "Point", "coordinates": [-76.5677752229, 42.9308958643]}, "type": "Feature", "properties": {"collection_times": [{"days": "Mon-Fri", "time": "4:00pm"}, {"days": "Sat", "time": "11:00am"}, {"days": "Sun", "time": "Closed"}], "id": "1302100097", "name": "USPS COLLECTION BOX - BLUE BOX", "address": {"city": "AUBURN", "state": "NY", "street": "120 GENESEE ST", "postcode": "13021"}}},
{"geometry": {"type": "Point", "coordinates": [-76.70247348, 42.7539475573]}, "type": "Feature", "properties": {"collection_times": [{"days": "Mon-Fri", "time": "4:30pm"}, {"days": "Sat", "time": "11:45am"}, {"days": "Sun", "time": "Closed"}], "id": "1302600001", "name": "USPS COLLECTION BOX - BLUE BOX", "address": {"city": "AURORA", "state": "NY", "street": "373 MAIN ST", "postcode": "13026"}}},
{"geometry": {"type": "Point", "coordinates": [-76.70247348, 42.7539475573]}, "type": "Feature", "properties": {"collection_times": [{"days": "Mon-Fri", "time": "4:45pm"}, {"days": "Sat", "time": "12:00pm"}, {"days": "Sun", "time": "Closed"}], "id": "1302600002", "name": "USPS COLLECTION BOX - PO LOBBY", "address": {"city": "AURORA", "state": "NY", "street": "373 MAIN ST", "postcode": "13026"}}},
{"geometry": {"type": "Point", "coordinates": [-76.3298315684, 43.1588327576]}, "type": "Feature", "properties": {"collection_times": [{"days": "Mon-Fri", "time": "5:00pm"}, {"days": "Sat", "time": "2:00pm"}, {"days": "Sun", "time": "Closed"}], "id": "1302700001", "name": "USPS COLLECTION BOX - BLUE BOX", "address": {"city": "BALDWINSVILLE", "state": "NY", "street": "26 E GENESEE ST", "postcode": "13027"}}},
{"geometry": {"type": "Point", "coordinates": [-76.3298315684, 43.1588327576]}, "type": "Feature", "properties": {"collection_times": [{"days": "Mon-Fri", "time": "5:00pm"}, {"days": "Sat", "time": "2:00pm"}, {"days": "Sun", "time": "Closed"}], "id": "1302700002", "name": "USPS COLLECTION BOX - BLUE BOX", "address": {"city": "BALDWINSVILLE", "state": "NY", "street": "26 E GENESEE ST", "postcode": "13027"}}},
{"geometry": {"type": "Point", "coordinates": [-76.3386242605, 43.1496277957]}, "type": "Feature", "properties": {"collection_times": [{"days": "Mon-Sat", "time": "10:00am"}, {"days": "Sun", "time": "Closed"}], "id": "1302700005", "name": "USPS COLLECTION BOX - BLUE BOX", "address": {"city": "BALDWINSVILLE", "state": "NY", "street": "700 CONIFER DR", "postcode": "13027"}}},
{"geometry": {"type": "Point", "coordinates": [-76.3439279727, 43.1517539833]}, "type": "Feature", "properties": {"collection_times": [{"days": "Mon-Sat", "time": "10:30am"}, {"days": "Sun", "time": "Closed"}], "id": "1302700007", "name": "USPS COLLECTION BOX - BLUE BOX", "address": {"city": "BALDWINSVILLE", "state": "NY", "street": "113 DOWNER ST", "postcode": "13027"}}},
{"geometry": {"type": "Point", "coordinates": [-76.3025218701, 43.133143877]}, "type": "Feature", "properties": {"collection_times": [{"days": "Mon-Sat", "time": "10:00am"}, {"days": "Sun", "time": "Closed"}], "id": "1302700009", "name": "USPS COLLECTION BOX - BLUE BOX", "address": {"city": "BALDWINSVILLE", "state": "NY", "street": "127 IDLEWOOD BLVD", "postcode": "13027"}}},
{"geometry": {"type": "Point", "coordinates": [-76.3013226845, 43.1677729493]}, "type": "Feature", "properties": {"collection_times": [{"days": "Mon-Fri", "time": "2:00pm"}, {"days": "Sat", "time": "12:00pm"}, {"days": "Sun", "time": "Closed"}], "id": "1302700010", "name": "USPS COLLECTION BOX - BLUE BOX", "address": {"city": "BALDWINSVILLE", "state": "NY", "street": "3000 BELGIUM RD", "postcode": "13027"}}},
{"geometry": {"type": "Point", "coordinates": [-76.3522651997, 43.1783624103]}, "type": "Feature", "properties": {"collection_times": [{"days": "Mon-Sat", "time": "9:00am"}, {"days": "Sun", "time": "Closed"}], "id": "1302700014", "name": "USPS COLLECTION BOX - BLUE BOX", "address": {"city": "BALDWINSVILLE", "state": "NY", "street": "8417 OSWEGO RD", "postcode": "13027"}}},
{"geometry": {"type": "Point", "coordinates": [-76.2939454938, 43.189085299]}, "type": "Feature", "properties": {"collection_times": [{"days": "Mon-Sat", "time": "10:30am"}, {"days": "Sun", "time": "Closed"}], "id": "1302700015", "name": "USPS COLLECTION BOX - BLUE BOX", "address": {"city": "BALDWINSVILLE", "state": "NY", "street": "8650 CARPENTER RD", "postcode": "13027"}}},
{"geometry": {"type": "Point", "coordinates": [-76.3326649171, 43.1589707947]}, "type": "Feature", "properties": {"collection_times": [{"days": "Mon-Fri", "time": "3:15pm"}, {"days": "Sat", "time": "9:00am"}, {"days": "Sun", "time": "Closed"}], "id": "1302700020", "name": "USPS COLLECTION BOX - BLUE BOX", "address": {"city": "BALDWINSVILLE", "state": "NY", "street": "44 OSWEGO ST", "postcode": "13027"}}},
{"geometry": {"type": "Point", "coordinates": [-76.3397473938, 43.1680194621]}, "type": "Feature", "properties": {"collection_times": [{"days": "Mon-Sat", "time": "9:00am"}, {"days": "Sun", "time": "Closed"}], "id": "1302700023", "name": "USPS COLLECTION BOX - BLUE BOX", "address": {"city": "BALDWINSVILLE", "state": "NY", "street": "80 SMOKEY HOLLOW RD", "postcode": "13027"}}},
{"geometry": {"type": "Point", "coordinates": [-76.3298315684, 43.1588327576]}, "type": "Feature", "properties": {"collection_times": [{"days": "Mon-Fri", "time": "5:00pm"}, {"days": "Sat", "time": "3:30pm"}, {"days": "Sun", "time": "Closed"}], "id": "1302700025", "name": "USPS COLLECTION BOX - PO LOBBY", "address": {"city": "BALDWINSVILLE", "state": "NY", "street": "26 E GENESEE ST", "postcode": "13027"}}},
{"geometry": {"type": "Point", "coordinates": [-76.3117055061, 43.1288185892]}, "type": "Feature", "properties": {"collection_times": [{"days": "Mon-Sat", "time": "10:00am"}, {"days": "Sun", "time": "Closed"}], "id": "1302700027", "name": "USPS COLLECTION BOX - BLUE BOX", "address": {"city": "BALDWINSVILLE", "state": "NY", "street": "101 FAIRWAY CIR", "postcode": "13027"}}},
{"geometry": {"type": "Point", "coordinates": [-76.3234663581, 43.1633980765]}, "type": "Feature", "properties": {"collection_times": [{"days": "Mon-Sat", "time": "9:00am"}, {"days": "Sun", "time": "Closed"}], "id": "1302700028", "name": "USPS COLLECTION BOX - BLUE BOX", "address": {"city": "BALDWINSVILLE", "state": "NY", "street": "34 CANDLEWOOD GDNS", "postcode": "13027"}}},
{"geometry": {"type": "Point", "coordinates": [-75.9353599678, 43.2440719303]}, "type": "Feature", "properties": {"collection_times": [{"days": "Mon-Fri", "time": "12:00pm"}, {"days": "Sat", "time": "11:15am"}, {"days": "Sun", "time": "Closed"}], "id": "1302800002", "name": "USPS COLLECTION BOX - PO LOBBY", "address": {"city": "BERNHARDS BAY", "state": "NY", "street": "694 STATE ROUTE 49", "postcode": "13028"}}},
{"geometry": {"type": "Point", "coordinates": [-75.9353599678, 43.2440719303]}, "type": "Feature", "properties": {"collection_times": [{"days": "Mon-Fri", "time": "4:30pm"}, {"days": "Sat", "time": "11:00am"}, {"days": "Sun", "time": "Closed"}], "id": "1302800003", "name": "USPS COLLECTION BOX - BLUE BOX", "address": {"city": "BERNHARDS BAY", "state": "NY", "street": "694 STATE ROUTE 49", "postcode": "13028"}}},
{"geometry": {"type": "Point", "coordinates": [-76.1339738647, 43.232680731]}, "type": "Feature", "properties": {"collection_times": [{"days": "Mon-Fri", "time": "4:45pm"}, {"days": "Sat", "time": "11:45am"}, {"days": "Sun", "time": "Closed"}], "id": "1302900001", "name": "USPS COLLECTION BOX - BLUE BOX", "address": {"city": "BREWERTON", "state": "NY", "street": "5560 BARTEL RD", "postcode": "13029"}}},
{"geometry": {"type": "Point", "coordinates": [-76.1339738647, 43.232680731]}, "type": "Feature", "properties": {"collection_times": [{"days": "Mon-Fri", "time": "4:45pm"}, {"days": "Sat", "time": "11:45am"}, {"days": "Sun", "time": "Closed"}], "id": "1302900007", "name": "USPS COLLECTION BOX - BLUE BOX", "address": {"city": "BREWERTON", "state": "NY", "street": "5560 BARTEL RD", "postcode": "13029"}}},
{"geometry": {"type": "Point", "coordinates": [-76.1339738647, 43.232680731]}, "type": "Feature", "properties": {"collection_times": [{"days": "Mon-Fri", "time": "4:45pm"}, {"days": "Sat", "time": "11:45am"}, {"days": "Sun", "time": "Closed"}], "id": "1302900009", "name": "USPS COLLECTION BOX - PO LOBBY", "address": {"city": "BREWERTON", "state": "NY", "street": "5560 BARTEL RD", "postcode": "13029"}}},
{"geometry": {"type": "Point", "coordinates": [-76.1339738647, 43.232680731]}, "type": "Feature", "properties": {"collection_times": [{"days": "Mon-Fri", "time": "4:45pm"}, {"days": "Sat", "time": "11:45am"}, {"days": "Sun", "time": "Closed"}], "id": "1302900010", "name": "USPS COLLECTION BOX - BLUE BOX", "address": {"city": "BREWERTON", "state": "NY", "street": "5560 BARTEL RD", "postcode": "13029"}}},
{"geometry": {"type": "Point", "coordinates": [-75.9477125879, 43.1635985305]}, "type": "Feature", "properties": {"collection_times": [{"days": "Mon-Fri", "time": "4:45pm"}, {"days": "Sat", "time": "12:00pm"}, {"days": "Sun", "time": "Closed"}], "id": "1303000001", "name": "USPS COLLECTION BOX - BLUE BOX", "address": {"city": "BRIDGEPORT", "state": "NY", "street": "7901 BRIDGEPORT MINOA RD", "postcode": "13030"}}},
{"geometry": {"type": "Point", "coordinates": [-75.9477125879, 43.1635985305]}, "type": "Feature", "properties": {"collection_times": [{"days": "Mon-Fri", "time": "4:45pm"}, {"days": "Sat", "time": "12:00pm"}, {"days": "Sun", "time": "Closed"}], "id": "1303000003", "name": "USPS COLLECTION BOX - PO LOBBY", "address": {"city": "BRIDGEPORT", "state": "NY", "street": "7901 BRIDGEPORT MINOA RD", "postcode": "13030"}}},
{"geometry": {"type": "Point", "coordinates": [-76.2745084135, 43.0401169676]}, "type": "Feature", "properties": {"collection_times": [{"days": "Mon-Fri", "time": "5:00pm"}, {"days": "Sat", "time": "2:30pm"}, {"days": "Sun", "time": "Closed"}], "id": "1303100001", "name": "USPS COLLECTION BOX - BLUE BOX", "address": {"city": "CAMILLUS", "state": "NY", "street": "120 KASSON RD", "postcode": "13031"}}},
{"geometry": {"type": "Point", "coordinates": [-76.2745084135, 43.0401169676]}, "type": "Feature", "properties": {"collection_times": [{"days": "Mon-Fri", "time": "5:00pm"}, {"days": "Sat", "time": "2:30pm"}, {"days": "Sun", "time": "Closed"}], "id": "1303100002", "name": "USPS COLLECTION BOX - BLUE BOX", "address": {"city": "CAMILLUS", "state": "NY", "street": "120 KASSON RD", "postcode": "13031"}}},
{"geometry": {"type": "Point", "coordinates": [-76.2862795016, 43.0405419563]}, "type": "Feature", "properties": {"collection_times": [{"days": "Mon-Fri", "time": "2:00pm"}, {"days": "Sat", "time": "1:00pm"}, {"days": "Sun", "time": "Closed"}], "id": "1303100003", "name": "USPS COLLECTION BOX - BLUE BOX", "address": {"city": "CAMILLUS", "state": "NY", "street": "64 MAIN ST", "postcode": "13031"}}},
{"geometry": {"type": "Point", "coordinates": [-76.2901425872, 43.0392701542]}, "type": "Feature", "properties": {"collection_times": [{"days": "Mon-Fri", "time": "2:00pm"}, {"days": "Sat", "time": "1:30pm"}, {"days": "Sun", "time": "Closed"}], "id": "1303100005", "name": "USPS COLLECTION BOX - BLUE BOX", "address": {"city": "CAMILLUS", "state": "NY", "street": "100 WEATHERIDGE DR", "postcode": "13031"}}},
{"geometry": {"type": "Point", "coordinates": [-76.2694126402, 43.052359188]}, "type": "Feature", "properties": {"collection_times": [{"days": "Mon-Sat", "time": "10:00am"}, {"days": "Sun", "time": "Closed"}], "id": "1303100006", "name": "USPS COLLECTION BOX - BLUE BOX", "address": {"city": "CAMILLUS", "state": "NY", "street": "100 EAGLE LN", "postcode": "13031"}}},
{"geometry": {"type": "Point", "coordinates": [-76.2929915955, 43.0399815596]}, "type": "Feature", "properties": {"collection_times": [{"days": "Mon-Fri", "time": "2:00pm"}, {"days": "Sat", "time": "9:00am"}, {"days": "Sun", "time": "Closed"}], "id": "1303100009", "name": "USPS COLLECTION BOX - BLUE BOX", "address": {"city": "CAMILLUS", "state": "NY", "street": "5700 W GENESEE ST", "postcode": "13031"}}},
{"geometry": {"type": "Point", "coordinates": [-76.2745084135, 43.0401169676]}, "type": "Feature", "properties": {"collection_times": [{"days": "Mon-Fri", "time": "5:00pm"}, {"days": "Sat", "time": "12:00pm"}, {"days": "Sun", "time": "Closed"}], "id": "1303100010", "name": "USPS COLLECTION BOX - PO LOBBY", "address": {"city": "CAMILLUS", "state": "NY", "street": "120 KASSON RD", "postcode": "13031"}}},
{"geometry": {"type": "Point", "coordinates": [-76.2646965103, 43.0504728255]}, "type": "Feature", "properties": {"collection_times": [{"days": "Mon-Sat", "time": "11:00am"}, {"days": "Sun", "time": "Closed"}], "id": "1303100011", "name": "USPS COLLECTION BOX - BLUE BOX", "address": {"city": "CAMILLUS", "state": "NY", "street": "8 KINGS GATE", "postcode": "13031"}}},
{"geometry": {"type": "Point", "coordinates": [-75.751373177, 43.0787569638]}, "type": "Feature", "properties": {"collection_times": [{"days": "Mon-Fri", "time": "5:00pm"}, {"days": "Sat", "time": "2:45pm"}, {"days": "Sun", "time": "Closed"}], "id": "1303200001", "name": "USPS COLLECTION BOX - BLUE BOX", "address": {"city": "CANASTOTA", "state": "NY", "street": "118 S PETERBORO ST", "postcode": "13032"}}},
{"geometry": {"type": "Point", "coordinates": [-75.751373177, 43.0787569638]}, "type": "Feature", "properties": {"collection_times": [{"days": "Mon-Fri", "time": "5:00pm"}, {"days": "Sat", "time": "2:45pm"}, {"days": "Sun", "time": "Closed"}], "id": "1303200002", "name": "USPS COLLECTION BOX - BLUE BOX", "address": {"city": "CANASTOTA", "state": "NY", "street": "118 S PETERBORO ST", "postcode": "13032"}}},
{"geometry": {"type": "Point", "coordinates": [-75.7502810696, 43.078111894]}, "type": "Feature", "properties": {"collection_times": [{"days": "Mon-Fri", "time": "5:00pm"}, {"days": "Sat", "time": "2:45pm"}, {"days": "Sun", "time": "Closed"}], "id": "1303200004", "name": "USPS COLLECTION BOX - BLUE BOX", "address": {"city": "CANASTOTA", "state": "NY", "street": "301 DIAMOND ST", "postcode": "13032"}}},
{"geometry": {"type": "Point", "coordinates": [-75.751373177, 43.0787569638]}, "type": "Feature", "properties": {"collection_times": [{"days": "Mon-Fri", "time": "4:45pm"}, {"days": "Sat", "time": "2:45pm"}, {"days": "Sun", "time": "Closed"}], "id": "1303200005", "name": "USPS COLLECTION BOX - PO LOBBY", "address": {"city": "CANASTOTA", "state": "NY", "street": "118 S PETERBORO ST", "postcode": "13032"}}},
{"geometry": {"type": "Point", "coordinates": [-75.7546393267, 43.0829091497]}, "type": "Feature", "properties": {"collection_times": [{"days": "Mon-Sat", "time": "11:30am"}, {"days": "Sun", "time": "Closed"}], "id": "1303200006", "name": "USPS COLLECTION BOX - BLUE BOX", "address": {"city": "CANASTOTA", "state": "NY", "street": "224 N MAIN ST", "postcode": "13032"}}},
{"geometry": {"type": "Point", "coordinates": [-75.7522475121, 43.0718814521]}, "type": "Feature", "properties": {"collection_times": [{"days": "Mon-Sat", "time": "9:30am"}, {"days": "Sun", "time": "Closed"}], "id": "1303200010", "name": "USPS COLLECTION BOX - BLUE BOX", "address": {"city": "CANASTOTA", "state": "NY", "street": "427 S PETERBORO ST", "postcode": "13032"}}},
{"geometry": {"type": "Point", "coordinates": [-75.760571866, 43.0741304113]}, "type": "Feature", "properties": {"collection_times": [{"days": "Mon-Sat", "time": "9:30am"}, {"days": "Sun", "time": "Closed"}], "id": "1303200012", "name": "USPS COLLECTION BOX - BLUE BOX", "address": {"city": "CANASTOTA", "state": "NY", "street": "250 W HICKORY ST", "postcode": "13032"}}},
{"geometry": {"type": "Point", "coordinates": [-75.7502138773, 43.0830676662]}, "type": "Feature", "properties": {"collection_times": [{"days": "Mon-Sat", "time": "10:30am"}, {"days": "Sun", "time": "Closed"}], "id": "1303200013", "name": "USPS COLLECTION BOX - BLUE BOX", "address": {"city": "CANASTOTA", "state": "NY", "street": "301 N PETERBORO ST", "postcode": "13032"}}},
{"geometry": {"type": "Point", "coordinates": [-75.7504859578, 43.0699178944]}, "type": "Feature", "properties": {"collection_times": [{"days": "Mon-Sat", "time": "9:00am"}, {"days": "Sun", "time": "Closed"}], "id": "1303200015", "name": "USPS COLLECTION BOX - BLUE BOX", "address": {"city": "CANASTOTA", "state": "NY", "street": "3400 SENECA TPKE", "postcode": "13032"}}},
{"geometry": {"type": "Point", "coordinates": [-76.5719751678, 43.1681947065]}, "type": "Feature", "properties": {"collection_times": [{"days": "Mon-Fri", "time": "4:30pm"}, {"days": "Sat", "time": "11:30am"}, {"days": "Sun", "time": "Closed"}], "id": "1303300001", "name": "USPS COLLECTION BOX - BLUE BOX", "address": {"city": "CATO", "state": "NY", "street": "2544 E MAIN ST", "postcode": "13033"}}},
{"geometry": {"type": "Point", "coordinates": [-76.5719751678, 43.1681947065]}, "type": "Feature", "properties": {"collection_times": [{"days": "Mon-Fri", "time": "5:15pm"}, {"days": "Sat", "time": "12:00pm"}, {"days": "Sun", "time": "Closed"}], "id": "1303300002", "name": "USPS COLLECTION BOX - PO LOBBY", "address": {"city": "CATO", "state": "NY", "street": "2544 E MAIN ST", "postcode": "13033"}}},
{"geometry": {"type": "Point", "coordinates": [-76.5719751678, 43.1681947065]}, "type": "Feature", "properties": {"collection_times": [{"days": "Mon-Fri", "time": "5:15pm"}, {"days": "Sat", "time": "12:00pm"}, {"days": "Sun", "time": "Closed"}], "id": "1303300003", "name": "USPS COLLECTION BOX - PO LOBBY", "address": {"city": "CATO", "state": "NY", "street": "2544 E MAIN ST", "postcode": "13033"}}},
{"geometry": {"type": "Point", "coordinates": [-76.727013674, 42.9167178391]}, "type": "Feature", "properties": {"collection_times": [{"days": "Mon-Fri", "time": "4:15pm"}, {"days": "Sat", "time": "11:15am"}, {"days": "Sun", "time": "Closed"}], "id": "1303400001", "name": "USPS COLLECTION BOX - BLUE BOX", "address": {"city": "CAYUGA", "state": "NY", "street": "6198 CENTER ST", "postcode": "13034"}}},
{"geometry": {"type": "Point", "coordinates": [-76.726996328, 42.916641193]}, "type": "Feature", "properties": {"collection_times": [{"days": "Mon-Fri", "time": "3:00pm"}, {"days": "Sat", "time": "11:30am"}, {"days": "Sun", "time": "Closed"}], "id": "1303400002", "name": "USPS COLLECTION BOX - PO LOBBY", "address": {"city": "CAYUGA", "state": "NY", "street": "6198 CENTER ST", "postcode": "13034"}}},
{"geometry": {"type": "Point", "coordinates": [-75.853098258, 42.9309114563]}, "type": "Feature", "properties": {"collection_times": [{"days": "Mon-Fri", "time": "5:00pm"}, {"days": "Sat", "time": "12:00pm"}, {"days": "Sun", "time": "Closed"}], "id": "1303500003", "name": "USPS COLLECTION BOX - BLUE BOX", "address": {"city": "CAZENOVIA", "state": "NY", "street": "24 LINCKLAEN ST", "postcode": "13035"}}},
{"geometry": {"type": "Point", "coordinates": [-75.854520101, 42.9301548416]}, "type": "Feature", "properties": {"collection_times": [{"days": "Mon-Fri", "time": "3:00pm"}, {"days": "Sat", "time": "12:00pm"}, {"days": "Sun", "time": "Closed"}], "id": "1303500005", "name": "USPS COLLECTION BOX - BLUE BOX", "address": {"city": "CAZENOVIA", "state": "NY", "street": "41 ALBANY ST", "postcode": "13035"}}},
{"geometry": {"type": "Point", "coordinates": [-75.8532022848, 42.9298768462]}, "type": "Feature", "properties": {"collection_times": [{"days": "Mon-Fri", "time": "3:00pm"}, {"days": "Sat", "time": "12:00pm"}, {"days": "Sun", "time": "Closed"}], "id": "1303500006", "name": "USPS COLLECTION BOX - BLUE BOX", "address": {"city": "CAZENOVIA", "state": "NY", "street": "74 ALBANY ST", "postcode": "13035"}}},
{"geometry": {"type": "Point", "coordinates": [-75.8724706552, 42.9420285286]}, "type": "Feature", "properties": {"collection_times": [{"days": "Mon-Sat", "time": "9:30am"}, {"days": "Sun", "time": "Closed"}], "id": "1303500007", "name": "USPS COLLECTION BOX - BLUE BOX", "address": {"city": "CAZENOVIA", "state": "NY", "street": "2200 US RTE 20 E", "postcode": "13035"}}},
{"geometry": {"type": "Point", "coordinates": [-75.853098258, 42.9309114563]}, "type": "Feature", "properties": {"collection_times": [{"days": "Mon-Fri", "time": "5:00pm"}, {"days": "Sat", "time": "12:00pm"}, {"days": "Sun", "time": "Closed"}], "id": "1303500011", "name": "USPS COLLECTION BOX - PO LOBBY", "address": {"city": "CAZENOVIA", "state": "NY", "street": "24 LINCKLAEN ST", "postcode": "13035"}}},
{"geometry": {"type": "Point", "coordinates": [-75.8484462929, 42.9296011436]}, "type": "Feature", "properties": {"collection_times": [{"days": "Mon-Fri", "time": "5:00pm"}, {"days": "Sat", "time": "12:00pm"}, {"days": "Sun", "time": "Closed"}], "id": "1303500012", "name": "USPS COLLECTION BOX - BLUE BOX", "address": {"city": "CAZENOVIA", "state": "NY", "street": "24 LINCKLAEN ST", "postcode": "13035"}}},
{"geometry": {"type": "Point", "coordinates": [-76.1450134193, 43.2793678769]}, "type": "Feature", "properties": {"collection_times": [{"days": "Mon-Fri", "time": "5:00pm"}, {"days": "Sat", "time": "12:00pm"}, {"days": "Sun", "time": "Closed"}], "id": "1303600001", "name": "USPS COLLECTION BOX - BLUE BOX", "address": {"city": "CENTRAL SQUARE", "state": "NY", "street": "555 S MAIN ST", "postcode": "13036"}}},
{"geometry": {"type": "Point", "coordinates": [-76.1468233465, 43.2873102634]}, "type": "Feature", "properties": {"collection_times": [{"days": "Mon-Sat", "time": "11:00am"}, {"days": "Sun", "time": "Closed"}], "id": "1303600003", "name": "USPS COLLECTION BOX - BLUE BOX", "address": {"city": "CENTRAL SQUARE", "state": "NY", "street": "3235 FULTON AVE", "postcode": "13036"}}},
{"geometry": {"type": "Point", "coordinates": [-76.1505816071, 43.323095955]}, "type": "Feature", "properties": {"collection_times": [{"days": "Mon-Sat", "time": "10:30am"}, {"days": "Sun", "time": "Closed"}], "id": "1303600004", "name": "USPS COLLECTION BOX - BLUE BOX", "address": {"city": "CENTRAL SQUARE", "state": "NY", "street": "1208 US RT 11", "postcode": "13036"}}},
{"geometry": {"type": "Point", "coordinates": [-76.1430725036, 43.2833563581]}, "type": "Feature", "properties": {"collection_times": [{"days": "Mon-Sat", "time": "9:15am"}, {"days": "Sun", "time": "Closed"}], "id": "1303600005", "name": "USPS COLLECTION BOX - BLUE BOX", "address": {"city": "CENTRAL SQUARE", "state": "NY", "street": "800 MEADOWVIEW DR", "postcode": "13036"}}},
{"geometry": {"type": "Point", "coordinates": [-76.120056534, 43.2848757338]}, "type": "Feature", "properties": {"collection_times": [{"days": "Mon-Sat", "time": "9:15am"}, {"days": "Sun", "time": "Closed"}], "id": "1303600006", "name": "USPS COLLECTION BOX - BLUE BOX", "address": {"city": "CENTRAL SQUARE", "state": "NY", "street": "2926 STATE ROUTE 49", "postcode": "13036"}}},
{"geometry": {"type": "Point", "coordinates": [-76.1450134193, 43.2793678769]}, "type": "Feature", "properties": {"collection_times": [{"days": "Mon-Fri", "time": "5:00pm"}, {"days": "Sat", "time": "12:00pm"}, {"days": "Sun", "time": "Closed"}], "id": "1303600008", "name": "USPS COLLECTION BOX - PO LOBBY", "address": {"city": "CENTRAL SQUARE", "state": "NY", "street": "555 S MAIN ST", "postcode": "13036"}}},
{"geometry": {"type": "Point", "coordinates": [-75.8606229863, 43.0541798083]}, "type": "Feature", "properties": {"collection_times": [{"days": "Mon-Fri", "time": "5:00pm"}, {"days": "Sat", "time": "11:30am"}, {"days": "Sun", "time": "Closed"}], "id": "1303700001", "name": "USPS COLLECTION BOX - BLUE BOX", "address": {"city": "CHITTENANGO", "state": "NY", "street": "1001 E GENESEE ST", "postcode": "13037"}}},
{"geometry": {"type": "Point", "coordinates": [-75.866512939, 43.0451928691]}, "type": "Feature", "properties": {"collection_times": [{"days": "Mon-Fri", "time": "1:15pm"}, {"days": "Sat", "time": "12:00pm"}, {"days": "Sun", "time": "Closed"}], "id": "1303700003", "name": "USPS COLLECTION BOX - BLUE BOX", "address": {"city": "CHITTENANGO", "state": "NY", "street": "222 GENESEE ST", "postcode": "13037"}}},
{"geometry": {"type": "Point", "coordinates": [-75.8606229863, 43.0541798083]}, "type": "Feature", "properties": {"collection_times": [{"days": "Mon-Fri", "time": "5:00pm"}, {"days": "Sat", "time": "11:30am"}, {"days": "Sun", "time": "Closed"}], "id": "1303700008", "name": "USPS COLLECTION BOX - PO LOBBY", "address": {"city": "CHITTENANGO", "state": "NY", "street": "1001 E GENESEE ST", "postcode": "13037"}}},
{"geometry": {"type": "Point", "coordinates": [-76.1193349846, 43.1474922148]}, "type": "Feature", "properties": {"collection_times": [{"days": "Mon-Sat", "time": "9:00am"}, {"days": "Sun", "time": "Closed"}], "id": "1303900004", "name": "USPS COLLECTION BOX - BLUE BOX", "address": {"city": "CICERO", "state": "NY", "street": "5701 E CIRCLE DR", "postcode": "13039"}}},
{"geometry": {"type": "Point", "coordinates": [-76.1071262475, 43.1759365578]}, "type": "Feature", "properties": {"collection_times": [{"days": "Mon-Sat", "time": "8:30am"}, {"days": "Sun", "time": "Closed"}], "id": "1303900005", "name": "USPS COLLECTION BOX - BLUE BOX", "address": {"city": "CICERO", "state": "NY", "street": "5962 STATE ROUTE 31", "postcode": "13039"}}},
{"geometry": {"type": "Point", "coordinates": [-76.1274235174, 43.175226664]}, "type": "Feature", "properties": {"collection_times": [{"days": "Mon-Fri", "time": "5:00pm"}, {"days": "Sat", "time": "3:00pm"}, {"days": "Sun", "time": "Closed"}], "id": "1303900006", "name": "USPS COLLECTION BOX - PO LOBBY", "address": {"city": "CICERO", "state": "NY", "street": "5601 RT 31", "postcode": "13039"}}},
{"geometry": {"type": "Point", "coordinates": [-76.0654914031, 43.1661729929]}, "type": "Feature", "properties": {"collection_times": [{"days": "Mon-Fri", "time": "5:00pm"}, {"days": "Sat", "time": "3:00pm"}, {"days": "Sun", "time": "Closed"}], "id": "1303900007", "name": "USPS COLLECTION BOX - BLUE BOX", "address": {"city": "CICERO", "state": "NY", "street": "5601 NYS RT 31", "postcode": "13039"}}},
{"geometry": {"type": "Point", "coordinates": [-76.0979193566, 43.1576710919]}, "type": "Feature", "properties": {"collection_times": [{"days": "Mon-Sat", "time": "9:00am"}, {"days": "Sun", "time": "Closed"}], "id": "1303900009", "name": "USPS COLLECTION BOX - BLUE BOX", "address": {"city": "CICERO", "state": "NY", "street": "6112 COBBLESTONE DR", "postcode": "13039"}}},
{"geometry": {"type": "Point", "coordinates": [-76.1225417109, 43.1554533581]}, "type": "Feature", "properties": {"collection_times": [{"days": "Mon-Sat", "time": "10:00am"}, {"days": "Sun", "time": "Closed"}], "id": "1303900010", "name": "USPS COLLECTION BOX - BLUE BOX", "address": {"city": "CICERO", "state": "NY", "street": "7954 BREWERTON RD", "postcode": "13039"}}},
{"geometry": {"type": "Point", "coordinates": [-75.8959094693, 42.5409282192]}, "type": "Feature", "properties": {"collection_times": [{"days": "Mon-Fri", "time": "4:30pm"}, {"days": "Sat", "time": "11:45am"}, {"days": "Sun", "time": "Closed"}], "id": "1304000001", "name": "USPS COLLECTION BOX - BLUE BOX", "address": {"city": "CINCINNATUS", "state": "NY", "street": "2763 LOWER CINCINNATUS RD", "postcode": "13040"}}},
{"geometry": {"type": "Point", "coordinates": [-75.895926896, 42.5409362507]}, "type": "Feature", "properties": {"collection_times": [{"days": "Mon-Fri", "time": "3:00pm"}, {"days": "Sat", "time": "11:45am"}, {"days": "Sun", "time": "Closed"}], "id": "1304000002", "name": "USPS COLLECTION BOX - PO LOBBY", "address": {"city": "CINCINNATUS", "state": "NY", "street": "2763 LOWER CINCINNATUS RD", "postcode": "13040"}}},
{"geometry": {"type": "Point", "coordinates": [-75.883665844, 43.2324091378]}, "type": "Feature", "properties": {"collection_times": [{"days": "Mon-Fri", "time": "4:15pm"}, {"days": "Sat", "time": "10:45am"}, {"days": "Sun", "time": "Closed"}], "id": "1304200001", "name": "USPS COLLECTION BOX - BLUE BOX", "address": {"city": "CLEVELAND", "state": "NY", "street": "100 STATE ROUTE 49", "postcode": "13042"}}},
{"geometry": {"type": "Point", "coordinates": [-75.883665844, 43.2324091378]}, "type": "Feature", "properties": {"collection_times": [{"days": "Mon-Fri", "time": "4:30pm"}, {"days": "Sat", "time": "11:00am"}, {"days": "Sun", "time": "Closed"}], "id": "1304200002", "name": "USPS COLLECTION BOX - PO LOBBY", "address": {"city": "CLEVELAND", "state": "NY", "street": "100 STATE ROUTE 49", "postcode": "13042"}}},
{"geometry": {"type": "Point", "coordinates": [-75.7448003348, 43.0415133159]}, "type": "Feature", "properties": {"collection_times": [{"days": "Mon-Sat", "time": "12:15pm"}, {"days": "Sun", "time": "Closed"}], "id": "1304300001", "name": "USPS COLLECTION BOX - PO LOBBY", "address": {"city": "CLOCKVILLE", "state": "NY", "street": "7247 OXBOW RD", "postcode": "13043"}}},
{"geometry": {"type": "Point", "coordinates": [-75.7448003348, 43.0415133159]}, "type": "Feature", "properties": {"collection_times": [{"days": "Mon-Sat", "time": "12:15pm"}, {"days": "Sun", "time": "Closed"}], "id": "1304300002", "name": "USPS COLLECTION BOX - BLUE BOX", "address": {"city": "CLOCKVILLE", "state": "NY", "street": "7247 OXBOW RD", "postcode": "13043"}}},
{"geometry": {"type": "Point", "coordinates": [-76.002610002, 43.2500896425]}, "type": "Feature", "properties": {"collection_times": [{"days": "Mon-Fri", "time": "4:30pm"}, {"days": "Sat", "time": "11:30am"}, {"days": "Sun", "time": "Closed"}], "id": "1304400001", "name": "USPS COLLECTION BOX - BLUE BOX", "address": {"city": "CONSTANTIA", "state": "NY", "street": "45 REDFIELD ST", "postcode": "13044"}}},
{"geometry": {"type": "Point", "coordinates": [-76.002610002, 43.2500896425]}, "type": "Feature", "properties": {"collection_times": [{"days": "Mon-Fri", "time": "4:30pm"}, {"days": "Sat", "time": "11:30am"}, {"days": "Sun", "time": "Closed"}], "id": "1304400003", "name": "USPS COLLECTION BOX - PO LOBBY", "address": {"city": "CONSTANTIA", "state": "NY", "street": "45 REDFIELD ST", "postcode": "13044"}}},
{"geometry": {"type": "Point", "coordinates": [-76.1803247444, 42.5983727066]}, "type": "Feature", "properties": {"collection_times": [{"days": "Mon-Fri", "time": "5:30pm"}, {"days": "Sat", "time": "3:15pm"}, {"days": "Sun", "time": "Closed"}], "id": "1304500001", "name": "USPS COLLECTION BOX - BLUE BOX", "address": {"city": "CORTLAND", "state": "NY", "street": "88 MAIN ST", "postcode": "13045"}}},
{"geometry": {"type": "Point", "coordinates": [-76.1803247444, 42.5983727066]}, "type": "Feature", "properties": {"collection_times": [{"days": "Mon-Fri", "time": "5:30pm"}, {"days": "Sat", "time": "3:15pm"}, {"days": "Sun", "time": "Closed"}], "id": "1304500002", "name": "USPS COLLECTION BOX - BLUE BOX", "address": {"city": "CORTLAND", "state": "NY", "street": "88 MAIN ST", "postcode": "13045"}}},
{"geometry": {"type": "Point", "coordinates": [-76.178989393, 42.5513098086]}, "type": "Feature", "properties": {"collection_times": [{"days": "Mon-Sat", "time": "9:30am"}, {"days": "Sun", "time": "Closed"}], "id": "1304500010", "name": "USPS COLLECTION BOX - BLUE BOX", "address": {"city": "CORTLAND", "state": "NY", "street": "854 NYS ROUTE 13", "postcode": "13045"}}},
{"geometry": {"type": "Point", "coordinates": [-76.2122129781, 42.5841302308]}, "type": "Feature", "properties": {"collection_times": [{"days": "Mon-Sat", "time": "10:00am"}, {"days": "Sun", "time": "Closed"}], "id": "1304500011", "name": "USPS COLLECTION BOX - BLUE BOX", "address": {"city": "CORTLAND", "state": "NY", "street": "3656 STATE ROUTE 281", "postcode": "13045"}}},
{"geometry": {"type": "Point", "coordinates": [-76.178989393, 42.5513098086]}, "type": "Feature", "properties": {"collection_times": [{"days": "Mon-Sat", "time": "9:15am"}, {"days": "Sun", "time": "Closed"}], "id": "1304500019", "name": "USPS COLLECTION BOX - BLUE BOX", "address": {"city": "CORTLAND", "state": "NY", "street": "11 HALSTEAD RD", "postcode": "13045"}}},
{"geometry": {"type": "Point", "coordinates": [-76.2066373199, 42.5814295226]}, "type": "Feature", "properties": {"collection_times": [{"days": "Mon-Sat", "time": "10:30am"}, {"days": "Sun", "time": "Closed"}], "id": "1304500020", "name": "USPS COLLECTION BOX - BLUE BOX", "address": {"city": "CORTLAND", "state": "NY", "street": "1 PENGUIN TRAILER PARK", "postcode": "13045"}}},
{"geometry": {"type": "Point", "coordinates": [-76.187332058, 42.6011199487]}, "type": "Feature", "properties": {"collection_times": [{"days": "Mon-Sat", "time": "12:00pm"}, {"days": "Sun", "time": "Closed"}], "id": "1304500021", "name": "USPS COLLECTION BOX - BLUE BOX", "address": {"city": "CORTLAND", "state": "NY", "street": "1 GRAHAM AVE", "postcode": "13045"}}},
{"geometry": {"type": "Point", "coordinates": [-76.191277362, 42.5965933742]}, "type": "Feature", "properties": {"collection_times": [{"days": "Mon-Sat", "time": "1:00pm"}, {"days": "Sun", "time": "Closed"}], "id": "1304500022", "name": "USPS COLLECTION BOX - BLUE BOX", "address": {"city": "CORTLAND", "state": "NY", "street": "99 PROSPECT TER", "postcode": "13045"}}},
{"geometry": {"type": "Point", "coordinates": [-76.1804134663, 42.5999838967]}, "type": "Feature", "properties": {"collection_times": [{"days": "Mon-Sat", "time": "2:00pm"}, {"days": "Sun", "time": "Closed"}], "id": "1304500025", "name": "USPS COLLECTION BOX - BLUE BOX", "address": {"city": "CORTLAND", "state": "NY", "street": "35 MAIN ST", "postcode": "13045"}}},
{"geometry": {"type": "Point", "coordinates": [-76.1859958497, 42.6073880368]}, "type": "Feature", "properties": {"collection_times": [{"days": "Mon-Sat", "time": "9:00am"}, {"days": "Sun", "time": "Closed"}], "id": "1304500026", "name": "USPS COLLECTION BOX - BLUE BOX", "address": {"city": "CORTLAND", "state": "NY", "street": "112 HOMER AVE", "postcode": "13045"}}},
{"geometry": {"type": "Point", "coordinates": [-76.1803827094, 42.5994527481]}, "type": "Feature", "properties": {"collection_times": [{"days": "Mon-Sat", "time": "9:00am"}, {"days": "Sun", "time": "Closed"}], "id": "1304500030", "name": "USPS COLLECTION BOX - BLUE BOX", "address": {"city": "CORTLAND", "state": "NY", "street": "55 MAIN ST", "postcode": "13045"}}},
{"geometry": {"type": "Point", "coordinates": [-76.187686298, 42.6093694931]}, "type": "Feature", "properties": {"collection_times": [{"days": "Mon-Sat", "time": "1:00pm"}, {"days": "Sun", "time": "Closed"}], "id": "1304500033", "name": "USPS COLLECTION BOX - BLUE BOX", "address": {"city": "CORTLAND", "state": "NY", "street": "11 ALVENA AVE", "postcode": "13045"}}},
{"geometry": {"type": "Point", "coordinates": [-76.1919449503, 42.6078789648]}, "type": "Feature", "properties": {"collection_times": [{"days": "Mon-Sat", "time": "9:00am"}, {"days": "Sun", "time": "Closed"}], "id": "1304500036", "name": "USPS COLLECTION BOX - BLUE BOX", "address": {"city": "CORTLAND", "state": "NY", "street": "84 HAMLIN ST", "postcode": "13045"}}},
{"geometry": {"type": "Point", "coordinates": [-76.1588435949, 42.5985527953]}, "type": "Feature", "properties": {"collection_times": [{"days": "Mon-Sat", "time": "11:00am"}, {"days": "Sun", "time": "Closed"}], "id": "1304500039", "name": "USPS COLLECTION BOX - BLUE BOX", "address": {"city": "CORTLAND", "state": "NY", "street": "250 PORT WATSON ST", "postcode": "13045"}}},
{"geometry": {"type": "Point", "coordinates": [-76.1660700889, 42.5982626914]}, "type": "Feature", "properties": {"collection_times": [{"days": "Mon-Sat", "time": "9:30am"}, {"days": "Sun", "time": "Closed"}], "id": "1304500041", "name": "USPS COLLECTION BOX - BLUE BOX", "address": {"city": "CORTLAND", "state": "NY", "street": "170 PORT WATSON ST", "postcode": "13045"}}},
{"geometry": {"type": "Point", "coordinates": [-76.1781717591, 42.6045276421]}, "type": "Feature", "properties": {"collection_times": [{"days": "Mon-Sat", "time": "9:00am"}, {"days": "Sun", "time": "Closed"}], "id": "1304500042", "name": "USPS COLLECTION BOX - BLUE BOX", "address": {"city": "CORTLAND", "state": "NY", "street": "32 CHURCH ST", "postcode": "13045"}}},
{"geometry": {"type": "Point", "coordinates": [-76.1872592498, 42.5915695096]}, "type": "Feature", "properties": {"collection_times": [{"days": "Mon-Sat", "time": "10:00am"}, {"days": "Sun", "time": "Closed"}], "id": "1304500043", "name": "USPS COLLECTION BOX - BLUE BOX", "address": {"city": "CORTLAND", "state": "NY", "street": "18 PARK ST", "postcode": "13045"}}},
{"geometry": {"type": "Point", "coordinates": [-76.190627134, 42.5876420858]}, "type": "Feature", "properties": {"collection_times": [{"days": "Mon-Sat", "time": "11:00am"}, {"days": "Sun", "time": "Closed"}], "id": "1304500044", "name": "USPS COLLECTION BOX - BLUE BOX", "address": {"city": "CORTLAND", "state": "NY", "street": "41 DELAWARE AVE", "postcode": "13045"}}},
{"geometry": {"type": "Point", "coordinates": [-76.178989393, 42.5513098086]}, "type": "Feature", "properties": {"collection_times": [{"days": "Mon-Sat", "time": "11:30am"}, {"days": "Sun", "time": "Closed"}], "id": "1304500045", "name": "USPS COLLECTION BOX - BLUE BOX", "address": {"city": "CORTLAND", "state": "NY", "street": "1116 NYS ROUTE 222", "postcode": "13045"}}},
{"geometry": {"type": "Point", "coordinates": [-76.1945119713, 42.6080031755]}, "type": "Feature", "properties": {"collection_times": [{"days": "Mon-Sat", "time": "9:00am"}, {"days": "Sun", "time": "Closed"}], "id": "1304500046", "name": "USPS COLLECTION BOX - BLUE BOX", "address": {"city": "CORTLAND", "state": "NY", "street": "77 W MAIN ST", "postcode": "13045"}}},
{"geometry": {"type": "Point", "coordinates": [-76.1804631506, 42.6008722989]}, "type": "Feature", "properties": {"collection_times": [{"days": "Mon-Sat", "time": "9:00am"}, {"days": "Sun", "time": "Closed"}], "id": "1304500047", "name": "USPS COLLECTION BOX - BLUE BOX", "address": {"city": "CORTLAND", "state": "NY", "street": "10 N MAIN ST", "postcode": "13045"}}},
{"geometry": {"type": "Point", "coordinates": [-76.180479712, 42.6014424851]}, "type": "Feature", "properties": {"collection_times": [{"days": "Mon-Sat", "time": "2:00pm"}, {"days": "Sun", "time": "Closed"}], "id": "1304500048", "name": "USPS COLLECTION BOX - BLUE BOX", "address": {"city": "CORTLAND", "state": "NY", "street": "1 N MAIN ST", "postcode": "13045"}}},
{"geometry": {"type": "Point", "coordinates": [-76.1669457494, 42.6077433196]}, "type": "Feature", "properties": {"collection_times": [{"days": "Mon-Sat", "time": "12:30pm"}, {"days": "Sun", "time": "Closed"}], "id": "1304500052", "name": "USPS COLLECTION BOX - BLUE BOX", "address": {"city": "CORTLAND", "state": "NY", "street": "164 CLINTON AVE", "postcode": "13045"}}},
{"geometry": {"type": "Point", "coordinates": [-76.1749115242, 42.6071987634]}, "type": "Feature", "properties": {"collection_times": [{"days": "Mon-Sat", "time": "1:00pm"}, {"days": "Sun", "time": "Closed"}], "id": "1304500053", "name": "USPS COLLECTION BOX - BLUE BOX", "address": {"city": "CORTLAND", "state": "NY", "street": "44 RICKARD ST", "postcode": "13045"}}},
{"geometry": {"type": "Point", "coordinates": [-76.2050947222, 42.597206309]}, "type": "Feature", "properties": {"collection_times": [{"days": "Mon-Sat", "time": "11:30am"}, {"days": "Sun", "time": "Closed"}], "id": "1304500055", "name": "USPS COLLECTION BOX - BLUE BOX", "address": {"city": "CORTLAND", "state": "NY", "street": "3918 STATE ROUTE 281", "postcode": "13045"}}},
{"geometry": {"type": "Point", "coordinates": [-76.1803247444, 42.5983727066]}, "type": "Feature", "properties": {"collection_times": [{"days": "Mon-Fri", "time": "5:30pm"}, {"days": "Sat", "time": "4:00pm"}, {"days": "Sun", "time": "Closed"}], "id": "1304500067", "name": "USPS COLLECTION BOX - PO LOBBY", "address": {"city": "CORTLAND", "state": "NY", "street": "88 MAIN ST", "postcode": "13045"}}},
{"geometry": {"type": "Point", "coordinates": [-76.1806867298, 42.6052729062]}, "type": "Feature", "properties": {"collection_times": [{"days": "Mon-Sat", "time": "9:00am"}, {"days": "Sun", "time": "Closed"}], "id": "1304500068", "name": "USPS COLLECTION BOX - BLUE BOX", "address": {"city": "CORTLAND", "state": "NY", "street": "76 N MAIN ST", "postcode": "13045"}}},
{"geometry": {"type": "Point", "coordinates": [-75.9136052229, 42.8781173564]}, "type": "Feature", "properties": {"collection_times": [{"days": "Mon-Fri", "time": "4:15pm"}, {"days": "Sat", "time": "11:00am"}, {"days": "Sun", "time": "Closed"}], "id": "1305100001", "name": "USPS COLLECTION BOX - BLUE BOX", "address": {"city": "DELPHI FALLS", "state": "NY", "street": "2185 ORAN DELPHI RD", "postcode": "13051"}}},
{"geometry": {"type": "Point", "coordinates": [-75.9136052229, 42.8781173564]}, "type": "Feature", "properties": {"collection_times": [{"days": "Mon-Fri", "time": "5:00pm"}, {"days": "Sat", "time": "11:30am"}, {"days": "Sun", "time": "Closed"}], "id": "1305100002", "name": "USPS COLLECTION BOX - PO LOBBY", "address": {"city": "DELPHI FALLS", "state": "NY", "street": "2185 ORAN DELPHI RD", "postcode": "13051"}}},
{"geometry": {"type": "Point", "coordinates": [-75.8868716628, 42.7567567165]}, "type": "Feature", "properties": {"collection_times": [{"days": "Mon-Fri", "time": "4:15pm"}, {"days": "Sat", "time": "11:45am"}, {"days": "Sun", "time": "Closed"}], "id": "1305200001", "name": "USPS COLLECTION BOX - BLUE BOX", "address": {"city": "DE RUYTER", "state": "NY", "street": "1639 CORTLAND ST", "postcode": "13052"}}},
{"geometry": {"type": "Point", "coordinates": [-75.8868716628, 42.7567567165]}, "type": "Feature", "properties": {"collection_times": [{"days": "Mon-Fri", "time": "4:30pm"}, {"days": "Sat", "time": "11:00am"}, {"days": "Sun", "time": "Closed"}], "id": "1305200002", "name": "USPS COLLECTION BOX - PO LOBBY", "address": {"city": "DE RUYTER", "state": "NY", "street": "1639 CORTLAND ST", "postcode": "13052"}}},
{"geometry": {"type": "Point", "coordinates": [-76.2992170144, 42.4904631617]}, "type": "Feature", "properties": {"collection_times": [{"days": "Mon-Fri", "time": "4:45pm"}, {"days": "Sat", "time": "12:00pm"}, {"days": "Sun", "time": "Closed"}], "id": "1305300001", "name": "USPS COLLECTION BOX - BLUE BOX", "address": {"city": "DRYDEN", "state": "NY", "street": "27 W MAIN ST", "postcode": "13053"}}},
{"geometry": {"type": "Point", "coordinates": [-76.2992170144, 42.4904631617]}, "type": "Feature", "properties": {"collection_times": [{"days": "Mon-Fri", "time": "4:45pm"}, {"days": "Sat", "time": "12:00pm"}, {"days": "Sun", "time": "Closed"}], "id": "1305300002", "name": "USPS COLLECTION BOX - BLUE BOX", "address": {"city": "DRYDEN", "state": "NY", "street": "27 W MAIN ST", "postcode": "13053"}}},
{"geometry": {"type": "Point", "coordinates": [-76.2992170144, 42.4904631617]}, "type": "Feature", "properties": {"collection_times": [{"days": "Mon-Fri", "time": "5:00pm"}, {"days": "Sat", "time": "12:15pm"}, {"days": "Sun", "time": "Closed"}], "id": "1305300003", "name": "USPS COLLECTION BOX - PO LOBBY", "address": {"city": "DRYDEN", "state": "NY", "street": "27 W MAIN ST", "postcode": "13053"}}},
{"geometry": {"type": "Point", "coordinates": [-75.6703239265, 43.1206467237]}, "type": "Feature", "properties": {"collection_times": [{"days": "Mon-Fri", "time": "4:15pm"}, {"days": "Sat", "time": "11:00am"}, {"days": "Sun", "time": "Closed"}], "id": "1305400001", "name": "USPS COLLECTION BOX - BLUE BOX", "address": {"city": "DURHAMVILLE", "state": "NY", "street": "5346 CANAL ST", "postcode": "13054"}}},
{"geometry": {"type": "Point", "coordinates": [-75.6703239265, 43.1206467237]}, "type": "Feature", "properties": {"collection_times": [{"days": "Mon-Fri", "time": "2:45pm"}, {"days": "Sat", "time": "11:00am"}, {"days": "Sun", "time": "Closed"}], "id": "1305400002", "name": "USPS COLLECTION BOX - PO LOBBY", "address": {"city": "DURHAMVILLE", "state": "NY", "street": "5346 CANAL ST", "postcode": "13054"}}},
{"geometry": {"type": "Point", "coordinates": [-76.0629855349, 43.0685248122]}, "type": "Feature", "properties": {"collection_times": [{"days": "Mon-Sat", "time": "9:00am"}, {"days": "Sun", "time": "Closed"}], "id": "1305700002", "name": "USPS COLLECTION BOX - BLUE BOX", "address": {"city": "EAST SYRACUSE", "state": "NY", "street": "100 BENNETT MANOR DR", "postcode": "13057"}}},
{"geometry": {"type": "Point", "coordinates": [-76.0688170112, 43.0616826603]}, "type": "Feature", "properties": {"collection_times": [{"days": "Mon-Sat", "time": "10:00am"}, {"days": "Sun", "time": "Closed"}], "id": "1305700006", "name": "USPS COLLECTION BOX - BLUE BOX", "address": {"city": "EAST SYRACUSE", "state": "NY", "street": "100 E 2ND ST", "postcode": "13057"}}},
{"geometry": {"type": "Point", "coordinates": [-76.0782741657, 43.0687581323]}, "type": "Feature", "properties": {"collection_times": [{"days": "Mon-Sat", "time": "9:00am"}, {"days": "Sun", "time": "Closed"}], "id": "1305700010", "name": "USPS COLLECTION BOX - BLUE BOX", "address": {"city": "EAST SYRACUSE", "state": "NY", "street": "323 EAST AVE", "postcode": "13057"}}},
{"geometry": {"type": "Point", "coordinates": [-76.0711355937, 43.0640929477]}, "type": "Feature", "properties": {"collection_times": [{"days": "Mon-Fri", "time": "4:30pm"}, {"days": "Sat", "time": "9:00am"}, {"days": "Sun", "time": "Closed"}], "id": "1305700012", "name": "USPS COLLECTION BOX - BLUE BOX", "address": {"city": "EAST SYRACUSE", "state": "NY", "street": "207 N CENTER ST", "postcode": "13057"}}},
{"geometry": {"type": "Point", "coordinates": [-76.0728967295, 43.0703631005]}, "type": "Feature", "properties": {"collection_times": [{"days": "Mon-Sat", "time": "9:00am"}, {"days": "Sun", "time": "Closed"}], "id": "1305700013", "name": "USPS COLLECTION BOX - BLUE BOX", "address": {"city": "EAST SYRACUSE", "state": "NY", "street": "4990 JAMES ST", "postcode": "13057"}}},
{"geometry": {"type": "Point", "coordinates": [-76.0754815589, 43.075395132]}, "type": "Feature", "properties": {"collection_times": [{"days": "Mon-Fri", "time": "4:45pm"}, {"days": "Sat", "time": "9:00am"}, {"days": "Sun", "time": "Closed"}], "id": "1305700015", "name": "USPS COLLECTION BOX - BLUE BOX", "address": {"city": "EAST SYRACUSE", "state": "NY", "street": "6430 KIRKVILLE RD", "postcode": "13057"}}},
{"geometry": {"type": "Point", "coordinates": [-76.0589964289, 43.0628087824]}, "type": "Feature", "properties": {"collection_times": [{"days": "Mon-Fri", "time": "4:30pm"}, {"days": "Sat", "time": "9:30am"}, {"days": "Sun", "time": "Closed"}], "id": "1305700018", "name": "USPS COLLECTION BOX - BLUE BOX", "address": {"city": "EAST SYRACUSE", "state": "NY", "street": "6501 BASILE ROWE", "postcode": "13057"}}},
{"geometry": {"type": "Point", "coordinates": [-76.0185268318, 43.0499015109]}, "type": "Feature", "properties": {"collection_times": [{"days": "Mon-Sat", "time": "10:00am"}, {"days": "Sun", "time": "Closed"}], "id": "1305700021", "name": "USPS COLLECTION BOX - BLUE BOX", "address": {"city": "EAST SYRACUSE", "state": "NY", "street": "501 SUMMERHAVEN DR", "postcode": "13057"}}},
{"geometry": {"type": "Point", "coordinates": [-76.0735886596, 43.0906840964]}, "type": "Feature", "properties": {"collection_times": [{"days": "Mon-Fri", "time": "5:00pm"}, {"days": "Sat", "time": "9:30am"}, {"days": "Sun", "time": "Closed"}], "id": "1305700022", "name": "USPS COLLECTION BOX - BLUE BOX", "address": {"city": "EAST SYRACUSE", "state": "NY", "street": "5000 CAMPUSWOOD DR", "postcode": "13057"}}},
{"geometry": {"type": "Point", "coordinates": [-76.0750326064, 43.084425985]}, "type": "Feature", "properties": {"collection_times": [{"days": "Mon-Sat", "time": "10:00am"}, {"days": "Sun", "time": "Closed"}], "id": "1305700023", "name": "USPS COLLECTION BOX - BLUE BOX", "address": {"city": "EAST SYRACUSE", "state": "NY", "street": "201 DEERFIELD RD", "postcode": "13057"}}},
{"geometry": {"type": "Point", "coordinates": [-76.0835949245, 43.0960451204]}, "type": "Feature", "properties": {"collection_times": [{"days": "Mon-Fri", "time": "5:00pm"}, {"days": "Sat", "time": "10:00am"}, {"days": "Sun", "time": "Closed"}], "id": "1305700025", "name": "USPS COLLECTION BOX - BLUE BOX", "address": {"city": "EAST SYRACUSE", "state": "NY", "street": "6700 JOY RD", "postcode": "13057"}}},
{"geometry": {"type": "Point", "coordinates": [-76.083059768, 43.09532323]}, "type": "Feature", "properties": {"collection_times": [{"days": "Mon-Fri", "time": "5:00pm"}, {"days": "Sat", "time": "10:00am"}, {"days": "Sun", "time": "Closed"}], "id": "1305700026", "name": "USPS COLLECTION BOX - BLUE BOX", "address": {"city": "EAST SYRACUSE", "state": "NY", "street": "6700 OLD COLLAMER RD", "postcode": "13057"}}},
{"geometry": {"type": "Point", "coordinates": [-76.0906383739, 43.0995455659]}, "type": "Feature", "properties": {"collection_times": [{"days": "Mon-Fri", "time": "5:00pm"}, {"days": "Sat", "time": "10:00am"}, {"days": "Sun", "time": "Closed"}], "id": "1305700027", "name": "USPS COLLECTION BOX - BLUE BOX", "address": {"city": "EAST SYRACUSE", "state": "NY", "street": "6200 E MOLLOY RD", "postcode": "13057"}}},
{"geometry": {"type": "Point", "coordinates": [-76.0581735602, 43.0773896254]}, "type": "Feature", "properties": {"collection_times": [{"days": "Mon-Fri", "time": "4:45pm"}, {"days": "Sat-Sun", "time": "Closed"}], "id": "1305700028", "name": "USPS COLLECTION BOX - BLUE BOX", "address": {"city": "EAST SYRACUSE", "state": "NY", "street": "6320 FLY RD", "postcode": "13057"}}},
{"geometry": {"type": "Point", "coordinates": [-76.0500205121, 43.0477668078]}, "type": "Feature", "properties": {"collection_times": [{"days": "Mon-Sat", "time": "9:30am"}, {"days": "Sun", "time": "Closed"}], "id": "1305700029", "name": "USPS COLLECTION BOX - BLUE BOX", "address": {"city": "EAST SYRACUSE", "state": "NY", "street": "5800 HERITAGE LANDING DR", "postcode": "13057"}}},
{"geometry": {"type": "Point", "coordinates": [-76.0894542203, 43.0695820624]}, "type": "Feature", "properties": {"collection_times": [{"days": "Mon-Sat", "time": "9:00am"}, {"days": "Sun", "time": "Closed"}], "id": "1305700032", "name": "USPS COLLECTION BOX - BLUE BOX", "address": {"city": "EAST SYRACUSE", "state": "NY", "street": "4256 JAMES ST", "postcode": "13057"}}},
{"geometry": {"type": "Point", "coordinates": [-76.0878630912, 43.1020360881]}, "type": "Feature", "properties": {"collection_times": [{"days": "Mon-Fri", "time": "5:00pm"}, {"days": "Sat", "time": "10:00am"}, {"days": "Sun", "time": "Closed"}], "id": "1305700034", "name": "USPS COLLECTION BOX - BLUE BOX", "address": {"city": "EAST SYRACUSE", "state": "NY", "street": "6018 CORPORATE DR", "postcode": "13057"}}},
{"geometry": {"type": "Point", "coordinates": [-76.058332953, 43.079331863]}, "type": "Feature", "properties": {"collection_times": [{"days": "Mon-Fri", "time": "4:45pm"}, {"days": "Sat-Sun", "time": "Closed"}], "id": "1305700035", "name": "USPS COLLECTION BOX - BLUE BOX", "address": {"city": "EAST SYRACUSE", "state": "NY", "street": "6320 FLY RD", "postcode": "13057"}}},
{"geometry": {"type": "Point", "coordinates": [-76.056362576, 43.0633869192]}, "type": "Feature", "properties": {"collection_times": [{"days": "Mon-Fri", "time": "4:45pm"}, {"days": "Sat", "time": "9:30am"}, {"days": "Sun", "time": "Closed"}], "id": "1305700037", "name": "USPS COLLECTION BOX - BLUE BOX", "address": {"city": "EAST SYRACUSE", "state": "NY", "street": "6701 MANLIUS CENTER RD", "postcode": "13057"}}},
{"geometry": {"type": "Point", "coordinates": [-76.0458149514, 43.0923078009]}, "type": "Feature", "properties": {"collection_times": [{"days": "Mon-Fri", "time": "4:30pm"}, {"days": "Sat-Sun", "time": "Closed"}], "id": "1305700038", "name": "USPS COLLECTION BOX - BLUE BOX", "address": {"city": "EAST SYRACUSE", "state": "NY", "street": "573O COMMONS PARK", "postcode": "13057"}}},
{"geometry": {"type": "Point", "coordinates": [-76.0582919414, 43.077023707]}, "type": "Feature", "properties": {"collection_times": [{"days": "Mon-Fri", "time": "5:00pm"}, {"days": "Sat-Sun", "time": "Closed"}], "id": "1305700040", "name": "USPS COLLECTION BOX - BLUE BOX", "address": {"city": "EAST SYRACUSE", "state": "NY", "street": "6311 FLY RD", "postcode": "13057"}}},
{"geometry": {"type": "Point", "coordinates": [-76.0878630912, 43.1020360881]}, "type": "Feature", "properties": {"collection_times": [{"days": "Mon-Fri", "time": "5:00pm"}, {"days": "Sat", "time": "10:00am"}, {"days": "Sun", "time": "Closed"}], "id": "1305700042", "name": "USPS COLLECTION BOX - BLUE BOX", "address": {"city": "EAST SYRACUSE", "state": "NY", "street": "6018 CORPORATE DR", "postcode": "13057"}}},
{"geometry": {"type": "Point", "coordinates": [-76.0735886596, 43.0906840964]}, "type": "Feature", "properties": {"collection_times": [{"days": "Mon-Fri", "time": "5:00pm"}, {"days": "Sat", "time": "9:30am"}, {"days": "Sun", "time": "Closed"}], "id": "1305700043", "name": "USPS COLLECTION BOX - BLUE BOX", "address": {"city": "EAST SYRACUSE", "state": "NY", "street": "5000 CAMPUSWOOD DR", "postcode": "13057"}}},
{"geometry": {"type": "Point", "coordinates": [-76.0770020078, 43.0647833018]}, "type": "Feature", "properties": {"collection_times": [{"days": "Mon-Fri", "time": "5:00pm"}, {"days": "Sat", "time": "3:00pm"}, {"days": "Sun", "time": "Closed"}], "id": "1305700044", "name": "USPS COLLECTION BOX - BLUE BOX", "address": {"city": "EAST SYRACUSE", "state": "NY", "street": "404 W MANLIUS ST", "postcode": "13057"}}},
{"geometry": {"type": "Point", "coordinates": [-76.0770020078, 43.0647833018]}, "type": "Feature", "properties": {"collection_times": [{"days": "Mon-Fri", "time": "5:00pm"}, {"days": "Sat", "time": "3:00pm"}, {"days": "Sun", "time": "Closed"}], "id": "1305700045", "name": "USPS COLLECTION BOX - BLUE BOX", "address": {"city": "EAST SYRACUSE", "state": "NY", "street": "404 W MANLIUS ST", "postcode": "13057"}}},
{"geometry": {"type": "Point", "coordinates": [-76.0557822098, 43.0868934324]}, "type": "Feature", "properties": {"collection_times": [{"days": "Mon-Fri", "time": "5:00pm"}, {"days": "Sat-Sun", "time": "Closed"}], "id": "1305700046", "name": "USPS COLLECTION BOX - BLUE BOX", "address": {"city": "EAST SYRACUSE", "state": "NY", "street": "2 TECHNOLOGY PL", "postcode": "13057"}}},
{"geometry": {"type": "Point", "coordinates": [-76.0458149514, 43.0923078009]}, "type": "Feature", "properties": {"collection_times": [{"days": "Mon-Fri", "time": "5:00pm"}, {"days": "Sat-Sun", "time": "Closed"}], "id": "1305700049", "name": "USPS COLLECTION BOX - BLUE BOX", "address": {"city": "EAST SYRACUSE", "state": "NY", "street": "1 BRITTONFIELD PKWY", "postcode": "13057"}}},
{"geometry": {"type": "Point", "coordinates": [-76.0735886596, 43.0906840964]}, "type": "Feature", "properties": {"collection_times": [{"days": "Mon-Fri", "time": "5:00pm"}, {"days": "Sat", "time": "9:30am"}, {"days": "Sun", "time": "Closed"}], "id": "1305700052", "name": "USPS COLLECTION BOX - BLUE BOX", "address": {"city": "EAST SYRACUSE", "state": "NY", "street": "5000 CAMPUSWOOD DR", "postcode": "13057"}}},
{"geometry": {"type": "Point", "coordinates": [-76.0544995084, 43.049883022]}, "type": "Feature", "properties": {"collection_times": [{"days": "Mon-Fri", "time": "4:30pm"}, {"days": "Sat-Sun", "time": "Closed"}], "id": "1305700053", "name": "USPS COLLECTION BOX - BLUE BOX", "address": {"city": "EAST SYRACUSE", "state": "NY", "street": "5730 COMMONS PARK", "postcode": "13057"}}},
{"geometry": {"type": "Point", "coordinates": [-76.4462753043, 43.0347306331]}, "type": "Feature", "properties": {"collection_times": [{"days": "Mon-Fri", "time": "4:00pm"}, {"days": "Sat", "time": "11:00am"}, {"days": "Sun", "time": "Closed"}], "id": "1306000001", "name": "USPS COLLECTION BOX - PO LOBBY", "address": {"city": "ELBRIDGE", "state": "NY", "street": "106 S MAIN ST", "postcode": "13060"}}},
{"geometry": {"type": "Point", "coordinates": [-76.4462753043, 43.0347306331]}, "type": "Feature", "properties": {"collection_times": [{"days": "Mon-Fri", "time": "4:00pm"}, {"days": "Sat", "time": "11:00am"}, {"days": "Sun", "time": "Closed"}], "id": "1306000002", "name": "USPS COLLECTION BOX - BLUE BOX", "address": {"city": "ELBRIDGE", "state": "NY", "street": "106 S MAIN ST", "postcode": "13060"}}},
{"geometry": {"type": "Point", "coordinates": [-76.4524665417, 43.0336835338]}, "type": "Feature", "properties": {"collection_times": [{"days": "Mon-Sat", "time": "9:30am"}, {"days": "Sun", "time": "Closed"}], "id": "1306000005", "name": "USPS COLLECTION BOX - BLUE BOX", "address": {"city": "ELBRIDGE", "state": "NY", "street": "235 E RT 5", "postcode": "13060"}}},
{"geometry": {"type": "Point", "coordinates": [-75.7553976034, 42.8517932738]}, "type": "Feature", "properties": {"collection_times": [{"days": "Mon-Fri", "time": "4:15pm"}, {"days": "Sat", "time": "11:15am"}, {"days": "Sun", "time": "Closed"}], "id": "1306100002", "name": "USPS COLLECTION BOX - BLUE BOX", "address": {"city": "ERIEVILLE", "state": "NY", "street": "3643 EATON BROOK RD", "postcode": "13061"}}},
{"geometry": {"type": "Point", "coordinates": [-75.7506894886, 42.8588927144]}, "type": "Feature", "properties": {"collection_times": [{"days": "Mon-Fri", "time": "12:00pm"}, {"days": "Sat", "time": "11:30am"}, {"days": "Sun", "time": "Closed"}], "id": "1306100003", "name": "USPS COLLECTION BOX - PO LOBBY", "address": {"city": "ERIEVILLE", "state": "NY", "street": "100 COUNTY RT 67", "postcode": "13061"}}},
{"geometry": {"type": "Point", "coordinates": [-76.3852587268, 42.4853110831]}, "type": "Feature", "properties": {"collection_times": [{"days": "Mon-Fri", "time": "4:30pm"}, {"days": "Sat", "time": "11:45am"}, {"days": "Sun", "time": "Closed"}], "id": "1306200001", "name": "USPS COLLECTION BOX - BLUE BOX", "address": {"city": "ETNA", "state": "NY", "street": "2 LOWER CREEK RD", "postcode": "13062"}}},
{"geometry": {"type": "Point", "coordinates": [-76.3852587268, 42.4853110831]}, "type": "Feature", "properties": {"collection_times": [{"days": "Mon-Fri", "time": "4:45pm"}, {"days": "Sat", "time": "11:45am"}, {"days": "Sun", "time": "Closed"}], "id": "1306200002", "name": "USPS COLLECTION BOX - PO LOBBY", "address": {"city": "ETNA", "state": "NY", "street": "2 LOWER CREEK RD", "postcode": "13062"}}},
{"geometry": {"type": "Point", "coordinates": [-75.9823537942, 42.8339822577]}, "type": "Feature", "properties": {"collection_times": [{"days": "Mon-Fri", "time": "4:30pm"}, {"days": "Sat", "time": "11:15am"}, {"days": "Sun", "time": "Closed"}], "id": "1306300001", "name": "USPS COLLECTION BOX - BLUE BOX", "address": {"city": "FABIUS", "state": "NY", "street": "1306 KEENEY RD", "postcode": "13063"}}},
{"geometry": {"type": "Point", "coordinates": [-75.9823537942, 42.8339822577]}, "type": "Feature", "properties": {"collection_times": [{"days": "Mon-Fri", "time": "3:00pm"}, {"days": "Sat", "time": "11:15am"}, {"days": "Sun", "time": "Closed"}], "id": "1306300002", "name": "USPS COLLECTION BOX - PO LOBBY", "address": {"city": "FABIUS", "state": "NY", "street": "1306 KEENEY RD", "postcode": "13063"}}},
{"geometry": {"type": "Point", "coordinates": [-76.7048736694, 43.3162329382]}, "type": "Feature", "properties": {"collection_times": [{"days": "Mon-Fri", "time": "4:30pm"}, {"days": "Sat", "time": "11:45am"}, {"days": "Sun", "time": "Closed"}], "id": "1306400001", "name": "USPS COLLECTION BOX - BLUE BOX", "address": {"city": "FAIR HAVEN", "state": "NY", "street": "14452 FANCHER AVE", "postcode": "13064"}}},
{"geometry": {"type": "Point", "coordinates": [-76.7048578376, 43.3162759464]}, "type": "Feature", "properties": {"collection_times": [{"days": "Mon-Fri", "time": "4:30pm"}, {"days": "Sat", "time": "11:45am"}, {"days": "Sun", "time": "Closed"}], "id": "1306400002", "name": "USPS COLLECTION BOX - PO LOBBY", "address": {"city": "FAIR HAVEN", "state": "NY", "street": "14452 FANCHER AVE", "postcode": "13064"}}},
{"geometry": {"type": "Point", "coordinates": [-76.8097312707, 42.8127825576]}, "type": "Feature", "properties": {"collection_times": [{"days": "Mon-Fri", "time": "4:30pm"}, {"days": "Sat", "time": "11:30am"}, {"days": "Sun", "time": "Closed"}], "id": "1306500001", "name": "USPS COLLECTION BOX - BLUE BOX", "address": {"city": "FAYETTE", "state": "NY", "street": "4346 STATE ROUTE 414", "postcode": "13065"}}},
{"geometry": {"type": "Point", "coordinates": [-76.8097312707, 42.8127825576]}, "type": "Feature", "properties": {"collection_times": [{"days": "Mon-Fri", "time": "5:00pm"}, {"days": "Sat", "time": "12:00pm"}, {"days": "Sun", "time": "Closed"}], "id": "1306500002", "name": "USPS COLLECTION BOX - PO LOBBY", "address": {"city": "FAYETTE", "state": "NY", "street": "4346 STATE ROUTE 414", "postcode": "13065"}}},
{"geometry": {"type": "Point", "coordinates": [-75.9969209352, 43.0311341006]}, "type": "Feature", "properties": {"collection_times": [{"days": "Mon-Fri", "time": "5:15pm"}, {"days": "Sat", "time": "3:00pm"}, {"days": "Sun", "time": "Closed"}], "id": "1306600001", "name": "USPS COLLECTION BOX - BLUE BOX", "address": {"city": "FAYETTEVILLE", "state": "NY", "street": "599 E GENESEE ST", "postcode": "13066"}}},
{"geometry": {"type": "Point", "coordinates": [-75.9969209352, 43.0311341006]}, "type": "Feature", "properties": {"collection_times": [{"days": "Mon-Fri", "time": "5:15pm"}, {"days": "Sat", "time": "3:00pm"}, {"days": "Sun", "time": "Closed"}], "id": "1306600002", "name": "USPS COLLECTION BOX - BLUE BOX", "address": {"city": "FAYETTEVILLE", "state": "NY", "street": "599 E GENESEE ST", "postcode": "13066"}}},
{"geometry": {"type": "Point", "coordinates": [-76.0160766451, 43.026433723]}, "type": "Feature", "properties": {"collection_times": [{"days": "Mon-Fri", "time": "4:30pm"}, {"days": "Sat", "time": "9:00am"}, {"days": "Sun", "time": "Closed"}], "id": "1306600004", "name": "USPS COLLECTION BOX - BLUE BOX", "address": {"city": "FAYETTEVILLE", "state": "NY", "street": "301 BROOKLEA DR", "postcode": "13066"}}},
{"geometry": {"type": "Point", "coordinates": [-76.021171353, 43.0325279646]}, "type": "Feature", "properties": {"collection_times": [{"days": "Mon-Fri", "time": "5:00pm"}, {"days": "Sat", "time": "9:00am"}, {"days": "Sun", "time": "Closed"}], "id": "1306600007", "name": "USPS COLLECTION BOX - BLUE BOX", "address": {"city": "FAYETTEVILLE", "state": "NY", "street": "350 TOWNE DR", "postcode": "13066"}}},
{"geometry": {"type": "Point", "coordinates": [-76.0520028907, 43.0310620874]}, "type": "Feature", "properties": {"collection_times": [{"days": "Mon-Fri", "time": "4:45pm"}, {"days": "Sat", "time": "9:30am"}, {"days": "Sun", "time": "Closed"}], "id": "1306600008", "name": "USPS COLLECTION BOX - BLUE BOX", "address": {"city": "FAYETTEVILLE", "state": "NY", "street": "6789 E GENESEE ST", "postcode": "13066"}}},
{"geometry": {"type": "Point", "coordinates": [-76.0495852099, 43.0299897331]}, "type": "Feature", "properties": {"collection_times": [{"days": "Mon-Fri", "time": "4:45pm"}, {"days": "Sat", "time": "9:30am"}, {"days": "Sun", "time": "Closed"}], "id": "1306600009", "name": "USPS COLLECTION BOX - BLUE BOX", "address": {"city": "FAYETTEVILLE", "state": "NY", "street": "6832 E GENESEE ST", "postcode": "13066"}}},
{"geometry": {"type": "Point", "coordinates": [-76.0409006669, 43.02818401]}, "type": "Feature", "properties": {"collection_times": [{"days": "Mon-Fri", "time": "5:00pm"}, {"days": "Sat", "time": "9:00am"}, {"days": "Sun", "time": "Closed"}], "id": "1306600011", "name": "USPS COLLECTION BOX - BLUE BOX", "address": {"city": "FAYETTEVILLE", "state": "NY", "street": "7000 E GENESEE ST", "postcode": "13066"}}},
{"geometry": {"type": "Point", "coordinates": [-76.0097206958, 43.0169876091]}, "type": "Feature", "properties": {"collection_times": [{"days": "Mon-Sat", "time": "1:00pm"}, {"days": "Sun", "time": "Closed"}], "id": "1306600013", "name": "USPS COLLECTION BOX - BLUE BOX", "address": {"city": "FAYETTEVILLE", "state": "NY", "street": "5100 HIGHBRIDGE ST", "postcode": "13066"}}},
{"geometry": {"type": "Point", "coordinates": [-76.004316628, 43.0281917232]}, "type": "Feature", "properties": {"collection_times": [{"days": "Mon-Fri", "time": "5:00pm"}, {"days": "Sat", "time": "9:00am"}, {"days": "Sun", "time": "Closed"}], "id": "1306600015", "name": "USPS COLLECTION BOX - BLUE BOX", "address": {"city": "FAYETTEVILLE", "state": "NY", "street": "106 JOHN ST", "postcode": "13066"}}},
{"geometry": {"type": "Point", "coordinates": [-76.0079699518, 43.0243827555]}, "type": "Feature", "properties": {"collection_times": [{"days": "Mon-Sat", "time": "9:30am"}, {"days": "Sun", "time": "Closed"}], "id": "1306600016", "name": "USPS COLLECTION BOX - BLUE BOX", "address": {"city": "FAYETTEVILLE", "state": "NY", "street": "500 WALNUT ST", "postcode": "13066"}}},
{"geometry": {"type": "Point", "coordinates": [-75.9969209352, 43.0311341006]}, "type": "Feature", "properties": {"collection_times": [{"days": "Mon-Fri", "time": "5:15pm"}, {"days": "Sat", "time": "3:00pm"}, {"days": "Sun", "time": "Closed"}], "id": "1306600038", "name": "USPS COLLECTION BOX - PO LOBBY", "address": {"city": "FAYETTEVILLE", "state": "NY", "street": "599 E GENESEE ST", "postcode": "13066"}}},
{"geometry": {"type": "Point", "coordinates": [-76.0145535312, 43.0278147524]}, "type": "Feature", "properties": {"collection_times": [{"days": "Mon-Fri", "time": "2:00pm"}, {"days": "Sat", "time": "9:30am"}, {"days": "Sun", "time": "Closed"}], "id": "1306600040", "name": "USPS COLLECTION BOX - BLUE BOX", "address": {"city": "FAYETTEVILLE", "state": "NY", "street": "219 HIGHBRIDGE ST", "postcode": "13066"}}},
{"geometry": {"type": "Point", "coordinates": [-76.3503964799, 42.5121111126]}, "type": "Feature", "properties": {"collection_times": [{"days": "Mon-Fri", "time": "4:00pm"}, {"days": "Sat", "time": "12:00pm"}, {"days": "Sun", "time": "Closed"}], "id": "1306800001", "name": "USPS COLLECTION BOX - BLUE BOX", "address": {"city": "FREEVILLE", "state": "NY", "street": "46 MAIN ST", "postcode": "13068"}}},
{"geometry": {"type": "Point", "coordinates": [-76.3503964799, 42.5121111126]}, "type": "Feature", "properties": {"collection_times": [{"days": "Mon-Fri", "time": "4:00pm"}, {"days": "Sat", "time": "12:00pm"}, {"days": "Sun", "time": "Closed"}], "id": "1306800002", "name": "USPS COLLECTION BOX - PO LOBBY", "address": {"city": "FREEVILLE", "state": "NY", "street": "46 MAIN ST", "postcode": "13068"}}},
{"geometry": {"type": "Point", "coordinates": [-76.4193983853, 43.3178388854]}, "type": "Feature", "properties": {"collection_times": [{"days": "Mon-Fri", "time": "5:15pm"}, {"days": "Sat", "time": "4:00pm"}, {"days": "Sun", "time": "Closed"}], "id": "1306900002", "name": "USPS COLLECTION BOX - BLUE BOX", "address": {"city": "FULTON", "state": "NY", "street": "214 S 1ST ST", "postcode": "13069"}}},
{"geometry": {"type": "Point", "coordinates": [-76.422997812, 43.3236734001]}, "type": "Feature", "properties": {"collection_times": [{"days": "Mon-Fri", "time": "10:00am"}, {"days": "Sat", "time": "9:00am"}, {"days": "Sun", "time": "Closed"}], "id": "1306900003", "name": "USPS COLLECTION BOX - BLUE BOX", "address": {"city": "FULTON", "state": "NY", "street": "12 W 1ST ST S", "postcode": "13069"}}},
{"geometry": {"type": "Point", "coordinates": [-76.4184378226, 43.3278088636]}, "type": "Feature", "properties": {"collection_times": [{"days": "Mon-Fri", "time": "9:00am"}, {"days": "Sat-Sun", "time": "Closed"}], "id": "1306900013", "name": "USPS COLLECTION BOX - BLUE BOX", "address": {"city": "FULTON", "state": "NY", "street": "46 N 1ST ST", "postcode": "13069"}}},
{"geometry": {"type": "Point", "coordinates": [-76.4159252178, 43.3306929175]}, "type": "Feature", "properties": {"collection_times": [{"days": "Mon-Fri", "time": "9:00am"}, {"days": "Sat-Sun", "time": "Closed"}], "id": "1306900014", "name": "USPS COLLECTION BOX - BLUE BOX", "address": {"city": "FULTON", "state": "NY", "street": "200 N 2ND ST", "postcode": "13069"}}},
{"geometry": {"type": "Point", "coordinates": [-76.419003277, 43.3159000157]}, "type": "Feature", "properties": {"collection_times": [{"days": "Mon-Sat", "time": "10:00am"}, {"days": "Sun", "time": "Closed"}], "id": "1306900018", "name": "USPS COLLECTION BOX - BLUE BOX", "address": {"city": "FULTON", "state": "NY", "street": "113 W BROADWAY", "postcode": "13069"}}},
{"geometry": {"type": "Point", "coordinates": [-76.4212485331, 43.3209086639]}, "type": "Feature", "properties": {"collection_times": [{"days": "Mon-Sat", "time": "9:00am"}, {"days": "Sun", "time": "Closed"}], "id": "1306900021", "name": "USPS COLLECTION BOX - BLUE BOX", "address": {"city": "FULTON", "state": "NY", "street": "75 S 1ST ST", "postcode": "13069"}}},
{"geometry": {"type": "Point", "coordinates": [-76.4079734009, 43.3029934259]}, "type": "Feature", "properties": {"collection_times": [{"days": "Mon-Sat", "time": "10:30am"}, {"days": "Sun", "time": "Closed"}], "id": "1306900023", "name": "USPS COLLECTION BOX - BLUE BOX", "address": {"city": "FULTON", "state": "NY", "street": "909 W 1ST ST S", "postcode": "13069"}}},
{"geometry": {"type": "Point", "coordinates": [-76.444921918, 43.3250178444]}, "type": "Feature", "properties": {"collection_times": [{"days": "Mon-Sat", "time": "10:30am"}, {"days": "Sun", "time": "Closed"}], "id": "1306900024", "name": "USPS COLLECTION BOX - BLUE BOX", "address": {"city": "FULTON", "state": "NY", "street": "1818 STATE ROUTE 3", "postcode": "13069"}}},
{"geometry": {"type": "Point", "coordinates": [-76.4367910618, 43.328748188]}, "type": "Feature", "properties": {"collection_times": [{"days": "Mon-Sat", "time": "11:30am"}, {"days": "Sun", "time": "Closed"}], "id": "1306900028", "name": "USPS COLLECTION BOX - BLUE BOX", "address": {"city": "FULTON", "state": "NY", "street": "200 MEADOWBROOK CIR", "postcode": "13069"}}},
{"geometry": {"type": "Point", "coordinates": [-76.4161464311, 43.320732403]}, "type": "Feature", "properties": {"collection_times": [{"days": "Mon-Sat", "time": "9:00am"}, {"days": "Sun", "time": "Closed"}], "id": "1306900030", "name": "USPS COLLECTION BOX - BLUE BOX", "address": {"city": "FULTON", "state": "NY", "street": "141 S 1ST ST", "postcode": "13069"}}},
{"geometry": {"type": "Point", "coordinates": [-76.4193983853, 43.3178388854]}, "type": "Feature", "properties": {"collection_times": [{"days": "Mon-Fri", "time": "5:15pm"}, {"days": "Sat", "time": "4:00pm"}, {"days": "Sun", "time": "Closed"}], "id": "1306900033", "name": "USPS COLLECTION BOX - PO LOBBY", "address": {"city": "FULTON", "state": "NY", "street": "214 S 1ST ST", "postcode": "13069"}}},
{"geometry": {"type": "Point", "coordinates": [-76.4176748141, 43.3247923182]}, "type": "Feature", "properties": {"collection_times": [{"days": "Mon-Sat", "time": "9:00am"}, {"days": "Sun", "time": "Closed"}], "id": "1306900036", "name": "USPS COLLECTION BOX - BLUE BOX", "address": {"city": "FULTON", "state": "NY", "street": "1 S 1ST ST", "postcode": "13069"}}},
{"geometry": {"type": "Point", "coordinates": [-76.5385526414, 42.6685814728]}, "type": "Feature", "properties": {"collection_times": [{"days": "Mon-Fri", "time": "4:00pm"}, {"days": "Sat", "time": "11:30am"}, {"days": "Sun", "time": "Closed"}], "id": "1307100001", "name": "USPS COLLECTION BOX - BLUE BOX", "address": {"city": "GENOA", "state": "NY", "street": "1034 NORTH ST", "postcode": "13071"}}},
{"geometry": {"type": "Point", "coordinates": [-76.5385526414, 42.6685814728]}, "type": "Feature", "properties": {"collection_times": [{"days": "Mon-Fri", "time": "12:00pm"}, {"days": "Sat", "time": "11:45am"}, {"days": "Sun", "time": "Closed"}], "id": "1307100002", "name": "USPS COLLECTION BOX - PO LOBBY", "address": {"city": "GENOA", "state": "NY", "street": "1034 NORTH ST", "postcode": "13071"}}},
{"geometry": {"type": "Point", "coordinates": [-75.7351962132, 42.7698378767]}, "type": "Feature", "properties": {"collection_times": [{"days": "Mon-Fri", "time": "4:15pm"}, {"days": "Sat", "time": "11:30am"}, {"days": "Sun", "time": "Closed"}], "id": "1307200001", "name": "USPS COLLECTION BOX - BLUE BOX", "address": {"city": "GEORGETOWN", "state": "NY", "street": "1008 STATE ROUTE 26", "postcode": "13072"}}},
{"geometry": {"type": "Point", "coordinates": [-75.7351962132, 42.7698378767]}, "type": "Feature", "properties": {"collection_times": [{"days": "Mon-Fri", "time": "12:00pm"}, {"days": "Sat", "time": "11:30am"}, {"days": "Sun", "time": "Closed"}], "id": "1307200002", "name": "USPS COLLECTION BOX - PO LOBBY", "address": {"city": "GEORGETOWN", "state": "NY", "street": "1008 STATE ROUTE 26", "postcode": "13072"}}},
{"geometry": {"type": "Point", "coordinates": [-76.3678445092, 42.5907753525]}, "type": "Feature", "properties": {"collection_times": [{"days": "Mon-Fri", "time": "5:00pm"}, {"days": "Sat", "time": "12:00pm"}, {"days": "Sun", "time": "Closed"}], "id": "1307300001", "name": "USPS COLLECTION BOX - BLUE BOX", "address": {"city": "GROTON", "state": "NY", "street": "101 E CORTLAND ST", "postcode": "13073"}}},
{"geometry": {"type": "Point", "coordinates": [-76.3678445092, 42.5907753525]}, "type": "Feature", "properties": {"collection_times": [{"days": "Mon-Fri", "time": "5:00pm"}, {"days": "Sat", "time": "12:00pm"}, {"days": "Sun", "time": "Closed"}], "id": "1307300002", "name": "USPS COLLECTION BOX - BLUE BOX", "address": {"city": "GROTON", "state": "NY", "street": "101 E CORTLAND ST", "postcode": "13073"}}},
{"geometry": {"type": "Point", "coordinates": [-76.3678445092, 42.5907753525]}, "type": "Feature", "properties": {"collection_times": [{"days": "Mon-Fri", "time": "5:00pm"}, {"days": "Sat", "time": "12:00pm"}, {"days": "Sun", "time": "Closed"}], "id": "1307300006", "name": "USPS COLLECTION BOX - PO LOBBY", "address": {"city": "GROTON", "state": "NY", "street": "101 E CORTLAND ST", "postcode": "13073"}}},
{"geometry": {"type": "Point", "coordinates": [-76.5788700078, 43.3207718396]}, "type": "Feature", "properties": {"collection_times": [{"days": "Mon-Fri", "time": "4:45pm"}, {"days": "Sat", "time": "11:30am"}, {"days": "Sun", "time": "Closed"}], "id": "1307400001", "name": "USPS COLLECTION BOX - BLUE BOX", "address": {"city": "HANNIBAL", "state": "NY", "street": "1 VILLAGE SQ", "postcode": "13074"}}},
{"geometry": {"type": "Point", "coordinates": [-76.5727772958, 43.3219969862]}, "type": "Feature", "properties": {"collection_times": [{"days": "Mon-Sat", "time": "10:30am"}, {"days": "Sun", "time": "Closed"}], "id": "1307400002", "name": "USPS COLLECTION BOX - BLUE BOX", "address": {"city": "HANNIBAL", "state": "NY", "street": "409 FULTON ST", "postcode": "13074"}}},
{"geometry": {"type": "Point", "coordinates": [-76.5788700078, 43.3207718396]}, "type": "Feature", "properties": {"collection_times": [{"days": "Mon-Fri", "time": "4:45pm"}, {"days": "Sat", "time": "11:45am"}, {"days": "Sun", "time": "Closed"}], "id": "1307400003", "name": "USPS COLLECTION BOX - PO LOBBY", "address": {"city": "HANNIBAL", "state": "NY", "street": "1 VILLAGE SQ", "postcode": "13074"}}},
{"geometry": {"type": "Point", "coordinates": [-76.1531817509, 43.3741536469]}, "type": "Feature", "properties": {"collection_times": [{"days": "Mon-Fri", "time": "4:00pm"}, {"days": "Sat", "time": "11:00am"}, {"days": "Sun", "time": "Closed"}], "id": "1307600001", "name": "USPS COLLECTION BOX - BLUE BOX", "address": {"city": "HASTINGS", "state": "NY", "street": "6 COUNTY ROUTE 45", "postcode": "13076"}}},
{"geometry": {"type": "Point", "coordinates": [-76.1531242634, 43.3741961704]}, "type": "Feature", "properties": {"collection_times": [{"days": "Mon-Fri", "time": "3:00pm"}, {"days": "Sat", "time": "11:00am"}, {"days": "Sun", "time": "Closed"}], "id": "1307600002", "name": "USPS COLLECTION BOX - PO LOBBY", "address": {"city": "HASTINGS", "state": "NY", "street": "6 COUNTY ROUTE 45", "postcode": "13076"}}},
{"geometry": {"type": "Point", "coordinates": [-76.1786173463, 42.6366632144]}, "type": "Feature", "properties": {"collection_times": [{"days": "Mon-Fri", "time": "5:00pm"}, {"days": "Sat", "time": "12:00pm"}, {"days": "Sun", "time": "Closed"}], "id": "1307700002", "name": "USPS COLLECTION BOX - BLUE BOX", "address": {"city": "HOMER", "state": "NY", "street": "2 S MAIN ST", "postcode": "13077"}}},
{"geometry": {"type": "Point", "coordinates": [-76.1784391078, 42.6376646886]}, "type": "Feature", "properties": {"collection_times": [{"days": "Mon-Fri", "time": "5:00pm"}, {"days": "Sat", "time": "12:00pm"}, {"days": "Sun", "time": "Closed"}], "id": "1307700004", "name": "USPS COLLECTION BOX - BLUE BOX", "address": {"city": "HOMER", "state": "NY", "street": "12 S MAIN ST", "postcode": "13077"}}},
{"geometry": {"type": "Point", "coordinates": [-76.1893980396, 42.6400873885]}, "type": "Feature", "properties": {"collection_times": [{"days": "Mon-Sat", "time": "12:00pm"}, {"days": "Sun", "time": "Closed"}], "id": "1307700005", "name": "USPS COLLECTION BOX - BLUE BOX", "address": {"city": "HOMER", "state": "NY", "street": "37 N WEST ST", "postcode": "13077"}}},
{"geometry": {"type": "Point", "coordinates": [-76.182886873, 42.6345279754]}, "type": "Feature", "properties": {"collection_times": [{"days": "Mon-Sat", "time": "11:00am"}, {"days": "Sun", "time": "Closed"}], "id": "1307700006", "name": "USPS COLLECTION BOX - BLUE BOX", "address": {"city": "HOMER", "state": "NY", "street": "25 CORTLAND ST", "postcode": "13077"}}},
{"geometry": {"type": "Point", "coordinates": [-76.1789619757, 42.6332558005]}, "type": "Feature", "properties": {"collection_times": [{"days": "Mon-Sat", "time": "8:45am"}, {"days": "Sun", "time": "Closed"}], "id": "1307700007", "name": "USPS COLLECTION BOX - BLUE BOX", "address": {"city": "HOMER", "state": "NY", "street": "81 S MAIN ST", "postcode": "13077"}}},
{"geometry": {"type": "Point", "coordinates": [-76.1893791123, 42.6340708592]}, "type": "Feature", "properties": {"collection_times": [{"days": "Mon-Sat", "time": "1:15pm"}, {"days": "Sun", "time": "Closed"}], "id": "1307700008", "name": "USPS COLLECTION BOX - BLUE BOX", "address": {"city": "HOMER", "state": "NY", "street": "94 CAYUGA ST", "postcode": "13077"}}},
{"geometry": {"type": "Point", "coordinates": [-76.1785597696, 42.6366615394]}, "type": "Feature", "properties": {"collection_times": [{"days": "Mon-Fri", "time": "5:00pm"}, {"days": "Sat", "time": "12:00pm"}, {"days": "Sun", "time": "Closed"}], "id": "1307700021", "name": "USPS COLLECTION BOX - PO LOBBY", "address": {"city": "HOMER", "state": "NY", "street": "2 S MAIN ST", "postcode": "13077"}}},
{"geometry": {"type": "Point", "coordinates": [-76.071042118, 42.9917760222]}, "type": "Feature", "properties": {"collection_times": [{"days": "Mon-Fri", "time": "5:00pm"}, {"days": "Sat", "time": "12:00pm"}, {"days": "Sun", "time": "Closed"}], "id": "1307800002", "name": "USPS COLLECTION BOX - PO LOBBY", "address": {"city": "JAMESVILLE", "state": "NY", "street": "6499 E SENECA TPKE", "postcode": "13078"}}},
{"geometry": {"type": "Point", "coordinates": [-76.071042118, 42.9917760222]}, "type": "Feature", "properties": {"collection_times": [{"days": "Mon-Fri", "time": "5:00pm"}, {"days": "Sat", "time": "12:00pm"}, {"days": "Sun", "time": "Closed"}], "id": "1307800003", "name": "USPS COLLECTION BOX - BLUE BOX", "address": {"city": "JAMESVILLE", "state": "NY", "street": "6499 E SENECA TPKE", "postcode": "13078"}}},
{"geometry": {"type": "Point", "coordinates": [-76.4717901924, 43.065519594]}, "type": "Feature", "properties": {"collection_times": [{"days": "Mon-Fri", "time": "4:30pm"}, {"days": "Sat", "time": "10:45am"}, {"days": "Sun", "time": "Closed"}], "id": "1308000001", "name": "USPS COLLECTION BOX - BLUE BOX", "address": {"city": "JORDAN", "state": "NY", "street": "9 MECHANIC ST", "postcode": "13080"}}},
{"geometry": {"type": "Point", "coordinates": [-76.4717901924, 43.065519594]}, "type": "Feature", "properties": {"collection_times": [{"days": "Mon-Fri", "time": "4:45pm"}, {"days": "Sat", "time": "10:45am"}, {"days": "Sun", "time": "Closed"}], "id": "1308000002", "name": "USPS COLLECTION BOX - PO LOBBY", "address": {"city": "JORDAN", "state": "NY", "street": "9 MECHANIC ST", "postcode": "13080"}}},
{"geometry": {"type": "Point", "coordinates": [-76.4717901924, 43.065519594]}, "type": "Feature", "properties": {"collection_times": [{"days": "Mon-Fri", "time": "4:45pm"}, {"days": "Sat", "time": "10:45am"}, {"days": "Sun", "time": "Closed"}], "id": "1308000003", "name": "USPS COLLECTION BOX - PO LOBBY", "address": {"city": "JORDAN", "state": "NY", "street": "9 MECHANIC ST", "postcode": "13080"}}},
{"geometry": {"type": "Point", "coordinates": [-76.6184357153, 42.6651407198]}, "type": "Feature", "properties": {"collection_times": [{"days": "Mon-Fri", "time": "4:15pm"}, {"days": "Sat", "time": "11:45am"}, {"days": "Sun", "time": "Closed"}], "id": "1308100001", "name": "USPS COLLECTION BOX - BLUE BOX", "address": {"city": "KING FERRY", "state": "NY", "street": "8761 STATE ROUTE 90 N", "postcode": "13081"}}},
{"geometry": {"type": "Point", "coordinates": [-76.6182808436, 42.6651165094]}, "type": "Feature", "properties": {"collection_times": [{"days": "Mon-Fri", "time": "3:00pm"}, {"days": "Sat", "time": "11:45am"}, {"days": "Sun", "time": "Closed"}], "id": "1308100002", "name": "USPS COLLECTION BOX - PO LOBBY", "address": {"city": "KING FERRY", "state": "NY", "street": "8761 STATE ROUTE 90 N", "postcode": "13081"}}},
{"geometry": {"type": "Point", "coordinates": [-75.9525925011, 43.079203376]}, "type": "Feature", "properties": {"collection_times": [{"days": "Mon-Fri", "time": "5:00pm"}, {"days": "Sat", "time": "10:45am"}, {"days": "Sun", "time": "Closed"}], "id": "1308200001", "name": "USPS COLLECTION BOX - BLUE BOX", "address": {"city": "KIRKVILLE", "state": "NY", "street": "6365 N KIRKVILLE RD", "postcode": "13082"}}},
{"geometry": {"type": "Point", "coordinates": [-75.9525925011, 43.079203376]}, "type": "Feature", "properties": {"collection_times": [{"days": "Mon-Fri", "time": "5:00pm"}, {"days": "Sat", "time": "10:45am"}, {"days": "Sun", "time": "Closed"}], "id": "1308200005", "name": "USPS COLLECTION BOX - PO LOBBY", "address": {"city": "KIRKVILLE", "state": "NY", "street": "6365 N KIRKVILLE RD", "postcode": "13082"}}},
{"geometry": {"type": "Point", "coordinates": [-76.0703734404, 43.6421411709]}, "type": "Feature", "properties": {"collection_times": [{"days": "Mon-Fri", "time": "4:30pm"}, {"days": "Sat", "time": "11:15am"}, {"days": "Sun", "time": "Closed"}], "id": "1308300001", "name": "USPS COLLECTION BOX - BLUE BOX", "address": {"city": "LACONA", "state": "NY", "street": "15 PARK AVE", "postcode": "13083"}}},
{"geometry": {"type": "Point", "coordinates": [-76.0703734404, 43.6421411709]}, "type": "Feature", "properties": {"collection_times": [{"days": "Mon-Fri", "time": "4:50pm"}, {"days": "Sat", "time": "11:30am"}, {"days": "Sun", "time": "Closed"}], "id": "1308300002", "name": "USPS COLLECTION BOX - PO LOBBY", "address": {"city": "LACONA", "state": "NY", "street": "15 PARK AVE", "postcode": "13083"}}},
{"geometry": {"type": "Point", "coordinates": [-76.1055476711, 42.8929577308]}, "type": "Feature", "properties": {"collection_times": [{"days": "Mon-Fri", "time": "5:00pm"}, {"days": "Sat", "time": "12:00pm"}, {"days": "Sun", "time": "Closed"}], "id": "1308400001", "name": "USPS COLLECTION BOX - BLUE BOX", "address": {"city": "LA FAYETTE", "state": "NY", "street": "2507 US ROUTE 11", "postcode": "13084"}}},
{"geometry": {"type": "Point", "coordinates": [-76.1055476711, 42.8929577308]}, "type": "Feature", "properties": {"collection_times": [{"days": "Mon-Fri", "time": "5:00pm"}, {"days": "Sat", "time": "12:00pm"}, {"days": "Sun", "time": "Closed"}], "id": "1308400002", "name": "USPS COLLECTION BOX - PO LOBBY", "address": {"city": "LA FAYETTE", "state": "NY", "street": "2507 US ROUTE 11", "postcode": "13084"}}},
{"geometry": {"type": "Point", "coordinates": [-76.1471069773, 42.7384485065]}, "type": "Feature", "properties": {"collection_times": [{"days": "Mon-Fri", "time": "4:45pm"}, {"days": "Sat", "time": "11:45am"}, {"days": "Sun", "time": "Closed"}], "id": "1308700001", "name": "USPS COLLECTION BOX - BLUE BOX", "address": {"city": "LITTLE YORK", "state": "NY", "street": "6002 STATE ROUTE 281", "postcode": "13087"}}},
{"geometry": {"type": "Point", "coordinates": [-76.1471069773, 42.7384485065]}, "type": "Feature", "properties": {"collection_times": [{"days": "Mon-Fri", "time": "4:45pm"}, {"days": "Sat", "time": "11:45am"}, {"days": "Sun", "time": "Closed"}], "id": "1308700002", "name": "USPS COLLECTION BOX - PO LOBBY", "address": {"city": "LITTLE YORK", "state": "NY", "street": "6002 STATE ROUTE 281", "postcode": "13087"}}},
{"geometry": {"type": "Point", "coordinates": [-76.2042599361, 43.1028519912]}, "type": "Feature", "properties": {"collection_times": [{"days": "Mon-Fri", "time": "5:15pm"}, {"days": "Sat", "time": "3:30pm"}, {"days": "Sun", "time": "Closed"}], "id": "1308800002", "name": "USPS COLLECTION BOX - PO LOBBY", "address": {"city": "LIVERPOOL", "state": "NY", "street": "300 CYPRESS ST", "postcode": "13088"}}},
{"geometry": {"type": "Point", "coordinates": [-76.2129237072, 43.105523908]}, "type": "Feature", "properties": {"collection_times": [{"days": "Mon-Sat", "time": "10:00am"}, {"days": "Sun", "time": "Closed"}], "id": "1308800004", "name": "USPS COLLECTION BOX - BLUE BOX", "address": {"city": "LIVERPOOL", "state": "NY", "street": "298 BASS ST", "postcode": "13088"}}},
{"geometry": {"type": "Point", "coordinates": [-76.2093532177, 43.1047292666]}, "type": "Feature", "properties": {"collection_times": [{"days": "Mon-Sat", "time": "1:00pm"}, {"days": "Sun", "time": "Closed"}], "id": "1308800005", "name": "USPS COLLECTION BOX - BLUE BOX", "address": {"city": "LIVERPOOL", "state": "NY", "street": "398 SYCAMORE ST", "postcode": "13088"}}},
{"geometry": {"type": "Point", "coordinates": [-76.2139226516, 43.1034219659]}, "type": "Feature", "properties": {"collection_times": [{"days": "Mon-Sat", "time": "9:00am"}, {"days": "Sun", "time": "Closed"}], "id": "1308800006", "name": "USPS COLLECTION BOX - BLUE BOX", "address": {"city": "LIVERPOOL", "state": "NY", "street": "700 1ST ST", "postcode": "13088"}}},
{"geometry": {"type": "Point", "coordinates": [-76.2084814293, 43.102267365]}, "type": "Feature", "properties": {"collection_times": [{"days": "Mon-Fri", "time": "4:00pm"}, {"days": "Sat", "time": "11:00am"}, {"days": "Sun", "time": "Closed"}], "id": "1308800007", "name": "USPS COLLECTION BOX - BLUE BOX", "address": {"city": "LIVERPOOL", "state": "NY", "street": "310 TULIP ST", "postcode": "13088"}}},
{"geometry": {"type": "Point", "coordinates": [-76.2070316246, 43.1018373831]}, "type": "Feature", "properties": {"collection_times": [{"days": "Mon-Fri", "time": "4:00pm"}, {"days": "Sat", "time": "11:00am"}, {"days": "Sun", "time": "Closed"}], "id": "1308800008", "name": "USPS COLLECTION BOX - BLUE BOX", "address": {"city": "LIVERPOOL", "state": "NY", "street": "300 1ST ST", "postcode": "13088"}}},
{"geometry": {"type": "Point", "coordinates": [-76.2090581857, 43.1066491404]}, "type": "Feature", "properties": {"collection_times": [{"days": "Mon-Sat", "time": "12:00pm"}, {"days": "Sun", "time": "Closed"}], "id": "1308800009", "name": "USPS COLLECTION BOX - BLUE BOX", "address": {"city": "LIVERPOOL", "state": "NY", "street": "798 OSWEGO ST", "postcode": "13088"}}},
{"geometry": {"type": "Point", "coordinates": [-76.1832196217, 43.0998820811]}, "type": "Feature", "properties": {"collection_times": [{"days": "Mon-Fri", "time": "4:15pm"}, {"days": "Sat", "time": "9:00am"}, {"days": "Sun", "time": "Closed"}], "id": "1308800011", "name": "USPS COLLECTION BOX - BLUE BOX", "address": {"city": "LIVERPOOL", "state": "NY", "street": "1035 7TH NORTH ST", "postcode": "13088"}}},
{"geometry": {"type": "Point", "coordinates": [-76.1824096095, 43.0996549269]}, "type": "Feature", "properties": {"collection_times": [{"days": "Mon-Fri", "time": "4:45pm"}, {"days": "Sat", "time": "9:00am"}, {"days": "Sun", "time": "Closed"}], "id": "1308800012", "name": "USPS COLLECTION BOX - BLUE BOX", "address": {"city": "LIVERPOOL", "state": "NY", "street": "1020 7TH NORTH ST", "postcode": "13088"}}},
{"geometry": {"type": "Point", "coordinates": [-76.2014336979, 43.1074033285]}, "type": "Feature", "properties": {"collection_times": [{"days": "Mon-Sat", "time": "1:30pm"}, {"days": "Sun", "time": "Closed"}], "id": "1308800013", "name": "USPS COLLECTION BOX - BLUE BOX", "address": {"city": "LIVERPOOL", "state": "NY", "street": "850 VINE ST", "postcode": "13088"}}},
{"geometry": {"type": "Point", "coordinates": [-76.1757253681, 43.0883309771]}, "type": "Feature", "properties": {"collection_times": [{"days": "Mon-Sat", "time": "11:00am"}, {"days": "Sun", "time": "Closed"}], "id": "1308800014", "name": "USPS COLLECTION BOX - BLUE BOX", "address": {"city": "LIVERPOOL", "state": "NY", "street": "199 FAIRMOUNT AVE", "postcode": "13088"}}},
{"geometry": {"type": "Point", "coordinates": [-76.1824096095, 43.0996549269]}, "type": "Feature", "properties": {"collection_times": [{"days": "Mon-Fri", "time": "4:45pm"}, {"days": "Sat", "time": "9:00am"}, {"days": "Sun", "time": "Closed"}], "id": "1308800016", "name": "USPS COLLECTION BOX - BLUE BOX", "address": {"city": "LIVERPOOL", "state": "NY", "street": "1020 7TH NORTH ST", "postcode": "13088"}}},
{"geometry": {"type": "Point", "coordinates": [-76.1864092675, 43.0868816156]}, "type": "Feature", "properties": {"collection_times": [{"days": "Mon-Fri", "time": "4:30pm"}, {"days": "Sat", "time": "10:00am"}, {"days": "Sun", "time": "Closed"}], "id": "1308800021", "name": "USPS COLLECTION BOX - BLUE BOX", "address": {"city": "LIVERPOOL", "state": "NY", "street": "408 OLD LIVERPOOL RD", "postcode": "13088"}}},
{"geometry": {"type": "Point", "coordinates": [-76.1941964862, 43.0931963475]}, "type": "Feature", "properties": {"collection_times": [{"days": "Mon-Fri", "time": "4:30pm"}, {"days": "Sat", "time": "11:00am"}, {"days": "Sun", "time": "Closed"}], "id": "1308800022", "name": "USPS COLLECTION BOX - BLUE BOX", "address": {"city": "LIVERPOOL", "state": "NY", "street": "654 OLD LIVERPOOL RD", "postcode": "13088"}}},
{"geometry": {"type": "Point", "coordinates": [-76.1926555464, 43.0990335149]}, "type": "Feature", "properties": {"collection_times": [{"days": "Mon-Sat", "time": "12:30pm"}, {"days": "Sun", "time": "Closed"}], "id": "1308800023", "name": "USPS COLLECTION BOX - BLUE BOX", "address": {"city": "LIVERPOOL", "state": "NY", "street": "97 SUNFLOWER DR", "postcode": "13088"}}},
{"geometry": {"type": "Point", "coordinates": [-76.1865284524, 43.1295567606]}, "type": "Feature", "properties": {"collection_times": [{"days": "Mon-Sat", "time": "10:00am"}, {"days": "Sun", "time": "Closed"}], "id": "1308800025", "name": "USPS COLLECTION BOX - BLUE BOX", "address": {"city": "LIVERPOOL", "state": "NY", "street": "4701 WOODARD WAY", "postcode": "13088"}}},
{"geometry": {"type": "Point", "coordinates": [-76.1608718956, 43.1217701662]}, "type": "Feature", "properties": {"collection_times": [{"days": "Mon-Fri", "time": "4:30pm"}, {"days": "Sat", "time": "10:00am"}, {"days": "Sun", "time": "Closed"}], "id": "1308800026", "name": "USPS COLLECTION BOX - BLUE BOX", "address": {"city": "LIVERPOOL", "state": "NY", "street": "5100 W TAFT RD", "postcode": "13088"}}},
{"geometry": {"type": "Point", "coordinates": [-76.1724963439, 43.1088466816]}, "type": "Feature", "properties": {"collection_times": [{"days": "Mon-Sat", "time": "12:00pm"}, {"days": "Sun", "time": "Closed"}], "id": "1308800027", "name": "USPS COLLECTION BOX - BLUE BOX", "address": {"city": "LIVERPOOL", "state": "NY", "street": "4999 HOPKINS RD", "postcode": "13088"}}},
{"geometry": {"type": "Point", "coordinates": [-76.1828820595, 43.1068522591]}, "type": "Feature", "properties": {"collection_times": [{"days": "Mon-Sat", "time": "1:00pm"}, {"days": "Sun", "time": "Closed"}], "id": "1308800028", "name": "USPS COLLECTION BOX - BLUE BOX", "address": {"city": "LIVERPOOL", "state": "NY", "street": "6940 LARKIN ST", "postcode": "13088"}}},
{"geometry": {"type": "Point", "coordinates": [-76.1992578654, 43.1001818349]}, "type": "Feature", "properties": {"collection_times": [{"days": "Mon-Sat", "time": "11:00am"}, {"days": "Sun", "time": "Closed"}], "id": "1308800030", "name": "USPS COLLECTION BOX - BLUE BOX", "address": {"city": "LIVERPOOL", "state": "NY", "street": "5 TOWN GARDEN DR", "postcode": "13088"}}},
{"geometry": {"type": "Point", "coordinates": [-76.1982829737, 43.0989189961]}, "type": "Feature", "properties": {"collection_times": [{"days": "Mon-Fri", "time": "4:00pm"}, {"days": "Sat", "time": "9:00am"}, {"days": "Sun", "time": "Closed"}], "id": "1308800031", "name": "USPS COLLECTION BOX - BLUE BOX", "address": {"city": "LIVERPOOL", "state": "NY", "street": "913 OLD LIVERPOOL RD", "postcode": "13088"}}},
{"geometry": {"type": "Point", "coordinates": [-76.1974779223, 43.0976120103]}, "type": "Feature", "properties": {"collection_times": [{"days": "Mon-Sat", "time": "9:00am"}, {"days": "Sun", "time": "Closed"}], "id": "1308800032", "name": "USPS COLLECTION BOX - BLUE BOX", "address": {"city": "LIVERPOOL", "state": "NY", "street": "900 OLD LIVERPOOL RD", "postcode": "13088"}}},
{"geometry": {"type": "Point", "coordinates": [-76.1824767981, 43.1208277731]}, "type": "Feature", "properties": {"collection_times": [{"days": "Mon-Fri", "time": "4:30pm"}, {"days": "Sat-Sun", "time": "Closed"}], "id": "1308800033", "name": "USPS COLLECTION BOX - BLUE BOX", "address": {"city": "LIVERPOOL", "state": "NY", "street": "4820 W TAFT RD", "postcode": "13088"}}},
{"geometry": {"type": "Point", "coordinates": [-76.1697024016, 43.1215062898]}, "type": "Feature", "properties": {"collection_times": [{"days": "Mon-Sat", "time": "2:00pm"}, {"days": "Sun", "time": "Closed"}], "id": "1308800034", "name": "USPS COLLECTION BOX - BLUE BOX", "address": {"city": "LIVERPOOL", "state": "NY", "street": "4979 W TAFT RD", "postcode": "13088"}}},
{"geometry": {"type": "Point", "coordinates": [-76.1667712073, 43.121607707]}, "type": "Feature", "properties": {"collection_times": [{"days": "Mon-Sat", "time": "12:00pm"}, {"days": "Sun", "time": "Closed"}], "id": "1308800035", "name": "USPS COLLECTION BOX - BLUE BOX", "address": {"city": "LIVERPOOL", "state": "NY", "street": "7300 CEDARPOST RD", "postcode": "13088"}}},
{"geometry": {"type": "Point", "coordinates": [-76.1811086755, 43.1138146418]}, "type": "Feature", "properties": {"collection_times": [{"days": "Mon-Sat", "time": "2:00pm"}, {"days": "Sun", "time": "Closed"}], "id": "1308800036", "name": "USPS COLLECTION BOX - BLUE BOX", "address": {"city": "LIVERPOOL", "state": "NY", "street": "100 METROPOLITAN PARK DR", "postcode": "13088"}}},
{"geometry": {"type": "Point", "coordinates": [-76.1980971421, 43.1107470726]}, "type": "Feature", "properties": {"collection_times": [{"days": "Mon-Fri", "time": "4:00pm"}, {"days": "Sat", "time": "9:00am"}, {"days": "Sun", "time": "Closed"}], "id": "1308800037", "name": "USPS COLLECTION BOX - BLUE BOX", "address": {"city": "LIVERPOOL", "state": "NY", "street": "101 COMMERCE BLVD", "postcode": "13088"}}},
{"geometry": {"type": "Point", "coordinates": [-76.1657515246, 43.0882799895]}, "type": "Feature", "properties": {"collection_times": [{"days": "Mon-Fri", "time": "4:15pm"}, {"days": "Sat", "time": "9:00am"}, {"days": "Sun", "time": "Closed"}], "id": "1308800038", "name": "USPS COLLECTION BOX - BLUE BOX", "address": {"city": "LIVERPOOL", "state": "NY", "street": "100 LUTHER AVE", "postcode": "13088"}}},
{"geometry": {"type": "Point", "coordinates": [-76.191766796, 43.1243397881]}, "type": "Feature", "properties": {"collection_times": [{"days": "Mon-Fri", "time": "4:30pm"}, {"days": "Sat", "time": "9:15am"}, {"days": "Sun", "time": "Closed"}], "id": "1308800047", "name": "USPS COLLECTION BOX - BLUE BOX", "address": {"city": "LIVERPOOL", "state": "NY", "street": "4698 CROSSROADS PARK DR", "postcode": "13088"}}},
{"geometry": {"type": "Point", "coordinates": [-76.191766796, 43.1243397881]}, "type": "Feature", "properties": {"collection_times": [{"days": "Mon-Fri", "time": "4:30pm"}, {"days": "Sat", "time": "9:15am"}, {"days": "Sun", "time": "Closed"}], "id": "1308800048", "name": "USPS COLLECTION BOX - BLUE BOX", "address": {"city": "LIVERPOOL", "state": "NY", "street": "4698 CROSSROADS PARK DR", "postcode": "13088"}}},
{"geometry": {"type": "Point", "coordinates": [-76.1887053902, 43.1344835386]}, "type": "Feature", "properties": {"collection_times": [{"days": "Mon-Fri", "time": "4:30pm"}, {"days": "Sat", "time": "9:00am"}, {"days": "Sun", "time": "Closed"}], "id": "1308800051", "name": "USPS COLLECTION BOX - BLUE BOX", "address": {"city": "LIVERPOOL", "state": "NY", "street": "4700 DEY RD", "postcode": "13088"}}},
{"geometry": {"type": "Point", "coordinates": [-76.1887053902, 43.1344835386]}, "type": "Feature", "properties": {"collection_times": [{"days": "Mon-Fri", "time": "4:30pm"}, {"days": "Sat", "time": "9:00am"}, {"days": "Sun", "time": "Closed"}], "id": "1308800052", "name": "USPS COLLECTION BOX - BLUE BOX", "address": {"city": "LIVERPOOL", "state": "NY", "street": "4700 DEY RD", "postcode": "13088"}}},
{"geometry": {"type": "Point", "coordinates": [-76.187558667, 43.1017509431]}, "type": "Feature", "properties": {"collection_times": [{"days": "Mon-Fri", "time": "4:45pm"}, {"days": "Sat", "time": "9:00am"}, {"days": "Sun", "time": "Closed"}], "id": "1308800053", "name": "USPS COLLECTION BOX - BLUE BOX", "address": {"city": "LIVERPOOL", "state": "NY", "street": "445 ELECTRONICS PKWY", "postcode": "13088"}}},
{"geometry": {"type": "Point", "coordinates": [-76.1981723418, 43.0986949664]}, "type": "Feature", "properties": {"collection_times": [{"days": "Mon-Fri", "time": "4:00pm"}, {"days": "Sat", "time": "9:00am"}, {"days": "Sun", "time": "Closed"}], "id": "1308800054", "name": "USPS COLLECTION BOX - BLUE BOX", "address": {"city": "LIVERPOOL", "state": "NY", "street": "911 OLD LIVERPOOL RD", "postcode": "13088"}}},
{"geometry": {"type": "Point", "coordinates": [-76.2042599361, 43.1028519912]}, "type": "Feature", "properties": {"collection_times": [{"days": "Mon-Fri", "time": "5:15pm"}, {"days": "Sat", "time": "3:30pm"}, {"days": "Sun", "time": "Closed"}], "id": "1308800056", "name": "USPS COLLECTION BOX - BLUE BOX", "address": {"city": "LIVERPOOL", "state": "NY", "street": "300 CYPRESS ST", "postcode": "13088"}}},
{"geometry": {"type": "Point", "coordinates": [-76.2042599361, 43.1028519912]}, "type": "Feature", "properties": {"collection_times": [{"days": "Mon-Fri", "time": "5:15pm"}, {"days": "Sat", "time": "3:30pm"}, {"days": "Sun", "time": "Closed"}], "id": "1308800057", "name": "USPS COLLECTION BOX - BLUE BOX", "address": {"city": "LIVERPOOL", "state": "NY", "street": "300 CYPRESS ST", "postcode": "13088"}}},
{"geometry": {"type": "Point", "coordinates": [-76.1759316379, 43.0967951551]}, "type": "Feature", "properties": {"collection_times": [{"days": "Mon-Fri", "time": "4:45pm"}, {"days": "Sat", "time": "9:00am"}, {"days": "Sun", "time": "Closed"}], "id": "1308800058", "name": "USPS COLLECTION BOX - BLUE BOX", "address": {"city": "LIVERPOOL", "state": "NY", "street": "201 ELWOOD DAVIS RD", "postcode": "13088"}}},
{"geometry": {"type": "Point", "coordinates": [-76.1759316379, 43.0967951551]}, "type": "Feature", "properties": {"collection_times": [{"days": "Mon-Fri", "time": "4:45pm"}, {"days": "Sat", "time": "9:00am"}, {"days": "Sun", "time": "Closed"}], "id": "1308800059", "name": "USPS COLLECTION BOX - BLUE BOX", "address": {"city": "LIVERPOOL", "state": "NY", "street": "201 ELWOOD DAVIS RD", "postcode": "13088"}}},
{"geometry": {"type": "Point", "coordinates": [-76.2070316246, 43.1018373831]}, "type": "Feature", "properties": {"collection_times": [{"days": "Mon-Fri", "time": "4:00pm"}, {"days": "Sat", "time": "11:00am"}, {"days": "Sun", "time": "Closed"}], "id": "1308800061", "name": "USPS COLLECTION BOX - BLUE BOX", "address": {"city": "LIVERPOOL", "state": "NY", "street": "300 1ST ST", "postcode": "13088"}}},
{"geometry": {"type": "Point", "coordinates": [-76.1697024016, 43.1215062898]}, "type": "Feature", "properties": {"collection_times": [{"days": "Mon-Sat", "time": "2:00pm"}, {"days": "Sun", "time": "Closed"}], "id": "1308800062", "name": "USPS COLLECTION BOX - BLUE BOX", "address": {"city": "LIVERPOOL", "state": "NY", "street": "4979 W TAFT RD", "postcode": "13088"}}},
{"geometry": {"type": "Point", "coordinates": [-76.183561022, 43.0869382332]}, "type": "Feature", "properties": {"collection_times": [{"days": "Mon-Fri", "time": "4:30pm"}, {"days": "Sat", "time": "9:00am"}, {"days": "Sun", "time": "Closed"}], "id": "1308800069", "name": "USPS COLLECTION BOX - BLUE BOX", "address": {"city": "LIVERPOOL", "state": "NY", "street": "201 SCHOOL RD", "postcode": "13088"}}},
{"geometry": {"type": "Point", "coordinates": [-76.1760973513, 43.0825416858]}, "type": "Feature", "properties": {"collection_times": [{"days": "Mon-Fri", "time": "4:30pm"}, {"days": "Sat-Sun", "time": "Closed"}], "id": "1308800071", "name": "USPS COLLECTION BOX - BLUE BOX", "address": {"city": "LIVERPOOL", "state": "NY", "street": "225 GREENFIELD PKWY", "postcode": "13088"}}},
{"geometry": {"type": "Point", "coordinates": [-76.1760973513, 43.0825416858]}, "type": "Feature", "properties": {"collection_times": [{"days": "Mon-Fri", "time": "4:30pm"}, {"days": "Sat-Sun", "time": "Closed"}], "id": "1308800072", "name": "USPS COLLECTION BOX - BLUE BOX", "address": {"city": "LIVERPOOL", "state": "NY", "street": "225 GREENFIELD PKWY", "postcode": "13088"}}},
{"geometry": {"type": "Point", "coordinates": [-76.187558667, 43.1017509431]}, "type": "Feature", "properties": {"collection_times": [{"days": "Mon-Fri", "time": "4:45pm"}, {"days": "Sat", "time": "9:00am"}, {"days": "Sun", "time": "Closed"}], "id": "1308800073", "name": "USPS COLLECTION BOX - BLUE BOX", "address": {"city": "LIVERPOOL", "state": "NY", "street": "445 ELECTRONICS PKWY", "postcode": "13088"}}},
{"geometry": {"type": "Point", "coordinates": [-76.1642808039, 43.0874561035]}, "type": "Feature", "properties": {"collection_times": [{"days": "Mon-Sat", "time": "9:30am"}, {"days": "Sun", "time": "Closed"}], "id": "1308800074", "name": "USPS COLLECTION BOX - BLUE BOX", "address": {"city": "LIVERPOOL", "state": "NY", "street": "107 7TH NORTH ST", "postcode": "13088"}}},
{"geometry": {"type": "Point", "coordinates": [-76.2265851019, 43.1386717344]}, "type": "Feature", "properties": {"collection_times": [{"days": "Mon-Fri", "time": "5:45pm"}, {"days": "Sat", "time": "3:00pm"}, {"days": "Sun", "time": "Closed"}], "id": "1309000001", "name": "USPS COLLECTION BOX - BLUE BOX", "address": {"city": "LIVERPOOL", "state": "NY", "street": "7608 OSWEGO RD", "postcode": "13090"}}},
{"geometry": {"type": "Point", "coordinates": [-76.2265851019, 43.1386717344]}, "type": "Feature", "properties": {"collection_times": [{"days": "Mon-Fri", "time": "5:45pm"}, {"days": "Sat", "time": "3:00pm"}, {"days": "Sun", "time": "Closed"}], "id": "1309000002", "name": "USPS COLLECTION BOX - BLUE BOX", "address": {"city": "LIVERPOOL", "state": "NY", "street": "7608 OSWEGO RD", "postcode": "13090"}}},
{"geometry": {"type": "Point", "coordinates": [-76.2265851019, 43.1386717344]}, "type": "Feature", "properties": {"collection_times": [{"days": "Mon-Fri", "time": "5:45pm"}, {"days": "Sat", "time": "3:00pm"}, {"days": "Sun", "time": "Closed"}], "id": "1309000003", "name": "USPS COLLECTION BOX - BLUE BOX", "address": {"city": "LIVERPOOL", "state": "NY", "street": "7608 OSWEGO RD", "postcode": "13090"}}},
{"geometry": {"type": "Point", "coordinates": [-76.2061169128, 43.1326437416]}, "type": "Feature", "properties": {"collection_times": [{"days": "Mon-Sat", "time": "9:00am"}, {"days": "Sun", "time": "Closed"}], "id": "1309000006", "name": "USPS COLLECTION BOX - BLUE BOX", "address": {"city": "LIVERPOOL", "state": "NY", "street": "7475 MORGAN RD", "postcode": "13090"}}},
{"geometry": {"type": "Point", "coordinates": [-76.2179284219, 43.1231652488]}, "type": "Feature", "properties": {"collection_times": [{"days": "Mon-Fri", "time": "2:30pm"}, {"days": "Sat", "time": "9:00am"}, {"days": "Sun", "time": "Closed"}], "id": "1309000007", "name": "USPS COLLECTION BOX - BLUE BOX", "address": {"city": "LIVERPOOL", "state": "NY", "street": "101 OLD COVE RD", "postcode": "13090"}}},
{"geometry": {"type": "Point", "coordinates": [-76.2486958155, 43.1655418291]}, "type": "Feature", "properties": {"collection_times": [{"days": "Mon-Sat", "time": "9:30am"}, {"days": "Sun", "time": "Closed"}], "id": "1309000009", "name": "USPS COLLECTION BOX - BLUE BOX", "address": {"city": "LIVERPOOL", "state": "NY", "street": "7330 LANDSEND LN", "postcode": "13090"}}},
{"geometry": {"type": "Point", "coordinates": [-76.2384367449, 43.185444914]}, "type": "Feature", "properties": {"collection_times": [{"days": "Mon-Sat", "time": "10:00am"}, {"days": "Sun", "time": "Closed"}], "id": "1309000010", "name": "USPS COLLECTION BOX - BLUE BOX", "address": {"city": "LIVERPOOL", "state": "NY", "street": "3953 STATE ROUTE 31", "postcode": "13090"}}},
{"geometry": {"type": "Point", "coordinates": [-76.2229751708, 43.1344933135]}, "type": "Feature", "properties": {"collection_times": [{"days": "Mon-Sat", "time": "12:00pm"}, {"days": "Sun", "time": "Closed"}], "id": "1309000011", "name": "USPS COLLECTION BOX - BLUE BOX", "address": {"city": "LIVERPOOL", "state": "NY", "street": "7519 OSWEGO RD", "postcode": "13090"}}},
{"geometry": {"type": "Point", "coordinates": [-76.2348924854, 43.1632732885]}, "type": "Feature", "properties": {"collection_times": [{"days": "Mon-Sat", "time": "11:00am"}, {"days": "Sun", "time": "Closed"}], "id": "1309000012", "name": "USPS COLLECTION BOX - BLUE BOX", "address": {"city": "LIVERPOOL", "state": "NY", "street": "8100 OSWEGO RD", "postcode": "13090"}}},
{"geometry": {"type": "Point", "coordinates": [-76.2076782106, 43.1268001549]}, "type": "Feature", "properties": {"collection_times": [{"days": "Mon-Sat", "time": "9:30am"}, {"days": "Sun", "time": "Closed"}], "id": "1309000019", "name": "USPS COLLECTION BOX - BLUE BOX", "address": {"city": "LIVERPOOL", "state": "NY", "street": "6 AVON PKWY", "postcode": "13090"}}},
{"geometry": {"type": "Point", "coordinates": [-76.2265851019, 43.1386717344]}, "type": "Feature", "properties": {"collection_times": [{"days": "Mon-Fri", "time": "5:45pm"}, {"days": "Sat", "time": "3:00pm"}, {"days": "Sun", "time": "Closed"}], "id": "1309000024", "name": "USPS COLLECTION BOX - PO LOBBY", "address": {"city": "LIVERPOOL", "state": "NY", "street": "7608 OSWEGO RD", "postcode": "13090"}}},
{"geometry": {"type": "Point", "coordinates": [-76.2468930546, 43.1845757698]}, "type": "Feature", "properties": {"collection_times": [{"days": "Mon-Sat", "time": "10:00am"}, {"days": "Sun", "time": "Closed"}], "id": "1309000026", "name": "USPS COLLECTION BOX - BLUE BOX", "address": {"city": "LIVERPOOL", "state": "NY", "street": "3863 STATE ROUTE 31", "postcode": "13090"}}},
{"geometry": {"type": "Point", "coordinates": [-76.2255795267, 43.1372232364]}, "type": "Feature", "properties": {"collection_times": [{"days": "Mon-Sat", "time": "9:00am"}, {"days": "Sun", "time": "Closed"}], "id": "1309000027", "name": "USPS COLLECTION BOX - BLUE BOX", "address": {"city": "LIVERPOOL", "state": "NY", "street": "7570 OSWEGO RD", "postcode": "13090"}}},
{"geometry": {"type": "Point", "coordinates": [-76.43114144, 42.6606026235]}, "type": "Feature", "properties": {"collection_times": [{"days": "Mon-Fri", "time": "4:15pm"}, {"days": "Sat", "time": "11:45am"}, {"days": "Sun", "time": "Closed"}], "id": "1309200001", "name": "USPS COLLECTION BOX - BLUE BOX", "address": {"city": "LOCKE", "state": "NY", "street": "12199 WATER ST", "postcode": "13092"}}},
{"geometry": {"type": "Point", "coordinates": [-76.43114144, 42.6606026235]}, "type": "Feature", "properties": {"collection_times": [{"days": "Mon-Fri", "time": "4:30pm"}, {"days": "Sat", "time": "11:15am"}, {"days": "Sun", "time": "Closed"}], "id": "1309200003", "name": "USPS COLLECTION BOX - PO LOBBY", "address": {"city": "LOCKE", "state": "NY", "street": "12199 WATER ST", "postcode": "13092"}}},
{"geometry": {"type": "Point", "coordinates": [-76.3859295717, 43.4993172419]}, "type": "Feature", "properties": {"collection_times": [{"days": "Mon-Fri", "time": "4:15pm"}, {"days": "Sat", "time": "10:30am"}, {"days": "Sun", "time": "Closed"}], "id": "1309300001", "name": "USPS COLLECTION BOX - BLUE BOX", "address": {"city": "LYCOMING", "state": "NY", "street": "1059 COUNTY ROUTE 29", "postcode": "13093"}}},
{"geometry": {"type": "Point", "coordinates": [-76.3859295717, 43.4993172419]}, "type": "Feature", "properties": {"collection_times": [{"days": "Mon-Fri", "time": "12:00pm"}, {"days": "Sat", "time": "10:45am"}, {"days": "Sun", "time": "Closed"}], "id": "1309300003", "name": "USPS COLLECTION BOX - PO LOBBY", "address": {"city": "LYCOMING", "state": "NY", "street": "1059 COUNTY ROUTE 29", "postcode": "13093"}}}
]}
