{"type": "FeatureCollection", "features": [
{"geometry": {"type": "Point", "coordinates": [-76.0935576326, 42.5960510656]}, "type": "Feature", "properties": {"collection_times": [{"days": "Mon-Fri", "time": "4:45pm"}, {"days": "Sat", "time": "11:30am"}, {"days": "Sun", "time": "Closed"}], "id": "1310100001", "name": "USPS COLLECTION BOX - BLUE BOX", "address": {"city": "MCGRAW", "state": "NY", "street": "16 MAIN ST", "postcode": "13101"}}},
{"geometry": {"type": "Point", "coordinates": [-76.0935576326, 42.5960510656]}, "type": "Feature", "properties": {"collection_times": [{"days": "Mon-Fri", "time": "4:45pm"}, {"days": "Sat", "time": "11:30am"}, {"days": "Sun", "time": "Closed"}], "id": "1310100002", "name": "USPS COLLECTION BOX - PO LOBBY", "address": {"city": "MCGRAW", "state": "NY", "street": "16 MAIN ST", "postcode": "13101"}}},
{"geometry": {"type": "Point", "coordinates": [-76.2929704499, 42.5504715454]}, "type": "Feature", "properties": {"collection_times": [{"days": "Mon-Fri", "time": "4:00pm"}, {"days": "Sat", "time": "11:45am"}, {"days": "Sun", "time": "Closed"}], "id": "1310200001", "name": "USPS COLLECTION BOX - BLUE BOX", "address": {"city": "MC LEAN", "state": "NY", "street": "1 SCHOOL ST", "postcode": "13102"}}},
{"geometry": {"type": "Point", "coordinates": [-75.6107001075, 42.9370820155]}, "type": "Feature", "properties": {"collection_times": [{"days": "Mon-Fri", "time": "4:45pm"}, {"days": "Sat", "time": "11:45am"}, {"days": "Sun", "time": "Closed"}], "id": "1310200002", "name": "USPS COLLECTION BOX - PO LOBBY", "address": {"city": "MC LEAN", "state": "NY", "street": "1 SCHOOL ST", "postcode": "13102"}}},
{"geometry": {"type": "Point", "coordinates": [-76.1151023019, 43.323183494]}, "type": "Feature", "properties": {"collection_times": [{"days": "Mon-Fri", "time": "12:00pm"}, {"days": "Sat", "time": "11:45am"}, {"days": "Sun", "time": "Closed"}], "id": "1310300001", "name": "USPS COLLECTION BOX - BLUE BOX", "address": {"city": "MALLORY", "state": "NY", "street": "77 COUNTY ROUTE 32", "postcode": "13103"}}},
{"geometry": {"type": "Point", "coordinates": [-76.1151023019, 43.323183494]}, "type": "Feature", "properties": {"collection_times": [{"days": "Mon-Fri", "time": "12:00pm"}, {"days": "Sat", "time": "11:45am"}, {"days": "Sun", "time": "Closed"}], "id": "1310300002", "name": "USPS COLLECTION BOX - PO LOBBY", "address": {"city": "MALLORY", "state": "NY", "street": "77 COUNTY ROUTE 32", "postcode": "13103"}}},
{"geometry": {"type": "Point", "coordinates": [-75.9809431046, 43.0028888635]}, "type": "Feature", "properties": {"collection_times": [{"days": "Mon-Fri", "time": "3:50pm"}, {"days": "Sat", "time": "10:00am"}, {"days": "Sun", "time": "Closed"}], "id": "1310400003", "name": "USPS COLLECTION BOX - BLUE BOX", "address": {"city": "MANLIUS", "state": "NY", "street": "226 FAYETTE ST", "postcode": "13104"}}},
{"geometry": {"type": "Point", "coordinates": [-75.983243377, 43.0047952402]}, "type": "Feature", "properties": {"collection_times": [{"days": "Mon-Fri", "time": "4:15pm"}, {"days": "Sat", "time": "9:30am"}, {"days": "Sun", "time": "Closed"}], "id": "1310400004", "name": "USPS COLLECTION BOX - BLUE BOX", "address": {"city": "MANLIUS", "state": "NY", "street": "315 FAYETTE ST", "postcode": "13104"}}},
{"geometry": {"type": "Point", "coordinates": [-75.9902293733, 42.9954102231]}, "type": "Feature", "properties": {"collection_times": [{"days": "Mon-Sat", "time": "10:00am"}, {"days": "Sun", "time": "Closed"}], "id": "1310400006", "name": "USPS COLLECTION BOX - BLUE BOX", "address": {"city": "MANLIUS", "state": "NY", "street": "311 W SENECA ST", "postcode": "13104"}}},
{"geometry": {"type": "Point", "coordinates": [-75.6107001075, 42.9370820155]}, "type": "Feature", "properties": {"collection_times": [{"days": "Mon-Fri", "time": "11:00am"}, {"days": "Sat", "time": "10:00am"}, {"days": "Sun", "time": "Closed"}], "id": "1310400007", "name": "USPS COLLECTION BOX - BLUE BOX", "address": {"city": "MANLIUS", "state": "NY", "street": "240 W SENECA ST", "postcode": "13104"}}},
{"geometry": {"type": "Point", "coordinates": [-75.9536898304, 42.9674904168]}, "type": "Feature", "properties": {"collection_times": [{"days": "Mon-Fri", "time": "4:45pm"}, {"days": "Sat", "time": "10:00am"}, {"days": "Sun", "time": "Closed"}], "id": "1310400008", "name": "USPS COLLECTION BOX - BLUE BOX", "address": {"city": "MANLIUS", "state": "NY", "street": "6 MARKET PL", "postcode": "13104"}}},
{"geometry": {"type": "Point", "coordinates": [-75.9536898304, 42.9674904168]}, "type": "Feature", "properties": {"collection_times": [{"days": "Mon-Fri", "time": "4:45pm"}, {"days": "Sat", "time": "9:00am"}, {"days": "Sun", "time": "Closed"}], "id": "1310400010", "name": "USPS COLLECTION BOX - BLUE BOX", "address": {"city": "MANLIUS", "state": "NY", "street": "8108 TROLLEY XING", "postcode": "13104"}}},
{"geometry": {"type": "Point", "coordinates": [-75.978061169, 43.0014638951]}, "type": "Feature", "properties": {"collection_times": [{"days": "Mon-Fri", "time": "4:45pm"}, {"days": "Sat", "time": "10:00am"}, {"days": "Sun", "time": "Closed"}], "id": "1310400022", "name": "USPS COLLECTION BOX - BLUE BOX", "address": {"city": "MANLIUS", "state": "NY", "street": "116 E SENECA ST", "postcode": "13104"}}},
{"geometry": {"type": "Point", "coordinates": [-75.9808583587, 43.0000914375]}, "type": "Feature", "properties": {"collection_times": [{"days": "Mon-Fri", "time": "4:30pm"}, {"days": "Sat", "time": "9:30am"}, {"days": "Sun", "time": "Closed"}], "id": "1310400024", "name": "USPS COLLECTION BOX - BLUE BOX", "address": {"city": "MANLIUS", "state": "NY", "street": "119 W SENECA ST", "postcode": "13104"}}},
{"geometry": {"type": "Point", "coordinates": [-75.9779522718, 43.0023558425]}, "type": "Feature", "properties": {"collection_times": [{"days": "Mon-Fri", "time": "5:00pm"}, {"days": "Sat", "time": "3:30pm"}, {"days": "Sun", "time": "Closed"}], "id": "1310400025", "name": "USPS COLLECTION BOX - PO LOBBY", "address": {"city": "MANLIUS", "state": "NY", "street": "110 WESLEY ST", "postcode": "13104"}}},
{"geometry": {"type": "Point", "coordinates": [-75.9779522718, 43.0023558425]}, "type": "Feature", "properties": {"collection_times": [{"days": "Mon-Fri", "time": "5:00pm"}, {"days": "Sat", "time": "3:30pm"}, {"days": "Sun", "time": "Closed"}], "id": "1310400027", "name": "USPS COLLECTION BOX - BLUE BOX", "address": {"city": "MANLIUS", "state": "NY", "street": "110 WESLEY ST", "postcode": "13104"}}},
{"geometry": {"type": "Point", "coordinates": [-76.3390210755, 42.982546191]}, "type": "Feature", "properties": {"collection_times": [{"days": "Mon-Fri", "time": "5:00pm"}, {"days": "Sat", "time": "1:00pm"}, {"days": "Sun", "time": "Closed"}], "id": "1310800001", "name": "USPS COLLECTION BOX - PO LOBBY", "address": {"city": "MARCELLUS", "state": "NY", "street": "9 E MAIN ST", "postcode": "13108"}}},
{"geometry": {"type": "Point", "coordinates": [-76.3390210755, 42.982546191]}, "type": "Feature", "properties": {"collection_times": [{"days": "Mon-Fri", "time": "5:00pm"}, {"days": "Sat", "time": "1:00pm"}, {"days": "Sun", "time": "Closed"}], "id": "1310800002", "name": "USPS COLLECTION BOX - BLUE BOX", "address": {"city": "MARCELLUS", "state": "NY", "street": "9 E MAIN ST", "postcode": "13108"}}},
{"geometry": {"type": "Point", "coordinates": [-76.3390210755, 42.982546191]}, "type": "Feature", "properties": {"collection_times": [{"days": "Mon-Fri", "time": "5:00pm"}, {"days": "Sat", "time": "1:00pm"}, {"days": "Sun", "time": "Closed"}], "id": "1310800003", "name": "USPS COLLECTION BOX - BLUE BOX", "address": {"city": "MARCELLUS", "state": "NY", "street": "9 E MAIN ST", "postcode": "13108"}}},
{"geometry": {"type": "Point", "coordinates": [-76.3401117434, 42.9846736582]}, "type": "Feature", "properties": {"collection_times": [{"days": "Mon-Sat", "time": "10:30am"}, {"days": "Sun", "time": "Closed"}], "id": "1310800004", "name": "USPS COLLECTION BOX - BLUE BOX", "address": {"city": "MARCELLUS", "state": "NY", "street": "1 MAPLE ST", "postcode": "13108"}}},
{"geometry": {"type": "Point", "coordinates": [-76.340885789, 42.9823240127]}, "type": "Feature", "properties": {"collection_times": [{"days": "Mon-Sat", "time": "10:00am"}, {"days": "Sun", "time": "Closed"}], "id": "1310800005", "name": "USPS COLLECTION BOX - BLUE BOX", "address": {"city": "MARCELLUS", "state": "NY", "street": "1 SLOCOMBE AVE", "postcode": "13108"}}},
{"geometry": {"type": "Point", "coordinates": [-76.3442553569, 42.9865169836]}, "type": "Feature", "properties": {"collection_times": [{"days": "Mon-Sat", "time": "10:00am"}, {"days": "Sun", "time": "Closed"}], "id": "1310800006", "name": "USPS COLLECTION BOX - BLUE BOX", "address": {"city": "MARCELLUS", "state": "NY", "street": "19 REED PKWY", "postcode": "13108"}}},
{"geometry": {"type": "Point", "coordinates": [-76.3403853981, 42.9797355543]}, "type": "Feature", "properties": {"collection_times": [{"days": "Mon-Sat", "time": "12:00pm"}, {"days": "Sun", "time": "Closed"}], "id": "1310800007", "name": "USPS COLLECTION BOX - BLUE BOX", "address": {"city": "MARCELLUS", "state": "NY", "street": "18 SOUTH ST", "postcode": "13108"}}},
{"geometry": {"type": "Point", "coordinates": [-76.3313181883, 42.980190814]}, "type": "Feature", "properties": {"collection_times": [{"days": "Mon-Sat", "time": "12:00pm"}, {"days": "Sun", "time": "Closed"}], "id": "1310800008", "name": "USPS COLLECTION BOX - BLUE BOX", "address": {"city": "MARCELLUS", "state": "NY", "street": "2545 PLEASANT VALLEY RD", "postcode": "13108"}}},
{"geometry": {"type": "Point", "coordinates": [-76.3163325505, 42.9062248851]}, "type": "Feature", "properties": {"collection_times": [{"days": "Mon-Fri", "time": "4:30pm"}, {"days": "Sat", "time": "12:00pm"}, {"days": "Sun", "time": "Closed"}], "id": "1311000001", "name": "USPS COLLECTION BOX - BLUE BOX", "address": {"city": "MARIETTA", "state": "NY", "street": "2796 STATE ROUTE 174", "postcode": "13110"}}},
{"geometry": {"type": "Point", "coordinates": [-76.3163325505, 42.9062248851]}, "type": "Feature", "properties": {"collection_times": [{"days": "Mon-Fri", "time": "4:30pm"}, {"days": "Sat", "time": "12:00pm"}, {"days": "Sun", "time": "Closed"}], "id": "1311000002", "name": "USPS COLLECTION BOX - PO LOBBY", "address": {"city": "MARIETTA", "state": "NY", "street": "2796 STATE ROUTE 174", "postcode": "13110"}}},
{"geometry": {"type": "Point", "coordinates": [-76.6284508827, 43.279196296]}, "type": "Feature", "properties": {"collection_times": [{"days": "Mon-Fri", "time": "4:45pm"}, {"days": "Sat", "time": "11:45am"}, {"days": "Sun", "time": "Closed"}], "id": "1311100001", "name": "USPS COLLECTION BOX - BLUE BOX", "address": {"city": "MARTVILLE", "state": "NY", "street": "15422 STATE ROUTE 104", "postcode": "13111"}}},
{"geometry": {"type": "Point", "coordinates": [-76.6284508827, 43.279196296]}, "type": "Feature", "properties": {"collection_times": [{"days": "Mon-Fri", "time": "3:00pm"}, {"days": "Sat", "time": "11:45am"}, {"days": "Sun", "time": "Closed"}], "id": "1311100002", "name": "USPS COLLECTION BOX - PO LOBBY", "address": {"city": "MARTVILLE", "state": "NY", "street": "15422 STATE ROUTE 104", "postcode": "13111"}}},
{"geometry": {"type": "Point", "coordinates": [-76.3834122406, 43.096559079]}, "type": "Feature", "properties": {"collection_times": [{"days": "Mon-Fri", "time": "4:30pm"}, {"days": "Sat", "time": "11:00am"}, {"days": "Sun", "time": "Closed"}], "id": "1311200001", "name": "USPS COLLECTION BOX - BLUE BOX", "address": {"city": "MEMPHIS", "state": "NY", "street": "1749 STATE ROUTE 173", "postcode": "13112"}}},
{"geometry": {"type": "Point", "coordinates": [-76.383412241, 43.096559079]}, "type": "Feature", "properties": {"collection_times": [{"days": "Mon-Fri", "time": "3:00pm"}, {"days": "Sat", "time": "11:00am"}, {"days": "Sun", "time": "Closed"}], "id": "1311200003", "name": "USPS COLLECTION BOX - PO LOBBY", "address": {"city": "MEMPHIS", "state": "NY", "street": "1749 STATE ROUTE 173", "postcode": "13112"}}},
{"geometry": {"type": "Point", "coordinates": [-76.5368716463, 43.165652468]}, "type": "Feature", "properties": {"collection_times": [{"days": "Mon-Fri", "time": "4:30pm"}, {"days": "Sat", "time": "11:30am"}, {"days": "Sun", "time": "Closed"}], "id": "1311300001", "name": "USPS COLLECTION BOX - BLUE BOX", "address": {"city": "MERIDAN", "state": "NY", "street": "3078 ST RT 370", "postcode": "13113"}}},
{"geometry": {"type": "Point", "coordinates": [-76.5368716463, 43.165652468]}, "type": "Feature", "properties": {"collection_times": [{"days": "Mon-Fri", "time": "5:00pm"}, {"days": "Sat", "time": "12:00pm"}, {"days": "Sun", "time": "Closed"}], "id": "1311300002", "name": "USPS COLLECTION BOX - PO LOBBY", "address": {"city": "MERIDAN", "state": "NY", "street": "3078 ST RT 370", "postcode": "13113"}}},
{"geometry": {"type": "Point", "coordinates": [-76.2368003883, 43.4596803971]}, "type": "Feature", "properties": {"collection_times": [{"days": "Mon-Fri", "time": "4:45pm"}, {"days": "Sat", "time": "12:00pm"}, {"days": "Sun", "time": "Closed"}], "id": "1311400002", "name": "USPS COLLECTION BOX - BLUE BOX", "address": {"city": "MEXICO", "state": "NY", "street": "5640 NORMAN AVE", "postcode": "13114"}}},
{"geometry": {"type": "Point", "coordinates": [-76.2368003883, 43.4596803971]}, "type": "Feature", "properties": {"collection_times": [{"days": "Mon-Fri", "time": "5:00pm"}, {"days": "Sat", "time": "12:00pm"}, {"days": "Sun", "time": "Closed"}], "id": "1311400003", "name": "USPS COLLECTION BOX - PO LOBBY", "address": {"city": "MEXICO", "state": "NY", "street": "5640 NORMAN AVE", "postcode": "13114"}}},
{"geometry": {"type": "Point", "coordinates": [-76.4740998484, 43.3983073041]}, "type": "Feature", "properties": {"collection_times": [{"days": "Mon-Fri", "time": "5:00pm"}, {"days": "Sat", "time": "12:00pm"}, {"days": "Sun", "time": "Closed"}], "id": "1311500001", "name": "USPS COLLECTION BOX - BLUE BOX", "address": {"city": "MINETTO", "state": "NY", "street": "10 COUNTY ROUTE 24", "postcode": "13115"}}},
{"geometry": {"type": "Point", "coordinates": [-76.4740998484, 43.3983073041]}, "type": "Feature", "properties": {"collection_times": [{"days": "Mon-Fri", "time": "5:15pm"}, {"days": "Sat", "time": "12:15pm"}, {"days": "Sun", "time": "Closed"}], "id": "1311500003", "name": "USPS COLLECTION BOX - PO LOBBY", "address": {"city": "MINETTO", "state": "NY", "street": "10 COUNTY ROUTE 24", "postcode": "13115"}}},
{"geometry": {"type": "Point", "coordinates": [-76.0013176411, 43.0753950207]}, "type": "Feature", "properties": {"collection_times": [{"days": "Mon-Fri", "time": "5:00pm"}, {"days": "Sat", "time": "10:45am"}, {"days": "Sun", "time": "Closed"}], "id": "1311600001", "name": "USPS COLLECTION BOX - BLUE BOX", "address": {"city": "MINOA", "state": "NY", "street": "115 N MAIN ST", "postcode": "13116"}}},
{"geometry": {"type": "Point", "coordinates": [-76.0009400308, 43.0780882855]}, "type": "Feature", "properties": {"collection_times": [{"days": "Mon-Sat", "time": "10:00am"}, {"days": "Sun", "time": "Closed"}], "id": "1311600005", "name": "USPS COLLECTION BOX - BLUE BOX", "address": {"city": "MINOA", "state": "NY", "street": "301 N MAIN ST", "postcode": "13116"}}},
{"geometry": {"type": "Point", "coordinates": [-76.0013176411, 43.0753950207]}, "type": "Feature", "properties": {"collection_times": [{"days": "Mon-Fri", "time": "4:45pm"}, {"days": "Sat", "time": "10:45am"}, {"days": "Sun", "time": "Closed"}], "id": "1311600017", "name": "USPS COLLECTION BOX - PO LOBBY", "address": {"city": "MINOA", "state": "NY", "street": "115 N MAIN ST", "postcode": "13116"}}},
{"geometry": {"type": "Point", "coordinates": [-76.7008835101, 43.0071360018]}, "type": "Feature", "properties": {"collection_times": [{"days": "Mon-Fri", "time": "4:30pm"}, {"days": "Sat", "time": "11:00am"}, {"days": "Sun", "time": "Closed"}], "id": "1311700001", "name": "USPS COLLECTION BOX - BLUE BOX", "address": {"city": "MONTEZUMA", "state": "NY", "street": "8109 ROUTE 90", "postcode": "13117"}}},
{"geometry": {"type": "Point", "coordinates": [-76.7008835101, 43.0071360018]}, "type": "Feature", "properties": {"collection_times": [{"days": "Mon-Fri", "time": "4:30pm"}, {"days": "Sat", "time": "11:15am"}, {"days": "Sun", "time": "Closed"}], "id": "1311700002", "name": "USPS COLLECTION BOX - PO LOBBY", "address": {"city": "MONTEZUMA", "state": "NY", "street": "8109 ROUTE 90", "postcode": "13117"}}},
{"geometry": {"type": "Point", "coordinates": [-76.4211212117, 42.7097845731]}, "type": "Feature", "properties": {"collection_times": [{"days": "Mon-Fri", "time": "4:20pm"}, {"days": "Sat", "time": "11:50am"}, {"days": "Sun", "time": "Closed"}], "id": "1311800001", "name": "USPS COLLECTION BOX - BLUE BOX", "address": {"city": "MORAVIA", "state": "NY", "street": "100 S MAIN ST", "postcode": "13118"}}},
{"geometry": {"type": "Point", "coordinates": [-76.4211212117, 42.7097845731]}, "type": "Feature", "properties": {"collection_times": [{"days": "Mon-Fri", "time": "4:30pm"}, {"days": "Sat", "time": "12:00pm"}, {"days": "Sun", "time": "Closed"}], "id": "1311800003", "name": "USPS COLLECTION BOX - PO LOBBY", "address": {"city": "MORAVIA", "state": "NY", "street": "100 S MAIN ST", "postcode": "13118"}}},
{"geometry": {"type": "Point", "coordinates": [-76.1413099915, 42.9754385431]}, "type": "Feature", "properties": {"collection_times": [{"days": "Mon-Fri", "time": "5:00pm"}, {"days": "Sat", "time": "11:30am"}, {"days": "Sun", "time": "Closed"}], "id": "1312000001", "name": "USPS COLLECTION BOX - BLUE BOX", "address": {"city": "NEDROW", "state": "NY", "street": "6709 S SALINA ST", "postcode": "13120"}}},
{"geometry": {"type": "Point", "coordinates": [-76.1418624233, 42.9781754196]}, "type": "Feature", "properties": {"collection_times": [{"days": "Mon-Sat", "time": "9:00am"}, {"days": "Sun", "time": "Closed"}], "id": "1312000003", "name": "USPS COLLECTION BOX - BLUE BOX", "address": {"city": "NEDROW", "state": "NY", "street": "6408 S SALINA ST", "postcode": "13120"}}},
{"geometry": {"type": "Point", "coordinates": [-76.1413099915, 42.9754385431]}, "type": "Feature", "properties": {"collection_times": [{"days": "Mon-Fri", "time": "5:00pm"}, {"days": "Sat", "time": "11:30am"}, {"days": "Sun", "time": "Closed"}], "id": "1312000008", "name": "USPS COLLECTION BOX - PO LOBBY", "address": {"city": "NEDROW", "state": "NY", "street": "6709 S SALINA ST", "postcode": "13120"}}},
{"geometry": {"type": "Point", "coordinates": [-76.1413099915, 42.9754385431]}, "type": "Feature", "properties": {"collection_times": [{"days": "Mon-Fri", "time": "5:00pm"}, {"days": "Sat", "time": "11:30am"}, {"days": "Sun", "time": "Closed"}], "id": "1312000009", "name": "USPS COLLECTION BOX - BLUE BOX", "address": {"city": "NEDROW", "state": "NY", "street": "6709 S SALINA ST", "postcode": "13120"}}},
{"geometry": {"type": "Point", "coordinates": [-76.3039929, 43.4771558373]}, "type": "Feature", "properties": {"collection_times": [{"days": "Mon-Fri", "time": "4:30pm"}, {"days": "Sat", "time": "11:10am"}, {"days": "Sun", "time": "Closed"}], "id": "1312100001", "name": "USPS COLLECTION BOX - BLUE BOX", "address": {"city": "NEW HAVEN", "state": "NY", "street": "4250 STATE ROUTE 104", "postcode": "13121"}}},
{"geometry": {"type": "Point", "coordinates": [-76.3039929, 43.4771558373]}, "type": "Feature", "properties": {"collection_times": [{"days": "Mon-Fri", "time": "4:30pm"}, {"days": "Sat", "time": "11:10am"}, {"days": "Sun", "time": "Closed"}], "id": "1312100002", "name": "USPS COLLECTION BOX - PO LOBBY", "address": {"city": "NEW HAVEN", "state": "NY", "street": "4250 STATE ROUTE 104", "postcode": "13121"}}},
{"geometry": {"type": "Point", "coordinates": [-75.8534329618, 42.8465941691]}, "type": "Feature", "properties": {"collection_times": [{"days": "Mon-Fri", "time": "4:45pm"}, {"days": "Sat", "time": "11:00am"}, {"days": "Sun", "time": "Closed"}], "id": "1312200001", "name": "USPS COLLECTION BOX - BLUE BOX", "address": {"city": "NEW WOODSTOCK", "state": "NY", "street": "2607 SCHOOL ST", "postcode": "13122"}}},
{"geometry": {"type": "Point", "coordinates": [-75.8534329618, 42.8465941691]}, "type": "Feature", "properties": {"collection_times": [{"days": "Mon-Fri", "time": "11:30am"}, {"days": "Sat", "time": "11:00am"}, {"days": "Sun", "time": "Closed"}], "id": "1312200003", "name": "USPS COLLECTION BOX - PO LOBBY", "address": {"city": "NEW WOODSTOCK", "state": "NY", "street": "2607 SCHOOL ST", "postcode": "13122"}}},
{"geometry": {"type": "Point", "coordinates": [-75.7481718576, 43.2301722538]}, "type": "Feature", "properties": {"collection_times": [{"days": "Mon-Fri", "time": "4:45pm"}, {"days": "Sat", "time": "11:45am"}, {"days": "Sun", "time": "Closed"}], "id": "1312300001", "name": "USPS COLLECTION BOX - BLUE BOX", "address": {"city": "NORTH BAY", "state": "NY", "street": "2079 STATE ROUTE 49", "postcode": "13123"}}},
{"geometry": {"type": "Point", "coordinates": [-75.7534761563, 43.2278625952]}, "type": "Feature", "properties": {"collection_times": [{"days": "Mon-Fri", "time": "12:00pm"}, {"days": "Sat", "time": "11:45am"}, {"days": "Sun", "time": "Closed"}], "id": "1312300003", "name": "USPS COLLECTION BOX - PO LOBBY", "address": {"city": "NORTH BAY", "state": "NY", "street": "2079 STATE ROUTE 49", "postcode": "13123"}}},
{"geometry": {"type": "Point", "coordinates": [-75.825755244, 42.65898258]}, "type": "Feature", "properties": {"collection_times": [{"days": "Mon-Fri", "time": "10:30am"}, {"days": "Sat", "time": "11:45am"}, {"days": "Sun", "time": "Closed"}], "id": "1312400002", "name": "USPS COLLECTION BOX - PO LOBBY", "address": {"city": "NORTH PITCHER", "state": "NY", "street": "1027 ST RT 26", "postcode": "13124"}}},
{"geometry": {"type": "Point", "coordinates": [-75.825755244, 42.65898258]}, "type": "Feature", "properties": {"collection_times": [{"days": "Mon-Fri", "time": "4:15pm"}, {"days": "Sat", "time": "11:50am"}, {"days": "Sun", "time": "Closed"}], "id": "1312400003", "name": "USPS COLLECTION BOX - BLUE BOX", "address": {"city": "NORTH PITCHER", "state": "NY", "street": "1027 ST RT 26", "postcode": "13124"}}},
{"geometry": {"type": "Point", "coordinates": [-76.5066309623, 43.4490988292]}, "type": "Feature", "properties": {"collection_times": [{"days": "Mon-Fri", "time": "5:15pm"}, {"days": "Sat", "time": "4:00pm"}, {"days": "Sun", "time": "Closed"}], "id": "1312600002", "name": "USPS COLLECTION BOX - BLUE BOX", "address": {"city": "OSWEGO", "state": "NY", "street": "391 W 1ST ST", "postcode": "13126"}}},
{"geometry": {"type": "Point", "coordinates": [-76.5032488827, 43.4583613979]}, "type": "Feature", "properties": {"collection_times": [{"days": "Mon-Sat", "time": "2:30pm"}, {"days": "Sun", "time": "Closed"}], "id": "1312600004", "name": "USPS COLLECTION BOX - BLUE BOX", "address": {"city": "OSWEGO", "state": "NY", "street": "81 W 5TH ST", "postcode": "13126"}}},
{"geometry": {"type": "Point", "coordinates": [-76.5132108411, 43.4530667004]}, "type": "Feature", "properties": {"collection_times": [{"days": "Mon-Fri", "time": "3:15pm"}, {"days": "Sat", "time": "11:00am"}, {"days": "Sun", "time": "Closed"}], "id": "1312600006", "name": "USPS COLLECTION BOX - BLUE BOX", "address": {"city": "OSWEGO", "state": "NY", "street": "47 W MOHAWK ST", "postcode": "13126"}}},
{"geometry": {"type": "Point", "coordinates": [-76.4723815772, 43.4530071315]}, "type": "Feature", "properties": {"collection_times": [{"days": "Mon-Sat", "time": "1:30pm"}, {"days": "Sun", "time": "Closed"}], "id": "1312600014", "name": "USPS COLLECTION BOX - BLUE BOX", "address": {"city": "OSWEGO", "state": "NY", "street": "24 BIRCH LN", "postcode": "13126"}}},
{"geometry": {"type": "Point", "coordinates": [-76.5168292516, 43.4504769764]}, "type": "Feature", "properties": {"collection_times": [{"days": "Mon-Fri", "time": "3:15pm"}, {"days": "Sat", "time": "11:00am"}, {"days": "Sun", "time": "Closed"}], "id": "1312600015", "name": "USPS COLLECTION BOX - BLUE BOX", "address": {"city": "OSWEGO", "state": "NY", "street": "101 W UTICA ST", "postcode": "13126"}}},
{"geometry": {"type": "Point", "coordinates": [-76.5104116992, 43.4550538446]}, "type": "Feature", "properties": {"collection_times": [{"days": "Mon-Fri", "time": "3:30pm"}, {"days": "Sat", "time": "11:00am"}, {"days": "Sun", "time": "Closed"}], "id": "1312600016", "name": "USPS COLLECTION BOX - BLUE BOX", "address": {"city": "OSWEGO", "state": "NY", "street": "225 W 1ST ST", "postcode": "13126"}}},
{"geometry": {"type": "Point", "coordinates": [-76.5111818055, 43.4564473703]}, "type": "Feature", "properties": {"collection_times": [{"days": "Mon-Fri", "time": "3:30pm"}, {"days": "Sat", "time": "11:00am"}, {"days": "Sun", "time": "Closed"}], "id": "1312600018", "name": "USPS COLLECTION BOX - BLUE BOX", "address": {"city": "OSWEGO", "state": "NY", "street": "186 W 1ST ST", "postcode": "13126"}}},
{"geometry": {"type": "Point", "coordinates": [-76.4963049135, 43.459511234]}, "type": "Feature", "properties": {"collection_times": [{"days": "Mon-Sat", "time": "10:30am"}, {"days": "Sun", "time": "Closed"}], "id": "1312600020", "name": "USPS COLLECTION BOX - BLUE BOX", "address": {"city": "OSWEGO", "state": "NY", "street": "126 E ONEIDA ST", "postcode": "13126"}}},
{"geometry": {"type": "Point", "coordinates": [-76.503331669, 43.454552248]}, "type": "Feature", "properties": {"collection_times": [{"days": "Mon-Sat", "time": "1:30pm"}, {"days": "Sun", "time": "Closed"}], "id": "1312600021", "name": "USPS COLLECTION BOX - BLUE BOX", "address": {"city": "OSWEGO", "state": "NY", "street": "43 E UTICA ST", "postcode": "13126"}}},
{"geometry": {"type": "Point", "coordinates": [-76.4863822537, 43.4607923786]}, "type": "Feature", "properties": {"collection_times": [{"days": "Mon-Sat", "time": "10:30am"}, {"days": "Sun", "time": "Closed"}], "id": "1312600032", "name": "USPS COLLECTION BOX - BLUE BOX", "address": {"city": "OSWEGO", "state": "NY", "street": "137 STATE ROUTE 104 STE 3", "postcode": "13126"}}},
{"geometry": {"type": "Point", "coordinates": [-76.4862769704, 43.4580928662]}, "type": "Feature", "properties": {"collection_times": [{"days": "Mon-Sat", "time": "10:00am"}, {"days": "Sun", "time": "Closed"}], "id": "1312600035", "name": "USPS COLLECTION BOX - BLUE BOX", "address": {"city": "OSWEGO", "state": "NY", "street": "198 E ALBANY ST", "postcode": "13126"}}},
{"geometry": {"type": "Point", "coordinates": [-76.4921882163, 43.4561303373]}, "type": "Feature", "properties": {"collection_times": [{"days": "Mon-Sat", "time": "10:30am"}, {"days": "Sun", "time": "Closed"}], "id": "1312600038", "name": "USPS COLLECTION BOX - BLUE BOX", "address": {"city": "OSWEGO", "state": "NY", "street": "281 WALNUT ST", "postcode": "13126"}}},
{"geometry": {"type": "Point", "coordinates": [-76.4621816825, 43.4351176503]}, "type": "Feature", "properties": {"collection_times": [{"days": "Mon-Sat", "time": "10:00am"}, {"days": "Sun", "time": "Closed"}], "id": "1312600043", "name": "USPS COLLECTION BOX - BLUE BOX", "address": {"city": "OSWEGO", "state": "NY", "street": "8 SWEET RD", "postcode": "13126"}}},
{"geometry": {"type": "Point", "coordinates": [-76.4930974188, 43.4504931788]}, "type": "Feature", "properties": {"collection_times": [{"days": "Mon-Fri", "time": "5:15pm"}, {"days": "Sat", "time": "4:00pm"}, {"days": "Sun", "time": "Closed"}], "id": "1312600055", "name": "USPS COLLECTION BOX - EXPRESS", "address": {"city": "OSWEGO", "state": "NY", "street": "391 W 1ST ST", "postcode": "13126"}}},
{"geometry": {"type": "Point", "coordinates": [-76.5066309623, 43.4490988292]}, "type": "Feature", "properties": {"collection_times": [{"days": "Mon-Fri", "time": "5:30pm"}, {"days": "Sat", "time": "4:00pm"}, {"days": "Sun", "time": "Closed"}], "id": "1312600101", "name": "USPS COLLECTION BOX - PO LOBBY", "address": {"city": "OSWEGO", "state": "NY", "street": "391 W 1ST ST", "postcode": "13126"}}},
{"geometry": {"type": "Point", "coordinates": [-76.5066309623, 43.4490988292]}, "type": "Feature", "properties": {"collection_times": [{"days": "Mon-Fri", "time": "5:30pm"}, {"days": "Sat", "time": "4:00pm"}, {"days": "Sun", "time": "Closed"}], "id": "1312600102", "name": "USPS COLLECTION BOX - PO LOBBY", "address": {"city": "OSWEGO", "state": "NY", "street": "391 W 1ST ST", "postcode": "13126"}}},
{"geometry": {"type": "Point", "coordinates": [-76.4773976804, 43.4620711572]}, "type": "Feature", "properties": {"collection_times": [{"days": "Mon-Sat", "time": "10:30am"}, {"days": "Sun", "time": "Closed"}], "id": "1312600103", "name": "USPS COLLECTION BOX - BLUE BOX", "address": {"city": "OSWEGO", "state": "NY", "street": "341 STATE ROUTE 104", "postcode": "13126"}}},
{"geometry": {"type": "Point", "coordinates": [-76.4457594429, 43.4754208491]}, "type": "Feature", "properties": {"collection_times": [{"days": "Mon-Sat", "time": "10:30am"}, {"days": "Sun", "time": "Closed"}], "id": "1312600107", "name": "USPS COLLECTION BOX - BLUE BOX", "address": {"city": "OSWEGO", "state": "NY", "street": "956 MIDDLE RD", "postcode": "13126"}}},
{"geometry": {"type": "Point", "coordinates": [-76.4786090304, 43.4294877355]}, "type": "Feature", "properties": {"collection_times": [{"days": "Mon-Fri", "time": "3:00pm"}, {"days": "Sat", "time": "9:00am"}, {"days": "Sun", "time": "Closed"}], "id": "1312600109", "name": "USPS COLLECTION BOX - BLUE BOX", "address": {"city": "OSWEGO", "state": "NY", "street": "39 CHURCHILL RD", "postcode": "13126"}}},
{"geometry": {"type": "Point", "coordinates": [-76.5131301389, 43.4559824674]}, "type": "Feature", "properties": {"collection_times": [{"days": "Mon-Fri", "time": "3:30pm"}, {"days": "Sat", "time": "11:00am"}, {"days": "Sun", "time": "Closed"}], "id": "1312600112", "name": "USPS COLLECTION BOX - BLUE BOX", "address": {"city": "OSWEGO", "state": "NY", "street": "46 E BRIDGE ST", "postcode": "13126"}}},
{"geometry": {"type": "Point", "coordinates": [-76.5131301389, 43.4559824674]}, "type": "Feature", "properties": {"collection_times": [{"days": "Mon-Fri", "time": "3:30pm"}, {"days": "Sat", "time": "11:00am"}, {"days": "Sun", "time": "Closed"}], "id": "1312600113", "name": "USPS COLLECTION BOX - BLUE BOX", "address": {"city": "OSWEGO", "state": "NY", "street": "46 E BRIDGE ST", "postcode": "13126"}}},
{"geometry": {"type": "Point", "coordinates": [-76.5073017001, 43.456887431]}, "type": "Feature", "properties": {"collection_times": [{"days": "Mon-Fri", "time": "3:30pm"}, {"days": "Sat", "time": "11:00am"}, {"days": "Sun", "time": "Closed"}], "id": "1312600114", "name": "USPS COLLECTION BOX - BLUE BOX", "address": {"city": "OSWEGO", "state": "NY", "street": "120 E 1ST ST", "postcode": "13126"}}},
{"geometry": {"type": "Point", "coordinates": [-76.5122949699, 43.4584205458]}, "type": "Feature", "properties": {"collection_times": [{"days": "Mon-Sat", "time": "3:15pm"}, {"days": "Sun", "time": "Closed"}], "id": "1312600117", "name": "USPS COLLECTION BOX - BLUE BOX", "address": {"city": "OSWEGO", "state": "NY", "street": "140 W 1ST ST", "postcode": "13126"}}},
{"geometry": {"type": "Point", "coordinates": [-76.4786090304, 43.4294877355]}, "type": "Feature", "properties": {"collection_times": [{"days": "Mon-Fri", "time": "3:00pm"}, {"days": "Sat", "time": "9:00am"}, {"days": "Sun", "time": "Closed"}], "id": "1312600118", "name": "USPS COLLECTION BOX - BLUE BOX", "address": {"city": "OSWEGO", "state": "NY", "street": "39 CHURCHILL RD", "postcode": "13126"}}},
{"geometry": {"type": "Point", "coordinates": [-76.4893183579, 43.4524395053]}, "type": "Feature", "properties": {"collection_times": [{"days": "Mon-Sat", "time": "12:30pm"}, {"days": "Sun", "time": "Closed"}], "id": "1312600119", "name": "USPS COLLECTION BOX - BLUE BOX", "address": {"city": "OSWEGO", "state": "NY", "street": "343 EAST AVE", "postcode": "13126"}}},
{"geometry": {"type": "Point", "coordinates": [-76.5066309623, 43.4490988292]}, "type": "Feature", "properties": {"collection_times": [{"days": "Mon-Fri", "time": "5:15pm"}, {"days": "Sat", "time": "4:00pm"}, {"days": "Sun", "time": "Closed"}], "id": "1312600120", "name": "USPS COLLECTION BOX - BLUE BOX", "address": {"city": "OSWEGO", "state": "NY", "street": "391 W 1ST ST", "postcode": "13126"}}},
{"geometry": {"type": "Point", "coordinates": [-76.1265568935, 43.4067157754]}, "type": "Feature", "properties": {"collection_times": [{"days": "Mon-Fri", "time": "4:15pm"}, {"days": "Sat", "time": "11:00am"}, {"days": "Sun", "time": "Closed"}], "id": "1313100002", "name": "USPS COLLECTION BOX - BLUE BOX", "address": {"city": "PARISH", "state": "NY", "street": "2963 E MAIN ST", "postcode": "13131"}}},
{"geometry": {"type": "Point", "coordinates": [-76.1265568935, 43.4067157754]}, "type": "Feature", "properties": {"collection_times": [{"days": "Mon-Fri", "time": "4:45pm"}, {"days": "Sat", "time": "11:15am"}, {"days": "Sun", "time": "Closed"}], "id": "1313100003", "name": "USPS COLLECTION BOX - PO LOBBY", "address": {"city": "PARISH", "state": "NY", "street": "2963 E MAIN ST", "postcode": "13131"}}},
{"geometry": {"type": "Point", "coordinates": [-76.2716180117, 43.2794855188]}, "type": "Feature", "properties": {"collection_times": [{"days": "Mon-Fri", "time": "4:30pm"}, {"days": "Sat", "time": "10:45am"}, {"days": "Sun", "time": "Closed"}], "id": "1313200001", "name": "USPS COLLECTION BOX - BLUE BOX", "address": {"city": "PENNELLVILLE", "state": "NY", "street": "374 CNTY RT 54", "postcode": "13132"}}},
{"geometry": {"type": "Point", "coordinates": [-76.2716180117, 43.2794855188]}, "type": "Feature", "properties": {"collection_times": [{"days": "Mon-Fri", "time": "3:00pm"}, {"days": "Sat", "time": "10:45am"}, {"days": "Sun", "time": "Closed"}], "id": "1313200002", "name": "USPS COLLECTION BOX - PO LOBBY", "address": {"city": "PENNELLVILLE", "state": "NY", "street": "374 CNTY RT 54", "postcode": "13132"}}},
{"geometry": {"type": "Point", "coordinates": [-75.6863833382, 42.9672517249]}, "type": "Feature", "properties": {"collection_times": [{"days": "Mon-Fri", "time": "3:30pm"}, {"days": "Sat", "time": "10:30am"}, {"days": "Sun", "time": "Closed"}], "id": "1313400001", "name": "USPS COLLECTION BOX - BLUE BOX", "address": {"city": "PETERBORO", "state": "NY", "street": "4667 PETERBORO RD", "postcode": "13134"}}},
{"geometry": {"type": "Point", "coordinates": [-75.6863833382, 42.9672517249]}, "type": "Feature", "properties": {"collection_times": [{"days": "Mon-Fri", "time": "4:00pm"}, {"days": "Sat", "time": "1:00pm"}, {"days": "Sun", "time": "Closed"}], "id": "1313400003", "name": "USPS COLLECTION BOX - PO LOBBY", "address": {"city": "PETERBORO", "state": "NY", "street": "4667 PETERBORO RD", "postcode": "13134"}}},
{"geometry": {"type": "Point", "coordinates": [-76.2991825464, 43.2319158439]}, "type": "Feature", "properties": {"collection_times": [{"days": "Mon-Fri", "time": "5:00pm"}, {"days": "Sat", "time": "11:45am"}, {"days": "Sun", "time": "Closed"}], "id": "1313500001", "name": "USPS COLLECTION BOX - BLUE BOX", "address": {"city": "PHOENIX", "state": "NY", "street": "99 JEFFERSON ST", "postcode": "13135"}}},
{"geometry": {"type": "Point", "coordinates": [-76.2842713486, 43.2166024401]}, "type": "Feature", "properties": {"collection_times": [{"days": "Mon-Sat", "time": "9:30am"}, {"days": "Sun", "time": "Closed"}], "id": "1313500005", "name": "USPS COLLECTION BOX - BLUE BOX", "address": {"city": "PHOENIX", "state": "NY", "street": "219 CO RT 57 PLZ", "postcode": "13135"}}},
{"geometry": {"type": "Point", "coordinates": [-76.2991825464, 43.2319158439]}, "type": "Feature", "properties": {"collection_times": [{"days": "Mon-Fri", "time": "4:45pm"}, {"days": "Sat", "time": "11:45am"}, {"days": "Sun", "time": "Closed"}], "id": "1313500008", "name": "USPS COLLECTION BOX - PO LOBBY", "address": {"city": "PHOENIX", "state": "NY", "street": "99 JEFFERSON ST", "postcode": "13135"}}},
{"geometry": {"type": "Point", "coordinates": [-76.2991825464, 43.2319158439]}, "type": "Feature", "properties": {"collection_times": [{"days": "Mon-Fri", "time": "5:00pm"}, {"days": "Sat", "time": "11:45am"}, {"days": "Sun", "time": "Closed"}], "id": "1313500009", "name": "USPS COLLECTION BOX - BLUE BOX", "address": {"city": "PHOENIX", "state": "NY", "street": "99 JEFFERSON ST", "postcode": "13135"}}},
{"geometry": {"type": "Point", "coordinates": [-75.8645989114, 42.5810494555]}, "type": "Feature", "properties": {"collection_times": [{"days": "Mon-Fri", "time": "4:00pm"}, {"days": "Sat", "time": "12:30pm"}, {"days": "Sun", "time": "Closed"}], "id": "1313600001", "name": "USPS COLLECTION BOX - BLUE BOX", "address": {"city": "PITCHER", "state": "NY", "street": "253 STATE HIGHWAY 26", "postcode": "13136"}}},
{"geometry": {"type": "Point", "coordinates": [-75.8644938008, 42.5810967285]}, "type": "Feature", "properties": {"collection_times": [{"days": "Mon-Fri", "time": "12:00pm"}, {"days": "Sat", "time": "12:30pm"}, {"days": "Sun", "time": "Closed"}], "id": "1313600002", "name": "USPS COLLECTION BOX - PO LOBBY", "address": {"city": "PITCHER", "state": "NY", "street": "253 STATE HIGHWAY 26", "postcode": "13136"}}},
{"geometry": {"type": "Point", "coordinates": [-76.4472392865, 43.1598973855]}, "type": "Feature", "properties": {"collection_times": [{"days": "Mon-Fri", "time": "4:30pm"}, {"days": "Sat", "time": "10:30am"}, {"days": "Sun", "time": "Closed"}], "id": "1313700001", "name": "USPS COLLECTION BOX - BLUE BOX", "address": {"city": "PLAINVILLE", "state": "NY", "street": "8000 PLAINVILLE RD", "postcode": "13137"}}},
{"geometry": {"type": "Point", "coordinates": [-76.4472392865, 43.1598973855]}, "type": "Feature", "properties": {"collection_times": [{"days": "Mon-Fri", "time": "12:00pm"}, {"days": "Sat", "time": "10:45am"}, {"days": "Sun", "time": "Closed"}], "id": "1313700002", "name": "USPS COLLECTION BOX - PO LOBBY", "address": {"city": "PLAINVILLE", "state": "NY", "street": "8000 PLAINVILLE RD", "postcode": "13137"}}},
{"geometry": {"type": "Point", "coordinates": [-76.0139140656, 42.9006367988]}, "type": "Feature", "properties": {"collection_times": [{"days": "Mon-Fri", "time": "4:30pm"}, {"days": "Sat", "time": "11:30am"}, {"days": "Sun", "time": "Closed"}], "id": "1313800001", "name": "USPS COLLECTION BOX - BLUE BOX", "address": {"city": "POMPEY", "state": "NY", "street": "7360 ACADEMY ST", "postcode": "13138"}}},
{"geometry": {"type": "Point", "coordinates": [-76.0139140656, 42.9006367988]}, "type": "Feature", "properties": {"collection_times": [{"days": "Mon-Fri", "time": "5:00pm"}, {"days": "Sat", "time": "11:45am"}, {"days": "Sun", "time": "Closed"}], "id": "1313800002", "name": "USPS COLLECTION BOX - PO LOBBY", "address": {"city": "POMPEY", "state": "NY", "street": "7360 ACADEMY ST", "postcode": "13138"}}},
{"geometry": {"type": "Point", "coordinates": [-76.6177278049, 42.7383902543]}, "type": "Feature", "properties": {"collection_times": [{"days": "Mon-Fri", "time": "4:30pm"}, {"days": "Sat", "time": "12:00pm"}, {"days": "Sun", "time": "Closed"}], "id": "1313900001", "name": "USPS COLLECTION BOX - BLUE BOX", "address": {"city": "POPLAR RIDGE", "state": "NY", "street": "2485 ST RD 34B", "postcode": "13139"}}},
{"geometry": {"type": "Point", "coordinates": [-76.62320319, 43.0358645464]}, "type": "Feature", "properties": {"collection_times": [{"days": "Mon-Fri", "time": "4:30pm"}, {"days": "Sat", "time": "11:30am"}, {"days": "Sun", "time": "Closed"}], "id": "1314000001", "name": "USPS COLLECTION BOX - BLUE BOX", "address": {"city": "PORT BYRON", "state": "NY", "street": "130 MAIN ST", "postcode": "13140"}}},
{"geometry": {"type": "Point", "coordinates": [-76.62320319, 43.0358645464]}, "type": "Feature", "properties": {"collection_times": [{"days": "Mon-Fri", "time": "4:45pm"}, {"days": "Sat", "time": "10:45am"}, {"days": "Sun", "time": "Closed"}], "id": "1314000003", "name": "USPS COLLECTION BOX - PO LOBBY", "address": {"city": "PORT BYRON", "state": "NY", "street": "130 MAIN ST", "postcode": "13140"}}},
{"geometry": {"type": "Point", "coordinates": [-76.1452097905, 42.7347075443]}, "type": "Feature", "properties": {"collection_times": [{"days": "Mon-Fri", "time": "4:30pm"}, {"days": "Sat", "time": "11:45am"}, {"days": "Sun", "time": "Closed"}], "id": "1314100001", "name": "USPS COLLECTION BOX - BLUE BOX", "address": {"city": "PREBLE", "state": "NY", "street": "1968 PREBLE RD", "postcode": "13141"}}},
{"geometry": {"type": "Point", "coordinates": [-76.1452097905, 42.7347075443]}, "type": "Feature", "properties": {"collection_times": [{"days": "Mon-Fri", "time": "11:30am"}, {"days": "Sat", "time": "11:45am"}, {"days": "Sun", "time": "Closed"}], "id": "1314100002", "name": "USPS COLLECTION BOX - PO LOBBY", "address": {"city": "PREBLE", "state": "NY", "street": "1968 PREBLE RD", "postcode": "13141"}}},
{"geometry": {"type": "Point", "coordinates": [-76.1258329226, 43.5693442421]}, "type": "Feature", "properties": {"collection_times": [{"days": "Mon-Fri", "time": "5:00pm"}, {"days": "Sat", "time": "3:30pm"}, {"days": "Sun", "time": "Closed"}], "id": "1314200001", "name": "USPS COLLECTION BOX - BLUE BOX", "address": {"city": "PULASKI", "state": "NY", "street": "4909 N JEFFERSON ST", "postcode": "13142"}}},
{"geometry": {"type": "Point", "coordinates": [-76.1258329226, 43.5693442421]}, "type": "Feature", "properties": {"collection_times": [{"days": "Mon-Fri", "time": "5:00pm"}, {"days": "Sat", "time": "3:30pm"}, {"days": "Sun", "time": "Closed"}], "id": "1314200013", "name": "USPS COLLECTION BOX - PO LOBBY", "address": {"city": "PULASKI", "state": "NY", "street": "4909 N JEFFERSON ST", "postcode": "13142"}}},
{"geometry": {"type": "Point", "coordinates": [-76.1268786583, 43.5677413327]}, "type": "Feature", "properties": {"collection_times": [{"days": "Mon-Sat", "time": "2:00pm"}, {"days": "Sun", "time": "Closed"}], "id": "1314200015", "name": "USPS COLLECTION BOX - BLUE BOX", "address": {"city": "PULASKI", "state": "NY", "street": "4882 N JEFFERSON ST", "postcode": "13142"}}},
{"geometry": {"type": "Point", "coordinates": [-76.7254263207, 43.2453400623]}, "type": "Feature", "properties": {"collection_times": [{"days": "Mon-Fri", "time": "4:30pm"}, {"days": "Sat", "time": "11:30am"}, {"days": "Sun", "time": "Closed"}], "id": "1314300001", "name": "USPS COLLECTION BOX - PO LOBBY", "address": {"city": "RED CREEK", "state": "NY", "street": "6755 WOLCOTT ST", "postcode": "13143"}}},
{"geometry": {"type": "Point", "coordinates": [-76.7254263207, 43.2453400623]}, "type": "Feature", "properties": {"collection_times": [{"days": "Mon-Fri", "time": "4:30pm"}, {"days": "Sat", "time": "11:30am"}, {"days": "Sun", "time": "Closed"}], "id": "1314300002", "name": "USPS COLLECTION BOX - BLUE BOX", "address": {"city": "RED CREEK", "state": "NY", "street": "6755 WOLCOTT ST", "postcode": "13143"}}},
{"geometry": {"type": "Point", "coordinates": [-75.6107001075, 42.9370820155]}, "type": "Feature", "properties": {"collection_times": [{"days": "Mon-Fri", "time": "3:45pm"}, {"days": "Sat", "time": "11:45am"}, {"days": "Sun", "time": "Closed"}], "id": "1314400002", "name": "USPS COLLECTION BOX - BLUE BOX", "address": {"city": "RICHLAND", "state": "NY", "street": "1110 COUNTY ROUTE 48", "postcode": "13144"}}},
{"geometry": {"type": "Point", "coordinates": [-75.6107001075, 42.9370820155]}, "type": "Feature", "properties": {"collection_times": [{"days": "Mon-Fri", "time": "12:00pm"}, {"days": "Sat", "time": "11:45am"}, {"days": "Sun", "time": "Closed"}], "id": "1314400003", "name": "USPS COLLECTION BOX - PO LOBBY", "address": {"city": "RICHLAND", "state": "NY", "street": "1110 COUNTY ROUTE 48", "postcode": "13144"}}},
{"geometry": {"type": "Point", "coordinates": [-76.0864072662, 43.6440090631]}, "type": "Feature", "properties": {"collection_times": [{"days": "Mon-Fri", "time": "4:30pm"}, {"days": "Sat", "time": "11:30am"}, {"days": "Sun", "time": "Closed"}], "id": "1314500001", "name": "USPS COLLECTION BOX - BLUE BOX", "address": {"city": "SANDY CREEK", "state": "NY", "street": "6067 S MAIN ST", "postcode": "13145"}}},
{"geometry": {"type": "Point", "coordinates": [-76.0864072662, 43.6440090631]}, "type": "Feature", "properties": {"collection_times": [{"days": "Mon-Fri", "time": "4:30pm"}, {"days": "Sat", "time": "11:30am"}, {"days": "Sun", "time": "Closed"}], "id": "1314500002", "name": "USPS COLLECTION BOX - PO LOBBY", "address": {"city": "SANDY CREEK", "state": "NY", "street": "6067 S MAIN ST", "postcode": "13145"}}},
{"geometry": {"type": "Point", "coordinates": [-76.7601378856, 43.0663891278]}, "type": "Feature", "properties": {"collection_times": [{"days": "Mon-Fri", "time": "3:00pm"}, {"days": "Sat", "time": "11:30am"}, {"days": "Sun", "time": "Closed"}], "id": "1314600001", "name": "USPS COLLECTION BOX - BLUE BOX", "address": {"city": "SAVANNAH", "state": "NY", "street": "1542 N MAIN ST", "postcode": "13146"}}},
{"geometry": {"type": "Point", "coordinates": [-76.7600437701, 43.0664124794]}, "type": "Feature", "properties": {"collection_times": [{"days": "Mon-Fri", "time": "3:00pm"}, {"days": "Sat", "time": "11:30am"}, {"days": "Sun", "time": "Closed"}], "id": "1314600002", "name": "USPS COLLECTION BOX - PO LOBBY", "address": {"city": "SAVANNAH", "state": "NY", "street": "1542 N MAIN ST", "postcode": "13146"}}},
{"geometry": {"type": "Point", "coordinates": [-76.5585405113, 42.7796763607]}, "type": "Feature", "properties": {"collection_times": [{"days": "Mon-Fri", "time": "4:00pm"}, {"days": "Sat", "time": "11:45am"}, {"days": "Sun", "time": "Closed"}], "id": "1314700001", "name": "USPS COLLECTION BOX - BLUE BOX", "address": {"city": "SCIPIO CENTER", "state": "NY", "street": "3354 RT 34", "postcode": "13147"}}},
{"geometry": {"type": "Point", "coordinates": [-76.5585405113, 42.7796763607]}, "type": "Feature", "properties": {"collection_times": [{"days": "Mon-Fri", "time": "3:00pm"}, {"days": "Sat", "time": "11:45am"}, {"days": "Sun", "time": "Closed"}], "id": "1314700002", "name": "USPS COLLECTION BOX - PO LOBBY", "address": {"city": "SCIPIO CENTER", "state": "NY", "street": "3354 RT 34", "postcode": "13147"}}},
{"geometry": {"type": "Point", "coordinates": [-76.7982563723, 42.9117941355]}, "type": "Feature", "properties": {"collection_times": [{"days": "Mon-Fri", "time": "5:00pm"}, {"days": "Sat", "time": "3:00pm"}, {"days": "Sun", "time": "Closed"}], "id": "1314800001", "name": "USPS COLLECTION BOX - PO LOBBY", "address": {"city": "SENECA FALLS", "state": "NY", "street": "38 STATE ST", "postcode": "13148"}}},
{"geometry": {"type": "Point", "coordinates": [-76.7982563723, 42.9117941355]}, "type": "Feature", "properties": {"collection_times": [{"days": "Mon-Fri", "time": "5:00pm"}, {"days": "Sat", "time": "3:00pm"}, {"days": "Sun", "time": "Closed"}], "id": "1314800002", "name": "USPS COLLECTION BOX - BLUE BOX", "address": {"city": "SENECA FALLS", "state": "NY", "street": "38 STATE ST", "postcode": "13148"}}},
{"geometry": {"type": "Point", "coordinates": [-76.7982563723, 42.9117941355]}, "type": "Feature", "properties": {"collection_times": [{"days": "Mon-Fri", "time": "5:00pm"}, {"days": "Sat", "time": "3:00pm"}, {"days": "Sun", "time": "Closed"}], "id": "1314800003", "name": "USPS COLLECTION BOX - BLUE BOX", "address": {"city": "SENECA FALLS", "state": "NY", "street": "38 STATE ST", "postcode": "13148"}}},
{"geometry": {"type": "Point", "coordinates": [-76.8263898843, 42.9056711374]}, "type": "Feature", "properties": {"collection_times": [{"days": "Mon-Sat", "time": "10:00am"}, {"days": "Sun", "time": "Closed"}], "id": "1314800005", "name": "USPS COLLECTION BOX - BLUE BOX", "address": {"city": "SENECA FALLS", "state": "NY", "street": "2109 US ROUTE 20", "postcode": "13148"}}},
{"geometry": {"type": "Point", "coordinates": [-76.7969042502, 42.9103603892]}, "type": "Feature", "properties": {"collection_times": [{"days": "Mon-Sat", "time": "9:00am"}, {"days": "Sun", "time": "Closed"}], "id": "1314800010", "name": "USPS COLLECTION BOX - BLUE BOX", "address": {"city": "SENECA FALLS", "state": "NY", "street": "59 FALL ST", "postcode": "13148"}}},
{"geometry": {"type": "Point", "coordinates": [-76.7943945897, 42.9087167657]}, "type": "Feature", "properties": {"collection_times": [{"days": "Mon-Sat", "time": "3:00pm"}, {"days": "Sun", "time": "Closed"}], "id": "1314800016", "name": "USPS COLLECTION BOX - BLUE BOX", "address": {"city": "SENECA FALLS", "state": "NY", "street": "20 E BAYARD ST", "postcode": "13148"}}},
{"geometry": {"type": "Point", "coordinates": [-76.7994890155, 42.9112866461]}, "type": "Feature", "properties": {"collection_times": [{"days": "Mon-Sat", "time": "12:00pm"}, {"days": "Sun", "time": "Closed"}], "id": "1314800023", "name": "USPS COLLECTION BOX - BLUE BOX", "address": {"city": "SENECA FALLS", "state": "NY", "street": "9 MYNDERSE ST", "postcode": "13148"}}},
{"geometry": {"type": "Point", "coordinates": [-76.4311220779, 42.9472797959]}, "type": "Feature", "properties": {"collection_times": [{"days": "Mon-Fri", "time": "5:00pm"}, {"days": "Sat", "time": "2:00pm"}, {"days": "Sun", "time": "Closed"}], "id": "1315200002", "name": "USPS COLLECTION BOX - BLUE BOX", "address": {"city": "SKANEATELES", "state": "NY", "street": "20 FENNELL ST", "postcode": "13152"}}},
{"geometry": {"type": "Point", "coordinates": [-76.4271598902, 42.9455123532]}, "type": "Feature", "properties": {"collection_times": [{"days": "Mon-Sat", "time": "10:00am"}, {"days": "Sun", "time": "Closed"}], "id": "1315200004", "name": "USPS COLLECTION BOX - BLUE BOX", "address": {"city": "SKANEATELES", "state": "NY", "street": "46 E GENESEE ST", "postcode": "13152"}}},
{"geometry": {"type": "Point", "coordinates": [-76.42913579, 42.9465765137]}, "type": "Feature", "properties": {"collection_times": [{"days": "Mon-Sat", "time": "1:00pm"}, {"days": "Sun", "time": "Closed"}], "id": "1315200006", "name": "USPS COLLECTION BOX - BLUE BOX", "address": {"city": "SKANEATELES", "state": "NY", "street": "24 JORDAN ST", "postcode": "13152"}}},
{"geometry": {"type": "Point", "coordinates": [-76.4311220779, 42.9472797959]}, "type": "Feature", "properties": {"collection_times": [{"days": "Mon-Fri", "time": "5:00pm"}, {"days": "Sat", "time": "2:00pm"}, {"days": "Sun", "time": "Closed"}], "id": "1315200008", "name": "USPS COLLECTION BOX - PO LOBBY", "address": {"city": "SKANEATELES", "state": "NY", "street": "20 FENNELL ST", "postcode": "13152"}}},
{"geometry": {"type": "Point", "coordinates": [-76.4311220779, 42.9472797959]}, "type": "Feature", "properties": {"collection_times": [{"days": "Mon-Fri", "time": "5:00pm"}, {"days": "Sat", "time": "2:00pm"}, {"days": "Sun", "time": "Closed"}], "id": "1315200009", "name": "USPS COLLECTION BOX - PO LOBBY", "address": {"city": "SKANEATELES", "state": "NY", "street": "20 FENNELL ST", "postcode": "13152"}}},
{"geometry": {"type": "Point", "coordinates": [-76.4311220779, 42.9472797959]}, "type": "Feature", "properties": {"collection_times": [{"days": "Mon-Fri", "time": "5:00pm"}, {"days": "Sat", "time": "2:00pm"}, {"days": "Sun", "time": "Closed"}], "id": "1315200010", "name": "USPS COLLECTION BOX - BLUE BOX", "address": {"city": "SKANEATELES", "state": "NY", "street": "20 FENNELL ST", "postcode": "13152"}}},
{"geometry": {"type": "Point", "coordinates": [-76.4293633249, 42.9471534628]}, "type": "Feature", "properties": {"collection_times": [{"days": "Mon-Sat", "time": "1:00pm"}, {"days": "Sun", "time": "Closed"}], "id": "1315200011", "name": "USPS COLLECTION BOX - BLUE BOX", "address": {"city": "SKANEATELES", "state": "NY", "street": "32 JORDAN ST", "postcode": "13152"}}},
{"geometry": {"type": "Point", "coordinates": [-76.4568722089, 43.0119737747]}, "type": "Feature", "properties": {"collection_times": [{"days": "Mon-Fri", "time": "4:45pm"}, {"days": "Sat", "time": "11:15am"}, {"days": "Sun", "time": "Closed"}], "id": "1315300001", "name": "USPS COLLECTION BOX - BLUE BOX", "address": {"city": "SKAN FALLS", "state": "NY", "street": "4564 JORDAN RD", "postcode": "13153"}}},
{"geometry": {"type": "Point", "coordinates": [-76.4568722089, 43.0119737747]}, "type": "Feature", "properties": {"collection_times": [{"days": "Mon-Fri", "time": "4:45pm"}, {"days": "Sat", "time": "11:15am"}, {"days": "Sun", "time": "Closed"}], "id": "1315300002", "name": "USPS COLLECTION BOX - PO LOBBY", "address": {"city": "SKAN FALLS", "state": "NY", "street": "4564 JORDAN RD", "postcode": "13153"}}},
{"geometry": {"type": "Point", "coordinates": [-76.7661273787, 43.1318581933]}, "type": "Feature", "properties": {"collection_times": [{"days": "Mon-Fri", "time": "4:15pm"}, {"days": "Sat", "time": "11:45am"}, {"days": "Sun", "time": "Closed"}], "id": "1315400001", "name": "USPS COLLECTION BOX - BLUE BOX", "address": {"city": "SOUTH BUTLER", "state": "NY", "street": "3453 RT 89", "postcode": "13154"}}},
{"geometry": {"type": "Point", "coordinates": [-76.7661273787, 43.1318581933]}, "type": "Feature", "properties": {"collection_times": [{"days": "Mon-Fri", "time": "4:30pm"}, {"days": "Sat", "time": "11:45am"}, {"days": "Sun", "time": "Closed"}], "id": "1315400002", "name": "USPS COLLECTION BOX - PO LOBBY", "address": {"city": "SOUTH BUTLER", "state": "NY", "street": "3453 RT 89", "postcode": "13154"}}},
{"geometry": {"type": "Point", "coordinates": [-75.7813473538, 42.6468060925]}, "type": "Feature", "properties": {"collection_times": [{"days": "Mon-Fri", "time": "4:30pm"}, {"days": "Sat", "time": "11:45am"}, {"days": "Sun", "time": "Closed"}], "id": "1315500001", "name": "USPS COLLECTION BOX - BLUE BOX", "address": {"city": "SOUTH OTSELIC", "state": "NY", "street": "1605 STATE HIGHWAY 26", "postcode": "13155"}}},
{"geometry": {"type": "Point", "coordinates": [-75.7813473538, 42.6468060925]}, "type": "Feature", "properties": {"collection_times": [{"days": "Mon-Fri", "time": "4:30pm"}, {"days": "Sat", "time": "11:45am"}, {"days": "Sun", "time": "Closed"}], "id": "1315500002", "name": "USPS COLLECTION BOX - PO LOBBY", "address": {"city": "SOUTH OTSELIC", "state": "NY", "street": "1605 STATE HIGHWAY 26", "postcode": "13155"}}},
{"geometry": {"type": "Point", "coordinates": [-76.6463611295, 43.3256567397]}, "type": "Feature", "properties": {"collection_times": [{"days": "Mon-Fri", "time": "4:30pm"}, {"days": "Sat", "time": "11:30am"}, {"days": "Sun", "time": "Closed"}], "id": "1315600001", "name": "USPS COLLECTION BOX - BLUE BOX", "address": {"city": "STERLING", "state": "NY", "street": "1325 STATE ROUTE 104A", "postcode": "13156"}}},
{"geometry": {"type": "Point", "coordinates": [-76.6463611295, 43.3256567397]}, "type": "Feature", "properties": {"collection_times": [{"days": "Mon-Fri", "time": "3:00pm"}, {"days": "Sat", "time": "11:30am"}, {"days": "Sun", "time": "Closed"}], "id": "1315600002", "name": "USPS COLLECTION BOX - PO LOBBY", "address": {"city": "STERLING", "state": "NY", "street": "1325 STATE ROUTE 104A", "postcode": "13156"}}},
{"geometry": {"type": "Point", "coordinates": [-75.7281449008, 43.2025437]}, "type": "Feature", "properties": {"collection_times": [{"days": "Mon-Fri", "time": "4:00pm"}, {"days": "Sat", "time": "11:45am"}, {"days": "Sun", "time": "Closed"}], "id": "1315700001", "name": "USPS COLLECTION BOX - PO LOBBY", "address": {"city": "SYLVAN BEACH", "state": "NY", "street": "1404 MAIN ST", "postcode": "13157"}}},
{"geometry": {"type": "Point", "coordinates": [-75.7280748536, 43.2063130111]}, "type": "Feature", "properties": {"collection_times": [{"days": "Mon-Fri", "time": "4:30pm"}, {"days": "Sat", "time": "11:45am"}, {"days": "Sun", "time": "Closed"}], "id": "1315700002", "name": "USPS COLLECTION BOX - BLUE BOX", "address": {"city": "SYLVAN BEACH", "state": "NY", "street": "1404 MAIN ST & 14TH AVE", "postcode": "13157"}}},
{"geometry": {"type": "Point", "coordinates": [-76.0304117401, 42.7118862257]}, "type": "Feature", "properties": {"collection_times": [{"days": "Mon-Fri", "time": "4:15pm"}, {"days": "Sat", "time": "10:45am"}, {"days": "Sun", "time": "Closed"}], "id": "1315800001", "name": "USPS COLLECTION BOX - BLUE BOX", "address": {"city": "TRUXTON", "state": "NY", "street": "3706 ROUTE 13", "postcode": "13158"}}},
{"geometry": {"type": "Point", "coordinates": [-76.0304117401, 42.7118862257]}, "type": "Feature", "properties": {"collection_times": [{"days": "Mon-Fri", "time": "12:00pm"}, {"days": "Sat", "time": "10:45am"}, {"days": "Sun", "time": "Closed"}], "id": "1315800003", "name": "USPS COLLECTION BOX - PO LOBBY", "address": {"city": "TRUXTON", "state": "NY", "street": "3706 ROUTE 13", "postcode": "13158"}}},
{"geometry": {"type": "Point", "coordinates": [-76.1115088107, 42.7978736864]}, "type": "Feature", "properties": {"collection_times": [{"days": "Mon-Fri", "time": "5:15pm"}, {"days": "Sat", "time": "1:30pm"}, {"days": "Sun", "time": "Closed"}], "id": "1315900001", "name": "USPS COLLECTION BOX - BLUE BOX", "address": {"city": "TULLY", "state": "NY", "street": "24 ELM ST", "postcode": "13159"}}},
{"geometry": {"type": "Point", "coordinates": [-76.1115088107, 42.7978736864]}, "type": "Feature", "properties": {"collection_times": [{"days": "Mon-Fri", "time": "5:15pm"}, {"days": "Sat", "time": "1:30pm"}, {"days": "Sun", "time": "Closed"}], "id": "1315900002", "name": "USPS COLLECTION BOX - PO LOBBY", "address": {"city": "TULLY", "state": "NY", "street": "24 ELM ST", "postcode": "13159"}}},
{"geometry": {"type": "Point", "coordinates": [-76.6928126277, 42.8397764296]}, "type": "Feature", "properties": {"collection_times": [{"days": "Mon-Fri", "time": "4:30pm"}, {"days": "Sat", "time": "12:00pm"}, {"days": "Sun", "time": "Closed"}], "id": "1316000001", "name": "USPS COLLECTION BOX - BLUE BOX", "address": {"city": "UNION SPRINGS", "state": "NY", "street": "116 CAYUGA ST", "postcode": "13160"}}},
{"geometry": {"type": "Point", "coordinates": [-76.6928126277, 42.8397764296]}, "type": "Feature", "properties": {"collection_times": [{"days": "Mon-Fri", "time": "4:45pm"}, {"days": "Sat", "time": "12:00pm"}, {"days": "Sun", "time": "Closed"}], "id": "1316000002", "name": "USPS COLLECTION BOX - PO LOBBY", "address": {"city": "UNION SPRINGS", "state": "NY", "street": "116 CAYUGA ST", "postcode": "13160"}}},
{"geometry": {"type": "Point", "coordinates": [-75.7288193449, 43.19125269]}, "type": "Feature", "properties": {"collection_times": [{"days": "Mon-Fri", "time": "4:30pm"}, {"days": "Sat", "time": "11:30am"}, {"days": "Sun", "time": "Closed"}], "id": "1316200001", "name": "USPS COLLECTION BOX - BLUE BOX", "address": {"city": "VERONA BEACH", "state": "NY", "street": "6783 LAKE SHORE RD N", "postcode": "13162"}}},
{"geometry": {"type": "Point", "coordinates": [-75.7288193449, 43.19125269]}, "type": "Feature", "properties": {"collection_times": [{"days": "Mon-Fri", "time": "4:30pm"}, {"days": "Sat", "time": "11:45am"}, {"days": "Sun", "time": "Closed"}], "id": "1316200002", "name": "USPS COLLECTION BOX - PO LOBBY", "address": {"city": "VERONA BEACH", "state": "NY", "street": "6783 LAKE SHORE RD N", "postcode": "13162"}}},
{"geometry": {"type": "Point", "coordinates": [-75.7075364021, 43.0807822017]}, "type": "Feature", "properties": {"collection_times": [{"days": "Mon-Fri", "time": "4:45pm"}, {"days": "Sat", "time": "11:45am"}, {"days": "Sun", "time": "Closed"}], "id": "1316300001", "name": "USPS COLLECTION BOX - PO LOBBY", "address": {"city": "WAMPSVILLE", "state": "NY", "street": "137 N COURT ST", "postcode": "13163"}}},
{"geometry": {"type": "Point", "coordinates": [-75.7075364021, 43.0807822017]}, "type": "Feature", "properties": {"collection_times": [{"days": "Mon-Fri", "time": "4:45pm"}, {"days": "Sat", "time": "11:45am"}, {"days": "Sun", "time": "Closed"}], "id": "1316300002", "name": "USPS COLLECTION BOX - BLUE BOX", "address": {"city": "WAMPSVILLE", "state": "NY", "street": "137 N COURT ST", "postcode": "13163"}}},
{"geometry": {"type": "Point", "coordinates": [-76.3288497083, 43.0834836029]}, "type": "Feature", "properties": {"collection_times": [{"days": "Mon-Fri", "time": "4:45pm"}, {"days": "Sat", "time": "11:00am"}, {"days": "Sun", "time": "Closed"}], "id": "1316400001", "name": "USPS COLLECTION BOX - BLUE BOX", "address": {"city": "WARNERS", "state": "NY", "street": "6454 NEWPORT RD", "postcode": "13164"}}},
{"geometry": {"type": "Point", "coordinates": [-76.3288497083, 43.0834836029]}, "type": "Feature", "properties": {"collection_times": [{"days": "Mon-Fri", "time": "3:00pm"}, {"days": "Sat", "time": "11:00am"}, {"days": "Sun", "time": "Closed"}], "id": "1316400002", "name": "USPS COLLECTION BOX - PO LOBBY", "address": {"city": "WARNERS", "state": "NY", "street": "6454 NEWPORT RD", "postcode": "13164"}}},
{"geometry": {"type": "Point", "coordinates": [-76.8627311848, 42.9046384167]}, "type": "Feature", "properties": {"collection_times": [{"days": "Mon-Fri", "time": "5:00pm"}, {"days": "Sat", "time": "3:30pm"}, {"days": "Sun", "time": "Closed"}], "id": "1316500002", "name": "USPS COLLECTION BOX - BLUE BOX", "address": {"city": "WATERLOO", "state": "NY", "street": "2 E MAIN ST", "postcode": "13165"}}},
{"geometry": {"type": "Point", "coordinates": [-76.8627311848, 42.9046384167]}, "type": "Feature", "properties": {"collection_times": [{"days": "Mon-Fri", "time": "5:00pm"}, {"days": "Sat", "time": "3:30pm"}, {"days": "Sun", "time": "Closed"}], "id": "1316500003", "name": "USPS COLLECTION BOX - BLUE BOX", "address": {"city": "WATERLOO", "state": "NY", "street": "2 E MAIN ST", "postcode": "13165"}}},
{"geometry": {"type": "Point", "coordinates": [-76.8651389169, 42.9058390358]}, "type": "Feature", "properties": {"collection_times": [{"days": "Mon-Fri", "time": "3:00pm"}, {"days": "Sat", "time": "2:00pm"}, {"days": "Sun", "time": "Closed"}], "id": "1316500006", "name": "USPS COLLECTION BOX - BLUE BOX", "address": {"city": "WATERLOO", "state": "NY", "street": "46 W WILLIAMS ST", "postcode": "13165"}}},
{"geometry": {"type": "Point", "coordinates": [-76.846984818, 42.9016963977]}, "type": "Feature", "properties": {"collection_times": [{"days": "Mon-Fri", "time": "3:00pm"}, {"days": "Sat-Sun", "time": "Closed"}], "id": "1316500008", "name": "USPS COLLECTION BOX - BLUE BOX", "address": {"city": "WATERLOO", "state": "NY", "street": "369 E MAIN ST", "postcode": "13165"}}},
{"geometry": {"type": "Point", "coordinates": [-76.9214367064, 42.9542528986]}, "type": "Feature", "properties": {"collection_times": [{"days": "Mon-Sat", "time": "11:00am"}, {"days": "Sun", "time": "Closed"}], "id": "1316500018", "name": "USPS COLLECTION BOX - BLUE BOX", "address": {"city": "WATERLOO", "state": "NY", "street": "655 STATE ROUTE 318 #1", "postcode": "13165"}}},
{"geometry": {"type": "Point", "coordinates": [-76.8627311848, 42.9046384167]}, "type": "Feature", "properties": {"collection_times": [{"days": "Mon-Fri", "time": "5:00pm"}, {"days": "Sat", "time": "3:30pm"}, {"days": "Sun", "time": "Closed"}], "id": "1316500022", "name": "USPS COLLECTION BOX - PO LOBBY", "address": {"city": "WATERLOO", "state": "NY", "street": "2 E MAIN ST", "postcode": "13165"}}},
{"geometry": {"type": "Point", "coordinates": [-76.8468219027, 42.965210487]}, "type": "Feature", "properties": {"collection_times": [{"days": "Mon-Sat", "time": "10:30am"}, {"days": "Sun", "time": "Closed"}], "id": "1316500024", "name": "USPS COLLECTION BOX - BLUE BOX", "address": {"city": "WATERLOO", "state": "NY", "street": "1255 STATE ROUTE 414", "postcode": "13165"}}},
{"geometry": {"type": "Point", "coordinates": [-76.8627311848, 42.9046384167]}, "type": "Feature", "properties": {"collection_times": [{"days": "Mon-Fri", "time": "5:00pm"}, {"days": "Sat", "time": "3:30pm"}, {"days": "Sun", "time": "Closed"}], "id": "1316500025", "name": "USPS COLLECTION BOX - BLUE BOX", "address": {"city": "WATERLOO", "state": "NY", "street": "2 E MAIN ST", "postcode": "13165"}}},
{"geometry": {"type": "Point", "coordinates": [-76.5620136783, 43.0502495735]}, "type": "Feature", "properties": {"collection_times": [{"days": "Mon-Fri", "time": "5:00pm"}, {"days": "Sat", "time": "12:00pm"}, {"days": "Sun", "time": "Closed"}], "id": "1316600001", "name": "USPS COLLECTION BOX - BLUE BOX", "address": {"city": "WEEDSPORT", "state": "NY", "street": "8942 N SENECA ST", "postcode": "13166"}}},
{"geometry": {"type": "Point", "coordinates": [-76.5620136783, 43.0502495735]}, "type": "Feature", "properties": {"collection_times": [{"days": "Mon-Fri", "time": "5:00pm"}, {"days": "Sat", "time": "12:00pm"}, {"days": "Sun", "time": "Closed"}], "id": "1316600003", "name": "USPS COLLECTION BOX - PO LOBBY", "address": {"city": "WEEDSPORT", "state": "NY", "street": "8942 N SENECA ST", "postcode": "13166"}}},
{"geometry": {"type": "Point", "coordinates": [-76.0639088436, 43.2799729343]}, "type": "Feature", "properties": {"collection_times": [{"days": "Mon-Fri", "time": "4:15pm"}, {"days": "Sat", "time": "11:30am"}, {"days": "Sun", "time": "Closed"}], "id": "1316700001", "name": "USPS COLLECTION BOX - BLUE BOX", "address": {"city": "WEST MONROE", "state": "NY", "street": "2301 STATE ROUTE 49", "postcode": "13167"}}},
{"geometry": {"type": "Point", "coordinates": [-76.0639088436, 43.2799729343]}, "type": "Feature", "properties": {"collection_times": [{"days": "Mon-Fri", "time": "2:15pm"}, {"days": "Sat", "time": "11:30am"}, {"days": "Sun", "time": "Closed"}], "id": "1316700006", "name": "USPS COLLECTION BOX - PO LOBBY", "address": {"city": "WEST MONROE", "state": "NY", "street": "2301 STATE ROUTE 49", "postcode": "13167"}}}
]}
