{"type": "FeatureCollection", "features": [
{"geometry": {"type": "Point", "coordinates": [-76.1523223113, 43.0459093835]}, "type": "Feature", "properties": {"collection_times": [{"days": "Mon-Sat", "time": "6:30pm"}, {"days": "Sun", "time": "Closed"}], "id": "1320200001", "name": "USPS COLLECTION BOX - BLUE BOX", "address": {"city": "SYRACUSE", "state": "NY", "street": "444 S SALINA ST", "postcode": "13202"}}},
{"geometry": {"type": "Point", "coordinates": [-76.1535065089, 43.0456925091]}, "type": "Feature", "properties": {"collection_times": [{"days": "Mon-Sat", "time": "6:30pm"}, {"days": "Sun", "time": "Closed"}], "id": "1320200002", "name": "USPS COLLECTION BOX - BLUE BOX", "address": {"city": "SYRACUSE", "state": "NY", "street": "551 S CLINTON ST", "postcode": "13202"}}},
{"geometry": {"type": "Point", "coordinates": [-76.14924024, 43.0504096546]}, "type": "Feature", "properties": {"collection_times": [{"days": "Mon-Fri", "time": "4:00pm"}, {"days": "Sat", "time": "9:00am"}, {"days": "Sun", "time": "Closed"}], "id": "1320200006", "name": "USPS COLLECTION BOX - BLUE BOX", "address": {"city": "SYRACUSE", "state": "NY", "street": "109 MONTGOMERY ST", "postcode": "13202"}}},
{"geometry": {"type": "Point", "coordinates": [-76.1520945599, 43.0513503834]}, "type": "Feature", "properties": {"collection_times": [{"days": "Mon-Fri", "time": "5:00pm"}, {"days": "Sat", "time": "10:00am"}, {"days": "Sun", "time": "Closed"}], "id": "1320200009", "name": "USPS COLLECTION BOX - BLUE BOX", "address": {"city": "SYRACUSE", "state": "NY", "street": "110 N SALINA ST", "postcode": "13202"}}},
{"geometry": {"type": "Point", "coordinates": [-76.1560235925, 43.0524420575]}, "type": "Feature", "properties": {"collection_times": [{"days": "Mon-Fri", "time": "4:00pm"}, {"days": "Sat", "time": "9:00am"}, {"days": "Sun", "time": "Closed"}], "id": "1320200012", "name": "USPS COLLECTION BOX - BLUE BOX", "address": {"city": "SYRACUSE", "state": "NY", "street": "344 W GENESEE ST", "postcode": "13202"}}},
{"geometry": {"type": "Point", "coordinates": [-76.191895, 43.052185]}, "type": "Feature", "properties": {"collection_times": [{"days": "Mon-Fri", "time": "5:00pm"}, {"days": "Sat", "time": "9:00am"}, {"days": "Sun", "time": "Closed"}], "id": "1320200013", "name": "USPS COLLECTION BOX - BLUE BOX", "address": {"city": "SYRACUSE", "state": "NY", "street": "298 ERIE ST", "postcode": "13202"}}},
{"geometry": {"type": "Point", "coordinates": [-76.1507457454, 43.0463816429]}, "type": "Feature", "properties": {"collection_times": [{"days": "Mon-Sat", "time": "9:30am"}, {"days": "Sun", "time": "Closed"}], "id": "1320200015", "name": "USPS COLLECTION BOX - BLUE BOX", "address": {"city": "SYRACUSE", "state": "NY", "street": "550 HARRISON ST", "postcode": "13202"}}},
{"geometry": {"type": "Point", "coordinates": [-76.1506841524, 43.0503059049]}, "type": "Feature", "properties": {"collection_times": [{"days": "Mon-Fri", "time": "4:30pm"}, {"days": "Sat", "time": "10:00am"}, {"days": "Sun", "time": "Closed"}], "id": "1320200016", "name": "USPS COLLECTION BOX - BLUE BOX", "address": {"city": "SYRACUSE", "state": "NY", "street": "109 S WARREN ST", "postcode": "13202"}}},
{"geometry": {"type": "Point", "coordinates": [-76.1440236868, 43.0469907717]}, "type": "Feature", "properties": {"collection_times": [{"days": "Mon-Sat", "time": "9:00am"}, {"days": "Sun", "time": "Closed"}], "id": "1320200020", "name": "USPS COLLECTION BOX - BLUE BOX", "address": {"city": "SYRACUSE", "state": "NY", "street": "90 PRESIDENTIAL PLZ", "postcode": "13202"}}},
{"geometry": {"type": "Point", "coordinates": [-76.1555695763, 43.0480236384]}, "type": "Feature", "properties": {"collection_times": [{"days": "Mon-Fri", "time": "5:00pm"}, {"days": "Sat", "time": "10:00am"}, {"days": "Sun", "time": "Closed"}], "id": "1320200026", "name": "USPS COLLECTION BOX - BLUE BOX", "address": {"city": "SYRACUSE", "state": "NY", "street": "200 WALTON ST", "postcode": "13202"}}},
{"geometry": {"type": "Point", "coordinates": [-76.1506717731, 43.0493395136]}, "type": "Feature", "properties": {"collection_times": [{"days": "Mon-Fri", "time": "4:30pm"}, {"days": "Sat", "time": "10:00am"}, {"days": "Sun", "time": "Closed"}], "id": "1320200028", "name": "USPS COLLECTION BOX - BLUE BOX", "address": {"city": "SYRACUSE", "state": "NY", "street": "223 S WARREN ST", "postcode": "13202"}}},
{"geometry": {"type": "Point", "coordinates": [-76.1455947712, 43.049566376]}, "type": "Feature", "properties": {"collection_times": [{"days": "Mon-Fri", "time": "5:00pm"}, {"days": "Sat", "time": "9:00am"}, {"days": "Sun", "time": "Closed"}], "id": "1320200031", "name": "USPS COLLECTION BOX - BLUE BOX", "address": {"city": "SYRACUSE", "state": "NY", "street": "501 E WASHINGTON ST", "postcode": "13202"}}},
{"geometry": {"type": "Point", "coordinates": [-76.1502997312, 43.0396863281]}, "type": "Feature", "properties": {"collection_times": [{"days": "Mon-Sat", "time": "11:00am"}, {"days": "Sun", "time": "Closed"}], "id": "1320200034", "name": "USPS COLLECTION BOX - BLUE BOX", "address": {"city": "SYRACUSE", "state": "NY", "street": "819 S SALINA ST", "postcode": "13202"}}},
{"geometry": {"type": "Point", "coordinates": [-76.1507795562, 43.0411093757]}, "type": "Feature", "properties": {"collection_times": [{"days": "Mon-Sat", "time": "11:00am"}, {"days": "Sun", "time": "Closed"}], "id": "1320200035", "name": "USPS COLLECTION BOX - BLUE BOX", "address": {"city": "SYRACUSE", "state": "NY", "street": "677 S SALINA ST", "postcode": "13202"}}},
{"geometry": {"type": "Point", "coordinates": [-76.1508711538, 43.0463876289]}, "type": "Feature", "properties": {"collection_times": [{"days": "Mon-Fri", "time": "4:30pm"}, {"days": "Sat", "time": "10:00am"}, {"days": "Sun", "time": "Closed"}], "id": "1320200043", "name": "USPS COLLECTION BOX - BLUE BOX", "address": {"city": "SYRACUSE", "state": "NY", "street": "440 S WARREN ST", "postcode": "13202"}}},
{"geometry": {"type": "Point", "coordinates": [-76.150702387, 43.0478338851]}, "type": "Feature", "properties": {"collection_times": [{"days": "Mon-Fri", "time": "4:30pm"}, {"days": "Sat", "time": "10:00am"}, {"days": "Sun", "time": "Closed"}], "id": "1320200044", "name": "USPS COLLECTION BOX - BLUE BOX", "address": {"city": "SYRACUSE", "state": "NY", "street": "351 S WARREN ST", "postcode": "13202"}}},
{"geometry": {"type": "Point", "coordinates": [-76.150702387, 43.0478338851]}, "type": "Feature", "properties": {"collection_times": [{"days": "Mon-Fri", "time": "4:30pm"}, {"days": "Sat", "time": "10:00am"}, {"days": "Sun", "time": "Closed"}], "id": "1320200045", "name": "USPS COLLECTION BOX - BLUE BOX", "address": {"city": "SYRACUSE", "state": "NY", "street": "351 S WARREN ST", "postcode": "13202"}}},
{"geometry": {"type": "Point", "coordinates": [-76.1487270247, 43.0464831003]}, "type": "Feature", "properties": {"collection_times": [{"days": "Mon-Fri", "time": "4:00pm"}, {"days": "Sat", "time": "10:00am"}, {"days": "Sun", "time": "Closed"}], "id": "1320200047", "name": "USPS COLLECTION BOX - BLUE BOX", "address": {"city": "SYRACUSE", "state": "NY", "street": "421 MONTGOMERY ST", "postcode": "13202"}}},
{"geometry": {"type": "Point", "coordinates": [-76.1487270247, 43.0464831003]}, "type": "Feature", "properties": {"collection_times": [{"days": "Mon-Fri", "time": "4:00pm"}, {"days": "Sat", "time": "10:00am"}, {"days": "Sun", "time": "Closed"}], "id": "1320200048", "name": "USPS COLLECTION BOX - BLUE BOX", "address": {"city": "SYRACUSE", "state": "NY", "street": "421 MONTGOMERY ST", "postcode": "13202"}}},
{"geometry": {"type": "Point", "coordinates": [-76.1433033654, 43.0474320933]}, "type": "Feature", "properties": {"collection_times": [{"days": "Mon-Fri", "time": "5:00pm"}, {"days": "Sat", "time": "9:00am"}, {"days": "Sun", "time": "Closed"}], "id": "1320200052", "name": "USPS COLLECTION BOX - BLUE BOX", "address": {"city": "SYRACUSE", "state": "NY", "street": "600 E GENESEE ST", "postcode": "13202"}}},
{"geometry": {"type": "Point", "coordinates": [-76.1465804553, 43.0480520203]}, "type": "Feature", "properties": {"collection_times": [{"days": "Mon-Fri", "time": "5:00pm"}, {"days": "Sat", "time": "9:00am"}, {"days": "Sun", "time": "Closed"}], "id": "1320200053", "name": "USPS COLLECTION BOX - BLUE BOX", "address": {"city": "SYRACUSE", "state": "NY", "street": "420 E GENESEE ST", "postcode": "13202"}}},
{"geometry": {"type": "Point", "coordinates": [-76.1544894566, 43.0486426998]}, "type": "Feature", "properties": {"collection_times": [{"days": "Mon-Fri", "time": "5:00pm"}, {"days": "Sat", "time": "9:00am"}, {"days": "Sun", "time": "Closed"}], "id": "1320200054", "name": "USPS COLLECTION BOX - BLUE BOX", "address": {"city": "SYRACUSE", "state": "NY", "street": "247 W FAYETTE ST", "postcode": "13202"}}},
{"geometry": {"type": "Point", "coordinates": [-76.1455886567, 43.0486568538]}, "type": "Feature", "properties": {"collection_times": [{"days": "Mon-Fri", "time": "5:00pm"}, {"days": "Sat", "time": "9:00am"}, {"days": "Sun", "time": "Closed"}], "id": "1320200055", "name": "USPS COLLECTION BOX - BLUE BOX", "address": {"city": "SYRACUSE", "state": "NY", "street": "501 E FAYETTE ST", "postcode": "13202"}}},
{"geometry": {"type": "Point", "coordinates": [-76.1482456384, 43.0474672478]}, "type": "Feature", "properties": {"collection_times": [{"days": "Mon-Fri", "time": "5:00pm"}, {"days": "Sat", "time": "10:00am"}, {"days": "Sun", "time": "Closed"}], "id": "1320200056", "name": "USPS COLLECTION BOX - BLUE BOX", "address": {"city": "SYRACUSE", "state": "NY", "street": "333 E ONONDAGA ST", "postcode": "13202"}}},
{"geometry": {"type": "Point", "coordinates": [-76.1522891664, 43.0443903872]}, "type": "Feature", "properties": {"collection_times": [{"days": "Mon-Fri", "time": "4:00pm"}, {"days": "Sat", "time": "10:00am"}, {"days": "Sun", "time": "Closed"}], "id": "1320200059", "name": "USPS COLLECTION BOX - BLUE BOX", "address": {"city": "SYRACUSE", "state": "NY", "street": "500 S SALINA ST", "postcode": "13202"}}},
{"geometry": {"type": "Point", "coordinates": [-76.1522577477, 43.0483193501]}, "type": "Feature", "properties": {"collection_times": [{"days": "Mon-Sat", "time": "9:00am"}, {"days": "Sun", "time": "Closed"}], "id": "1320200060", "name": "USPS COLLECTION BOX - BLUE BOX", "address": {"city": "SYRACUSE", "state": "NY", "street": "306 S SALINA ST", "postcode": "13202"}}},
{"geometry": {"type": "Point", "coordinates": [-76.1529759816, 43.0471032298]}, "type": "Feature", "properties": {"collection_times": [{"days": "Mon-Sat", "time": "9:00am"}, {"days": "Sun", "time": "Closed"}], "id": "1320200061", "name": "USPS COLLECTION BOX - BLUE BOX", "address": {"city": "SYRACUSE", "state": "NY", "street": "108 W JEFFERSON ST", "postcode": "13202"}}},
{"geometry": {"type": "Point", "coordinates": [-76.1521530802, 43.0470860026]}, "type": "Feature", "properties": {"collection_times": [{"days": "Mon-Fri", "time": "5:00pm"}, {"days": "Sat", "time": "10:00am"}, {"days": "Sun", "time": "Closed"}], "id": "1320200063", "name": "USPS COLLECTION BOX - BLUE BOX", "address": {"city": "SYRACUSE", "state": "NY", "street": "399 S SALINA ST", "postcode": "13202"}}},
{"geometry": {"type": "Point", "coordinates": [-76.1521530802, 43.0470860026]}, "type": "Feature", "properties": {"collection_times": [{"days": "Mon-Fri", "time": "5:00pm"}, {"days": "Sat", "time": "10:00am"}, {"days": "Sun", "time": "Closed"}], "id": "1320200064", "name": "USPS COLLECTION BOX - BLUE BOX", "address": {"city": "SYRACUSE", "state": "NY", "street": "399 S SALINA ST", "postcode": "13202"}}},
{"geometry": {"type": "Point", "coordinates": [-76.1500000898, 43.0442377773]}, "type": "Feature", "properties": {"collection_times": [{"days": "Mon-Fri", "time": "4:30pm"}, {"days": "Sat", "time": "9:00am"}, {"days": "Sun", "time": "Closed"}], "id": "1320200066", "name": "USPS COLLECTION BOX - BLUE BOX", "address": {"city": "SYRACUSE", "state": "NY", "street": "224 HARRISON ST", "postcode": "13202"}}},
{"geometry": {"type": "Point", "coordinates": [-76.1521397039, 43.0487133219]}, "type": "Feature", "properties": {"collection_times": [{"days": "Mon-Fri", "time": "5:00pm"}, {"days": "Sat", "time": "10:00am"}, {"days": "Sun", "time": "Closed"}], "id": "1320200069", "name": "USPS COLLECTION BOX - BLUE BOX", "address": {"city": "SYRACUSE", "state": "NY", "street": "299 S SALINA ST", "postcode": "13202"}}},
{"geometry": {"type": "Point", "coordinates": [-76.1521397039, 43.0487133219]}, "type": "Feature", "properties": {"collection_times": [{"days": "Mon-Fri", "time": "5:00pm"}, {"days": "Sat", "time": "10:00am"}, {"days": "Sun", "time": "Closed"}], "id": "1320200070", "name": "USPS COLLECTION BOX - BLUE BOX", "address": {"city": "SYRACUSE", "state": "NY", "street": "299 S SALINA ST", "postcode": "13202"}}},
{"geometry": {"type": "Point", "coordinates": [-76.1475822371, 43.0426880064]}, "type": "Feature", "properties": {"collection_times": [{"days": "Mon-Sat", "time": "10:00am"}, {"days": "Sun", "time": "Closed"}], "id": "1320200073", "name": "USPS COLLECTION BOX - BLUE BOX", "address": {"city": "SYRACUSE", "state": "NY", "street": "398 W ADAMS ST", "postcode": "13202"}}},
{"geometry": {"type": "Point", "coordinates": [-76.1523223113, 43.0459093835]}, "type": "Feature", "properties": {"collection_times": [{"days": "Mon-Sat", "time": "6:30pm"}, {"days": "Sun", "time": "Closed"}], "id": "1320200079", "name": "USPS COLLECTION BOX - BLUE BOX", "address": {"city": "SYRACUSE", "state": "NY", "street": "444 S SALINA ST", "postcode": "13202"}}},
{"geometry": {"type": "Point", "coordinates": [-76.191895, 43.052185]}, "type": "Feature", "properties": {"collection_times": [{"days": "Mon-Fri", "time": "5:00pm"}, {"days": "Sat", "time": "9:00am"}, {"days": "Sun", "time": "Closed"}], "id": "1320200080", "name": "USPS COLLECTION BOX - BLUE BOX", "address": {"city": "SYRACUSE", "state": "NY", "street": "298 ERIE ST", "postcode": "13202"}}},
{"geometry": {"type": "Point", "coordinates": [-76.149356996, 43.0484477681]}, "type": "Feature", "properties": {"collection_times": [{"days": "Mon-Fri", "time": "4:00pm"}, {"days": "Sat", "time": "9:00am"}, {"days": "Sun", "time": "Closed"}], "id": "1320200095", "name": "USPS COLLECTION BOX - BLUE BOX", "address": {"city": "SYRACUSE", "state": "NY", "street": "310 MONTGOMERY ST", "postcode": "13202"}}},
{"geometry": {"type": "Point", "coordinates": [-76.1555695763, 43.0480236384]}, "type": "Feature", "properties": {"collection_times": [{"days": "Mon-Fri", "time": "5:00pm"}, {"days": "Sat", "time": "10:00am"}, {"days": "Sun", "time": "Closed"}], "id": "1320200096", "name": "USPS COLLECTION BOX - BLUE BOX", "address": {"city": "SYRACUSE", "state": "NY", "street": "200 WALTON ST", "postcode": "13202"}}},
{"geometry": {"type": "Point", "coordinates": [-76.1544894566, 43.0486426998]}, "type": "Feature", "properties": {"collection_times": [{"days": "Mon-Fri", "time": "5:00pm"}, {"days": "Sat", "time": "9:00am"}, {"days": "Sun", "time": "Closed"}], "id": "1320200100", "name": "USPS COLLECTION BOX - BLUE BOX", "address": {"city": "SYRACUSE", "state": "NY", "street": "247 W FAYETTE ST", "postcode": "13202"}}},
{"geometry": {"type": "Point", "coordinates": [-76.1508711538, 43.0463876289]}, "type": "Feature", "properties": {"collection_times": [{"days": "Mon-Fri", "time": "4:30pm"}, {"days": "Sat", "time": "10:00am"}, {"days": "Sun", "time": "Closed"}], "id": "1320200101", "name": "USPS COLLECTION BOX - BLUE BOX", "address": {"city": "SYRACUSE", "state": "NY", "street": "440 S WARREN ST", "postcode": "13202"}}},
{"geometry": {"type": "Point", "coordinates": [-76.142219703, 43.0471203235]}, "type": "Feature", "properties": {"collection_times": [{"days": "Mon-Fri", "time": "5:00pm"}, {"days": "Sat-Sun", "time": "Closed"}], "id": "1320200124", "name": "USPS COLLECTION BOX - BLUE BOX", "address": {"city": "SYRACUSE", "state": "NY", "street": "100 E GENESEE ST", "postcode": "13202"}}},
{"geometry": {"type": "Point", "coordinates": [-76.153610743, 43.0505189917]}, "type": "Feature", "properties": {"collection_times": [{"days": "Mon-Fri", "time": "4:30pm"}, {"days": "Sat-Sun", "time": "Closed"}], "id": "1320200125", "name": "USPS COLLECTION BOX - BLUE BOX", "address": {"city": "SYRACUSE", "state": "NY", "street": "100 S CLINTON ST", "postcode": "13202"}}},
{"geometry": {"type": "Point", "coordinates": [-76.153610743, 43.0505189917]}, "type": "Feature", "properties": {"collection_times": [{"days": "Mon-Fri", "time": "4:30pm"}, {"days": "Sat-Sun", "time": "Closed"}], "id": "1320200127", "name": "USPS COLLECTION BOX - BLUE BOX", "address": {"city": "SYRACUSE", "state": "NY", "street": "100 S CLINTON ST", "postcode": "13202"}}},
{"geometry": {"type": "Point", "coordinates": [-76.1523223113, 43.0459093835]}, "type": "Feature", "properties": {"collection_times": [{"days": "Mon-Fri", "time": "5:00pm"}, {"days": "Sat", "time": "12:00pm"}, {"days": "Sun", "time": "Closed"}], "id": "1320200128", "name": "USPS COLLECTION BOX - PO LOBBY", "address": {"city": "SYRACUSE", "state": "NY", "street": "444 S SALINA ST", "postcode": "13202"}}},
{"geometry": {"type": "Point", "coordinates": [-76.1513789253, 43.0495172136]}, "type": "Feature", "properties": {"collection_times": [{"days": "Mon-Fri", "time": "5:00pm"}, {"days": "Sat-Sun", "time": "Closed"}], "id": "1320200132", "name": "USPS COLLECTION BOX - BLUE BOX", "address": {"city": "SYRACUSE", "state": "NY", "street": "120 E WASHINGTON ST", "postcode": "13202"}}},
{"geometry": {"type": "Point", "coordinates": [-76.1487270247, 43.0464831003]}, "type": "Feature", "properties": {"collection_times": [{"days": "Mon-Fri", "time": "4:00pm"}, {"days": "Sat", "time": "10:00am"}, {"days": "Sun", "time": "Closed"}], "id": "1320200134", "name": "USPS COLLECTION BOX - BLUE BOX", "address": {"city": "SYRACUSE", "state": "NY", "street": "421 MONTGOMERY ST", "postcode": "13202"}}},
{"geometry": {"type": "Point", "coordinates": [-76.1508711538, 43.0463876289]}, "type": "Feature", "properties": {"collection_times": [{"days": "Mon-Fri", "time": "4:30pm"}, {"days": "Sat", "time": "10:00am"}, {"days": "Sun", "time": "Closed"}], "id": "1320200135", "name": "USPS COLLECTION BOX - BLUE BOX", "address": {"city": "SYRACUSE", "state": "NY", "street": "440 S WARREN ST", "postcode": "13202"}}},
{"geometry": {"type": "Point", "coordinates": [-76.1455886567, 43.0486568538]}, "type": "Feature", "properties": {"collection_times": [{"days": "Mon-Fri", "time": "5:00pm"}, {"days": "Sat", "time": "9:00am"}, {"days": "Sun", "time": "Closed"}], "id": "1320200137", "name": "USPS COLLECTION BOX - BLUE BOX", "address": {"city": "SYRACUSE", "state": "NY", "street": "501 E FAYETTE ST", "postcode": "13202"}}},
{"geometry": {"type": "Point", "coordinates": [-76.1535065089, 43.0456925091]}, "type": "Feature", "properties": {"collection_times": [{"days": "Mon-Sat", "time": "6:30pm"}, {"days": "Sun", "time": "Closed"}], "id": "1320200138", "name": "USPS COLLECTION BOX - BLUE BOX", "address": {"city": "SYRACUSE", "state": "NY", "street": "551 S CLINTON ST", "postcode": "13202"}}},
{"geometry": {"type": "Point", "coordinates": [-76.1523223113, 43.0459093835]}, "type": "Feature", "properties": {"collection_times": [{"days": "Mon-Fri", "time": "5:00pm"}, {"days": "Sat", "time": "12:00pm"}, {"days": "Sun", "time": "Closed"}], "id": "1320200139", "name": "USPS COLLECTION BOX - PO LOBBY", "address": {"city": "SYRACUSE", "state": "NY", "street": "444 S SALINA ST", "postcode": "13202"}}},
{"geometry": {"type": "Point", "coordinates": [-76.1520945599, 43.0513503834]}, "type": "Feature", "properties": {"collection_times": [{"days": "Mon-Fri", "time": "5:00pm"}, {"days": "Sat", "time": "10:00am"}, {"days": "Sun", "time": "Closed"}], "id": "1320200140", "name": "USPS COLLECTION BOX - BLUE BOX", "address": {"city": "SYRACUSE", "state": "NY", "street": "110 N SALINA ST", "postcode": "13202"}}},
{"geometry": {"type": "Point", "coordinates": [-76.142219703, 43.0471203235]}, "type": "Feature", "properties": {"collection_times": [{"days": "Mon-Fri", "time": "5:00pm"}, {"days": "Sat-Sun", "time": "Closed"}], "id": "1320200141", "name": "USPS COLLECTION BOX - BLUE BOX", "address": {"city": "SYRACUSE", "state": "NY", "street": "100 E GENESEE ST", "postcode": "13202"}}},
{"geometry": {"type": "Point", "coordinates": [-76.1513789253, 43.0495172136]}, "type": "Feature", "properties": {"collection_times": [{"days": "Mon-Fri", "time": "5:00pm"}, {"days": "Sat-Sun", "time": "Closed"}], "id": "1320200142", "name": "USPS COLLECTION BOX - BLUE BOX", "address": {"city": "SYRACUSE", "state": "NY", "street": "120 E WASHINGTON ST", "postcode": "13202"}}},
{"geometry": {"type": "Point", "coordinates": [-76.1507370555, 43.0467639577]}, "type": "Feature", "properties": {"collection_times": [{"days": "Mon-Fri", "time": "5:00pm"}, {"days": "Sat", "time": "9:00am"}, {"days": "Sun", "time": "Closed"}], "id": "1320200143", "name": "USPS COLLECTION BOX - EXPRESS", "address": {"city": "SYRACUSE", "state": "NY", "street": "501 E WASHINGTON ST", "postcode": "13202"}}},
{"geometry": {"type": "Point", "coordinates": [-76.1493355416, 43.0556864876]}, "type": "Feature", "properties": {"collection_times": [{"days": "Mon-Fri", "time": "4:00pm"}, {"days": "Sat", "time": "10:00am"}, {"days": "Sun", "time": "Closed"}], "id": "1320300002", "name": "USPS COLLECTION BOX - BLUE BOX", "address": {"city": "SYRACUSE", "state": "NY", "street": "301 PROSPECT AVE", "postcode": "13203"}}},
{"geometry": {"type": "Point", "coordinates": [-76.1364512009, 43.0583223714]}, "type": "Feature", "properties": {"collection_times": [{"days": "Mon-Sat", "time": "10:00am"}, {"days": "Sun", "time": "Closed"}], "id": "1320300005", "name": "USPS COLLECTION BOX - BLUE BOX", "address": {"city": "SYRACUSE", "state": "NY", "street": "953 JAMES ST", "postcode": "13203"}}},
{"geometry": {"type": "Point", "coordinates": [-76.1396068071, 43.0567792563]}, "type": "Feature", "properties": {"collection_times": [{"days": "Mon-Sat", "time": "10:00am"}, {"days": "Sun", "time": "Closed"}], "id": "1320300006", "name": "USPS COLLECTION BOX - BLUE BOX", "address": {"city": "SYRACUSE", "state": "NY", "street": "847 JAMES ST", "postcode": "13203"}}},
{"geometry": {"type": "Point", "coordinates": [-76.1313631891, 43.0608199606]}, "type": "Feature", "properties": {"collection_times": [{"days": "Mon-Sat", "time": "10:00am"}, {"days": "Sun", "time": "Closed"}], "id": "1320300009", "name": "USPS COLLECTION BOX - BLUE BOX", "address": {"city": "SYRACUSE", "state": "NY", "street": "1101 JAMES ST", "postcode": "13203"}}},
{"geometry": {"type": "Point", "coordinates": [-76.1274872982, 43.0526821014]}, "type": "Feature", "properties": {"collection_times": [{"days": "Mon-Sat", "time": "9:00am"}, {"days": "Sun", "time": "Closed"}], "id": "1320300011", "name": "USPS COLLECTION BOX - BLUE BOX", "address": {"city": "SYRACUSE", "state": "NY", "street": "900 BURNET AVE", "postcode": "13203"}}},
{"geometry": {"type": "Point", "coordinates": [-76.1521467744, 43.0560999561]}, "type": "Feature", "properties": {"collection_times": [{"days": "Mon-Sat", "time": "10:00am"}, {"days": "Sun", "time": "Closed"}], "id": "1320300012", "name": "USPS COLLECTION BOX - BLUE BOX", "address": {"city": "SYRACUSE", "state": "NY", "street": "401 N SALINA ST", "postcode": "13203"}}},
{"geometry": {"type": "Point", "coordinates": [-76.129246451, 43.0630291145]}, "type": "Feature", "properties": {"collection_times": [{"days": "Mon-Sat", "time": "10:00am"}, {"days": "Sun", "time": "Closed"}], "id": "1320300017", "name": "USPS COLLECTION BOX - BLUE BOX", "address": {"city": "SYRACUSE", "state": "NY", "street": "108 SEDGWICK DR", "postcode": "13203"}}},
{"geometry": {"type": "Point", "coordinates": [-76.1418904777, 43.0555251906]}, "type": "Feature", "properties": {"collection_times": [{"days": "Mon-Sat", "time": "10:00am"}, {"days": "Sun", "time": "Closed"}], "id": "1320300023", "name": "USPS COLLECTION BOX - BLUE BOX", "address": {"city": "SYRACUSE", "state": "NY", "street": "742 JAMES ST", "postcode": "13203"}}},
{"geometry": {"type": "Point", "coordinates": [-76.143774198, 43.0546008971]}, "type": "Feature", "properties": {"collection_times": [{"days": "Mon-Fri", "time": "4:30pm"}, {"days": "Sat", "time": "10:00am"}, {"days": "Sun", "time": "Closed"}], "id": "1320300028", "name": "USPS COLLECTION BOX - BLUE BOX", "address": {"city": "SYRACUSE", "state": "NY", "street": "650 JAMES ST", "postcode": "13203"}}},
{"geometry": {"type": "Point", "coordinates": [-76.1454757321, 43.0539001703]}, "type": "Feature", "properties": {"collection_times": [{"days": "Mon-Sat", "time": "10:00am"}, {"days": "Sun", "time": "Closed"}], "id": "1320300029", "name": "USPS COLLECTION BOX - BLUE BOX", "address": {"city": "SYRACUSE", "state": "NY", "street": "537 JAMES ST", "postcode": "13203"}}},
{"geometry": {"type": "Point", "coordinates": [-76.1300977093, 43.0726557119]}, "type": "Feature", "properties": {"collection_times": [{"days": "Mon-Sat", "time": "10:00am"}, {"days": "Sun", "time": "Closed"}], "id": "1320300031", "name": "USPS COLLECTION BOX - BLUE BOX", "address": {"city": "SYRACUSE", "state": "NY", "street": "1003 GRANT BLVD", "postcode": "13203"}}},
{"geometry": {"type": "Point", "coordinates": [-76.1331685563, 43.0687491399]}, "type": "Feature", "properties": {"collection_times": [{"days": "Mon-Sat", "time": "10:00am"}, {"days": "Sun", "time": "Closed"}], "id": "1320300032", "name": "USPS COLLECTION BOX - BLUE BOX", "address": {"city": "SYRACUSE", "state": "NY", "street": "523 SEDGWICK DR", "postcode": "13203"}}},
{"geometry": {"type": "Point", "coordinates": [-76.1493355416, 43.0556864876]}, "type": "Feature", "properties": {"collection_times": [{"days": "Mon-Fri", "time": "4:00pm"}, {"days": "Sat", "time": "10:00am"}, {"days": "Sun", "time": "Closed"}], "id": "1320300034", "name": "USPS COLLECTION BOX - BLUE BOX", "address": {"city": "SYRACUSE", "state": "NY", "street": "301 PROSPECT AVE", "postcode": "13203"}}},
{"geometry": {"type": "Point", "coordinates": [-76.1242127667, 43.07137226]}, "type": "Feature", "properties": {"collection_times": [{"days": "Mon-Sat", "time": "10:00am"}, {"days": "Sun", "time": "Closed"}], "id": "1320300037", "name": "USPS COLLECTION BOX - BLUE BOX", "address": {"city": "SYRACUSE", "state": "NY", "street": "100 FORDHAM RD", "postcode": "13203"}}},
{"geometry": {"type": "Point", "coordinates": [-76.1349333591, 43.0597129776]}, "type": "Feature", "properties": {"collection_times": [{"days": "Mon-Sat", "time": "10:00am"}, {"days": "Sun", "time": "Closed"}], "id": "1320300039", "name": "USPS COLLECTION BOX - BLUE BOX", "address": {"city": "SYRACUSE", "state": "NY", "street": "530 OAK ST", "postcode": "13203"}}},
{"geometry": {"type": "Point", "coordinates": [-76.1339283224, 43.0595237058]}, "type": "Feature", "properties": {"collection_times": [{"days": "Mon-Fri", "time": "4:30pm"}, {"days": "Sat", "time": "10:00am"}, {"days": "Sun", "time": "Closed"}], "id": "1320300041", "name": "USPS COLLECTION BOX - BLUE BOX", "address": {"city": "SYRACUSE", "state": "NY", "street": "1010 JAMES ST", "postcode": "13203"}}},
{"geometry": {"type": "Point", "coordinates": [-76.130320953, 43.0561507283]}, "type": "Feature", "properties": {"collection_times": [{"days": "Mon-Sat", "time": "10:00am"}, {"days": "Sun", "time": "Closed"}], "id": "1320300043", "name": "USPS COLLECTION BOX - BLUE BOX", "address": {"city": "SYRACUSE", "state": "NY", "street": "430 ELM ST", "postcode": "13203"}}},
{"geometry": {"type": "Point", "coordinates": [-76.143774198, 43.0546008971]}, "type": "Feature", "properties": {"collection_times": [{"days": "Mon-Fri", "time": "4:30pm"}, {"days": "Sat", "time": "10:00am"}, {"days": "Sun", "time": "Closed"}], "id": "1320300049", "name": "USPS COLLECTION BOX - BLUE BOX", "address": {"city": "SYRACUSE", "state": "NY", "street": "650 JAMES ST", "postcode": "13203"}}},
{"geometry": {"type": "Point", "coordinates": [-76.1357467582, 43.058535248]}, "type": "Feature", "properties": {"collection_times": [{"days": "Mon-Fri", "time": "4:30pm"}, {"days": "Sat", "time": "10:00am"}, {"days": "Sun", "time": "Closed"}], "id": "1320300050", "name": "USPS COLLECTION BOX - BLUE BOX", "address": {"city": "SYRACUSE", "state": "NY", "street": "968 JAMES ST", "postcode": "13203"}}},
{"geometry": {"type": "Point", "coordinates": [-76.1418463339, 43.0533638999]}, "type": "Feature", "properties": {"collection_times": [{"days": "Mon-Sat", "time": "10:00am"}, {"days": "Sun", "time": "Closed"}], "id": "1320300051", "name": "USPS COLLECTION BOX - BLUE BOX", "address": {"city": "SYRACUSE", "state": "NY", "street": "307 HAWLEY AVE", "postcode": "13203"}}},
{"geometry": {"type": "Point", "coordinates": [-76.1393879011, 43.0581609072]}, "type": "Feature", "properties": {"collection_times": [{"days": "Mon-Sat", "time": "10:00am"}, {"days": "Sun", "time": "Closed"}], "id": "1320300054", "name": "USPS COLLECTION BOX - EXPRESS", "address": {"city": "SYRACUSE", "state": "NY", "street": "731 JAMES ST", "postcode": "13203"}}},
{"geometry": {"type": "Point", "coordinates": [-76.1422885811, 43.0554610483]}, "type": "Feature", "properties": {"collection_times": [{"days": "Mon-Sat", "time": "10:00am"}, {"days": "Sun", "time": "Closed"}], "id": "1320300055", "name": "USPS COLLECTION BOX - BLUE BOX", "address": {"city": "SYRACUSE", "state": "NY", "street": "731 JAMES ST", "postcode": "13203"}}},
{"geometry": {"type": "Point", "coordinates": [-76.1377920462, 43.0575337598]}, "type": "Feature", "properties": {"collection_times": [{"days": "Mon-Fri", "time": "3:00pm"}, {"days": "Sat", "time": "10:00am"}, {"days": "Sun", "time": "Closed"}], "id": "1320300056", "name": "USPS COLLECTION BOX - BLUE BOX", "address": {"city": "SYRACUSE", "state": "NY", "street": "918 JAMES ST", "postcode": "13203"}}},
{"geometry": {"type": "Point", "coordinates": [-76.1371950733, 43.0579581964]}, "type": "Feature", "properties": {"collection_times": [{"days": "Mon-Sat", "time": "10:00am"}, {"days": "Sun", "time": "Closed"}], "id": "1320300057", "name": "USPS COLLECTION BOX - BLUE BOX", "address": {"city": "SYRACUSE", "state": "NY", "street": "935 JAMES ST", "postcode": "13203"}}},
{"geometry": {"type": "Point", "coordinates": [-76.1495929055, 43.0530303406]}, "type": "Feature", "properties": {"collection_times": [{"days": "Mon-Fri", "time": "5:00pm"}, {"days": "Sat", "time": "10:00am"}, {"days": "Sun", "time": "Closed"}], "id": "1320300058", "name": "USPS COLLECTION BOX - BLUE BOX", "address": {"city": "SYRACUSE", "state": "NY", "street": "313 E WILLOW ST", "postcode": "13203"}}},
{"geometry": {"type": "Point", "coordinates": [-76.1339283224, 43.0595237058]}, "type": "Feature", "properties": {"collection_times": [{"days": "Mon-Fri", "time": "4:30pm"}, {"days": "Sat", "time": "10:00am"}, {"days": "Sun", "time": "Closed"}], "id": "1320300059", "name": "USPS COLLECTION BOX - EXPRESS", "address": {"city": "SYRACUSE", "state": "NY", "street": "1010 JAMES ST", "postcode": "13203"}}},
{"geometry": {"type": "Point", "coordinates": [-76.1601338393, 43.0533474072]}, "type": "Feature", "properties": {"collection_times": [{"days": "Mon-Fri", "time": "4:00pm"}, {"days": "Sat", "time": "9:00am"}, {"days": "Sun", "time": "Closed"}], "id": "1320400003", "name": "USPS COLLECTION BOX - BLUE BOX", "address": {"city": "SYRACUSE", "state": "NY", "street": "601 W GENESEE ST", "postcode": "13204"}}},
{"geometry": {"type": "Point", "coordinates": [-76.1916896395, 43.0509548856]}, "type": "Feature", "properties": {"collection_times": [{"days": "Mon-Sat", "time": "9:30am"}, {"days": "Sun", "time": "Closed"}], "id": "1320400007", "name": "USPS COLLECTION BOX - BLUE BOX", "address": {"city": "SYRACUSE", "state": "NY", "street": "1819 W GENESEE ST", "postcode": "13204"}}},
{"geometry": {"type": "Point", "coordinates": [-76.1708531342, 43.0520213483]}, "type": "Feature", "properties": {"collection_times": [{"days": "Mon-Sat", "time": "10:00am"}, {"days": "Sun", "time": "Closed"}], "id": "1320400019", "name": "USPS COLLECTION BOX - BLUE BOX", "address": {"city": "SYRACUSE", "state": "NY", "street": "700 PARK AVE", "postcode": "13204"}}},
{"geometry": {"type": "Point", "coordinates": [-76.1796384335, 43.0522980205]}, "type": "Feature", "properties": {"collection_times": [{"days": "Mon-Sat", "time": "10:00am"}, {"days": "Sun", "time": "Closed"}], "id": "1320400020", "name": "USPS COLLECTION BOX - BLUE BOX", "address": {"city": "SYRACUSE", "state": "NY", "street": "1001 PARK AVE", "postcode": "13204"}}},
{"geometry": {"type": "Point", "coordinates": [-76.1836532985, 43.0521860188]}, "type": "Feature", "properties": {"collection_times": [{"days": "Mon-Sat", "time": "9:00am"}, {"days": "Sun", "time": "Closed"}], "id": "1320400028", "name": "USPS COLLECTION BOX - BLUE BOX", "address": {"city": "SYRACUSE", "state": "NY", "street": "1510 W GENESEE ST", "postcode": "13204"}}},
{"geometry": {"type": "Point", "coordinates": [-76.1829379909, 43.0493760964]}, "type": "Feature", "properties": {"collection_times": [{"days": "Mon-Sat", "time": "9:30am"}, {"days": "Sun", "time": "Closed"}], "id": "1320400029", "name": "USPS COLLECTION BOX - BLUE BOX", "address": {"city": "SYRACUSE", "state": "NY", "street": "216 N LOWELL AVE", "postcode": "13204"}}},
{"geometry": {"type": "Point", "coordinates": [-76.1894931362, 43.0465432203]}, "type": "Feature", "properties": {"collection_times": [{"days": "Mon-Sat", "time": "12:00pm"}, {"days": "Sun", "time": "Closed"}], "id": "1320400030", "name": "USPS COLLECTION BOX - BLUE BOX", "address": {"city": "SYRACUSE", "state": "NY", "street": "619 ULSTER ST", "postcode": "13204"}}},
{"geometry": {"type": "Point", "coordinates": [-76.1894093922, 43.0440973987]}, "type": "Feature", "properties": {"collection_times": [{"days": "Mon-Sat", "time": "9:00am"}, {"days": "Sun", "time": "Closed"}], "id": "1320400031", "name": "USPS COLLECTION BOX - BLUE BOX", "address": {"city": "SYRACUSE", "state": "NY", "street": "207 S AVERY AVE", "postcode": "13204"}}},
{"geometry": {"type": "Point", "coordinates": [-76.1820271658, 43.0594266004]}, "type": "Feature", "properties": {"collection_times": [{"days": "Mon-Sat", "time": "10:00am"}, {"days": "Sun", "time": "Closed"}], "id": "1320400034", "name": "USPS COLLECTION BOX - BLUE BOX", "address": {"city": "SYRACUSE", "state": "NY", "street": "512 STATE FAIR BLVD", "postcode": "13204"}}},
{"geometry": {"type": "Point", "coordinates": [-76.1595754405, 43.0557267718]}, "type": "Feature", "properties": {"collection_times": [{"days": "Mon-Fri", "time": "5:00pm"}, {"days": "Sat", "time": "9:00am"}, {"days": "Sun", "time": "Closed"}], "id": "1320400035", "name": "USPS COLLECTION BOX - BLUE BOX", "address": {"city": "SYRACUSE", "state": "NY", "street": "507 PLUM ST", "postcode": "13204"}}},
{"geometry": {"type": "Point", "coordinates": [-76.1645431051, 43.0344983603]}, "type": "Feature", "properties": {"collection_times": [{"days": "Mon-Sat", "time": "9:00am"}, {"days": "Sun", "time": "Closed"}], "id": "1320400037", "name": "USPS COLLECTION BOX - BLUE BOX", "address": {"city": "SYRACUSE", "state": "NY", "street": "125 ONONDAGA AVE", "postcode": "13204"}}},
{"geometry": {"type": "Point", "coordinates": [-76.1589586095, 43.0434717634]}, "type": "Feature", "properties": {"collection_times": [{"days": "Mon-Sat", "time": "8:30am"}, {"days": "Sun", "time": "Closed"}], "id": "1320400044", "name": "USPS COLLECTION BOX - BLUE BOX", "address": {"city": "SYRACUSE", "state": "NY", "street": "312 GIFFORD ST", "postcode": "13204"}}},
{"geometry": {"type": "Point", "coordinates": [-76.1691701635, 43.0461833802]}, "type": "Feature", "properties": {"collection_times": [{"days": "Mon-Fri", "time": "3:30pm"}, {"days": "Sat-Sun", "time": "Closed"}], "id": "1320400056", "name": "USPS COLLECTION BOX - BLUE BOX", "address": {"city": "SYRACUSE", "state": "NY", "street": "1005 W FAYETTE ST", "postcode": "13204"}}},
{"geometry": {"type": "Point", "coordinates": [-76.1805791756, 43.046648317]}, "type": "Feature", "properties": {"collection_times": [{"days": "Mon-Sat", "time": "9:00am"}, {"days": "Sun", "time": "Closed"}], "id": "1320400057", "name": "USPS COLLECTION BOX - BLUE BOX", "address": {"city": "SYRACUSE", "state": "NY", "street": "301 S LOWELL AVE", "postcode": "13204"}}},
{"geometry": {"type": "Point", "coordinates": [-76.1636911641, 43.0492479749]}, "type": "Feature", "properties": {"collection_times": [{"days": "Mon-Fri", "time": "4:00pm"}, {"days": "Sat-Sun", "time": "Closed"}], "id": "1320400059", "name": "USPS COLLECTION BOX - BLUE BOX", "address": {"city": "SYRACUSE", "state": "NY", "street": "615 ERIE BLVD W", "postcode": "13204"}}},
{"geometry": {"type": "Point", "coordinates": [-76.1592003705, 43.0559967326]}, "type": "Feature", "properties": {"collection_times": [{"days": "Mon-Fri", "time": "5:00pm"}, {"days": "Sat", "time": "9:00am"}, {"days": "Sun", "time": "Closed"}], "id": "1320400061", "name": "USPS COLLECTION BOX - BLUE BOX", "address": {"city": "SYRACUSE", "state": "NY", "street": "528 PLUM ST", "postcode": "13204"}}},
{"geometry": {"type": "Point", "coordinates": [-76.1600914383, 43.0581735191]}, "type": "Feature", "properties": {"collection_times": [{"days": "Mon-Fri", "time": "6:30pm"}, {"days": "Sat", "time": "6:00pm"}, {"days": "Sun", "time": "Closed"}], "id": "1320400062", "name": "USPS COLLECTION BOX - BLUE BOX", "address": {"city": "SYRACUSE", "state": "NY", "street": "401 W DIVISION ST", "postcode": "13204"}}},
{"geometry": {"type": "Point", "coordinates": [-76.1600914383, 43.0581735191]}, "type": "Feature", "properties": {"collection_times": [{"days": "Mon-Fri", "time": "4:30pm"}, {"days": "Sat", "time": "1:00pm"}, {"days": "Sun", "time": "Closed"}], "id": "1320400063", "name": "USPS COLLECTION BOX - PO LOBBY", "address": {"city": "SYRACUSE", "state": "NY", "street": "401 W DIVISION ST", "postcode": "13204"}}},
{"geometry": {"type": "Point", "coordinates": [-76.1600914383, 43.0581735191]}, "type": "Feature", "properties": {"collection_times": [{"days": "Mon-Fri", "time": "4:30pm"}, {"days": "Sat", "time": "1:00pm"}, {"days": "Sun", "time": "Closed"}], "id": "1320400064", "name": "USPS COLLECTION BOX - PO LOBBY", "address": {"city": "SYRACUSE", "state": "NY", "street": "401 W DIVISION ST", "postcode": "13204"}}},
{"geometry": {"type": "Point", "coordinates": [-76.1605920644, 43.0500974217]}, "type": "Feature", "properties": {"collection_times": [{"days": "Mon-Sat", "time": "9:00am"}, {"days": "Sun", "time": "Closed"}], "id": "1320400065", "name": "USPS COLLECTION BOX - BLUE BOX", "address": {"city": "SYRACUSE", "state": "NY", "street": "500 ERIE BLVD W", "postcode": "13204"}}},
{"geometry": {"type": "Point", "coordinates": [-76.1691013538, 43.0462003146]}, "type": "Feature", "properties": {"collection_times": [{"days": "Mon-Fri", "time": "3:30pm"}, {"days": "Sat-Sun", "time": "Closed"}], "id": "1320400066", "name": "USPS COLLECTION BOX - BLUE BOX", "address": {"city": "SYRACUSE", "state": "NY", "street": "1001 W FAYETTE ST", "postcode": "13204"}}},
{"geometry": {"type": "Point", "coordinates": [-76.1725233091, 43.0398797724]}, "type": "Feature", "properties": {"collection_times": [{"days": "Mon-Sat", "time": "9:30am"}, {"days": "Sun", "time": "Closed"}], "id": "1320400067", "name": "USPS COLLECTION BOX - BLUE BOX", "address": {"city": "SYRACUSE", "state": "NY", "street": "814 S GEDDES ST", "postcode": "13204"}}},
{"geometry": {"type": "Point", "coordinates": [-76.1595754405, 43.0557267718]}, "type": "Feature", "properties": {"collection_times": [{"days": "Mon-Fri", "time": "5:00pm"}, {"days": "Sat", "time": "9:00am"}, {"days": "Sun", "time": "Closed"}], "id": "1320400068", "name": "USPS COLLECTION BOX - BLUE BOX", "address": {"city": "SYRACUSE", "state": "NY", "street": "507 PLUM ST", "postcode": "13204"}}},
{"geometry": {"type": "Point", "coordinates": [-76.1425846233, 43.008478379]}, "type": "Feature", "properties": {"collection_times": [{"days": "Mon-Fri", "time": "6:30pm"}, {"days": "Sat", "time": "9:00am"}, {"days": "Sun", "time": "Closed"}], "id": "1320500002", "name": "USPS COLLECTION BOX - BLUE BOX", "address": {"city": "SYRACUSE", "state": "NY", "street": "4141 S SALINA ST", "postcode": "13205"}}},
{"geometry": {"type": "Point", "coordinates": [-76.1451827371, 43.0252149474]}, "type": "Feature", "properties": {"collection_times": [{"days": "Mon-Fri", "time": "5:00pm"}, {"days": "Sat", "time": "1:00pm"}, {"days": "Sun", "time": "Closed"}], "id": "1320500003", "name": "USPS COLLECTION BOX - BLUE BOX", "address": {"city": "SYRACUSE", "state": "NY", "street": "2200 S SALINA ST", "postcode": "13205"}}},
{"geometry": {"type": "Point", "coordinates": [-76.1451827371, 43.0252149474]}, "type": "Feature", "properties": {"collection_times": [{"days": "Mon-Fri", "time": "5:00pm"}, {"days": "Sat", "time": "1:00pm"}, {"days": "Sun", "time": "Closed"}], "id": "1320500004", "name": "USPS COLLECTION BOX - BLUE BOX", "address": {"city": "SYRACUSE", "state": "NY", "street": "2200 S SALINA ST", "postcode": "13205"}}},
{"geometry": {"type": "Point", "coordinates": [-76.1285649665, 43.0035426658]}, "type": "Feature", "properties": {"collection_times": [{"days": "Mon-Fri", "time": "3:00pm"}, {"days": "Sat", "time": "9:00am"}, {"days": "Sun", "time": "Closed"}], "id": "1320500006", "name": "USPS COLLECTION BOX - BLUE BOX", "address": {"city": "SYRACUSE", "state": "NY", "street": "101 INTREPID LN", "postcode": "13205"}}},
{"geometry": {"type": "Point", "coordinates": [-76.1310625659, 43.004895291]}, "type": "Feature", "properties": {"collection_times": [{"days": "Mon-Fri", "time": "3:00pm"}, {"days": "Sat", "time": "9:00am"}, {"days": "Sun", "time": "Closed"}], "id": "1320500007", "name": "USPS COLLECTION BOX - BLUE BOX", "address": {"city": "SYRACUSE", "state": "NY", "street": "892 E BRIGHTON AVE", "postcode": "13205"}}},
{"geometry": {"type": "Point", "coordinates": [-76.143365762, 42.9839772445]}, "type": "Feature", "properties": {"collection_times": [{"days": "Mon-Sat", "time": "9:00am"}, {"days": "Sun", "time": "Closed"}], "id": "1320500012", "name": "USPS COLLECTION BOX - BLUE BOX", "address": {"city": "SYRACUSE", "state": "NY", "street": "5942 S SALINA ST", "postcode": "13205"}}},
{"geometry": {"type": "Point", "coordinates": [-76.1436706896, 43.0008622292]}, "type": "Feature", "properties": {"collection_times": [{"days": "Mon-Sat", "time": "10:00am"}, {"days": "Sun", "time": "Closed"}], "id": "1320500013", "name": "USPS COLLECTION BOX - BLUE BOX", "address": {"city": "SYRACUSE", "state": "NY", "street": "122 W SENECA TPKE", "postcode": "13205"}}},
{"geometry": {"type": "Point", "coordinates": [-76.1439651992, 42.9913332188]}, "type": "Feature", "properties": {"collection_times": [{"days": "Mon-Sat", "time": "12:00pm"}, {"days": "Sun", "time": "Closed"}], "id": "1320500015", "name": "USPS COLLECTION BOX - BLUE BOX", "address": {"city": "SYRACUSE", "state": "NY", "street": "5503 S SALINA ST", "postcode": "13205"}}},
{"geometry": {"type": "Point", "coordinates": [-76.1412078159, 43.015031215]}, "type": "Feature", "properties": {"collection_times": [{"days": "Mon-Sat", "time": "12:00pm"}, {"days": "Sun", "time": "Closed"}], "id": "1320500028", "name": "USPS COLLECTION BOX - BLUE BOX", "address": {"city": "SYRACUSE", "state": "NY", "street": "3430 S SALINA ST", "postcode": "13205"}}},
{"geometry": {"type": "Point", "coordinates": [-76.14829396, 43.0200721754]}, "type": "Feature", "properties": {"collection_times": [{"days": "Mon-Sat", "time": "12:00pm"}, {"days": "Sun", "time": "Closed"}], "id": "1320500034", "name": "USPS COLLECTION BOX - BLUE BOX", "address": {"city": "SYRACUSE", "state": "NY", "street": "269 W BRIGHTON AVE", "postcode": "13205"}}},
{"geometry": {"type": "Point", "coordinates": [-76.142705065, 43.0016892041]}, "type": "Feature", "properties": {"collection_times": [{"days": "Mon-Sat", "time": "12:00pm"}, {"days": "Sun", "time": "Closed"}], "id": "1320500035", "name": "USPS COLLECTION BOX - BLUE BOX", "address": {"city": "SYRACUSE", "state": "NY", "street": "4711 S SALINA ST", "postcode": "13205"}}},
{"geometry": {"type": "Point", "coordinates": [-76.1431053664, 42.983572375]}, "type": "Feature", "properties": {"collection_times": [{"days": "Mon-Sat", "time": "9:00am"}, {"days": "Sun", "time": "Closed"}], "id": "1320500036", "name": "USPS COLLECTION BOX - BLUE BOX", "address": {"city": "SYRACUSE", "state": "NY", "street": "6003 S SALINA ST", "postcode": "13205"}}},
{"geometry": {"type": "Point", "coordinates": [-76.1427429037, 42.98157504]}, "type": "Feature", "properties": {"collection_times": [{"days": "Mon-Sat", "time": "12:00pm"}, {"days": "Sun", "time": "Closed"}], "id": "1320500037", "name": "USPS COLLECTION BOX - BLUE BOX", "address": {"city": "SYRACUSE", "state": "NY", "street": "6136 S SALINA ST", "postcode": "13205"}}},
{"geometry": {"type": "Point", "coordinates": [-76.145341456, 43.0255080089]}, "type": "Feature", "properties": {"collection_times": [{"days": "Mon-Fri", "time": "5:00pm"}, {"days": "Sat", "time": "1:00pm"}, {"days": "Sun", "time": "Closed"}], "id": "1320500061", "name": "USPS COLLECTION BOX - PO LOBBY", "address": {"city": "SYRACUSE", "state": "NY", "street": "2200 S SALINA ST", "postcode": "13205"}}},
{"geometry": {"type": "Point", "coordinates": [-76.108499257, 43.070644108]}, "type": "Feature", "properties": {"collection_times": [{"days": "Mon-Fri", "time": "4:30pm"}, {"days": "Sat", "time": "10:00am"}, {"days": "Sun", "time": "Closed"}], "id": "1320600001", "name": "USPS COLLECTION BOX - EXPRESS", "address": {"city": "SYRACUSE", "state": "NY", "street": "100 TWIN OAKS DR", "postcode": "13206"}}},
{"geometry": {"type": "Point", "coordinates": [-76.108499257, 43.070644108]}, "type": "Feature", "properties": {"collection_times": [{"days": "Mon-Fri", "time": "3:30pm"}, {"days": "Sat", "time": "10:00am"}, {"days": "Sun", "time": "Closed"}], "id": "1320600004", "name": "USPS COLLECTION BOX - EXPRESS", "address": {"city": "SYRACUSE", "state": "NY", "street": "2301 TEALL AVE", "postcode": "13206"}}},
{"geometry": {"type": "Point", "coordinates": [-76.1205381663, 43.0748112237]}, "type": "Feature", "properties": {"collection_times": [{"days": "Mon-Sat", "time": "10:00am"}, {"days": "Sun", "time": "Closed"}], "id": "1320600007", "name": "USPS COLLECTION BOX - BLUE BOX", "address": {"city": "SYRACUSE", "state": "NY", "street": "400 SCHAFFER AVE", "postcode": "13206"}}},
{"geometry": {"type": "Point", "coordinates": [-76.1223383707, 43.059165223]}, "type": "Feature", "properties": {"collection_times": [{"days": "Mon-Sat", "time": "10:00am"}, {"days": "Sun", "time": "Closed"}], "id": "1320600009", "name": "USPS COLLECTION BOX - BLUE BOX", "address": {"city": "SYRACUSE", "state": "NY", "street": "901 TEALL AVE", "postcode": "13206"}}},
{"geometry": {"type": "Point", "coordinates": [-76.1202485336, 43.0641551526]}, "type": "Feature", "properties": {"collection_times": [{"days": "Mon-Sat", "time": "10:00am"}, {"days": "Sun", "time": "Closed"}], "id": "1320600010", "name": "USPS COLLECTION BOX - BLUE BOX", "address": {"city": "SYRACUSE", "state": "NY", "street": "224 HIXSON AVE", "postcode": "13206"}}},
{"geometry": {"type": "Point", "coordinates": [-76.097598291, 43.0664350036]}, "type": "Feature", "properties": {"collection_times": [{"days": "Mon-Sat", "time": "10:00am"}, {"days": "Sun", "time": "Closed"}], "id": "1320600011", "name": "USPS COLLECTION BOX - BLUE BOX", "address": {"city": "SYRACUSE", "state": "NY", "street": "158 ROXBURY RD", "postcode": "13206"}}},
{"geometry": {"type": "Point", "coordinates": [-76.0998164908, 43.0652534033]}, "type": "Feature", "properties": {"collection_times": [{"days": "Mon-Sat", "time": "10:00am"}, {"days": "Sun", "time": "Closed"}], "id": "1320600012", "name": "USPS COLLECTION BOX - BLUE BOX", "address": {"city": "SYRACUSE", "state": "NY", "street": "330 PLYMOUTH DR", "postcode": "13206"}}},
{"geometry": {"type": "Point", "coordinates": [-76.1236319126, 43.0818085406]}, "type": "Feature", "properties": {"collection_times": [{"days": "Mon-Fri", "time": "3:30pm"}, {"days": "Sat", "time": "10:00am"}, {"days": "Sun", "time": "Closed"}], "id": "1320600014", "name": "USPS COLLECTION BOX - BLUE BOX", "address": {"city": "SYRACUSE", "state": "NY", "street": "2301 TEALL AVE", "postcode": "13206"}}},
{"geometry": {"type": "Point", "coordinates": [-76.1236319126, 43.0818085406]}, "type": "Feature", "properties": {"collection_times": [{"days": "Mon-Fri", "time": "3:30pm"}, {"days": "Sat", "time": "10:00am"}, {"days": "Sun", "time": "Closed"}], "id": "1320600015", "name": "USPS COLLECTION BOX - BLUE BOX", "address": {"city": "SYRACUSE", "state": "NY", "street": "2301 TEALL AVE", "postcode": "13206"}}},
{"geometry": {"type": "Point", "coordinates": [-76.1197664631, 43.066502918]}, "type": "Feature", "properties": {"collection_times": [{"days": "Mon-Sat", "time": "10:00am"}, {"days": "Sun", "time": "Closed"}], "id": "1320600016", "name": "USPS COLLECTION BOX - BLUE BOX", "address": {"city": "SYRACUSE", "state": "NY", "street": "1935 JAMES ST", "postcode": "13206"}}},
{"geometry": {"type": "Point", "coordinates": [-76.1155719033, 43.0647884448]}, "type": "Feature", "properties": {"collection_times": [{"days": "Mon-Sat", "time": "10:00am"}, {"days": "Sun", "time": "Closed"}], "id": "1320600017", "name": "USPS COLLECTION BOX - BLUE BOX", "address": {"city": "SYRACUSE", "state": "NY", "street": "186 SHOTWELL PARK", "postcode": "13206"}}},
{"geometry": {"type": "Point", "coordinates": [-76.1039127349, 43.0816457608]}, "type": "Feature", "properties": {"collection_times": [{"days": "Mon-Fri", "time": "4:30pm"}, {"days": "Sat", "time": "10:00am"}, {"days": "Sun", "time": "Closed"}], "id": "1320600018", "name": "USPS COLLECTION BOX - BLUE BOX", "address": {"city": "SYRACUSE", "state": "NY", "street": "6000 COURT STREET RD", "postcode": "13206"}}},
{"geometry": {"type": "Point", "coordinates": [-76.1134633584, 43.0621850657]}, "type": "Feature", "properties": {"collection_times": [{"days": "Mon-Sat", "time": "10:00am"}, {"days": "Sun", "time": "Closed"}], "id": "1320600019", "name": "USPS COLLECTION BOX - BLUE BOX", "address": {"city": "SYRACUSE", "state": "NY", "street": "369 HICKOK AVE", "postcode": "13206"}}},
{"geometry": {"type": "Point", "coordinates": [-76.1005164248, 43.0594249919]}, "type": "Feature", "properties": {"collection_times": [{"days": "Mon-Sat", "time": "10:00am"}, {"days": "Sun", "time": "Closed"}], "id": "1320600021", "name": "USPS COLLECTION BOX - BLUE BOX", "address": {"city": "SYRACUSE", "state": "NY", "street": "2599 BURNET AVE", "postcode": "13206"}}},
{"geometry": {"type": "Point", "coordinates": [-76.0913381412, 43.0611906067]}, "type": "Feature", "properties": {"collection_times": [{"days": "Mon-Sat", "time": "9:30am"}, {"days": "Sun", "time": "Closed"}], "id": "1320600022", "name": "USPS COLLECTION BOX - BLUE BOX", "address": {"city": "SYRACUSE", "state": "NY", "street": "3401 BURNET AVE", "postcode": "13206"}}},
{"geometry": {"type": "Point", "coordinates": [-76.102406687, 43.0690876118]}, "type": "Feature", "properties": {"collection_times": [{"days": "Mon-Sat", "time": "10:00am"}, {"days": "Sun", "time": "Closed"}], "id": "1320600025", "name": "USPS COLLECTION BOX - BLUE BOX", "address": {"city": "SYRACUSE", "state": "NY", "street": "3215 JAMES ST", "postcode": "13206"}}},
{"geometry": {"type": "Point", "coordinates": [-76.0949842555, 43.0693252484]}, "type": "Feature", "properties": {"collection_times": [{"days": "Mon-Fri", "time": "3:30pm"}, {"days": "Sat", "time": "9:00am"}, {"days": "Sun", "time": "Closed"}], "id": "1320600028", "name": "USPS COLLECTION BOX - BLUE BOX", "address": {"city": "SYRACUSE", "state": "NY", "street": "3650 JAMES ST", "postcode": "13206"}}},
{"geometry": {"type": "Point", "coordinates": [-76.097080403, 43.0693365211]}, "type": "Feature", "properties": {"collection_times": [{"days": "Mon-Sat", "time": "10:00am"}, {"days": "Sun", "time": "Closed"}], "id": "1320600029", "name": "USPS COLLECTION BOX - BLUE BOX", "address": {"city": "SYRACUSE", "state": "NY", "street": "3535 JAMES ST", "postcode": "13206"}}},
{"geometry": {"type": "Point", "coordinates": [-76.0966627589, 43.0692477083]}, "type": "Feature", "properties": {"collection_times": [{"days": "Mon-Fri", "time": "3:30pm"}, {"days": "Sat", "time": "10:00am"}, {"days": "Sun", "time": "Closed"}], "id": "1320600030", "name": "USPS COLLECTION BOX - BLUE BOX", "address": {"city": "SYRACUSE", "state": "NY", "street": "3522 JAMES ST", "postcode": "13206"}}},
{"geometry": {"type": "Point", "coordinates": [-76.0930239286, 43.0653512171]}, "type": "Feature", "properties": {"collection_times": [{"days": "Mon-Sat", "time": "10:00am"}, {"days": "Sun", "time": "Closed"}], "id": "1320600031", "name": "USPS COLLECTION BOX - BLUE BOX", "address": {"city": "SYRACUSE", "state": "NY", "street": "272 CLOVER RIDGE DR", "postcode": "13206"}}},
{"geometry": {"type": "Point", "coordinates": [-76.1113339511, 43.0686620862]}, "type": "Feature", "properties": {"collection_times": [{"days": "Mon-Sat", "time": "6:30pm"}, {"days": "Sun", "time": "Closed"}], "id": "1320600033", "name": "USPS COLLECTION BOX - BLUE BOX", "address": {"city": "SYRACUSE", "state": "NY", "street": "2509 JAMES ST", "postcode": "13206"}}},
{"geometry": {"type": "Point", "coordinates": [-76.1113339511, 43.0686620862]}, "type": "Feature", "properties": {"collection_times": [{"days": "Mon-Sat", "time": "6:30pm"}, {"days": "Sun", "time": "Closed"}], "id": "1320600034", "name": "USPS COLLECTION BOX - BLUE BOX", "address": {"city": "SYRACUSE", "state": "NY", "street": "2509 JAMES ST", "postcode": "13206"}}},
{"geometry": {"type": "Point", "coordinates": [-76.1230828813, 43.0727170137]}, "type": "Feature", "properties": {"collection_times": [{"days": "Mon-Fri", "time": "3:30pm"}, {"days": "Sat", "time": "10:00am"}, {"days": "Sun", "time": "Closed"}], "id": "1320600035", "name": "USPS COLLECTION BOX - BLUE BOX", "address": {"city": "SYRACUSE", "state": "NY", "street": "1802 TEALL AVE", "postcode": "13206"}}},
{"geometry": {"type": "Point", "coordinates": [-76.1230828813, 43.0727170137]}, "type": "Feature", "properties": {"collection_times": [{"days": "Mon-Fri", "time": "3:30pm"}, {"days": "Sat", "time": "10:00am"}, {"days": "Sun", "time": "Closed"}], "id": "1320600036", "name": "USPS COLLECTION BOX - BLUE BOX", "address": {"city": "SYRACUSE", "state": "NY", "street": "1802 TEALL AVE", "postcode": "13206"}}},
{"geometry": {"type": "Point", "coordinates": [-76.1134983981, 43.068448609]}, "type": "Feature", "properties": {"collection_times": [{"days": "Mon-Sat", "time": "10:00am"}, {"days": "Sun", "time": "Closed"}], "id": "1320600037", "name": "USPS COLLECTION BOX - BLUE BOX", "address": {"city": "SYRACUSE", "state": "NY", "street": "2360 JAMES ST", "postcode": "13206"}}},
{"geometry": {"type": "Point", "coordinates": [-76.1094478469, 43.0686444454]}, "type": "Feature", "properties": {"collection_times": [{"days": "Mon-Sat", "time": "10:00am"}, {"days": "Sun", "time": "Closed"}], "id": "1320600040", "name": "USPS COLLECTION BOX - BLUE BOX", "address": {"city": "SYRACUSE", "state": "NY", "street": "2636 JAMES ST", "postcode": "13206"}}},
{"geometry": {"type": "Point", "coordinates": [-76.1089342141, 43.0885660628]}, "type": "Feature", "properties": {"collection_times": [{"days": "Mon-Fri", "time": "4:30pm"}, {"days": "Sat", "time": "10:00am"}, {"days": "Sun", "time": "Closed"}], "id": "1320600043", "name": "USPS COLLECTION BOX - BLUE BOX", "address": {"city": "SYRACUSE", "state": "NY", "street": "100 TWIN OAKS DR", "postcode": "13206"}}},
{"geometry": {"type": "Point", "coordinates": [-76.1061285709, 43.076856598]}, "type": "Feature", "properties": {"collection_times": [{"days": "Mon-Sat", "time": "10:00am"}, {"days": "Sun", "time": "Closed"}], "id": "1320600050", "name": "USPS COLLECTION BOX - BLUE BOX", "address": {"city": "SYRACUSE", "state": "NY", "street": "4106 NEW COURT AVE", "postcode": "13206"}}},
{"geometry": {"type": "Point", "coordinates": [-76.1087398626, 43.0868498824]}, "type": "Feature", "properties": {"collection_times": [{"days": "Mon-Fri", "time": "4:30pm"}, {"days": "Sat", "time": "10:00am"}, {"days": "Sun", "time": "Closed"}], "id": "1320600055", "name": "USPS COLLECTION BOX - BLUE BOX", "address": {"city": "SYRACUSE", "state": "NY", "street": "6481 RIDINGS RD", "postcode": "13206"}}},
{"geometry": {"type": "Point", "coordinates": [-76.1012114095, 43.085399351]}, "type": "Feature", "properties": {"collection_times": [{"days": "Mon-Fri", "time": "5:00pm"}, {"days": "Sat", "time": "10:00am"}, {"days": "Sun", "time": "Closed"}], "id": "1320600056", "name": "USPS COLLECTION BOX - BLUE BOX", "address": {"city": "SYRACUSE", "state": "NY", "street": "6402 DEERE RD", "postcode": "13206"}}},
{"geometry": {"type": "Point", "coordinates": [-76.1113339511, 43.0686620862]}, "type": "Feature", "properties": {"collection_times": [{"days": "Mon-Fri", "time": "5:00pm"}, {"days": "Sat", "time": "1:30pm"}, {"days": "Sun", "time": "Closed"}], "id": "1320600063", "name": "USPS COLLECTION BOX - PO LOBBY", "address": {"city": "SYRACUSE", "state": "NY", "street": "2509 JAMES ST", "postcode": "13206"}}},
{"geometry": {"type": "Point", "coordinates": [-76.1661422312, 43.0303686977]}, "type": "Feature", "properties": {"collection_times": [{"days": "Mon-Sat", "time": "10:00am"}, {"days": "Sun", "time": "Closed"}], "id": "1320700001", "name": "USPS COLLECTION BOX - BLUE BOX", "address": {"city": "SYRACUSE", "state": "NY", "street": "300 SUMMIT AVE", "postcode": "13207"}}},
{"geometry": {"type": "Point", "coordinates": [-76.182805524, 43.0305170142]}, "type": "Feature", "properties": {"collection_times": [{"days": "Mon-Sat", "time": "10:00am"}, {"days": "Sun", "time": "Closed"}], "id": "1320700003", "name": "USPS COLLECTION BOX - BLUE BOX", "address": {"city": "SYRACUSE", "state": "NY", "street": "219 WOLCOTT AVE", "postcode": "13207"}}},
{"geometry": {"type": "Point", "coordinates": [-76.1753493567, 43.0308570751]}, "type": "Feature", "properties": {"collection_times": [{"days": "Mon-Sat", "time": "10:00am"}, {"days": "Sun", "time": "Closed"}], "id": "1320700004", "name": "USPS COLLECTION BOX - BLUE BOX", "address": {"city": "SYRACUSE", "state": "NY", "street": "1710 S GEDDES ST", "postcode": "13207"}}},
{"geometry": {"type": "Point", "coordinates": [-76.1562024546, 43.0079808561]}, "type": "Feature", "properties": {"collection_times": [{"days": "Mon-Sat", "time": "9:00am"}, {"days": "Sun", "time": "Closed"}], "id": "1320700005", "name": "USPS COLLECTION BOX - BLUE BOX", "address": {"city": "SYRACUSE", "state": "NY", "street": "101 CAMP AVE", "postcode": "13207"}}},
{"geometry": {"type": "Point", "coordinates": [-76.1524397776, 42.9937027718]}, "type": "Feature", "properties": {"collection_times": [{"days": "Mon-Sat", "time": "12:00pm"}, {"days": "Sun", "time": "Closed"}], "id": "1320700008", "name": "USPS COLLECTION BOX - BLUE BOX", "address": {"city": "SYRACUSE", "state": "NY", "street": "2109 VALLEY DR", "postcode": "13207"}}},
{"geometry": {"type": "Point", "coordinates": [-76.1602604571, 43.0198908543]}, "type": "Feature", "properties": {"collection_times": [{"days": "Mon-Sat", "time": "9:00am"}, {"days": "Sun", "time": "Closed"}], "id": "1320700010", "name": "USPS COLLECTION BOX - BLUE BOX", "address": {"city": "SYRACUSE", "state": "NY", "street": "1828 SOUTH AVE", "postcode": "13207"}}},
{"geometry": {"type": "Point", "coordinates": [-76.1692431221, 43.0230140495]}, "type": "Feature", "properties": {"collection_times": [{"days": "Mon-Sat", "time": "12:00pm"}, {"days": "Sun", "time": "Closed"}], "id": "1320700011", "name": "USPS COLLECTION BOX - BLUE BOX", "address": {"city": "SYRACUSE", "state": "NY", "street": "104 STRATHMORE DR", "postcode": "13207"}}},
{"geometry": {"type": "Point", "coordinates": [-76.1737395366, 43.021470563]}, "type": "Feature", "properties": {"collection_times": [{"days": "Mon-Sat", "time": "12:00pm"}, {"days": "Sun", "time": "Closed"}], "id": "1320700012", "name": "USPS COLLECTION BOX - BLUE BOX", "address": {"city": "SYRACUSE", "state": "NY", "street": "107 ARDEN DR", "postcode": "13207"}}},
{"geometry": {"type": "Point", "coordinates": [-76.1533663635, 43.0021409331]}, "type": "Feature", "properties": {"collection_times": [{"days": "Mon-Sat", "time": "9:00am"}, {"days": "Sun", "time": "Closed"}], "id": "1320700013", "name": "USPS COLLECTION BOX - BLUE BOX", "address": {"city": "SYRACUSE", "state": "NY", "street": "410 W SENECA TPKE", "postcode": "13207"}}},
{"geometry": {"type": "Point", "coordinates": [-76.1588341747, 43.0137598569]}, "type": "Feature", "properties": {"collection_times": [{"days": "Mon-Sat", "time": "10:00am"}, {"days": "Sun", "time": "Closed"}], "id": "1320700014", "name": "USPS COLLECTION BOX - BLUE BOX", "address": {"city": "SYRACUSE", "state": "NY", "street": "444 VALLEY DR", "postcode": "13207"}}},
{"geometry": {"type": "Point", "coordinates": [-76.1589138532, 43.0254829867]}, "type": "Feature", "properties": {"collection_times": [{"days": "Mon-Sat", "time": "6:30pm"}, {"days": "Sun", "time": "Closed"}], "id": "1320700015", "name": "USPS COLLECTION BOX - BLUE BOX", "address": {"city": "SYRACUSE", "state": "NY", "street": "1225 SOUTH AVE", "postcode": "13207"}}},
{"geometry": {"type": "Point", "coordinates": [-76.1595805417, 43.0752537491]}, "type": "Feature", "properties": {"collection_times": [{"days": "Mon-Fri", "time": "9:30am"}, {"days": "Sat", "time": "9:00am"}, {"days": "Sun", "time": "Closed"}], "id": "1320800001", "name": "USPS COLLECTION BOX - BLUE BOX", "address": {"city": "SYRACUSE", "state": "NY", "street": "618 2ND NORTH ST", "postcode": "13208"}}},
{"geometry": {"type": "Point", "coordinates": [-76.1486627424, 43.0590883003]}, "type": "Feature", "properties": {"collection_times": [{"days": "Mon-Sat", "time": "9:00am"}, {"days": "Sun", "time": "Closed"}], "id": "1320800003", "name": "USPS COLLECTION BOX - BLUE BOX", "address": {"city": "SYRACUSE", "state": "NY", "street": "500 BUTTERNUT ST", "postcode": "13208"}}},
{"geometry": {"type": "Point", "coordinates": [-76.1438981904, 43.0628908133]}, "type": "Feature", "properties": {"collection_times": [{"days": "Mon-Sat", "time": "9:00am"}, {"days": "Sun", "time": "Closed"}], "id": "1320800004", "name": "USPS COLLECTION BOX - BLUE BOX", "address": {"city": "SYRACUSE", "state": "NY", "street": "900 BUTTERNUT ST", "postcode": "13208"}}},
{"geometry": {"type": "Point", "coordinates": [-76.1430100337, 43.0714516091]}, "type": "Feature", "properties": {"collection_times": [{"days": "Mon-Fri", "time": "10:00am"}, {"days": "Sat", "time": "9:00am"}, {"days": "Sun", "time": "Closed"}], "id": "1320800006", "name": "USPS COLLECTION BOX - BLUE BOX", "address": {"city": "SYRACUSE", "state": "NY", "street": "1427 BUTTERNUT ST", "postcode": "13208"}}},
{"geometry": {"type": "Point", "coordinates": [-76.1426639937, 43.0751762217]}, "type": "Feature", "properties": {"collection_times": [{"days": "Mon-Sat", "time": "9:00am"}, {"days": "Sun", "time": "Closed"}], "id": "1320800007", "name": "USPS COLLECTION BOX - BLUE BOX", "address": {"city": "SYRACUSE", "state": "NY", "street": "1801 BUTTERNUT ST", "postcode": "13208"}}},
{"geometry": {"type": "Point", "coordinates": [-76.157023755, 43.0701049643]}, "type": "Feature", "properties": {"collection_times": [{"days": "Mon-Sat", "time": "9:00am"}, {"days": "Sun", "time": "Closed"}], "id": "1320800008", "name": "USPS COLLECTION BOX - BLUE BOX", "address": {"city": "SYRACUSE", "state": "NY", "street": "537 COURT ST", "postcode": "13208"}}},
{"geometry": {"type": "Point", "coordinates": [-76.1536608068, 43.0743863132]}, "type": "Feature", "properties": {"collection_times": [{"days": "Mon-Sat", "time": "9:00am"}, {"days": "Sun", "time": "Closed"}], "id": "1320800009", "name": "USPS COLLECTION BOX - BLUE BOX", "address": {"city": "SYRACUSE", "state": "NY", "street": "824 COURT ST", "postcode": "13208"}}},
{"geometry": {"type": "Point", "coordinates": [-76.1514793025, 43.0757867689]}, "type": "Feature", "properties": {"collection_times": [{"days": "Mon-Fri", "time": "9:30am"}, {"days": "Sat", "time": "9:00am"}, {"days": "Sun", "time": "Closed"}], "id": "1320800010", "name": "USPS COLLECTION BOX - BLUE BOX", "address": {"city": "SYRACUSE", "state": "NY", "street": "1126 COURT ST", "postcode": "13208"}}},
{"geometry": {"type": "Point", "coordinates": [-76.1371312271, 43.0835135125]}, "type": "Feature", "properties": {"collection_times": [{"days": "Mon-Fri", "time": "10:00am"}, {"days": "Sat", "time": "9:00am"}, {"days": "Sun", "time": "Closed"}], "id": "1320800012", "name": "USPS COLLECTION BOX - BLUE BOX", "address": {"city": "SYRACUSE", "state": "NY", "street": "2415 COURT ST", "postcode": "13208"}}},
{"geometry": {"type": "Point", "coordinates": [-76.1318968858, 43.0838449188]}, "type": "Feature", "properties": {"collection_times": [{"days": "Mon-Fri", "time": "10:00am"}, {"days": "Sat", "time": "9:00am"}, {"days": "Sun", "time": "Closed"}], "id": "1320800013", "name": "USPS COLLECTION BOX - BLUE BOX", "address": {"city": "SYRACUSE", "state": "NY", "street": "2716 COURT ST", "postcode": "13208"}}},
{"geometry": {"type": "Point", "coordinates": [-76.1506399175, 43.0614922116]}, "type": "Feature", "properties": {"collection_times": [{"days": "Mon-Sat", "time": "9:00am"}, {"days": "Sun", "time": "Closed"}], "id": "1320800014", "name": "USPS COLLECTION BOX - BLUE BOX", "address": {"city": "SYRACUSE", "state": "NY", "street": "502 E DIVISION ST", "postcode": "13208"}}},
{"geometry": {"type": "Point", "coordinates": [-76.1367070729, 43.0724462414]}, "type": "Feature", "properties": {"collection_times": [{"days": "Mon-Fri", "time": "9:30am"}, {"days": "Sat", "time": "9:00am"}, {"days": "Sun", "time": "Closed"}], "id": "1320800015", "name": "USPS COLLECTION BOX - BLUE BOX", "address": {"city": "SYRACUSE", "state": "NY", "street": "1500 GRANT BLVD", "postcode": "13208"}}},
{"geometry": {"type": "Point", "coordinates": [-76.151604404, 43.081304569]}, "type": "Feature", "properties": {"collection_times": [{"days": "Mon-Fri", "time": "9:30am"}, {"days": "Sat", "time": "9:00am"}, {"days": "Sun", "time": "Closed"}], "id": "1320800016", "name": "USPS COLLECTION BOX - BLUE BOX", "address": {"city": "SYRACUSE", "state": "NY", "street": "1334 LEMOYNE AVE", "postcode": "13208"}}},
{"geometry": {"type": "Point", "coordinates": [-76.1566116697, 43.0679447235]}, "type": "Feature", "properties": {"collection_times": [{"days": "Mon-Fri", "time": "9:30am"}, {"days": "Sat", "time": "9:00am"}, {"days": "Sun", "time": "Closed"}], "id": "1320800018", "name": "USPS COLLECTION BOX - BLUE BOX", "address": {"city": "SYRACUSE", "state": "NY", "street": "1406 PARK ST", "postcode": "13208"}}},
{"geometry": {"type": "Point", "coordinates": [-76.1689111537, 43.0731228695]}, "type": "Feature", "properties": {"collection_times": [{"days": "Mon-Sat", "time": "9:00am"}, {"days": "Sun", "time": "Closed"}], "id": "1320800019", "name": "USPS COLLECTION BOX - BLUE BOX", "address": {"city": "SYRACUSE", "state": "NY", "street": "2100 PARK ST", "postcode": "13208"}}},
{"geometry": {"type": "Point", "coordinates": [-76.1347104882, 43.0804668855]}, "type": "Feature", "properties": {"collection_times": [{"days": "Mon-Fri", "time": "9:30am"}, {"days": "Sat", "time": "9:00am"}, {"days": "Sun", "time": "Closed"}], "id": "1320800020", "name": "USPS COLLECTION BOX - BLUE BOX", "address": {"city": "SYRACUSE", "state": "NY", "street": "501 PLEASANTVIEW AVE", "postcode": "13208"}}},
{"geometry": {"type": "Point", "coordinates": [-76.1493472449, 43.0689333719]}, "type": "Feature", "properties": {"collection_times": [{"days": "Mon-Fri", "time": "9:30am"}, {"days": "Sat", "time": "9:00am"}, {"days": "Sun", "time": "Closed"}], "id": "1320800021", "name": "USPS COLLECTION BOX - BLUE BOX", "address": {"city": "SYRACUSE", "state": "NY", "street": "741 POND ST", "postcode": "13208"}}},
{"geometry": {"type": "Point", "coordinates": [-76.1519650953, 43.0577490999]}, "type": "Feature", "properties": {"collection_times": [{"days": "Mon-Fri", "time": "4:00pm"}, {"days": "Sat", "time": "9:00am"}, {"days": "Sun", "time": "Closed"}], "id": "1320800022", "name": "USPS COLLECTION BOX - BLUE BOX", "address": {"city": "SYRACUSE", "state": "NY", "street": "500 N SALINA ST", "postcode": "13208"}}},
{"geometry": {"type": "Point", "coordinates": [-76.1541819302, 43.0617480094]}, "type": "Feature", "properties": {"collection_times": [{"days": "Mon-Sat", "time": "9:00am"}, {"days": "Sun", "time": "Closed"}], "id": "1320800024", "name": "USPS COLLECTION BOX - BLUE BOX", "address": {"city": "SYRACUSE", "state": "NY", "street": "801 N SALINA ST", "postcode": "13208"}}},
{"geometry": {"type": "Point", "coordinates": [-76.1550207347, 43.0630208457]}, "type": "Feature", "properties": {"collection_times": [{"days": "Mon-Fri", "time": "10:00am"}, {"days": "Sat", "time": "9:00am"}, {"days": "Sun", "time": "Closed"}], "id": "1320800025", "name": "USPS COLLECTION BOX - BLUE BOX", "address": {"city": "SYRACUSE", "state": "NY", "street": "900 N SALINA ST", "postcode": "13208"}}},
{"geometry": {"type": "Point", "coordinates": [-76.1569318387, 43.0651966211]}, "type": "Feature", "properties": {"collection_times": [{"days": "Mon-Fri", "time": "9:30am"}, {"days": "Sat", "time": "9:00am"}, {"days": "Sun", "time": "Closed"}], "id": "1320800026", "name": "USPS COLLECTION BOX - BLUE BOX", "address": {"city": "SYRACUSE", "state": "NY", "street": "1130 N SALINA ST", "postcode": "13208"}}},
{"geometry": {"type": "Point", "coordinates": [-76.1379317295, 43.0797661935]}, "type": "Feature", "properties": {"collection_times": [{"days": "Mon-Sat", "time": "9:00am"}, {"days": "Sun", "time": "Closed"}], "id": "1320800029", "name": "USPS COLLECTION BOX - BLUE BOX", "address": {"city": "SYRACUSE", "state": "NY", "street": "721 DARLINGTON RD", "postcode": "13208"}}},
{"geometry": {"type": "Point", "coordinates": [-76.1526735126, 43.0600692865]}, "type": "Feature", "properties": {"collection_times": [{"days": "Mon-Sat", "time": "9:00am"}, {"days": "Sun", "time": "Closed"}], "id": "1320800030", "name": "USPS COLLECTION BOX - BLUE BOX", "address": {"city": "SYRACUSE", "state": "NY", "street": "660 N SALINA ST", "postcode": "13208"}}},
{"geometry": {"type": "Point", "coordinates": [-76.1434251456, 43.0639836346]}, "type": "Feature", "properties": {"collection_times": [{"days": "Mon-Sat", "time": "9:00am"}, {"days": "Sun", "time": "Closed"}], "id": "1320800032", "name": "USPS COLLECTION BOX - BLUE BOX", "address": {"city": "SYRACUSE", "state": "NY", "street": "1001 BUTTERNUT ST", "postcode": "13208"}}},
{"geometry": {"type": "Point", "coordinates": [-76.2022287683, 43.0602626743]}, "type": "Feature", "properties": {"collection_times": [{"days": "Mon-Fri", "time": "3:00pm"}, {"days": "Sat", "time": "9:30am"}, {"days": "Sun", "time": "Closed"}], "id": "1320900001", "name": "USPS COLLECTION BOX - BLUE BOX", "address": {"city": "SYRACUSE", "state": "NY", "street": "1537 MILTON AVE", "postcode": "13209"}}},
{"geometry": {"type": "Point", "coordinates": [-76.2061719166, 43.0612949429]}, "type": "Feature", "properties": {"collection_times": [{"days": "Mon-Fri", "time": "6:30pm"}, {"days": "Sat", "time": "6:00pm"}, {"days": "Sun", "time": "Closed"}], "id": "1320900002", "name": "USPS COLLECTION BOX - BLUE BOX", "address": {"city": "SYRACUSE", "state": "NY", "street": "1801 MILTON AVE", "postcode": "13209"}}},
{"geometry": {"type": "Point", "coordinates": [-76.2128748394, 43.0610081681]}, "type": "Feature", "properties": {"collection_times": [{"days": "Mon-Sat", "time": "9:00am"}, {"days": "Sun", "time": "Closed"}], "id": "1320900005", "name": "USPS COLLECTION BOX - BLUE BOX", "address": {"city": "SYRACUSE", "state": "NY", "street": "1100 WOODS RD", "postcode": "13209"}}},
{"geometry": {"type": "Point", "coordinates": [-76.2252377771, 43.0608590195]}, "type": "Feature", "properties": {"collection_times": [{"days": "Mon-Sat", "time": "9:45am"}, {"days": "Sun", "time": "Closed"}], "id": "1320900009", "name": "USPS COLLECTION BOX - BLUE BOX", "address": {"city": "SYRACUSE", "state": "NY", "street": "2851 MILTON AVE", "postcode": "13209"}}},
{"geometry": {"type": "Point", "coordinates": [-76.1973972905, 43.0491162959]}, "type": "Feature", "properties": {"collection_times": [{"days": "Mon-Sat", "time": "11:00am"}, {"days": "Sun", "time": "Closed"}], "id": "1320900011", "name": "USPS COLLECTION BOX - BLUE BOX", "address": {"city": "SYRACUSE", "state": "NY", "street": "527 CHARLES AVE", "postcode": "13209"}}},
{"geometry": {"type": "Point", "coordinates": [-76.2724342549, 43.1152142389]}, "type": "Feature", "properties": {"collection_times": [{"days": "Mon-Sat", "time": "10:00am"}, {"days": "Sun", "time": "Closed"}], "id": "1320900012", "name": "USPS COLLECTION BOX - BLUE BOX", "address": {"city": "SYRACUSE", "state": "NY", "street": "1818 STATE FAIR BLVD", "postcode": "13209"}}},
{"geometry": {"type": "Point", "coordinates": [-76.2181905873, 43.0554953746]}, "type": "Feature", "properties": {"collection_times": [{"days": "Mon-Sat", "time": "10:00am"}, {"days": "Sun", "time": "Closed"}], "id": "1320900014", "name": "USPS COLLECTION BOX - BLUE BOX", "address": {"city": "SYRACUSE", "state": "NY", "street": "1007 COGSWELL AVE", "postcode": "13209"}}},
{"geometry": {"type": "Point", "coordinates": [-76.2499676329, 43.1129315288]}, "type": "Feature", "properties": {"collection_times": [{"days": "Mon-Fri", "time": "12:00pm"}, {"days": "Sat", "time": "10:00am"}, {"days": "Sun", "time": "Closed"}], "id": "1320900018", "name": "USPS COLLECTION BOX - BLUE BOX", "address": {"city": "SYRACUSE", "state": "NY", "street": "101 DWIGHT PARK DR", "postcode": "13209"}}},
{"geometry": {"type": "Point", "coordinates": [-76.2061719166, 43.0612949429]}, "type": "Feature", "properties": {"collection_times": [{"days": "Mon-Fri", "time": "4:45pm"}, {"days": "Sat", "time": "1:00pm"}, {"days": "Sun", "time": "Closed"}], "id": "1320900021", "name": "USPS COLLECTION BOX - PO LOBBY", "address": {"city": "SYRACUSE", "state": "NY", "street": "1801 MILTON AVE", "postcode": "13209"}}},
{"geometry": {"type": "Point", "coordinates": [-76.1161953081, 43.0182998797]}, "type": "Feature", "properties": {"collection_times": [{"days": "Mon-Sat", "time": "10:00am"}, {"days": "Sun", "time": "Closed"}], "id": "1321000010", "name": "USPS COLLECTION BOX - BLUE BOX", "address": {"city": "SYRACUSE", "state": "NY", "street": "331 SLOCUM HTS", "postcode": "13210"}}},
{"geometry": {"type": "Point", "coordinates": [-76.1232007301, 43.0186597762]}, "type": "Feature", "properties": {"collection_times": [{"days": "Mon-Sat", "time": "10:00am"}, {"days": "Sun", "time": "Closed"}], "id": "1321000011", "name": "USPS COLLECTION BOX - BLUE BOX", "address": {"city": "SYRACUSE", "state": "NY", "street": "300 SKYTOP RD", "postcode": "13210"}}},
{"geometry": {"type": "Point", "coordinates": [-76.1368812782, 43.0223431499]}, "type": "Feature", "properties": {"collection_times": [{"days": "Mon-Sat", "time": "10:00am"}, {"days": "Sun", "time": "Closed"}], "id": "1321000014", "name": "USPS COLLECTION BOX - BLUE BOX", "address": {"city": "SYRACUSE", "state": "NY", "street": "102 SMITH LN", "postcode": "13210"}}},
{"geometry": {"type": "Point", "coordinates": [-76.1325006523, 43.0165977068]}, "type": "Feature", "properties": {"collection_times": [{"days": "Mon-Sat", "time": "10:00am"}, {"days": "Sun", "time": "Closed"}], "id": "1321000015", "name": "USPS COLLECTION BOX - BLUE BOX", "address": {"city": "SYRACUSE", "state": "NY", "street": "122 REMINGTON AVE", "postcode": "13210"}}},
{"geometry": {"type": "Point", "coordinates": [-76.1251184877, 43.0318320864]}, "type": "Feature", "properties": {"collection_times": [{"days": "Mon-Sat", "time": "10:00am"}, {"days": "Sun", "time": "Closed"}], "id": "1321000016", "name": "USPS COLLECTION BOX - BLUE BOX", "address": {"city": "SYRACUSE", "state": "NY", "street": "123 WINDSOR PL", "postcode": "13210"}}},
{"geometry": {"type": "Point", "coordinates": [-76.1281631271, 43.0191319162]}, "type": "Feature", "properties": {"collection_times": [{"days": "Mon-Sat", "time": "10:00am"}, {"days": "Sun", "time": "Closed"}], "id": "1321000017", "name": "USPS COLLECTION BOX - BLUE BOX", "address": {"city": "SYRACUSE", "state": "NY", "street": "502 THURBER ST", "postcode": "13210"}}},
{"geometry": {"type": "Point", "coordinates": [-76.1344946779, 43.0424130097]}, "type": "Feature", "properties": {"collection_times": [{"days": "Mon-Sat", "time": "6:30pm"}, {"days": "Sun", "time": "Closed"}], "id": "1321000020", "name": "USPS COLLECTION BOX - BLUE BOX", "address": {"city": "SYRACUSE", "state": "NY", "street": "720 UNIVERSITY AVE", "postcode": "13210"}}},
{"geometry": {"type": "Point", "coordinates": [-76.1114712184, 43.0289988004]}, "type": "Feature", "properties": {"collection_times": [{"days": "Mon-Sat", "time": "10:00am"}, {"days": "Sun", "time": "Closed"}], "id": "1321000022", "name": "USPS COLLECTION BOX - BLUE BOX", "address": {"city": "SYRACUSE", "state": "NY", "street": "315 NOTTINGHAM RD", "postcode": "13210"}}},
{"geometry": {"type": "Point", "coordinates": [-76.1136329562, 43.0270160212]}, "type": "Feature", "properties": {"collection_times": [{"days": "Mon-Sat", "time": "10:00am"}, {"days": "Sun", "time": "Closed"}], "id": "1321000023", "name": "USPS COLLECTION BOX - BLUE BOX", "address": {"city": "SYRACUSE", "state": "NY", "street": "1400 WESTMORELAND AVE", "postcode": "13210"}}},
{"geometry": {"type": "Point", "coordinates": [-76.1193932879, 43.0412514427]}, "type": "Feature", "properties": {"collection_times": [{"days": "Mon-Sat", "time": "10:00am"}, {"days": "Sun", "time": "Closed"}], "id": "1321000028", "name": "USPS COLLECTION BOX - BLUE BOX", "address": {"city": "SYRACUSE", "state": "NY", "street": "512 WESTCOTT ST", "postcode": "13210"}}},
{"geometry": {"type": "Point", "coordinates": [-76.1211739822, 43.0385262546]}, "type": "Feature", "properties": {"collection_times": [{"days": "Mon-Sat", "time": "10:00am"}, {"days": "Sun", "time": "Closed"}], "id": "1321000029", "name": "USPS COLLECTION BOX - BLUE BOX", "address": {"city": "SYRACUSE", "state": "NY", "street": "601 CLARENDON ST", "postcode": "13210"}}},
{"geometry": {"type": "Point", "coordinates": [-76.1320585656, 43.04686675]}, "type": "Feature", "properties": {"collection_times": [{"days": "Mon-Fri", "time": "4:00pm"}, {"days": "Sat", "time": "10:00am"}, {"days": "Sun", "time": "Closed"}], "id": "1321000034", "name": "USPS COLLECTION BOX - BLUE BOX", "address": {"city": "SYRACUSE", "state": "NY", "street": "1200 E GENESEE ST", "postcode": "13210"}}},
{"geometry": {"type": "Point", "coordinates": [-76.1281082663, 43.0349238636]}, "type": "Feature", "properties": {"collection_times": [{"days": "Mon-Sat", "time": "10:00am"}, {"days": "Sun", "time": "Closed"}], "id": "1321000035", "name": "USPS COLLECTION BOX - BLUE BOX", "address": {"city": "SYRACUSE", "state": "NY", "street": "833 E GENESEE ST", "postcode": "13210"}}},
{"geometry": {"type": "Point", "coordinates": [-76.1320620801, 43.0469763654]}, "type": "Feature", "properties": {"collection_times": [{"days": "Mon-Sat", "time": "10:00am"}, {"days": "Sun", "time": "Closed"}], "id": "1321000039", "name": "USPS COLLECTION BOX - BLUE BOX", "address": {"city": "SYRACUSE", "state": "NY", "street": "1201 E GENESEE ST", "postcode": "13210"}}},
{"geometry": {"type": "Point", "coordinates": [-76.1377750563, 43.0416075749]}, "type": "Feature", "properties": {"collection_times": [{"days": "Mon-Fri", "time": "4:00pm"}, {"days": "Sat", "time": "10:00am"}, {"days": "Sun", "time": "Closed"}], "id": "1321000043", "name": "USPS COLLECTION BOX - BLUE BOX", "address": {"city": "SYRACUSE", "state": "NY", "street": "725 IRVING AVE", "postcode": "13210"}}},
{"geometry": {"type": "Point", "coordinates": [-76.1377830587, 43.0410180684]}, "type": "Feature", "properties": {"collection_times": [{"days": "Mon-Sat", "time": "10:00am"}, {"days": "Sun", "time": "Closed"}], "id": "1321000044", "name": "USPS COLLECTION BOX - BLUE BOX", "address": {"city": "SYRACUSE", "state": "NY", "street": "739 IRVING AVE", "postcode": "13210"}}},
{"geometry": {"type": "Point", "coordinates": [-76.1376889145, 43.0456310808]}, "type": "Feature", "properties": {"collection_times": [{"days": "Mon-Fri", "time": "4:00pm"}, {"days": "Sat-Sun", "time": "Closed"}], "id": "1321000045", "name": "USPS COLLECTION BOX - BLUE BOX", "address": {"city": "SYRACUSE", "state": "NY", "street": "475 IRVING AVE", "postcode": "13210"}}},
{"geometry": {"type": "Point", "coordinates": [-76.1405434783, 43.0426341335]}, "type": "Feature", "properties": {"collection_times": [{"days": "Mon-Fri", "time": "4:00pm"}, {"days": "Sat", "time": "10:00am"}, {"days": "Sun", "time": "Closed"}], "id": "1321000049", "name": "USPS COLLECTION BOX - BLUE BOX", "address": {"city": "SYRACUSE", "state": "NY", "street": "750 E ADAMS ST", "postcode": "13210"}}},
{"geometry": {"type": "Point", "coordinates": [-76.1405434783, 43.0426341335]}, "type": "Feature", "properties": {"collection_times": [{"days": "Mon-Fri", "time": "4:00pm"}, {"days": "Sat", "time": "10:00am"}, {"days": "Sun", "time": "Closed"}], "id": "1321000050", "name": "USPS COLLECTION BOX - BLUE BOX", "address": {"city": "SYRACUSE", "state": "NY", "street": "750 E ADAMS ST", "postcode": "13210"}}},
{"geometry": {"type": "Point", "coordinates": [-76.1178485421, 43.0455939108]}, "type": "Feature", "properties": {"collection_times": [{"days": "Mon-Sat", "time": "10:00am"}, {"days": "Sun", "time": "Closed"}], "id": "1321000052", "name": "USPS COLLECTION BOX - BLUE BOX", "address": {"city": "SYRACUSE", "state": "NY", "street": "2121 E GENESEE ST", "postcode": "13210"}}},
{"geometry": {"type": "Point", "coordinates": [-76.1365151944, 43.0493032587]}, "type": "Feature", "properties": {"collection_times": [{"days": "Mon-Fri", "time": "3:00pm"}, {"days": "Sat-Sun", "time": "Closed"}], "id": "1321000055", "name": "USPS COLLECTION BOX - BLUE BOX", "address": {"city": "SYRACUSE", "state": "NY", "street": "200 N CROUSE AVE", "postcode": "13210"}}},
{"geometry": {"type": "Point", "coordinates": [-76.1381011906, 43.0393835677]}, "type": "Feature", "properties": {"collection_times": [{"days": "Mon-Fri", "time": "4:00pm"}, {"days": "Sat-Sun", "time": "Closed"}], "id": "1321000058", "name": "USPS COLLECTION BOX - BLUE BOX", "address": {"city": "SYRACUSE", "state": "NY", "street": "800 IRVING AVE", "postcode": "13210"}}},
{"geometry": {"type": "Point", "coordinates": [-76.1343555084, 43.0484382323]}, "type": "Feature", "properties": {"collection_times": [{"days": "Mon-Fri", "time": "3:00pm"}, {"days": "Sat-Sun", "time": "Closed"}], "id": "1321000062", "name": "USPS COLLECTION BOX - BLUE BOX", "address": {"city": "SYRACUSE", "state": "NY", "street": "300 UNIVERSITY PL", "postcode": "13210"}}},
{"geometry": {"type": "Point", "coordinates": [-76.1344946779, 43.0424130097]}, "type": "Feature", "properties": {"collection_times": [{"days": "Mon-Fri", "time": "5:00pm"}, {"days": "Sat", "time": "1:00pm"}, {"days": "Sun", "time": "Closed"}], "id": "1321000073", "name": "USPS COLLECTION BOX - PO LOBBY", "address": {"city": "SYRACUSE", "state": "NY", "street": "720 UNIVERSITY AVE", "postcode": "13210"}}},
{"geometry": {"type": "Point", "coordinates": [-76.1364942244, 43.0468109919]}, "type": "Feature", "properties": {"collection_times": [{"days": "Mon-Sat", "time": "10:00am"}, {"days": "Sun", "time": "Closed"}], "id": "1321000074", "name": "USPS COLLECTION BOX - BLUE BOX", "address": {"city": "SYRACUSE", "state": "NY", "street": "1000 E GENESEE ST", "postcode": "13210"}}},
{"geometry": {"type": "Point", "coordinates": [-76.1281082663, 43.0349238636]}, "type": "Feature", "properties": {"collection_times": [{"days": "Mon-Sat", "time": "10:00am"}, {"days": "Sun", "time": "Closed"}], "id": "1321000076", "name": "USPS COLLECTION BOX - BLUE BOX", "address": {"city": "SYRACUSE", "state": "NY", "street": "1201 E FAYETTE ST", "postcode": "13210"}}},
{"geometry": {"type": "Point", "coordinates": [-76.1468844444, 43.0944417427]}, "type": "Feature", "properties": {"collection_times": [{"days": "Mon-Sat", "time": "6:30pm"}, {"days": "Sun", "time": "Closed"}], "id": "1321100001", "name": "USPS COLLECTION BOX - BLUE BOX", "address": {"city": "SYRACUSE", "state": "NY", "street": "1900 BREWERTON RD", "postcode": "13211"}}},
{"geometry": {"type": "Point", "coordinates": [-76.1468844444, 43.0944417427]}, "type": "Feature", "properties": {"collection_times": [{"days": "Mon-Sat", "time": "6:30pm"}, {"days": "Sun", "time": "Closed"}], "id": "1321100002", "name": "USPS COLLECTION BOX - BLUE BOX", "address": {"city": "SYRACUSE", "state": "NY", "street": "1900 BREWERTON RD", "postcode": "13211"}}},
{"geometry": {"type": "Point", "coordinates": [-76.1468844444, 43.0944417427]}, "type": "Feature", "properties": {"collection_times": [{"days": "Mon-Sat", "time": "6:30pm"}, {"days": "Sun", "time": "Closed"}], "id": "1321100003", "name": "USPS COLLECTION BOX - BLUE BOX", "address": {"city": "SYRACUSE", "state": "NY", "street": "1900 BREWERTON RD", "postcode": "13211"}}},
{"geometry": {"type": "Point", "coordinates": [-76.1461743066, 43.106320928]}, "type": "Feature", "properties": {"collection_times": [{"days": "Mon-Sat", "time": "9:00am"}, {"days": "Sun", "time": "Closed"}], "id": "1321100004", "name": "USPS COLLECTION BOX - BLUE BOX", "address": {"city": "SYRACUSE", "state": "NY", "street": "2803 BREWERTON RD", "postcode": "13211"}}},
{"geometry": {"type": "Point", "coordinates": [-76.1134510286, 43.098463031]}, "type": "Feature", "properties": {"collection_times": [{"days": "Mon-Fri", "time": "5:00pm"}, {"days": "Sat", "time": "12:00pm"}, {"days": "Sun", "time": "Closed"}], "id": "1321100007", "name": "USPS COLLECTION BOX - BLUE BOX", "address": {"city": "SYRACUSE", "state": "NY", "street": "5858 E MOLLOY RD", "postcode": "13211"}}},
{"geometry": {"type": "Point", "coordinates": [-76.0977636024, 43.099323328]}, "type": "Feature", "properties": {"collection_times": [{"days": "Mon-Fri", "time": "5:00pm"}, {"days": "Sat", "time": "12:00pm"}, {"days": "Sun", "time": "Closed"}], "id": "1321100008", "name": "USPS COLLECTION BOX - BLUE BOX", "address": {"city": "SYRACUSE", "state": "NY", "street": "6075 E MOLLOY RD", "postcode": "13211"}}},
{"geometry": {"type": "Point", "coordinates": [-76.0956205172, 43.095652598]}, "type": "Feature", "properties": {"collection_times": [{"days": "Mon-Fri", "time": "5:00pm"}, {"days": "Sat", "time": "12:00pm"}, {"days": "Sun", "time": "Closed"}], "id": "1321100009", "name": "USPS COLLECTION BOX - BLUE BOX", "address": {"city": "SYRACUSE", "state": "NY", "street": "6700 THOMPSON RD", "postcode": "13211"}}},
{"geometry": {"type": "Point", "coordinates": [-76.0959097879, 43.0945639261]}, "type": "Feature", "properties": {"collection_times": [{"days": "Mon-Fri", "time": "5:00pm"}, {"days": "Sat", "time": "12:00pm"}, {"days": "Sun", "time": "Closed"}], "id": "1321100016", "name": "USPS COLLECTION BOX - BLUE BOX", "address": {"city": "SYRACUSE", "state": "NY", "street": "6712 BROOKLAWN PKWY", "postcode": "13211"}}},
{"geometry": {"type": "Point", "coordinates": [-76.1315668912, 43.0984304181]}, "type": "Feature", "properties": {"collection_times": [{"days": "Mon-Fri", "time": "5:00pm"}, {"days": "Sat", "time": "12:00pm"}, {"days": "Sun", "time": "Closed"}], "id": "1321100018", "name": "USPS COLLECTION BOX - EXPRESS", "address": {"city": "SYRACUSE", "state": "NY", "street": "6075 E MOLLOY RD", "postcode": "13211"}}},
{"geometry": {"type": "Point", "coordinates": [-76.1468844444, 43.0944417427]}, "type": "Feature", "properties": {"collection_times": [{"days": "Mon-Fri", "time": "5:00pm"}, {"days": "Sat", "time": "1:00pm"}, {"days": "Sun", "time": "Closed"}], "id": "1321100019", "name": "USPS COLLECTION BOX - PO LOBBY", "address": {"city": "SYRACUSE", "state": "NY", "street": "1900 BREWERTON RD", "postcode": "13211"}}},
{"geometry": {"type": "Point", "coordinates": [-76.0977636024, 43.099323328]}, "type": "Feature", "properties": {"collection_times": [{"days": "Mon-Fri", "time": "5:00pm"}, {"days": "Sat", "time": "12:00pm"}, {"days": "Sun", "time": "Closed"}], "id": "1321100020", "name": "USPS COLLECTION BOX - BLUE BOX", "address": {"city": "SYRACUSE", "state": "NY", "street": "6075 E MOLLOY RD", "postcode": "13211"}}},
{"geometry": {"type": "Point", "coordinates": [-76.1274570797, 43.1430532891]}, "type": "Feature", "properties": {"collection_times": [{"days": "Mon-Sat", "time": "12:00pm"}, {"days": "Sun", "time": "Closed"}], "id": "1321200004", "name": "USPS COLLECTION BOX - BLUE BOX", "address": {"city": "SYRACUSE", "state": "NY", "street": "709 N MAIN ST", "postcode": "13212"}}},
{"geometry": {"type": "Point", "coordinates": [-76.1280136567, 43.1324978817]}, "type": "Feature", "properties": {"collection_times": [{"days": "Mon-Fri", "time": "4:00pm"}, {"days": "Sat", "time": "10:00am"}, {"days": "Sun", "time": "Closed"}], "id": "1321200005", "name": "USPS COLLECTION BOX - BLUE BOX", "address": {"city": "SYRACUSE", "state": "NY", "street": "600 S BAY RD", "postcode": "13212"}}},
{"geometry": {"type": "Point", "coordinates": [-76.1459560382, 43.1139158371]}, "type": "Feature", "properties": {"collection_times": [{"days": "Mon-Sat", "time": "9:30am"}, {"days": "Sun", "time": "Closed"}], "id": "1321200007", "name": "USPS COLLECTION BOX - BLUE BOX", "address": {"city": "SYRACUSE", "state": "NY", "street": "3600 BREWERTON RD", "postcode": "13212"}}},
{"geometry": {"type": "Point", "coordinates": [-76.1406657431, 43.1178498576]}, "type": "Feature", "properties": {"collection_times": [{"days": "Mon-Sat", "time": "6:30pm"}, {"days": "Sun", "time": "Closed"}], "id": "1321200009", "name": "USPS COLLECTION BOX - BLUE BOX", "address": {"city": "SYRACUSE", "state": "NY", "street": "100 AIRPORT BLVD", "postcode": "13212"}}},
{"geometry": {"type": "Point", "coordinates": [-76.1508590769, 43.1101134522]}, "type": "Feature", "properties": {"collection_times": [{"days": "Mon-Fri", "time": "4:00pm"}, {"days": "Sat", "time": "1:00pm"}, {"days": "Sun", "time": "Closed"}], "id": "1321200012", "name": "USPS COLLECTION BOX - BLUE BOX", "address": {"city": "SYRACUSE", "state": "NY", "street": "100 NORTHERN CONCOURSE", "postcode": "13212"}}},
{"geometry": {"type": "Point", "coordinates": [-76.1283966595, 43.1262872953]}, "type": "Feature", "properties": {"collection_times": [{"days": "Mon-Fri", "time": "4:00pm"}, {"days": "Sat", "time": "9:00am"}, {"days": "Sun", "time": "Closed"}], "id": "1321200013", "name": "USPS COLLECTION BOX - BLUE BOX", "address": {"city": "SYRACUSE", "state": "NY", "street": "100 ELWOOD DAVIS RD", "postcode": "13212"}}},
{"geometry": {"type": "Point", "coordinates": [-76.1430989892, 43.1105345089]}, "type": "Feature", "properties": {"collection_times": [{"days": "Mon-Sat", "time": "1:00pm"}, {"days": "Sun", "time": "Closed"}], "id": "1321200014", "name": "USPS COLLECTION BOX - BLUE BOX", "address": {"city": "SYRACUSE", "state": "NY", "street": "321 NORTHERN LIGHTS PLZ", "postcode": "13212"}}},
{"geometry": {"type": "Point", "coordinates": [-76.1151630198, 43.1257954109]}, "type": "Feature", "properties": {"collection_times": [{"days": "Mon-Sat", "time": "2:00pm"}, {"days": "Sun", "time": "Closed"}], "id": "1321200016", "name": "USPS COLLECTION BOX - BLUE BOX", "address": {"city": "SYRACUSE", "state": "NY", "street": "124 KREISCHER RD", "postcode": "13212"}}},
{"geometry": {"type": "Point", "coordinates": [-76.1379040071, 43.1297462637]}, "type": "Feature", "properties": {"collection_times": [{"days": "Mon-Sat", "time": "1:00pm"}, {"days": "Sun", "time": "Closed"}], "id": "1321200017", "name": "USPS COLLECTION BOX - BLUE BOX", "address": {"city": "SYRACUSE", "state": "NY", "street": "400 SANDRA LN", "postcode": "13212"}}},
{"geometry": {"type": "Point", "coordinates": [-76.1337555107, 43.1296726527]}, "type": "Feature", "properties": {"collection_times": [{"days": "Mon-Fri", "time": "4:00pm"}, {"days": "Sat", "time": "10:00am"}, {"days": "Sun", "time": "Closed"}], "id": "1321200018", "name": "USPS COLLECTION BOX - BLUE BOX", "address": {"city": "SYRACUSE", "state": "NY", "street": "428 S MAIN ST", "postcode": "13212"}}},
{"geometry": {"type": "Point", "coordinates": [-76.1428488462, 43.121124503]}, "type": "Feature", "properties": {"collection_times": [{"days": "Mon-Sat", "time": "10:30am"}, {"days": "Sun", "time": "Closed"}], "id": "1321200026", "name": "USPS COLLECTION BOX - BLUE BOX", "address": {"city": "SYRACUSE", "state": "NY", "street": "3803 BREWERTON RD", "postcode": "13212"}}},
{"geometry": {"type": "Point", "coordinates": [-76.1368373829, 43.1266903339]}, "type": "Feature", "properties": {"collection_times": [{"days": "Mon-Fri", "time": "4:30pm"}, {"days": "Sat", "time": "11:00am"}, {"days": "Sun", "time": "Closed"}], "id": "1321200027", "name": "USPS COLLECTION BOX - EXPRESS", "address": {"city": "SYRACUSE", "state": "NY", "street": "100 SALINA MEADOWS PK", "postcode": "13212"}}},
{"geometry": {"type": "Point", "coordinates": [-76.1283966595, 43.1262872953]}, "type": "Feature", "properties": {"collection_times": [{"days": "Mon-Fri", "time": "4:00pm"}, {"days": "Sat", "time": "9:00am"}, {"days": "Sun", "time": "Closed"}], "id": "1321200028", "name": "USPS COLLECTION BOX - BLUE BOX", "address": {"city": "SYRACUSE", "state": "NY", "street": "100 ELWOOD DAVIS RD", "postcode": "13212"}}},
{"geometry": {"type": "Point", "coordinates": [-76.170461591, 43.1365504971]}, "type": "Feature", "properties": {"collection_times": [{"days": "Mon-Sat", "time": "11:30am"}, {"days": "Sun", "time": "Closed"}], "id": "1321200029", "name": "USPS COLLECTION BOX - BLUE BOX", "address": {"city": "SYRACUSE", "state": "NY", "street": "7575 BUCKLEY RD", "postcode": "13212"}}},
{"geometry": {"type": "Point", "coordinates": [-76.1368373829, 43.1266903339]}, "type": "Feature", "properties": {"collection_times": [{"days": "Mon-Sat", "time": "6:30pm"}, {"days": "Sun", "time": "Closed"}], "id": "1321200032", "name": "USPS COLLECTION BOX - EXPRESS", "address": {"city": "SYRACUSE", "state": "NY", "street": "100 AIRPORT BLVD", "postcode": "13212"}}},
{"geometry": {"type": "Point", "coordinates": [-76.139418861, 43.1249105808]}, "type": "Feature", "properties": {"collection_times": [{"days": "Mon-Sat", "time": "10:00am"}, {"days": "Sun", "time": "Closed"}], "id": "1321200033", "name": "USPS COLLECTION BOX - BLUE BOX", "address": {"city": "SYRACUSE", "state": "NY", "street": "628 S MAIN ST", "postcode": "13212"}}},
{"geometry": {"type": "Point", "coordinates": [-76.1661316686, 43.1000429799]}, "type": "Feature", "properties": {"collection_times": [{"days": "Mon-Fri", "time": "4:30pm"}, {"days": "Sat", "time": "11:00am"}, {"days": "Sun", "time": "Closed"}], "id": "1321200035", "name": "USPS COLLECTION BOX - BLUE BOX", "address": {"city": "SYRACUSE", "state": "NY", "street": "100 SALINA MEADOWS PARK", "postcode": "13212"}}},
{"geometry": {"type": "Point", "coordinates": [-76.1661316686, 43.1000429799]}, "type": "Feature", "properties": {"collection_times": [{"days": "Mon-Fri", "time": "4:30pm"}, {"days": "Sat", "time": "11:00am"}, {"days": "Sun", "time": "Closed"}], "id": "1321200036", "name": "USPS COLLECTION BOX - BLUE BOX", "address": {"city": "SYRACUSE", "state": "NY", "street": "100 SALINA MEADOWS PARK", "postcode": "13212"}}},
{"geometry": {"type": "Point", "coordinates": [-76.1268302265, 43.1447116495]}, "type": "Feature", "properties": {"collection_times": [{"days": "Mon-Sat", "time": "10:00am"}, {"days": "Sun", "time": "Closed"}], "id": "1321200037", "name": "USPS COLLECTION BOX - BLUE BOX", "address": {"city": "SYRACUSE", "state": "NY", "street": "792 N MAIN ST", "postcode": "13212"}}},
{"geometry": {"type": "Point", "coordinates": [-76.0656095714, 43.042844107]}, "type": "Feature", "properties": {"collection_times": [{"days": "Mon-Sat", "time": "6:30pm"}, {"days": "Sun", "time": "Closed"}], "id": "1321400001", "name": "USPS COLLECTION BOX - BLUE BOX", "address": {"city": "SYRACUSE", "state": "NY", "street": "6581 KINNE RD", "postcode": "13214"}}},
{"geometry": {"type": "Point", "coordinates": [-76.0656095714, 43.042844107]}, "type": "Feature", "properties": {"collection_times": [{"days": "Mon-Sat", "time": "6:30pm"}, {"days": "Sun", "time": "Closed"}], "id": "1321400002", "name": "USPS COLLECTION BOX - BLUE BOX", "address": {"city": "SYRACUSE", "state": "NY", "street": "6581 KINNE RD", "postcode": "13214"}}},
{"geometry": {"type": "Point", "coordinates": [-76.0883960342, 43.0473445291]}, "type": "Feature", "properties": {"collection_times": [{"days": "Mon-Sat", "time": "10:00am"}, {"days": "Sun", "time": "Closed"}], "id": "1321400003", "name": "USPS COLLECTION BOX - BLUE BOX", "address": {"city": "SYRACUSE", "state": "NY", "street": "1419 SALT SPRINGS RD", "postcode": "13214"}}},
{"geometry": {"type": "Point", "coordinates": [-76.090966182, 43.0475800215]}, "type": "Feature", "properties": {"collection_times": [{"days": "Mon-Sat", "time": "10:00am"}, {"days": "Sun", "time": "Closed"}], "id": "1321400005", "name": "USPS COLLECTION BOX - BLUE BOX", "address": {"city": "SYRACUSE", "state": "NY", "street": "1320 SALT SPRINGS RD", "postcode": "13214"}}},
{"geometry": {"type": "Point", "coordinates": [-76.0691432184, 43.0375084756]}, "type": "Feature", "properties": {"collection_times": [{"days": "Mon-Sat", "time": "10:00am"}, {"days": "Sun", "time": "Closed"}], "id": "1321400011", "name": "USPS COLLECTION BOX - BLUE BOX", "address": {"city": "SYRACUSE", "state": "NY", "street": "201 ORVILTON DR", "postcode": "13214"}}},
{"geometry": {"type": "Point", "coordinates": [-76.060134904, 43.0505550319]}, "type": "Feature", "properties": {"collection_times": [{"days": "Mon-Fri", "time": "6:30pm"}, {"days": "Sat-Sun", "time": "Closed"}], "id": "1321400013", "name": "USPS COLLECTION BOX - BLUE BOX", "address": {"city": "SYRACUSE", "state": "NY", "street": "5790 WIDEWATERS PKWY", "postcode": "13214"}}},
{"geometry": {"type": "Point", "coordinates": [-76.0603830616, 43.0507122179]}, "type": "Feature", "properties": {"collection_times": [{"days": "Mon-Fri", "time": "6:30pm"}, {"days": "Sat-Sun", "time": "Closed"}], "id": "1321400014", "name": "USPS COLLECTION BOX - BLUE BOX", "address": {"city": "SYRACUSE", "state": "NY", "street": "5795 WIDEWATERS PKWY", "postcode": "13214"}}},
{"geometry": {"type": "Point", "coordinates": [-76.0659705211, 43.0391184445]}, "type": "Feature", "properties": {"collection_times": [{"days": "Mon-Sat", "time": "10:00am"}, {"days": "Sun", "time": "Closed"}], "id": "1321400015", "name": "USPS COLLECTION BOX - BLUE BOX", "address": {"city": "SYRACUSE", "state": "NY", "street": "3649 ERIE BLVD E", "postcode": "13214"}}},
{"geometry": {"type": "Point", "coordinates": [-76.0866137836, 43.0521754173]}, "type": "Feature", "properties": {"collection_times": [{"days": "Mon-Sat", "time": "1:00pm"}, {"days": "Sun", "time": "Closed"}], "id": "1321400016", "name": "USPS COLLECTION BOX - BLUE BOX", "address": {"city": "SYRACUSE", "state": "NY", "street": "76 CATON DR", "postcode": "13214"}}},
{"geometry": {"type": "Point", "coordinates": [-76.0807438289, 43.052403799]}, "type": "Feature", "properties": {"collection_times": [{"days": "Mon-Sat", "time": "10:00am"}, {"days": "Sun", "time": "Closed"}], "id": "1321400018", "name": "USPS COLLECTION BOX - BLUE BOX", "address": {"city": "SYRACUSE", "state": "NY", "street": "101 ALPINE DR", "postcode": "13214"}}},
{"geometry": {"type": "Point", "coordinates": [-76.0733568525, 43.0420626618]}, "type": "Feature", "properties": {"collection_times": [{"days": "Mon-Fri", "time": "6:30pm"}, {"days": "Sat-Sun", "time": "Closed"}], "id": "1321400019", "name": "USPS COLLECTION BOX - EXPRESS", "address": {"city": "SYRACUSE", "state": "NY", "street": "5793 WIDEWATERS PKWY", "postcode": "13214"}}},
{"geometry": {"type": "Point", "coordinates": [-76.0602263904, 43.0504161626]}, "type": "Feature", "properties": {"collection_times": [{"days": "Mon-Fri", "time": "6:30pm"}, {"days": "Sat-Sun", "time": "Closed"}], "id": "1321400022", "name": "USPS COLLECTION BOX - BLUE BOX", "address": {"city": "SYRACUSE", "state": "NY", "street": "5789 WIDEWATERS PKWY", "postcode": "13214"}}},
{"geometry": {"type": "Point", "coordinates": [-76.0599905191, 43.0502472265]}, "type": "Feature", "properties": {"collection_times": [{"days": "Mon-Fri", "time": "6:30pm"}, {"days": "Sat-Sun", "time": "Closed"}], "id": "1321400025", "name": "USPS COLLECTION BOX - BLUE BOX", "address": {"city": "SYRACUSE", "state": "NY", "street": "5784 WIDEWATERS PKWY", "postcode": "13214"}}},
{"geometry": {"type": "Point", "coordinates": [-76.0603285906, 43.0506131797]}, "type": "Feature", "properties": {"collection_times": [{"days": "Mon-Fri", "time": "6:30pm"}, {"days": "Sat-Sun", "time": "Closed"}], "id": "1321400027", "name": "USPS COLLECTION BOX - BLUE BOX", "address": {"city": "SYRACUSE", "state": "NY", "street": "5793 WIDEWATERS PKWY", "postcode": "13214"}}},
{"geometry": {"type": "Point", "coordinates": [-76.0602263904, 43.0504161626]}, "type": "Feature", "properties": {"collection_times": [{"days": "Mon-Fri", "time": "6:30pm"}, {"days": "Sat-Sun", "time": "Closed"}], "id": "1321400029", "name": "USPS COLLECTION BOX - BLUE BOX", "address": {"city": "SYRACUSE", "state": "NY", "street": "5789 WIDEWATERS PKWY", "postcode": "13214"}}},
{"geometry": {"type": "Point", "coordinates": [-76.0656095714, 43.042844107]}, "type": "Feature", "properties": {"collection_times": [{"days": "Mon-Fri", "time": "4:45pm"}, {"days": "Sat", "time": "3:00pm"}, {"days": "Sun", "time": "Closed"}], "id": "1321400030", "name": "USPS COLLECTION BOX - PO LOBBY", "address": {"city": "SYRACUSE", "state": "NY", "street": "6581 KINNE RD", "postcode": "13214"}}},
{"geometry": {"type": "Point", "coordinates": [-76.060134904, 43.0505550319]}, "type": "Feature", "properties": {"collection_times": [{"days": "Mon-Fri", "time": "6:30pm"}, {"days": "Sat-Sun", "time": "Closed"}], "id": "1321400032", "name": "USPS COLLECTION BOX - BLUE BOX", "address": {"city": "SYRACUSE", "state": "NY", "street": "5790 WIDEWATERS PKWY", "postcode": "13214"}}},
{"geometry": {"type": "Point", "coordinates": [-76.0600845745, 43.0504519644]}, "type": "Feature", "properties": {"collection_times": [{"days": "Mon-Fri", "time": "6:30pm"}, {"days": "Sat-Sun", "time": "Closed"}], "id": "1321400034", "name": "USPS COLLECTION BOX - BLUE BOX", "address": {"city": "SYRACUSE", "state": "NY", "street": "5788 WIDEWATERS PKWY", "postcode": "13214"}}},
{"geometry": {"type": "Point", "coordinates": [-76.0649798579, 43.0345114277]}, "type": "Feature", "properties": {"collection_times": [{"days": "Mon-Sat", "time": "1:00pm"}, {"days": "Sun", "time": "Closed"}], "id": "1321400035", "name": "USPS COLLECTION BOX - BLUE BOX", "address": {"city": "SYRACUSE", "state": "NY", "street": "108 WELLINGTON RD", "postcode": "13214"}}},
{"geometry": {"type": "Point", "coordinates": [-76.0599905191, 43.0502472265]}, "type": "Feature", "properties": {"collection_times": [{"days": "Mon-Fri", "time": "6:30pm"}, {"days": "Sat-Sun", "time": "Closed"}], "id": "1321400037", "name": "USPS COLLECTION BOX - BLUE BOX", "address": {"city": "SYRACUSE", "state": "NY", "street": "5784 WIDEWATERS PKWY", "postcode": "13214"}}},
{"geometry": {"type": "Point", "coordinates": [-76.1762985164, 43.0054574402]}, "type": "Feature", "properties": {"collection_times": [{"days": "Mon-Sat", "time": "6:30pm"}, {"days": "Sun", "time": "Closed"}], "id": "1321500001", "name": "USPS COLLECTION BOX - BLUE BOX", "address": {"city": "SYRACUSE", "state": "NY", "street": "4912 W SENECA TPKE", "postcode": "13215"}}},
{"geometry": {"type": "Point", "coordinates": [-76.1942297617, 43.0254098139]}, "type": "Feature", "properties": {"collection_times": [{"days": "Mon-Sat", "time": "10:00am"}, {"days": "Sun", "time": "Closed"}], "id": "1321500003", "name": "USPS COLLECTION BOX - BLUE BOX", "address": {"city": "SYRACUSE", "state": "NY", "street": "310 WINKWORTH PKWY", "postcode": "13215"}}},
{"geometry": {"type": "Point", "coordinates": [-76.1701829891, 43.0083096983]}, "type": "Feature", "properties": {"collection_times": [{"days": "Mon-Fri", "time": "1:00pm"}, {"days": "Sat", "time": "10:00am"}, {"days": "Sun", "time": "Closed"}], "id": "1321500004", "name": "USPS COLLECTION BOX - BLUE BOX", "address": {"city": "SYRACUSE", "state": "NY", "street": "4900 BROAD RD", "postcode": "13215"}}},
{"geometry": {"type": "Point", "coordinates": [-76.1945571141, 43.0219370757]}, "type": "Feature", "properties": {"collection_times": [{"days": "Mon-Sat", "time": "10:00am"}, {"days": "Sun", "time": "Closed"}], "id": "1321500005", "name": "USPS COLLECTION BOX - BLUE BOX", "address": {"city": "SYRACUSE", "state": "NY", "street": "17 PONDEROSA DR", "postcode": "13215"}}},
{"geometry": {"type": "Point", "coordinates": [-76.1968554935, 43.0108723797]}, "type": "Feature", "properties": {"collection_times": [{"days": "Mon-Sat", "time": "10:00am"}, {"days": "Sun", "time": "Closed"}], "id": "1321500007", "name": "USPS COLLECTION BOX - BLUE BOX", "address": {"city": "SYRACUSE", "state": "NY", "street": "4950 ONONDAGA RD", "postcode": "13215"}}},
{"geometry": {"type": "Point", "coordinates": [-76.1844260815, 43.0165392851]}, "type": "Feature", "properties": {"collection_times": [{"days": "Mon-Sat", "time": "10:00am"}, {"days": "Sun", "time": "Closed"}], "id": "1321500009", "name": "USPS COLLECTION BOX - BLUE BOX", "address": {"city": "SYRACUSE", "state": "NY", "street": "5084 VELASKO RD", "postcode": "13215"}}},
{"geometry": {"type": "Point", "coordinates": [-76.1762985164, 43.0054574402]}, "type": "Feature", "properties": {"collection_times": [{"days": "Mon-Fri", "time": "4:15pm"}, {"days": "Sat", "time": "2:00pm"}, {"days": "Sun", "time": "Closed"}], "id": "1321500010", "name": "USPS COLLECTION BOX - PO LOBBY", "address": {"city": "SYRACUSE", "state": "NY", "street": "4912 W SENECA TPKE", "postcode": "13215"}}},
{"geometry": {"type": "Point", "coordinates": [-76.1216352083, 43.0510792354]}, "type": "Feature", "properties": {"collection_times": [{"days": "Mon-Sat", "time": "6:30pm"}, {"days": "Sun", "time": "Closed"}], "id": "1321700002", "name": "USPS COLLECTION BOX - BLUE BOX", "address": {"city": "SYRACUSE", "state": "NY", "street": "226 TEALL AVE", "postcode": "13217"}}},
{"geometry": {"type": "Point", "coordinates": [-76.1216352083, 43.0510792354]}, "type": "Feature", "properties": {"collection_times": [{"days": "Mon-Sat", "time": "6:30pm"}, {"days": "Sun", "time": "Closed"}], "id": "1321700003", "name": "USPS COLLECTION BOX - BLUE BOX", "address": {"city": "SYRACUSE", "state": "NY", "street": "226 TEALL AVE", "postcode": "13217"}}},
{"geometry": {"type": "Point", "coordinates": [-76.1216352083, 43.0510792354]}, "type": "Feature", "properties": {"collection_times": [{"days": "Mon-Sat", "time": "6:30pm"}, {"days": "Sun", "time": "Closed"}], "id": "1321700004", "name": "USPS COLLECTION BOX - BLUE BOX", "address": {"city": "SYRACUSE", "state": "NY", "street": "226 TEALL AVE", "postcode": "13217"}}},
{"geometry": {"type": "Point", "coordinates": [-76.1216352083, 43.0510792354]}, "type": "Feature", "properties": {"collection_times": [{"days": "Mon-Fri", "time": "5:00pm"}, {"days": "Sat", "time": "3:00pm"}, {"days": "Sun", "time": "Closed"}], "id": "1321700008", "name": "USPS COLLECTION BOX - PO LOBBY", "address": {"city": "SYRACUSE", "state": "NY", "street": "226 TEALL AVE", "postcode": "13217"}}},
{"geometry": {"type": "Point", "coordinates": [-76.1969576519, 43.0482413102]}, "type": "Feature", "properties": {"collection_times": [{"days": "Mon-Fri", "time": "10:00am"}, {"days": "Sat", "time": "9:30am"}, {"days": "Sun", "time": "Closed"}], "id": "1321900002", "name": "USPS COLLECTION BOX - BLUE BOX", "address": {"city": "SYRACUSE", "state": "NY", "street": "2105 W GENESEE ST", "postcode": "13219"}}},
{"geometry": {"type": "Point", "coordinates": [-76.1981179449, 43.0476123785]}, "type": "Feature", "properties": {"collection_times": [{"days": "Mon-Fri", "time": "6:30pm"}, {"days": "Sat", "time": "6:00pm"}, {"days": "Sun", "time": "Closed"}], "id": "1321900003", "name": "USPS COLLECTION BOX - BLUE BOX", "address": {"city": "SYRACUSE", "state": "NY", "street": "2200 W GENESEE ST", "postcode": "13219"}}},
{"geometry": {"type": "Point", "coordinates": [-76.2114486057, 43.042437631]}, "type": "Feature", "properties": {"collection_times": [{"days": "Mon-Sat", "time": "9:30am"}, {"days": "Sun", "time": "Closed"}], "id": "1321900004", "name": "USPS COLLECTION BOX - BLUE BOX", "address": {"city": "SYRACUSE", "state": "NY", "street": "311 CHERRY RD", "postcode": "13219"}}},
{"geometry": {"type": "Point", "coordinates": [-76.2184174927, 43.0443200176]}, "type": "Feature", "properties": {"collection_times": [{"days": "Mon-Sat", "time": "9:30am"}, {"days": "Sun", "time": "Closed"}], "id": "1321900005", "name": "USPS COLLECTION BOX - BLUE BOX", "address": {"city": "SYRACUSE", "state": "NY", "street": "201 BRONSON RD", "postcode": "13219"}}},
{"geometry": {"type": "Point", "coordinates": [-76.216342451, 43.0403648237]}, "type": "Feature", "properties": {"collection_times": [{"days": "Mon-Sat", "time": "10:30am"}, {"days": "Sun", "time": "Closed"}], "id": "1321900006", "name": "USPS COLLECTION BOX - BLUE BOX", "address": {"city": "SYRACUSE", "state": "NY", "street": "420 MEADOW RD", "postcode": "13219"}}},
{"geometry": {"type": "Point", "coordinates": [-76.2016845082, 43.0395018478]}, "type": "Feature", "properties": {"collection_times": [{"days": "Mon-Sat", "time": "2:00pm"}, {"days": "Sun", "time": "Closed"}], "id": "1321900008", "name": "USPS COLLECTION BOX - BLUE BOX", "address": {"city": "SYRACUSE", "state": "NY", "street": "429 FAY RD", "postcode": "13219"}}},
{"geometry": {"type": "Point", "coordinates": [-76.2261867457, 43.0481914196]}, "type": "Feature", "properties": {"collection_times": [{"days": "Mon-Fri", "time": "6:30pm"}, {"days": "Sat", "time": "6:00pm"}, {"days": "Sun", "time": "Closed"}], "id": "1321900010", "name": "USPS COLLECTION BOX - BLUE BOX", "address": {"city": "SYRACUSE", "state": "NY", "street": "3325 W GENESEE ST", "postcode": "13219"}}},
{"geometry": {"type": "Point", "coordinates": [-76.2320629209, 43.0483183309]}, "type": "Feature", "properties": {"collection_times": [{"days": "Mon-Sat", "time": "10:00am"}, {"days": "Sun", "time": "Closed"}], "id": "1321900011", "name": "USPS COLLECTION BOX - BLUE BOX", "address": {"city": "SYRACUSE", "state": "NY", "street": "3508 W GENESEE ST", "postcode": "13219"}}},
{"geometry": {"type": "Point", "coordinates": [-76.2427751919, 43.0459843132]}, "type": "Feature", "properties": {"collection_times": [{"days": "Mon-Sat", "time": "10:00am"}, {"days": "Sun", "time": "Closed"}], "id": "1321900014", "name": "USPS COLLECTION BOX - BLUE BOX", "address": {"city": "SYRACUSE", "state": "NY", "street": "4111 W GENESEE ST", "postcode": "13219"}}},
{"geometry": {"type": "Point", "coordinates": [-76.2446618454, 43.0456602256]}, "type": "Feature", "properties": {"collection_times": [{"days": "Mon-Sat", "time": "9:00am"}, {"days": "Sun", "time": "Closed"}], "id": "1321900015", "name": "USPS COLLECTION BOX - BLUE BOX", "address": {"city": "SYRACUSE", "state": "NY", "street": "4312 W GENESEE ST", "postcode": "13219"}}},
{"geometry": {"type": "Point", "coordinates": [-76.1929890432, 43.0326338335]}, "type": "Feature", "properties": {"collection_times": [{"days": "Mon-Sat", "time": "2:00pm"}, {"days": "Sun", "time": "Closed"}], "id": "1321900017", "name": "USPS COLLECTION BOX - BLUE BOX", "address": {"city": "SYRACUSE", "state": "NY", "street": "4713 ONONDAGA BLVD", "postcode": "13219"}}},
{"geometry": {"type": "Point", "coordinates": [-76.1926031516, 43.032645239]}, "type": "Feature", "properties": {"collection_times": [{"days": "Mon-Sat", "time": "10:00am"}, {"days": "Sun", "time": "Closed"}], "id": "1321900018", "name": "USPS COLLECTION BOX - BLUE BOX", "address": {"city": "SYRACUSE", "state": "NY", "street": "4732 ONONDAGA BLVD", "postcode": "13219"}}},
{"geometry": {"type": "Point", "coordinates": [-76.1928127152, 43.0325748632]}, "type": "Feature", "properties": {"collection_times": [{"days": "Mon-Sat", "time": "2:00pm"}, {"days": "Sun", "time": "Closed"}], "id": "1321900019", "name": "USPS COLLECTION BOX - BLUE BOX", "address": {"city": "SYRACUSE", "state": "NY", "street": "4722 ONONDAGA BLVD", "postcode": "13219"}}},
{"geometry": {"type": "Point", "coordinates": [-76.2007218305, 43.0472331532]}, "type": "Feature", "properties": {"collection_times": [{"days": "Mon-Fri", "time": "6:30pm"}, {"days": "Sat", "time": "6:00pm"}, {"days": "Sun", "time": "Closed"}], "id": "1321900021", "name": "USPS COLLECTION BOX - BLUE BOX", "address": {"city": "SYRACUSE", "state": "NY", "street": "2318 W GENESEE ST", "postcode": "13219"}}},
{"geometry": {"type": "Point", "coordinates": [-76.2261867457, 43.0481914196]}, "type": "Feature", "properties": {"collection_times": [{"days": "Mon-Fri", "time": "6:30pm"}, {"days": "Sat", "time": "6:00pm"}, {"days": "Sun", "time": "Closed"}], "id": "1321900022", "name": "USPS COLLECTION BOX - BLUE BOX", "address": {"city": "SYRACUSE", "state": "NY", "street": "3325 W GENESEE ST", "postcode": "13219"}}},
{"geometry": {"type": "Point", "coordinates": [-76.2475663295, 43.0447447277]}, "type": "Feature", "properties": {"collection_times": [{"days": "Mon-Sat", "time": "10:00am"}, {"days": "Sun", "time": "Closed"}], "id": "1321900024", "name": "USPS COLLECTION BOX - BLUE BOX", "address": {"city": "SYRACUSE", "state": "NY", "street": "4600 W GENESEE ST", "postcode": "13219"}}},
{"geometry": {"type": "Point", "coordinates": [-76.1295965263, 43.123187487]}, "type": "Feature", "properties": {"collection_times": [{"days": "Mon-Sat", "time": "7:00pm"}, {"days": "Sun", "time": "Closed"}], "id": "1322000003", "name": "USPS COLLECTION BOX - BLUE BOX", "address": {"city": "SYRACUSE", "state": "NY", "street": "5640 E TAFT RD", "postcode": "13220"}}},
{"geometry": {"type": "Point", "coordinates": [-76.1296159837, 43.1232012945]}, "type": "Feature", "properties": {"collection_times": [{"days": "Mon-Sat", "time": "7:00pm"}, {"days": "Sun", "time": "Closed"}], "id": "1322000004", "name": "USPS COLLECTION BOX - EXPRESS", "address": {"city": "SYRACUSE", "state": "NY", "street": "5640 E TAFT RD", "postcode": "13220"}}},
{"geometry": {"type": "Point", "coordinates": [-76.1295965263, 43.123187487]}, "type": "Feature", "properties": {"collection_times": [{"days": "Mon-Sat", "time": "7:00pm"}, {"days": "Sun", "time": "Closed"}], "id": "1322000006", "name": "USPS COLLECTION BOX - PO LOBBY", "address": {"city": "SYRACUSE", "state": "NY", "street": "5640 E TAFT RD", "postcode": "13220"}}},
{"geometry": {"type": "Point", "coordinates": [-76.1295965263, 43.123187487]}, "type": "Feature", "properties": {"collection_times": [{"days": "Mon-Sat", "time": "7:00pm"}, {"days": "Sun", "time": "Closed"}], "id": "1322000008", "name": "USPS COLLECTION BOX - BLUE BOX", "address": {"city": "SYRACUSE", "state": "NY", "street": "5640 E TAFT RD", "postcode": "13220"}}},
{"geometry": {"type": "Point", "coordinates": [-76.1295965263, 43.123187487]}, "type": "Feature", "properties": {"collection_times": [{"days": "Mon-Sat", "time": "7:00pm"}, {"days": "Sun", "time": "Closed"}], "id": "1322000009", "name": "USPS COLLECTION BOX - BLUE BOX", "address": {"city": "SYRACUSE", "state": "NY", "street": "5640 E TAFT RD", "postcode": "13220"}}},
{"geometry": {"type": "Point", "coordinates": [-75.6107001075, 42.9370820155]}, "type": "Feature", "properties": {"collection_times": [{"days": "Mon-Sat", "time": "7:00pm"}, {"days": "Sun", "time": "Closed"}], "id": "1322000011", "name": "USPS COLLECTION BOX - APC", "address": {"city": "SYRACUSE", "state": "NY", "street": "5640 E TAFT RD", "postcode": "13220"}}},
{"geometry": {"type": "Point", "coordinates": [-76.1097502338, 43.0220363722]}, "type": "Feature", "properties": {"collection_times": [{"days": "Mon-Sat", "time": "10:00am"}, {"days": "Sun", "time": "Closed"}], "id": "1322400003", "name": "USPS COLLECTION BOX - BLUE BOX", "address": {"city": "SYRACUSE", "state": "NY", "street": "620 NOTTINGHAM RD", "postcode": "13224"}}},
{"geometry": {"type": "Point", "coordinates": [-76.1081653239, 43.0434825551]}, "type": "Feature", "properties": {"collection_times": [{"days": "Mon-Sat", "time": "10:00am"}, {"days": "Sun", "time": "Closed"}], "id": "1322400005", "name": "USPS COLLECTION BOX - BLUE BOX", "address": {"city": "SYRACUSE", "state": "NY", "street": "2727 E GENESEE ST", "postcode": "13224"}}},
{"geometry": {"type": "Point", "coordinates": [-76.109006001, 43.038498883]}, "type": "Feature", "properties": {"collection_times": [{"days": "Mon-Sat", "time": "10:00am"}, {"days": "Sun", "time": "Closed"}], "id": "1322400006", "name": "USPS COLLECTION BOX - BLUE BOX", "address": {"city": "SYRACUSE", "state": "NY", "street": "312 CRAWFORD AVE", "postcode": "13224"}}},
{"geometry": {"type": "Point", "coordinates": [-76.1086480229, 43.0434994218]}, "type": "Feature", "properties": {"collection_times": [{"days": "Mon-Sat", "time": "10:00am"}, {"days": "Sun", "time": "Closed"}], "id": "1322400007", "name": "USPS COLLECTION BOX - BLUE BOX", "address": {"city": "SYRACUSE", "state": "NY", "street": "102 SCOTT AVE", "postcode": "13224"}}},
{"geometry": {"type": "Point", "coordinates": [-76.1070002636, 43.0357418887]}, "type": "Feature", "properties": {"collection_times": [{"days": "Mon-Sat", "time": "10:00am"}, {"days": "Sun", "time": "Closed"}], "id": "1322400010", "name": "USPS COLLECTION BOX - BLUE BOX", "address": {"city": "SYRACUSE", "state": "NY", "street": "410 SCOTT AVE", "postcode": "13224"}}},
{"geometry": {"type": "Point", "coordinates": [-76.102683693, 43.046369299]}, "type": "Feature", "properties": {"collection_times": [{"days": "Mon-Sat", "time": "10:00am"}, {"days": "Sun", "time": "Closed"}], "id": "1322400012", "name": "USPS COLLECTION BOX - BLUE BOX", "address": {"city": "SYRACUSE", "state": "NY", "street": "818 SALT SPRINGS RD", "postcode": "13224"}}},
{"geometry": {"type": "Point", "coordinates": [-76.1035879105, 43.0488738532]}, "type": "Feature", "properties": {"collection_times": [{"days": "Mon-Sat", "time": "10:00am"}, {"days": "Sun", "time": "Closed"}], "id": "1322400014", "name": "USPS COLLECTION BOX - BLUE BOX", "address": {"city": "SYRACUSE", "state": "NY", "street": "100 FAYETTE BLVD", "postcode": "13224"}}}
]}
