{"type": "FeatureCollection", "features": [
{"geometry": {"type": "Point", "coordinates": [-75.226407839, 43.4203115757]}, "type": "Feature", "properties": {"collection_times": [{"days": "Mon-Fri", "time": "5:00pm"}, {"days": "Sat", "time": "11:15am"}, {"days": "Sun", "time": "Closed"}], "id": "1330100001", "name": "USPS COLLECTION BOX - BLUE BOX", "address": {"city": "ALDER CREEK", "state": "NY", "street": "11440 STATE ROUTE 12", "postcode": "13301"}}},
{"geometry": {"type": "Point", "coordinates": [-75.226407839, 43.4203115757]}, "type": "Feature", "properties": {"collection_times": [{"days": "Mon-Fri", "time": "1:00pm"}, {"days": "Sat", "time": "11:15am"}, {"days": "Sun", "time": "Closed"}], "id": "1330100002", "name": "USPS COLLECTION BOX - PO LOBBY", "address": {"city": "ALDER CREEK", "state": "NY", "street": "11440 STATE ROUTE 12", "postcode": "13301"}}},
{"geometry": {"type": "Point", "coordinates": [-76.0053809936, 43.5099119224]}, "type": "Feature", "properties": {"collection_times": [{"days": "Mon-Fri", "time": "4:00pm"}, {"days": "Sat", "time": "11:30am"}, {"days": "Sun", "time": "Closed"}], "id": "1330200001", "name": "USPS COLLECTION BOX - BLUE BOX", "address": {"city": "ALTMAR", "state": "NY", "street": "1964 MEXICO ST", "postcode": "13302"}}},
{"geometry": {"type": "Point", "coordinates": [-76.0053809936, 43.5099119224]}, "type": "Feature", "properties": {"collection_times": [{"days": "Mon-Fri", "time": "3:00pm"}, {"days": "Sat", "time": "11:30am"}, {"days": "Sun", "time": "Closed"}], "id": "1330200002", "name": "USPS COLLECTION BOX - PO LOBBY", "address": {"city": "ALTMAR", "state": "NY", "street": "1964 MEXICO ST", "postcode": "13302"}}},
{"geometry": {"type": "Point", "coordinates": [-75.480007003, 43.4175639406]}, "type": "Feature", "properties": {"collection_times": [{"days": "Mon-Fri", "time": "4:30pm"}, {"days": "Sat", "time": "11:00am"}, {"days": "Sun", "time": "Closed"}], "id": "1330300001", "name": "USPS COLLECTION BOX - BLUE BOX", "address": {"city": "AVA", "state": "NY", "street": "11510 STATE ROUTE 26", "postcode": "13303"}}},
{"geometry": {"type": "Point", "coordinates": [-75.47958904, 43.4185947412]}, "type": "Feature", "properties": {"collection_times": [{"days": "Mon-Fri", "time": "12:00pm"}, {"days": "Sat", "time": "11:00am"}, {"days": "Sun", "time": "Closed"}], "id": "1330300002", "name": "USPS COLLECTION BOX - PO LOBBY", "address": {"city": "AVA", "state": "NY", "street": "11510 STATE ROUTE 26", "postcode": "13303"}}},
{"geometry": {"type": "Point", "coordinates": [-75.1851535629, 43.2616173741]}, "type": "Feature", "properties": {"collection_times": [{"days": "Mon-Sat", "time": "12:00pm"}, {"days": "Sun", "time": "Closed"}], "id": "1330400001", "name": "USPS COLLECTION BOX - BLUE BOX", "address": {"city": "BARNEVELD", "state": "NY", "street": "8196 STATE ROUTE 12", "postcode": "13304"}}},
{"geometry": {"type": "Point", "coordinates": [-75.189197954, 43.2773899695]}, "type": "Feature", "properties": {"collection_times": [{"days": "Mon-Fri", "time": "4:30pm"}, {"days": "Sat", "time": "10:30am"}, {"days": "Sun", "time": "Closed"}], "id": "1330400002", "name": "USPS COLLECTION BOX - BLUE BOX", "address": {"city": "BARNEVELD", "state": "NY", "street": "117 REMSEN RD", "postcode": "13304"}}},
{"geometry": {"type": "Point", "coordinates": [-75.189197954, 43.2773899695]}, "type": "Feature", "properties": {"collection_times": [{"days": "Mon-Fri", "time": "5:00pm"}, {"days": "Sat", "time": "11:00am"}, {"days": "Sun", "time": "Closed"}], "id": "1330400003", "name": "USPS COLLECTION BOX - PO LOBBY", "address": {"city": "BARNEVELD", "state": "NY", "street": "117 REMSEN RD", "postcode": "13304"}}},
{"geometry": {"type": "Point", "coordinates": [-75.4253325624, 43.8876206274]}, "type": "Feature", "properties": {"collection_times": [{"days": "Mon-Fri", "time": "4:00pm"}, {"days": "Sat", "time": "11:30am"}, {"days": "Sun", "time": "Closed"}], "id": "1330500001", "name": "USPS COLLECTION BOX - BLUE BOX", "address": {"city": "BEAVER FALLS", "state": "NY", "street": "9572 MAIN ST", "postcode": "13305"}}},
{"geometry": {"type": "Point", "coordinates": [-75.4300455315, 43.8857862506]}, "type": "Feature", "properties": {"collection_times": [{"days": "Mon-Fri", "time": "1:00pm"}, {"days": "Sat", "time": "11:30am"}, {"days": "Sun", "time": "Closed"}], "id": "1330500002", "name": "USPS COLLECTION BOX - PO LOBBY", "address": {"city": "BEAVER FALLS", "state": "NY", "street": "9572 MAIN ST", "postcode": "13305"}}},
{"geometry": {"type": "Point", "coordinates": [-75.6938833588, 43.2739072401]}, "type": "Feature", "properties": {"collection_times": [{"days": "Mon-Fri", "time": "4:30pm"}, {"days": "Sat", "time": "11:00am"}, {"days": "Sun", "time": "Closed"}], "id": "1330800001", "name": "USPS COLLECTION BOX - BLUE BOX", "address": {"city": "BLOSSVALE", "state": "NY", "street": "8461 MILL POND WAY", "postcode": "13308"}}},
{"geometry": {"type": "Point", "coordinates": [-75.6938833588, 43.2739072401]}, "type": "Feature", "properties": {"collection_times": [{"days": "Mon-Fri", "time": "2:15pm"}, {"days": "Sat", "time": "11:00am"}, {"days": "Sun", "time": "Closed"}], "id": "1330800003", "name": "USPS COLLECTION BOX - PO LOBBY", "address": {"city": "BLOSSVALE", "state": "NY", "street": "8461 MILL POND WAY", "postcode": "13308"}}},
{"geometry": {"type": "Point", "coordinates": [-75.3347669695, 43.483958264]}, "type": "Feature", "properties": {"collection_times": [{"days": "Mon-Fri", "time": "5:00pm"}, {"days": "Sat", "time": "3:00pm"}, {"days": "Sun", "time": "Closed"}], "id": "1330900001", "name": "USPS COLLECTION BOX - BLUE BOX", "address": {"city": "BOONVILLE", "state": "NY", "street": "100 MAIN ST", "postcode": "13309"}}},
{"geometry": {"type": "Point", "coordinates": [-75.3347669695, 43.483958264]}, "type": "Feature", "properties": {"collection_times": [{"days": "Mon-Fri", "time": "5:00pm"}, {"days": "Sat", "time": "3:00pm"}, {"days": "Sun", "time": "Closed"}], "id": "1330900003", "name": "USPS COLLECTION BOX - BLUE BOX", "address": {"city": "BOONVILLE", "state": "NY", "street": "100 MAIN ST", "postcode": "13309"}}},
{"geometry": {"type": "Point", "coordinates": [-75.3356813967, 43.4816585918]}, "type": "Feature", "properties": {"collection_times": [{"days": "Mon-Sat", "time": "9:30am"}, {"days": "Sun", "time": "Closed"}], "id": "1330900005", "name": "USPS COLLECTION BOX - BLUE BOX", "address": {"city": "BOONVILLE", "state": "NY", "street": "436 POST ST", "postcode": "13309"}}},
{"geometry": {"type": "Point", "coordinates": [-75.339705368, 43.4836034828]}, "type": "Feature", "properties": {"collection_times": [{"days": "Mon-Sat", "time": "11:00am"}, {"days": "Sun", "time": "Closed"}], "id": "1330900007", "name": "USPS COLLECTION BOX - BLUE BOX", "address": {"city": "BOONVILLE", "state": "NY", "street": "159 SCHUYLER ST", "postcode": "13309"}}},
{"geometry": {"type": "Point", "coordinates": [-75.3187711084, 43.4766138723]}, "type": "Feature", "properties": {"collection_times": [{"days": "Mon-Sat", "time": "10:00am"}, {"days": "Sun", "time": "Closed"}], "id": "1330900012", "name": "USPS COLLECTION BOX - BLUE BOX", "address": {"city": "BOONVILLE", "state": "NY", "street": "1 HEADWATERS PLZ", "postcode": "13309"}}},
{"geometry": {"type": "Point", "coordinates": [-75.3347669695, 43.483958264]}, "type": "Feature", "properties": {"collection_times": [{"days": "Mon-Fri", "time": "5:00pm"}, {"days": "Sat", "time": "3:00pm"}, {"days": "Sun", "time": "Closed"}], "id": "1330900019", "name": "USPS COLLECTION BOX - PO LOBBY", "address": {"city": "BOONVILLE", "state": "NY", "street": "100 MAIN ST", "postcode": "13309"}}},
{"geometry": {"type": "Point", "coordinates": [-75.2510538018, 42.8791955241]}, "type": "Feature", "properties": {"collection_times": [{"days": "Mon-Fri", "time": "4:30pm"}, {"days": "Sat", "time": "10:15am"}, {"days": "Sun", "time": "Closed"}], "id": "1331300001", "name": "USPS COLLECTION BOX - BLUE BOX", "address": {"city": "BRIDGEWATER", "state": "NY", "street": "320 STATE ROUTE 8", "postcode": "13313"}}},
{"geometry": {"type": "Point", "coordinates": [-75.2510538018, 42.8791955241]}, "type": "Feature", "properties": {"collection_times": [{"days": "Mon-Fri", "time": "5:00pm"}, {"days": "Sat", "time": "11:00am"}, {"days": "Sun", "time": "Closed"}], "id": "1331300002", "name": "USPS COLLECTION BOX - PO LOBBY", "address": {"city": "BRIDGEWATER", "state": "NY", "street": "320 STATE ROUTE 8", "postcode": "13313"}}},
{"geometry": {"type": "Point", "coordinates": [-75.340677929, 42.8130581899]}, "type": "Feature", "properties": {"collection_times": [{"days": "Mon-Fri", "time": "4:00pm"}, {"days": "Sat", "time": "10:15am"}, {"days": "Sun", "time": "Closed"}], "id": "1331400001", "name": "USPS COLLECTION BOX - BLUE BOX", "address": {"city": "BROOKFIELD", "state": "NY", "street": "10511 MAIN ST", "postcode": "13314"}}},
{"geometry": {"type": "Point", "coordinates": [-75.3187616103, 42.8129369824]}, "type": "Feature", "properties": {"collection_times": [{"days": "Mon-Fri", "time": "12:00pm"}, {"days": "Sat", "time": "10:30am"}, {"days": "Sun", "time": "Closed"}], "id": "1331400002", "name": "USPS COLLECTION BOX - PO LOBBY", "address": {"city": "BROOKFIELD", "state": "NY", "street": "10511 MAIN ST", "postcode": "13314"}}},
{"geometry": {"type": "Point", "coordinates": [-75.1836824227, 42.7484997895]}, "type": "Feature", "properties": {"collection_times": [{"days": "Mon-Fri", "time": "4:15pm"}, {"days": "Sat", "time": "10:45am"}, {"days": "Sun", "time": "Closed"}], "id": "1331500001", "name": "USPS COLLECTION BOX - BLUE BOX", "address": {"city": "BURLNGTN FLT", "state": "NY", "street": "6047 STATE HIGHWAY 51", "postcode": "13315"}}},
{"geometry": {"type": "Point", "coordinates": [-75.183057207, 42.745663344]}, "type": "Feature", "properties": {"collection_times": [{"days": "Mon-Fri", "time": "12:00pm"}, {"days": "Sat", "time": "10:45am"}, {"days": "Sun", "time": "Closed"}], "id": "1331500004", "name": "USPS COLLECTION BOX - PO LOBBY", "address": {"city": "BURLNGTN FLT", "state": "NY", "street": "6047 STATE HIGHWAY 51", "postcode": "13315"}}},
{"geometry": {"type": "Point", "coordinates": [-75.7482380863, 43.3358740332]}, "type": "Feature", "properties": {"collection_times": [{"days": "Mon-Fri", "time": "5:00pm"}, {"days": "Sat", "time": "11:45am"}, {"days": "Sun", "time": "Closed"}], "id": "1331600001", "name": "USPS COLLECTION BOX - BLUE BOX", "address": {"city": "CAMDEN", "state": "NY", "street": "100 MAIN ST", "postcode": "13316"}}},
{"geometry": {"type": "Point", "coordinates": [-75.7504435935, 43.3344753166]}, "type": "Feature", "properties": {"collection_times": [{"days": "Mon-Sat", "time": "10:00am"}, {"days": "Sun", "time": "Closed"}], "id": "1331600003", "name": "USPS COLLECTION BOX - BLUE BOX", "address": {"city": "CAMDEN", "state": "NY", "street": "8 MASONIC AVE", "postcode": "13316"}}},
{"geometry": {"type": "Point", "coordinates": [-75.747810088, 43.3339222532]}, "type": "Feature", "properties": {"collection_times": [{"days": "Mon-Sat", "time": "2:00pm"}, {"days": "Sun", "time": "Closed"}], "id": "1331600004", "name": "USPS COLLECTION BOX - BLUE BOX", "address": {"city": "CAMDEN", "state": "NY", "street": "35 MAIN ST", "postcode": "13316"}}},
{"geometry": {"type": "Point", "coordinates": [-75.7470565598, 43.3385383014]}, "type": "Feature", "properties": {"collection_times": [{"days": "Mon-Sat", "time": "12:00pm"}, {"days": "Sun", "time": "Closed"}], "id": "1331600006", "name": "USPS COLLECTION BOX - BLUE BOX", "address": {"city": "CAMDEN", "state": "NY", "street": "73 2ND ST", "postcode": "13316"}}},
{"geometry": {"type": "Point", "coordinates": [-75.7482380863, 43.3358740332]}, "type": "Feature", "properties": {"collection_times": [{"days": "Mon-Fri", "time": "4:45pm"}, {"days": "Sat", "time": "11:45am"}, {"days": "Sun", "time": "Closed"}], "id": "1331600007", "name": "USPS COLLECTION BOX - PO LOBBY", "address": {"city": "CAMDEN", "state": "NY", "street": "100 MAIN ST", "postcode": "13316"}}},
{"geometry": {"type": "Point", "coordinates": [-75.7505746797, 43.341286315]}, "type": "Feature", "properties": {"collection_times": [{"days": "Mon-Sat", "time": "1:00pm"}, {"days": "Sun", "time": "Closed"}], "id": "1331600008", "name": "USPS COLLECTION BOX - BLUE BOX", "address": {"city": "CAMDEN", "state": "NY", "street": "19 OSWEGO ST", "postcode": "13316"}}},
{"geometry": {"type": "Point", "coordinates": [-75.7388057266, 43.3236159844]}, "type": "Feature", "properties": {"collection_times": [{"days": "Mon-Sat", "time": "9:00am"}, {"days": "Sun", "time": "Closed"}], "id": "1331600009", "name": "USPS COLLECTION BOX - BLUE BOX", "address": {"city": "CAMDEN", "state": "NY", "street": "9554 STATE ROUTE 13", "postcode": "13316"}}},
{"geometry": {"type": "Point", "coordinates": [-74.5759816005, 42.902639216]}, "type": "Feature", "properties": {"collection_times": [{"days": "Mon-Sat", "time": "9:15am"}, {"days": "Sun", "time": "Closed"}], "id": "1331700007", "name": "USPS COLLECTION BOX - BLUE BOX", "address": {"city": "CANAJOHARIE", "state": "NY", "street": "82 OTSEGO ST", "postcode": "13317"}}},
{"geometry": {"type": "Point", "coordinates": [-74.568471935, 42.9041699352]}, "type": "Feature", "properties": {"collection_times": [{"days": "Mon-Sat", "time": "9:15am"}, {"days": "Sun", "time": "Closed"}], "id": "1331700010", "name": "USPS COLLECTION BOX - BLUE BOX", "address": {"city": "CANAJOHARIE", "state": "NY", "street": "75 MONTGOMERY ST", "postcode": "13317"}}},
{"geometry": {"type": "Point", "coordinates": [-74.571795583, 42.906935931]}, "type": "Feature", "properties": {"collection_times": [{"days": "Mon-Fri", "time": "3:00pm"}, {"days": "Sat", "time": "12:00pm"}, {"days": "Sun", "time": "Closed"}], "id": "1331700015", "name": "USPS COLLECTION BOX - BLUE BOX", "address": {"city": "CANAJOHARIE", "state": "NY", "street": "1 ERIE BLVD", "postcode": "13317"}}},
{"geometry": {"type": "Point", "coordinates": [-74.572369204, 42.9050998692]}, "type": "Feature", "properties": {"collection_times": [{"days": "Mon-Fri", "time": "3:00pm"}, {"days": "Sat", "time": "12:00pm"}, {"days": "Sun", "time": "Closed"}], "id": "1331700017", "name": "USPS COLLECTION BOX - BLUE BOX", "address": {"city": "CANAJOHARIE", "state": "NY", "street": "13 CHURCH ST", "postcode": "13317"}}},
{"geometry": {"type": "Point", "coordinates": [-74.573057326, 42.9062543386]}, "type": "Feature", "properties": {"collection_times": [{"days": "Mon-Fri", "time": "5:00pm"}, {"days": "Sat", "time": "2:00pm"}, {"days": "Sun", "time": "Closed"}], "id": "1331700024", "name": "USPS COLLECTION BOX - BLUE BOX", "address": {"city": "CANAJOHARIE", "state": "NY", "street": "50 W MAIN ST", "postcode": "13317"}}},
{"geometry": {"type": "Point", "coordinates": [-74.573057326, 42.9062543386]}, "type": "Feature", "properties": {"collection_times": [{"days": "Mon-Fri", "time": "5:00pm"}, {"days": "Sat", "time": "2:00pm"}, {"days": "Sun", "time": "Closed"}], "id": "1331700025", "name": "USPS COLLECTION BOX - PO LOBBY", "address": {"city": "CANAJOHARIE", "state": "NY", "street": "50 W MAIN ST", "postcode": "13317"}}},
{"geometry": {"type": "Point", "coordinates": [-75.2535215937, 42.9431067434]}, "type": "Feature", "properties": {"collection_times": [{"days": "Mon-Fri", "time": "4:45pm"}, {"days": "Sat", "time": "11:00am"}, {"days": "Sun", "time": "Closed"}], "id": "1331800001", "name": "USPS COLLECTION BOX - BLUE BOX", "address": {"city": "CASSVILLE", "state": "NY", "street": "1685 MAIN ST", "postcode": "13318"}}},
{"geometry": {"type": "Point", "coordinates": [-75.2535215937, 42.9431067434]}, "type": "Feature", "properties": {"collection_times": [{"days": "Mon-Fri", "time": "12:00pm"}, {"days": "Sat", "time": "11:00am"}, {"days": "Sun", "time": "Closed"}], "id": "1331800002", "name": "USPS COLLECTION BOX - PO LOBBY", "address": {"city": "CASSVILLE", "state": "NY", "street": "1685 MAIN ST", "postcode": "13318"}}},
{"geometry": {"type": "Point", "coordinates": [-75.2704471246, 43.0262217561]}, "type": "Feature", "properties": {"collection_times": [{"days": "Mon-Fri", "time": "4:30pm"}, {"days": "Sat", "time": "10:45am"}, {"days": "Sun", "time": "Closed"}], "id": "1331900001", "name": "USPS COLLECTION BOX - BLUE BOX", "address": {"city": "CHADWICKS", "state": "NY", "street": "3367 ONEIDA ST", "postcode": "13319"}}},
{"geometry": {"type": "Point", "coordinates": [-75.2704471246, 43.0262217561]}, "type": "Feature", "properties": {"collection_times": [{"days": "Mon-Fri", "time": "12:00pm"}, {"days": "Sat", "time": "10:45am"}, {"days": "Sun", "time": "Closed"}], "id": "1331900002", "name": "USPS COLLECTION BOX - PO LOBBY", "address": {"city": "CHADWICKS", "state": "NY", "street": "3367 ONEIDA ST", "postcode": "13319"}}},
{"geometry": {"type": "Point", "coordinates": [-74.7577367407, 42.7984658831]}, "type": "Feature", "properties": {"collection_times": [{"days": "Mon-Fri", "time": "4:00pm"}, {"days": "Sat", "time": "11:30am"}, {"days": "Sun", "time": "Closed"}], "id": "1332000001", "name": "USPS COLLECTION BOX - BLUE BOX", "address": {"city": "CHERRY VALLEY", "state": "NY", "street": "2 GENESEE ST", "postcode": "13320"}}},
{"geometry": {"type": "Point", "coordinates": [-74.7577367407, 42.7984658831]}, "type": "Feature", "properties": {"collection_times": [{"days": "Mon-Fri", "time": "4:15pm"}, {"days": "Sat", "time": "11:40am"}, {"days": "Sun", "time": "Closed"}], "id": "1332000002", "name": "USPS COLLECTION BOX - PO LOBBY", "address": {"city": "CHERRY VALLEY", "state": "NY", "street": "2 GENESEE ST", "postcode": "13320"}}},
{"geometry": {"type": "Point", "coordinates": [-75.3745735285, 43.0896535266]}, "type": "Feature", "properties": {"collection_times": [{"days": "Mon-Fri", "time": "4:30pm"}, {"days": "Sat", "time": "11:30am"}, {"days": "Sun", "time": "Closed"}], "id": "1332100002", "name": "USPS COLLECTION BOX - BLUE BOX", "address": {"city": "CLARK MILLS", "state": "NY", "street": "4814 CLINTON ST", "postcode": "13321"}}},
{"geometry": {"type": "Point", "coordinates": [-75.3745735285, 43.0896535266]}, "type": "Feature", "properties": {"collection_times": [{"days": "Mon-Fri", "time": "5:00pm"}, {"days": "Sat", "time": "12:00pm"}, {"days": "Sun", "time": "Closed"}], "id": "1332100004", "name": "USPS COLLECTION BOX - PO LOBBY", "address": {"city": "CLARK MILLS", "state": "NY", "street": "4814 CLINTON ST", "postcode": "13321"}}},
{"geometry": {"type": "Point", "coordinates": [-75.2483900727, 42.976879118]}, "type": "Feature", "properties": {"collection_times": [{"days": "Mon-Fri", "time": "5:15pm"}, {"days": "Sat", "time": "11:45am"}, {"days": "Sun", "time": "Closed"}], "id": "1332200001", "name": "USPS COLLECTION BOX - BLUE BOX", "address": {"city": "CLAYVILLE", "state": "NY", "street": "2370 MAIN ST", "postcode": "13322"}}},
{"geometry": {"type": "Point", "coordinates": [-75.2305778607, 42.9571829793]}, "type": "Feature", "properties": {"collection_times": [{"days": "Mon-Sat", "time": "12:00pm"}, {"days": "Sun", "time": "Closed"}], "id": "1332200002", "name": "USPS COLLECTION BOX - PO LOBBY", "address": {"city": "CLAYVILLE", "state": "NY", "street": "2370 MAIN ST", "postcode": "13322"}}},
{"geometry": {"type": "Point", "coordinates": [-75.378611468, 43.0448848388]}, "type": "Feature", "properties": {"collection_times": [{"days": "Mon-Fri", "time": "2:45pm"}, {"days": "Sat", "time": "2:00pm"}, {"days": "Sun", "time": "Closed"}], "id": "1332300004", "name": "USPS COLLECTION BOX - BLUE BOX", "address": {"city": "CLINTON", "state": "NY", "street": "1 A N PARK ROW", "postcode": "13323"}}},
{"geometry": {"type": "Point", "coordinates": [-75.378611468, 43.0448848388]}, "type": "Feature", "properties": {"collection_times": [{"days": "Mon-Fri", "time": "2:45pm"}, {"days": "Sat", "time": "2:00pm"}, {"days": "Sun", "time": "Closed"}], "id": "1332300005", "name": "USPS COLLECTION BOX - BLUE BOX", "address": {"city": "CLINTON", "state": "NY", "street": "1 A N PARK ROW", "postcode": "13323"}}},
{"geometry": {"type": "Point", "coordinates": [-75.3823237606, 43.0482643035]}, "type": "Feature", "properties": {"collection_times": [{"days": "Mon-Fri", "time": "5:15pm"}, {"days": "Sat", "time": "3:30pm"}, {"days": "Sun", "time": "Closed"}], "id": "1332300006", "name": "USPS COLLECTION BOX - BLUE BOX", "address": {"city": "CLINTON", "state": "NY", "street": "40 COLLEGE ST", "postcode": "13323"}}},
{"geometry": {"type": "Point", "coordinates": [-75.3823237606, 43.0482643035]}, "type": "Feature", "properties": {"collection_times": [{"days": "Mon-Fri", "time": "5:15pm"}, {"days": "Sat", "time": "3:30pm"}, {"days": "Sun", "time": "Closed"}], "id": "1332300007", "name": "USPS COLLECTION BOX - BLUE BOX", "address": {"city": "CLINTON", "state": "NY", "street": "40 COLLEGE ST", "postcode": "13323"}}},
{"geometry": {"type": "Point", "coordinates": [-75.3787209928, 43.0494124837]}, "type": "Feature", "properties": {"collection_times": [{"days": "Mon-Fri", "time": "2:45pm"}, {"days": "Sat", "time": "2:00pm"}, {"days": "Sun", "time": "Closed"}], "id": "1332300008", "name": "USPS COLLECTION BOX - BLUE BOX", "address": {"city": "CLINTON", "state": "NY", "street": "1 W PARK ROW", "postcode": "13323"}}},
{"geometry": {"type": "Point", "coordinates": [-75.3789800608, 43.0482141463]}, "type": "Feature", "properties": {"collection_times": [{"days": "Mon-Fri", "time": "2:45pm"}, {"days": "Sat", "time": "2:00pm"}, {"days": "Sun", "time": "Closed"}], "id": "1332300009", "name": "USPS COLLECTION BOX - BLUE BOX", "address": {"city": "CLINTON", "state": "NY", "street": "1 COLLEGE ST", "postcode": "13323"}}},
{"geometry": {"type": "Point", "coordinates": [-75.3749213286, 43.0478296846]}, "type": "Feature", "properties": {"collection_times": [{"days": "Mon-Sat", "time": "11:15am"}, {"days": "Sun", "time": "Closed"}], "id": "1332300012", "name": "USPS COLLECTION BOX - BLUE BOX", "address": {"city": "CLINTON", "state": "NY", "street": "28 MULBERRY ST", "postcode": "13323"}}},
{"geometry": {"type": "Point", "coordinates": [-75.3823237606, 43.0482643035]}, "type": "Feature", "properties": {"collection_times": [{"days": "Mon-Fri", "time": "5:30pm"}, {"days": "Sat", "time": "3:30pm"}, {"days": "Sun", "time": "Closed"}], "id": "1332300023", "name": "USPS COLLECTION BOX - PO LOBBY", "address": {"city": "CLINTON", "state": "NY", "street": "40 COLLEGE ST", "postcode": "13323"}}},
{"geometry": {"type": "Point", "coordinates": [-75.0373180272, 43.2433582357]}, "type": "Feature", "properties": {"collection_times": [{"days": "Mon-Fri", "time": "4:15pm"}, {"days": "Sat", "time": "11:15am"}, {"days": "Sun", "time": "Closed"}], "id": "1332400001", "name": "USPS COLLECTION BOX - BLUE BOX", "address": {"city": "COLD BROOK", "state": "NY", "street": "475 MAIN ST", "postcode": "13324"}}},
{"geometry": {"type": "Point", "coordinates": [-75.0373180272, 43.2433582357]}, "type": "Feature", "properties": {"collection_times": [{"days": "Mon-Fri", "time": "4:15pm"}, {"days": "Sat", "time": "11:15am"}, {"days": "Sun", "time": "Closed"}], "id": "1332400002", "name": "USPS COLLECTION BOX - PO LOBBY", "address": {"city": "COLD BROOK", "state": "NY", "street": "475 MAIN ST", "postcode": "13324"}}},
{"geometry": {"type": "Point", "coordinates": [-75.429197507, 43.5637723009]}, "type": "Feature", "properties": {"collection_times": [{"days": "Mon-Fri", "time": "12:00pm"}, {"days": "Sat", "time": "11:00am"}, {"days": "Sun", "time": "Closed"}], "id": "1332500001", "name": "USPS COLLECTION BOX - BLUE BOX", "address": {"city": "CONSTABLEVILLE", "state": "NY", "street": "3109 MAIN ST", "postcode": "13325"}}},
{"geometry": {"type": "Point", "coordinates": [-75.42903739, 43.564389943]}, "type": "Feature", "properties": {"collection_times": [{"days": "Mon-Fri", "time": "12:00pm"}, {"days": "Sat", "time": "11:00am"}, {"days": "Sun", "time": "Closed"}], "id": "1332500002", "name": "USPS COLLECTION BOX - PO LOBBY", "address": {"city": "CONSTABLEVILLE", "state": "NY", "street": "3109 MAIN ST", "postcode": "13325"}}},
{"geometry": {"type": "Point", "coordinates": [-74.9233856703, 42.7003324408]}, "type": "Feature", "properties": {"collection_times": [{"days": "Mon-Fri", "time": "5:00pm"}, {"days": "Sat", "time": "3:30pm"}, {"days": "Sun", "time": "Closed"}], "id": "1332600002", "name": "USPS COLLECTION BOX - BLUE BOX", "address": {"city": "COOPERSTOWN", "state": "NY", "street": "40 MAIN ST", "postcode": "13326"}}},
{"geometry": {"type": "Point", "coordinates": [-74.925056873, 42.70064251]}, "type": "Feature", "properties": {"collection_times": [{"days": "Mon-Fri", "time": "3:00pm"}, {"days": "Sat", "time": "2:00pm"}, {"days": "Sun", "time": "Closed"}], "id": "1332600003", "name": "USPS COLLECTION BOX - BLUE BOX", "address": {"city": "COOPERSTOWN", "state": "NY", "street": "99 MAIN ST", "postcode": "13326"}}},
{"geometry": {"type": "Point", "coordinates": [-74.9268770538, 42.7009877551]}, "type": "Feature", "properties": {"collection_times": [{"days": "Mon-Fri", "time": "3:00pm"}, {"days": "Sat", "time": "1:00pm"}, {"days": "Sun", "time": "Closed"}], "id": "1332600004", "name": "USPS COLLECTION BOX - BLUE BOX", "address": {"city": "COOPERSTOWN", "state": "NY", "street": "161 MAIN ST", "postcode": "13326"}}},
{"geometry": {"type": "Point", "coordinates": [-74.9323917582, 42.6983185436]}, "type": "Feature", "properties": {"collection_times": [{"days": "Mon-Sat", "time": "10:00am"}, {"days": "Sun", "time": "Closed"}], "id": "1332600005", "name": "USPS COLLECTION BOX - BLUE BOX", "address": {"city": "COOPERSTOWN", "state": "NY", "street": "16 GLEN AVE", "postcode": "13326"}}},
{"geometry": {"type": "Point", "coordinates": [-74.9334547765, 42.6948313104]}, "type": "Feature", "properties": {"collection_times": [{"days": "Mon-Sat", "time": "12:00pm"}, {"days": "Sun", "time": "Closed"}], "id": "1332600006", "name": "USPS COLLECTION BOX - BLUE BOX", "address": {"city": "COOPERSTOWN", "state": "NY", "street": "99 CHESTNUT ST", "postcode": "13326"}}},
{"geometry": {"type": "Point", "coordinates": [-74.9279213563, 42.6948678523]}, "type": "Feature", "properties": {"collection_times": [{"days": "Mon-Sat", "time": "12:00pm"}, {"days": "Sun", "time": "Closed"}], "id": "1332600007", "name": "USPS COLLECTION BOX - BLUE BOX", "address": {"city": "COOPERSTOWN", "state": "NY", "street": "61 SUSQUEHANNA AVE", "postcode": "13326"}}},
{"geometry": {"type": "Point", "coordinates": [-74.9277435592, 42.6977663889]}, "type": "Feature", "properties": {"collection_times": [{"days": "Mon-Sat", "time": "11:00am"}, {"days": "Sun", "time": "Closed"}], "id": "1332600008", "name": "USPS COLLECTION BOX - BLUE BOX", "address": {"city": "COOPERSTOWN", "state": "NY", "street": "35 ELM ST", "postcode": "13326"}}},
{"geometry": {"type": "Point", "coordinates": [-74.9307983125, 42.6926935737]}, "type": "Feature", "properties": {"collection_times": [{"days": "Mon-Sat", "time": "12:00pm"}, {"days": "Sun", "time": "Closed"}], "id": "1332600009", "name": "USPS COLLECTION BOX - BLUE BOX", "address": {"city": "COOPERSTOWN", "state": "NY", "street": "14 WALNUT ST", "postcode": "13326"}}},
{"geometry": {"type": "Point", "coordinates": [-74.9600435393, 42.6498995348]}, "type": "Feature", "properties": {"collection_times": [{"days": "Mon-Sat", "time": "10:30am"}, {"days": "Sun", "time": "Closed"}], "id": "1332600011", "name": "USPS COLLECTION BOX - BLUE BOX", "address": {"city": "COOPERSTOWN", "state": "NY", "street": "9 COMMONS DR", "postcode": "13326"}}},
{"geometry": {"type": "Point", "coordinates": [-74.9233856703, 42.7003324408]}, "type": "Feature", "properties": {"collection_times": [{"days": "Mon-Fri", "time": "5:00pm"}, {"days": "Sat", "time": "3:30pm"}, {"days": "Sun", "time": "Closed"}], "id": "1332600013", "name": "USPS COLLECTION BOX - PO LOBBY", "address": {"city": "COOPERSTOWN", "state": "NY", "street": "40 MAIN ST", "postcode": "13326"}}},
{"geometry": {"type": "Point", "coordinates": [-74.9233856703, 42.7003324408]}, "type": "Feature", "properties": {"collection_times": [{"days": "Mon-Fri", "time": "5:00pm"}, {"days": "Sat", "time": "3:30pm"}, {"days": "Sun", "time": "Closed"}], "id": "1332600014", "name": "USPS COLLECTION BOX - PO LOBBY", "address": {"city": "COOPERSTOWN", "state": "NY", "street": "40 MAIN ST", "postcode": "13326"}}},
{"geometry": {"type": "Point", "coordinates": [-75.3931798423, 43.8928617792]}, "type": "Feature", "properties": {"collection_times": [{"days": "Mon-Fri", "time": "4:00pm"}, {"days": "Sat", "time": "11:45am"}, {"days": "Sun", "time": "Closed"}], "id": "1332700001", "name": "USPS COLLECTION BOX - BLUE BOX", "address": {"city": "CROGHAN", "state": "NY", "street": "6915 BANK ST", "postcode": "13327"}}},
{"geometry": {"type": "Point", "coordinates": [-75.3931798423, 43.8928617792]}, "type": "Feature", "properties": {"collection_times": [{"days": "Mon-Fri", "time": "4:15pm"}, {"days": "Sat", "time": "11:45am"}, {"days": "Sun", "time": "Closed"}], "id": "1332700002", "name": "USPS COLLECTION BOX - PO LOBBY", "address": {"city": "CROGHAN", "state": "NY", "street": "6915 BANK ST", "postcode": "13327"}}},
{"geometry": {"type": "Point", "coordinates": [-75.4284511114, 42.9946425642]}, "type": "Feature", "properties": {"collection_times": [{"days": "Mon-Fri", "time": "4:45pm"}, {"days": "Sat", "time": "11:15am"}, {"days": "Sun", "time": "Closed"}], "id": "1332800001", "name": "USPS COLLECTION BOX - BLUE BOX", "address": {"city": "DEANSBORO", "state": "NY", "street": "2715 STATE ROUTE 12B", "postcode": "13328"}}},
{"geometry": {"type": "Point", "coordinates": [-75.4284511114, 42.9946425642]}, "type": "Feature", "properties": {"collection_times": [{"days": "Mon-Fri", "time": "12:00pm"}, {"days": "Sat", "time": "11:15am"}, {"days": "Sun", "time": "Closed"}], "id": "1332800002", "name": "USPS COLLECTION BOX - PO LOBBY", "address": {"city": "DEANSBORO", "state": "NY", "street": "2715 STATE ROUTE 12B", "postcode": "13328"}}},
{"geometry": {"type": "Point", "coordinates": [-74.7701524851, 43.102909437]}, "type": "Feature", "properties": {"collection_times": [{"days": "Mon-Fri", "time": "2:30pm"}, {"days": "Sat", "time": "12:00pm"}, {"days": "Sun", "time": "Closed"}], "id": "1332900002", "name": "USPS COLLECTION BOX - BLUE BOX", "address": {"city": "DOLGEVILLE", "state": "NY", "street": "24 N MAIN ST", "postcode": "13329"}}},
{"geometry": {"type": "Point", "coordinates": [-74.770153668, 43.1041799349]}, "type": "Feature", "properties": {"collection_times": [{"days": "Mon-Fri", "time": "2:30pm"}, {"days": "Sat", "time": "12:00pm"}, {"days": "Sun", "time": "Closed"}], "id": "1332900003", "name": "USPS COLLECTION BOX - BLUE BOX", "address": {"city": "DOLGEVILLE", "state": "NY", "street": "71 N MAIN ST", "postcode": "13329"}}},
{"geometry": {"type": "Point", "coordinates": [-74.7729383509, 43.1005733593]}, "type": "Feature", "properties": {"collection_times": [{"days": "Mon-Fri", "time": "4:30pm"}, {"days": "Sat", "time": "12:00pm"}, {"days": "Sun", "time": "Closed"}], "id": "1332900011", "name": "USPS COLLECTION BOX - BLUE BOX", "address": {"city": "DOLGEVILLE", "state": "NY", "street": "1 CRAMER LN", "postcode": "13329"}}},
{"geometry": {"type": "Point", "coordinates": [-74.7727680073, 43.1006440706]}, "type": "Feature", "properties": {"collection_times": [{"days": "Mon-Fri", "time": "5:00pm"}, {"days": "Sat", "time": "12:00pm"}, {"days": "Sun", "time": "Closed"}], "id": "1332900016", "name": "USPS COLLECTION BOX - BLUE BOX", "address": {"city": "DOLGEVILLE", "state": "NY", "street": "41 S MAIN ST", "postcode": "13329"}}},
{"geometry": {"type": "Point", "coordinates": [-74.7727680073, 43.1006440706]}, "type": "Feature", "properties": {"collection_times": [{"days": "Mon-Fri", "time": "5:00pm"}, {"days": "Sat", "time": "12:00pm"}, {"days": "Sun", "time": "Closed"}], "id": "1332900017", "name": "USPS COLLECTION BOX - PO LOBBY", "address": {"city": "DOLGEVILLE", "state": "NY", "street": "41 S MAIN ST", "postcode": "13329"}}},
{"geometry": {"type": "Point", "coordinates": [-74.8153722673, 43.7686773682]}, "type": "Feature", "properties": {"collection_times": [{"days": "Mon-Fri", "time": "3:45pm"}, {"days": "Sat", "time": "11:00am"}, {"days": "Sun", "time": "Closed"}], "id": "1333100001", "name": "USPS COLLECTION BOX - BLUE BOX", "address": {"city": "EAGLE BAY", "state": "NY", "street": "102 EAST AVE", "postcode": "13331"}}},
{"geometry": {"type": "Point", "coordinates": [-74.8153722673, 43.7686773682]}, "type": "Feature", "properties": {"collection_times": [{"days": "Mon-Fri", "time": "2:00pm"}, {"days": "Sat", "time": "11:00am"}, {"days": "Sun", "time": "Closed"}], "id": "1333100002", "name": "USPS COLLECTION BOX - PO LOBBY", "address": {"city": "EAGLE BAY", "state": "NY", "street": "102 EAST AVE", "postcode": "13331"}}},
{"geometry": {"type": "Point", "coordinates": [-75.545224833, 42.7401030202]}, "type": "Feature", "properties": {"collection_times": [{"days": "Mon-Fri", "time": "4:00pm"}, {"days": "Sat", "time": "10:30am"}, {"days": "Sun", "time": "Closed"}], "id": "1333200001", "name": "USPS COLLECTION BOX - BLUE BOX", "address": {"city": "EARLVILLE", "state": "NY", "street": "11 S MAIN ST", "postcode": "13332"}}},
{"geometry": {"type": "Point", "coordinates": [-75.545224833, 42.7401030202]}, "type": "Feature", "properties": {"collection_times": [{"days": "Mon-Fri", "time": "4:15pm"}, {"days": "Sat", "time": "10:45am"}, {"days": "Sun", "time": "Closed"}], "id": "1333200002", "name": "USPS COLLECTION BOX - PO LOBBY", "address": {"city": "EARLVILLE", "state": "NY", "street": "11 S MAIN ST", "postcode": "13332"}}},
{"geometry": {"type": "Point", "coordinates": [-75.6097528786, 42.8500886299]}, "type": "Feature", "properties": {"collection_times": [{"days": "Mon-Fri", "time": "4:00pm"}, {"days": "Sat", "time": "11:00am"}, {"days": "Sun", "time": "Closed"}], "id": "1333400001", "name": "USPS COLLECTION BOX - BLUE BOX", "address": {"city": "EATON", "state": "NY", "street": "4084 STATE ROUTE 26", "postcode": "13334"}}},
{"geometry": {"type": "Point", "coordinates": [-75.6097528786, 42.8500886299]}, "type": "Feature", "properties": {"collection_times": [{"days": "Mon-Fri", "time": "12:00pm"}, {"days": "Sat", "time": "10:45am"}, {"days": "Sun", "time": "Closed"}], "id": "1333400002", "name": "USPS COLLECTION BOX - PO LOBBY", "address": {"city": "EATON", "state": "NY", "street": "4084 STATE ROUTE 26", "postcode": "13334"}}},
{"geometry": {"type": "Point", "coordinates": [-75.2442780124, 42.6976837953]}, "type": "Feature", "properties": {"collection_times": [{"days": "Mon-Fri", "time": "3:30pm"}, {"days": "Sat", "time": "11:30am"}, {"days": "Sun", "time": "Closed"}], "id": "1333500001", "name": "USPS COLLECTION BOX - BLUE BOX", "address": {"city": "EDMESTON", "state": "NY", "street": "3 WEST ST", "postcode": "13335"}}},
{"geometry": {"type": "Point", "coordinates": [-75.2442780124, 42.6976837953]}, "type": "Feature", "properties": {"collection_times": [{"days": "Mon-Fri", "time": "4:00pm"}, {"days": "Sat", "time": "11:30am"}, {"days": "Sun", "time": "Closed"}], "id": "1333500004", "name": "USPS COLLECTION BOX - PO LOBBY", "address": {"city": "EDMESTON", "state": "NY", "street": "3 WEST ST", "postcode": "13335"}}},
{"geometry": {"type": "Point", "coordinates": [-74.9794510189, 42.7258712146]}, "type": "Feature", "properties": {"collection_times": [{"days": "Mon-Fri", "time": "4:15pm"}, {"days": "Sat", "time": "11:30am"}, {"days": "Sun", "time": "Closed"}], "id": "1333700001", "name": "USPS COLLECTION BOX - BLUE BOX", "address": {"city": "FLY CREEK", "state": "NY", "street": "845 COUNTY HIGHWAY 26", "postcode": "13337"}}},
{"geometry": {"type": "Point", "coordinates": [-74.9794510189, 42.7258712146]}, "type": "Feature", "properties": {"collection_times": [{"days": "Mon-Fri", "time": "5:00pm"}, {"days": "Sat", "time": "11:30am"}, {"days": "Sun", "time": "Closed"}], "id": "1333700002", "name": "USPS COLLECTION BOX - PO LOBBY", "address": {"city": "FLY CREEK", "state": "NY", "street": "845 COUNTY HIGHWAY 26", "postcode": "13337"}}},
{"geometry": {"type": "Point", "coordinates": [-75.2042891376, 43.4408218294]}, "type": "Feature", "properties": {"collection_times": [{"days": "Mon-Fri", "time": "4:30pm"}, {"days": "Sat", "time": "11:00am"}, {"days": "Sun", "time": "Closed"}], "id": "1333800003", "name": "USPS COLLECTION BOX - BLUE BOX", "address": {"city": "FORESTPORT", "state": "NY", "street": "12180 WOODHULL RD", "postcode": "13338"}}},
{"geometry": {"type": "Point", "coordinates": [-75.2042891376, 43.4408218294]}, "type": "Feature", "properties": {"collection_times": [{"days": "Mon-Fri", "time": "2:30pm"}, {"days": "Sat", "time": "11:00am"}, {"days": "Sun", "time": "Closed"}], "id": "1333800005", "name": "USPS COLLECTION BOX - PO LOBBY", "address": {"city": "FORESTPORT", "state": "NY", "street": "12180 WOODHULL RD", "postcode": "13338"}}},
{"geometry": {"type": "Point", "coordinates": [-74.6221341103, 42.9320869318]}, "type": "Feature", "properties": {"collection_times": [{"days": "Mon-Fri", "time": "5:00pm"}, {"days": "Sat", "time": "12:00pm"}, {"days": "Sun", "time": "Closed"}], "id": "1333900001", "name": "USPS COLLECTION BOX - BLUE BOX", "address": {"city": "FORT PLAIN", "state": "NY", "street": "41 RIVER ST", "postcode": "13339"}}},
{"geometry": {"type": "Point", "coordinates": [-74.6229860074, 42.9318351343]}, "type": "Feature", "properties": {"collection_times": [{"days": "Mon-Fri", "time": "5:00pm"}, {"days": "Sat", "time": "12:00pm"}, {"days": "Sun", "time": "Closed"}], "id": "1333900002", "name": "USPS COLLECTION BOX - BLUE BOX", "address": {"city": "FORT PLAIN", "state": "NY", "street": "98 LEGION ST", "postcode": "13339"}}},
{"geometry": {"type": "Point", "coordinates": [-74.6221341103, 42.9320869318]}, "type": "Feature", "properties": {"collection_times": [{"days": "Mon-Fri", "time": "5:00pm"}, {"days": "Sat", "time": "12:00pm"}, {"days": "Sun", "time": "Closed"}], "id": "1333900011", "name": "USPS COLLECTION BOX - PO LOBBY", "address": {"city": "FORT PLAIN", "state": "NY", "street": "41 RIVER ST", "postcode": "13339"}}},
{"geometry": {"type": "Point", "coordinates": [-75.0703626282, 43.0386925096]}, "type": "Feature", "properties": {"collection_times": [{"days": "Mon-Fri", "time": "5:00pm"}, {"days": "Sat", "time": "12:00pm"}, {"days": "Sun", "time": "Closed"}], "id": "1334000001", "name": "USPS COLLECTION BOX - BLUE BOX", "address": {"city": "FRANKFORT", "state": "NY", "street": "130 E MAIN ST", "postcode": "13340"}}},
{"geometry": {"type": "Point", "coordinates": [-75.1137103648, 43.0535956717]}, "type": "Feature", "properties": {"collection_times": [{"days": "Mon-Fri", "time": "5:00pm"}, {"days": "Sat", "time": "12:00pm"}, {"days": "Sun", "time": "Closed"}], "id": "1334000002", "name": "USPS COLLECTION BOX - BLUE BOX", "address": {"city": "FRANKFORT", "state": "NY", "street": "1 SKIFF AVE", "postcode": "13340"}}},
{"geometry": {"type": "Point", "coordinates": [-75.0703626282, 43.0386925096]}, "type": "Feature", "properties": {"collection_times": [{"days": "Mon-Fri", "time": "5:00pm"}, {"days": "Sat", "time": "2:00pm"}, {"days": "Sun", "time": "Closed"}], "id": "1334000015", "name": "USPS COLLECTION BOX - PO LOBBY", "address": {"city": "FRANKFORT", "state": "NY", "street": "130 E MAIN ST", "postcode": "13340"}}},
{"geometry": {"type": "Point", "coordinates": [-75.4050018728, 43.7070690824]}, "type": "Feature", "properties": {"collection_times": [{"days": "Mon-Fri", "time": "4:30pm"}, {"days": "Sat", "time": "12:00pm"}, {"days": "Sun", "time": "Closed"}], "id": "1334300001", "name": "USPS COLLECTION BOX - BLUE BOX", "address": {"city": "GLENFIELD", "state": "NY", "street": "6036 MAIN ST", "postcode": "13343"}}},
{"geometry": {"type": "Point", "coordinates": [-75.4050018728, 43.7070690824]}, "type": "Feature", "properties": {"collection_times": [{"days": "Mon-Fri", "time": "4:45pm"}, {"days": "Sat", "time": "12:00pm"}, {"days": "Sun", "time": "Closed"}], "id": "1334300003", "name": "USPS COLLECTION BOX - PO LOBBY", "address": {"city": "GLENFIELD", "state": "NY", "street": "6036 MAIN ST", "postcode": "13343"}}},
{"geometry": {"type": "Point", "coordinates": [-75.5437402195, 42.8259266931]}, "type": "Feature", "properties": {"collection_times": [{"days": "Mon-Fri", "time": "4:45pm"}, {"days": "Sat", "time": "12:00pm"}, {"days": "Sun", "time": "Closed"}], "id": "1334600001", "name": "USPS COLLECTION BOX - PO LOBBY", "address": {"city": "HAMILTON", "state": "NY", "street": "32 BROAD ST", "postcode": "13346"}}},
{"geometry": {"type": "Point", "coordinates": [-75.5437402195, 42.8259266931]}, "type": "Feature", "properties": {"collection_times": [{"days": "Mon-Fri", "time": "5:00pm"}, {"days": "Sat", "time": "12:00pm"}, {"days": "Sun", "time": "Closed"}], "id": "1334600002", "name": "USPS COLLECTION BOX - BLUE BOX", "address": {"city": "HAMILTON", "state": "NY", "street": "32 BROAD ST", "postcode": "13346"}}},
{"geometry": {"type": "Point", "coordinates": [-75.5462965938, 42.8271652511]}, "type": "Feature", "properties": {"collection_times": [{"days": "Mon-Sat", "time": "10:00am"}, {"days": "Sun", "time": "Closed"}], "id": "1334600019", "name": "USPS COLLECTION BOX - BLUE BOX", "address": {"city": "HAMILTON", "state": "NY", "street": "8 LEBANON ST", "postcode": "13346"}}},
{"geometry": {"type": "Point", "coordinates": [-75.0499722884, 42.6598471252]}, "type": "Feature", "properties": {"collection_times": [{"days": "Mon-Fri", "time": "4:00pm"}, {"days": "Sat", "time": "11:00am"}, {"days": "Sun", "time": "Closed"}], "id": "1334800001", "name": "USPS COLLECTION BOX - BLUE BOX", "address": {"city": "HARTWICK", "state": "NY", "street": "3095 COUNTY HIGHWAY 11", "postcode": "13348"}}},
{"geometry": {"type": "Point", "coordinates": [-75.0499722884, 42.6598471252]}, "type": "Feature", "properties": {"collection_times": [{"days": "Mon-Fri", "time": "12:00pm"}, {"days": "Sat", "time": "11:00am"}, {"days": "Sun", "time": "Closed"}], "id": "1334800002", "name": "USPS COLLECTION BOX - PO LOBBY", "address": {"city": "HARTWICK", "state": "NY", "street": "3095 COUNTY HIGHWAY 11", "postcode": "13348"}}},
{"geometry": {"type": "Point", "coordinates": [-74.9882546294, 43.026024202]}, "type": "Feature", "properties": {"collection_times": [{"days": "Mon-Fri", "time": "5:00pm"}, {"days": "Sat", "time": "2:30pm"}, {"days": "Sun", "time": "Closed"}], "id": "1335000001", "name": "USPS COLLECTION BOX - BLUE BOX", "address": {"city": "HERKIMER", "state": "NY", "street": "135 PARK AVE", "postcode": "13350"}}},
{"geometry": {"type": "Point", "coordinates": [-74.9882546294, 43.026024202]}, "type": "Feature", "properties": {"collection_times": [{"days": "Mon-Fri", "time": "5:00pm"}, {"days": "Sat", "time": "2:30pm"}, {"days": "Sun", "time": "Closed"}], "id": "1335000002", "name": "USPS COLLECTION BOX - BLUE BOX", "address": {"city": "HERKIMER", "state": "NY", "street": "135 PARK AVE", "postcode": "13350"}}},
{"geometry": {"type": "Point", "coordinates": [-74.9882546294, 43.026024202]}, "type": "Feature", "properties": {"collection_times": [{"days": "Mon-Fri", "time": "5:00pm"}, {"days": "Sat", "time": "2:30pm"}, {"days": "Sun", "time": "Closed"}], "id": "1335000003", "name": "USPS COLLECTION BOX - BLUE BOX", "address": {"city": "HERKIMER", "state": "NY", "street": "135 PARK AVE", "postcode": "13350"}}},
{"geometry": {"type": "Point", "coordinates": [-74.9942401544, 43.0189118532]}, "type": "Feature", "properties": {"collection_times": [{"days": "Mon-Fri", "time": "1:30pm"}, {"days": "Sat-Sun", "time": "Closed"}], "id": "1335000025", "name": "USPS COLLECTION BOX - BLUE BOX", "address": {"city": "HERKIMER", "state": "NY", "street": "1 ROUTE 5", "postcode": "13350"}}},
{"geometry": {"type": "Point", "coordinates": [-74.9882546294, 43.026024202]}, "type": "Feature", "properties": {"collection_times": [{"days": "Mon-Fri", "time": "5:00pm"}, {"days": "Sat", "time": "3:30pm"}, {"days": "Sun", "time": "Closed"}], "id": "1335000031", "name": "USPS COLLECTION BOX - PO LOBBY", "address": {"city": "HERKIMER", "state": "NY", "street": "135 PARK AVE", "postcode": "13350"}}},
{"geometry": {"type": "Point", "coordinates": [-74.9794407581, 43.0281653793]}, "type": "Feature", "properties": {"collection_times": [{"days": "Mon-Sat", "time": "9:45am"}, {"days": "Sun", "time": "Closed"}], "id": "1335000032", "name": "USPS COLLECTION BOX - BLUE BOX", "address": {"city": "HERKIMER", "state": "NY", "street": "401 E ALBANY ST", "postcode": "13350"}}},
{"geometry": {"type": "Point", "coordinates": [-74.9826639654, 43.0234370707]}, "type": "Feature", "properties": {"collection_times": [{"days": "Mon-Fri", "time": "3:30pm"}, {"days": "Sat", "time": "9:00am"}, {"days": "Sun", "time": "Closed"}], "id": "1335000033", "name": "USPS COLLECTION BOX - BLUE BOX", "address": {"city": "HERKIMER", "state": "NY", "street": "301 N WASHINGTON ST", "postcode": "13350"}}},
{"geometry": {"type": "Point", "coordinates": [-75.1243662524, 43.3104153498]}, "type": "Feature", "properties": {"collection_times": [{"days": "Mon-Fri", "time": "4:15pm"}, {"days": "Sat", "time": "11:30am"}, {"days": "Sun", "time": "Closed"}], "id": "1335200001", "name": "USPS COLLECTION BOX - BLUE BOX", "address": {"city": "HINCKLEY", "state": "NY", "street": "7201 MAIN ST", "postcode": "13352"}}},
{"geometry": {"type": "Point", "coordinates": [-75.1133315356, 43.3123211652]}, "type": "Feature", "properties": {"collection_times": [{"days": "Mon-Fri", "time": "12:00pm"}, {"days": "Sat", "time": "11:30am"}, {"days": "Sun", "time": "Closed"}], "id": "1335200003", "name": "USPS COLLECTION BOX - PO LOBBY", "address": {"city": "HINCKLEY", "state": "NY", "street": "7201 MAIN ST", "postcode": "13352"}}},
{"geometry": {"type": "Point", "coordinates": [-74.727140337, 43.4712084312]}, "type": "Feature", "properties": {"collection_times": [{"days": "Mon-Sat", "time": "1:00pm"}, {"days": "Sun", "time": "Closed"}], "id": "1335300001", "name": "USPS COLLECTION BOX - BLUE BOX", "address": {"city": "HOFFMEISTER", "state": "NY", "street": "1 ROUTE 8", "postcode": "13353"}}},
{"geometry": {"type": "Point", "coordinates": [-74.727140337, 43.4712084312]}, "type": "Feature", "properties": {"collection_times": [{"days": "Mon-Sat", "time": "1:00pm"}, {"days": "Sun", "time": "Closed"}], "id": "1335300002", "name": "USPS COLLECTION BOX - PO LOBBY", "address": {"city": "HOFFMEISTER", "state": "NY", "street": "1 ROUTE 8", "postcode": "13353"}}},
{"geometry": {"type": "Point", "coordinates": [-75.2556493839, 43.2425225348]}, "type": "Feature", "properties": {"collection_times": [{"days": "Mon-Fri", "time": "4:15pm"}, {"days": "Sat", "time": "11:15am"}, {"days": "Sun", "time": "Closed"}], "id": "1335400001", "name": "USPS COLLECTION BOX - BLUE BOX", "address": {"city": "HOLLAND PATENT", "state": "NY", "street": "9565 MAIN ST", "postcode": "13354"}}},
{"geometry": {"type": "Point", "coordinates": [-75.2556493839, 43.2425225348]}, "type": "Feature", "properties": {"collection_times": [{"days": "Mon-Fri", "time": "4:30pm"}, {"days": "Sat", "time": "11:15am"}, {"days": "Sun", "time": "Closed"}], "id": "1335400002", "name": "USPS COLLECTION BOX - PO LOBBY", "address": {"city": "HOLLAND PATENT", "state": "NY", "street": "9565 MAIN ST", "postcode": "13354"}}},
{"geometry": {"type": "Point", "coordinates": [-75.4634042932, 42.8177311534]}, "type": "Feature", "properties": {"collection_times": [{"days": "Mon-Fri", "time": "4:45pm"}, {"days": "Sat", "time": "10:45am"}, {"days": "Sun", "time": "Closed"}], "id": "1335500001", "name": "USPS COLLECTION BOX - BLUE BOX", "address": {"city": "HUBBARDSVILLE", "state": "NY", "street": "2434 POOLVILLE RD", "postcode": "13355"}}},
{"geometry": {"type": "Point", "coordinates": [-75.4634042932, 42.8177311534]}, "type": "Feature", "properties": {"collection_times": [{"days": "Mon-Fri", "time": "12:00pm"}, {"days": "Sat", "time": "11:00am"}, {"days": "Sun", "time": "Closed"}], "id": "1335500002", "name": "USPS COLLECTION BOX - PO LOBBY", "address": {"city": "HUBBARDSVILLE", "state": "NY", "street": "2434 POOLVILLE RD", "postcode": "13355"}}},
{"geometry": {"type": "Point", "coordinates": [-75.0375237035, 43.0146748969]}, "type": "Feature", "properties": {"collection_times": [{"days": "Mon-Fri", "time": "4:30pm"}, {"days": "Sat", "time": "2:15pm"}, {"days": "Sun", "time": "Closed"}], "id": "1335700026", "name": "USPS COLLECTION BOX - BLUE BOX", "address": {"city": "ILION", "state": "NY", "street": "48 1ST ST", "postcode": "13357"}}},
{"geometry": {"type": "Point", "coordinates": [-75.0375237035, 43.0146748969]}, "type": "Feature", "properties": {"collection_times": [{"days": "Mon-Fri", "time": "4:45pm"}, {"days": "Sat", "time": "3:00pm"}, {"days": "Sun", "time": "Closed"}], "id": "1335700028", "name": "USPS COLLECTION BOX - PO LOBBY", "address": {"city": "ILION", "state": "NY", "street": "48 1ST ST", "postcode": "13357"}}},
{"geometry": {"type": "Point", "coordinates": [-74.794485951, 43.751336564]}, "type": "Feature", "properties": {"collection_times": [{"days": "Mon-Fri", "time": "4:00pm"}, {"days": "Sat", "time": "11:00am"}, {"days": "Sun", "time": "Closed"}], "id": "1336000001", "name": "USPS COLLECTION BOX - BLUE BOX", "address": {"city": "INLET", "state": "NY", "street": "166 N ROUTE 28", "postcode": "13360"}}},
{"geometry": {"type": "Point", "coordinates": [-74.794485951, 43.751336564]}, "type": "Feature", "properties": {"collection_times": [{"days": "Mon-Fri", "time": "4:15pm"}, {"days": "Sat", "time": "11:00am"}, {"days": "Sun", "time": "Closed"}], "id": "1336000002", "name": "USPS COLLECTION BOX - PO LOBBY", "address": {"city": "INLET", "state": "NY", "street": "166 N ROUTE 28", "postcode": "13360"}}},
{"geometry": {"type": "Point", "coordinates": [-74.8853546936, 42.9032680927]}, "type": "Feature", "properties": {"collection_times": [{"days": "Mon-Fri", "time": "4:30pm"}, {"days": "Sat", "time": "11:30am"}, {"days": "Sun", "time": "Closed"}], "id": "1336100001", "name": "USPS COLLECTION BOX - BLUE BOX", "address": {"city": "JORDANVILLE", "state": "NY", "street": "137 MAIN ST", "postcode": "13361"}}},
{"geometry": {"type": "Point", "coordinates": [-74.8853546936, 42.9032680927]}, "type": "Feature", "properties": {"collection_times": [{"days": "Mon-Fri", "time": "4:30pm"}, {"days": "Sat", "time": "11:30am"}, {"days": "Sun", "time": "Closed"}], "id": "1336100002", "name": "USPS COLLECTION BOX - PO LOBBY", "address": {"city": "JORDANVILLE", "state": "NY", "street": "137 MAIN ST", "postcode": "13361"}}},
{"geometry": {"type": "Point", "coordinates": [-75.519697984, 43.3023886363]}, "type": "Feature", "properties": {"collection_times": [{"days": "Mon-Fri", "time": "3:30pm"}, {"days": "Sat", "time": "11:00am"}, {"days": "Sun", "time": "Closed"}], "id": "1336300001", "name": "USPS COLLECTION BOX - BLUE BOX", "address": {"city": "LEE CENTER", "state": "NY", "street": "5555 SCHOOL ST", "postcode": "13363"}}},
{"geometry": {"type": "Point", "coordinates": [-75.519697984, 43.3023886363]}, "type": "Feature", "properties": {"collection_times": [{"days": "Mon-Fri", "time": "4:20pm"}, {"days": "Sat", "time": "11:00am"}, {"days": "Sun", "time": "Closed"}], "id": "1336300004", "name": "USPS COLLECTION BOX - PO LOBBY", "address": {"city": "LEE CENTER", "state": "NY", "street": "5555 SCHOOL ST", "postcode": "13363"}}},
{"geometry": {"type": "Point", "coordinates": [-75.2518405045, 42.8085741924]}, "type": "Feature", "properties": {"collection_times": [{"days": "Mon-Fri", "time": "4:30pm"}, {"days": "Sat", "time": "10:00am"}, {"days": "Sun", "time": "Closed"}], "id": "1336400001", "name": "USPS COLLECTION BOX - BLUE BOX", "address": {"city": "LEONARDSVILLE", "state": "NY", "street": "2008 STATE ROUTE 8", "postcode": "13364"}}},
{"geometry": {"type": "Point", "coordinates": [-75.2518405045, 42.8085741924]}, "type": "Feature", "properties": {"collection_times": [{"days": "Mon-Fri", "time": "4:45pm"}, {"days": "Sat", "time": "10:15am"}, {"days": "Sun", "time": "Closed"}], "id": "1336400002", "name": "USPS COLLECTION BOX - PO LOBBY", "address": {"city": "LEONARDSVILLE", "state": "NY", "street": "2008 STATE ROUTE 8", "postcode": "13364"}}},
{"geometry": {"type": "Point", "coordinates": [-74.8609161946, 43.0426778983]}, "type": "Feature", "properties": {"collection_times": [{"days": "Mon-Fri", "time": "5:00pm"}, {"days": "Sat", "time": "3:00pm"}, {"days": "Sun", "time": "Closed"}], "id": "1336500002", "name": "USPS COLLECTION BOX - BLUE BOX", "address": {"city": "LITTLE FALLS", "state": "NY", "street": "25 W MAIN ST", "postcode": "13365"}}},
{"geometry": {"type": "Point", "coordinates": [-74.8561705685, 43.0445180834]}, "type": "Feature", "properties": {"collection_times": [{"days": "Mon-Sat", "time": "9:00am"}, {"days": "Sun", "time": "Closed"}], "id": "1336500011", "name": "USPS COLLECTION BOX - BLUE BOX", "address": {"city": "LITTLE FALLS", "state": "NY", "street": "659 E MAIN ST", "postcode": "13365"}}},
{"geometry": {"type": "Point", "coordinates": [-74.8609161946, 43.0426778983]}, "type": "Feature", "properties": {"collection_times": [{"days": "Mon-Fri", "time": "4:30pm"}, {"days": "Sat", "time": "3:00pm"}, {"days": "Sun", "time": "Closed"}], "id": "1336500039", "name": "USPS COLLECTION BOX - PO LOBBY", "address": {"city": "LITTLE FALLS", "state": "NY", "street": "25 W MAIN ST", "postcode": "13365"}}},
{"geometry": {"type": "Point", "coordinates": [-74.8609161946, 43.0426778983]}, "type": "Feature", "properties": {"collection_times": [{"days": "Mon-Fri", "time": "4:30pm"}, {"days": "Sat", "time": "3:00pm"}, {"days": "Sun", "time": "Closed"}], "id": "1336500043", "name": "USPS COLLECTION BOX - PO LOBBY", "address": {"city": "LITTLE FALLS", "state": "NY", "street": "25 W MAIN ST", "postcode": "13365"}}},
{"geometry": {"type": "Point", "coordinates": [-75.4934549998, 43.7882531645]}, "type": "Feature", "properties": {"collection_times": [{"days": "Mon-Fri", "time": "5:00pm"}, {"days": "Sat", "time": "3:15pm"}, {"days": "Sun", "time": "Closed"}], "id": "1336700001", "name": "USPS COLLECTION BOX - BLUE BOX", "address": {"city": "LOWVILLE", "state": "NY", "street": "7651 N STATE ST", "postcode": "13367"}}},
{"geometry": {"type": "Point", "coordinates": [-75.4924530336, 43.7869388971]}, "type": "Feature", "properties": {"collection_times": [{"days": "Mon-Fri", "time": "4:00pm"}, {"days": "Sat", "time": "10:00am"}, {"days": "Sun", "time": "Closed"}], "id": "1336700002", "name": "USPS COLLECTION BOX - BLUE BOX", "address": {"city": "LOWVILLE", "state": "NY", "street": "7605 N STATE ST", "postcode": "13367"}}},
{"geometry": {"type": "Point", "coordinates": [-75.0744824906, 43.9654043445]}, "type": "Feature", "properties": {"collection_times": [{"days": "Mon-Sat", "time": "9:45am"}, {"days": "Sun", "time": "Closed"}], "id": "1336700003", "name": "USPS COLLECTION BOX - BLUE BOX", "address": {"city": "LOWVILLE", "state": "NY", "street": "7395 TURIN RD", "postcode": "13367"}}},
{"geometry": {"type": "Point", "coordinates": [-75.4980780035, 43.7956904275]}, "type": "Feature", "properties": {"collection_times": [{"days": "Mon-Fri", "time": "3:30pm"}, {"days": "Sat", "time": "8:30am"}, {"days": "Sun", "time": "Closed"}], "id": "1336700008", "name": "USPS COLLECTION BOX - BLUE BOX", "address": {"city": "LOWVILLE", "state": "NY", "street": "7785 N STATE ST", "postcode": "13367"}}},
{"geometry": {"type": "Point", "coordinates": [-75.0744824906, 43.9654043445]}, "type": "Feature", "properties": {"collection_times": [{"days": "Mon-Sat", "time": "10:00am"}, {"days": "Sun", "time": "Closed"}], "id": "1336700010", "name": "USPS COLLECTION BOX - BLUE BOX", "address": {"city": "LOWVILLE", "state": "NY", "street": "5590 VALLEYVIEW CT", "postcode": "13367"}}},
{"geometry": {"type": "Point", "coordinates": [-75.4937720328, 43.7886742979]}, "type": "Feature", "properties": {"collection_times": [{"days": "Mon-Fri", "time": "3:30pm"}, {"days": "Sat-Sun", "time": "Closed"}], "id": "1336700016", "name": "USPS COLLECTION BOX - BLUE BOX", "address": {"city": "LOWVILLE", "state": "NY", "street": "7660 N STATE ST", "postcode": "13367"}}},
{"geometry": {"type": "Point", "coordinates": [-75.4934549998, 43.7882531645]}, "type": "Feature", "properties": {"collection_times": [{"days": "Mon-Fri", "time": "4:30pm"}, {"days": "Sat", "time": "3:15pm"}, {"days": "Sun", "time": "Closed"}], "id": "1336700020", "name": "USPS COLLECTION BOX - PO LOBBY", "address": {"city": "LOWVILLE", "state": "NY", "street": "7651 N STATE ST", "postcode": "13367"}}},
{"geometry": {"type": "Point", "coordinates": [-75.4942148555, 43.7865593627]}, "type": "Feature", "properties": {"collection_times": [{"days": "Mon-Fri", "time": "5:00pm"}, {"days": "Sat", "time": "3:15pm"}, {"days": "Sun", "time": "Closed"}], "id": "1336700025", "name": "USPS COLLECTION BOX - BLUE BOX", "address": {"city": "LOWVILLE", "state": "NY", "street": "5304 PARKWAY DR", "postcode": "13367"}}},
{"geometry": {"type": "Point", "coordinates": [-75.4980780035, 43.7956904275]}, "type": "Feature", "properties": {"collection_times": [{"days": "Mon-Fri", "time": "3:30pm"}, {"days": "Sat", "time": "8:30am"}, {"days": "Sun", "time": "Closed"}], "id": "1336700026", "name": "USPS COLLECTION BOX - BLUE BOX", "address": {"city": "LOWVILLE", "state": "NY", "street": "7785 N STATE ST", "postcode": "13367"}}},
{"geometry": {"type": "Point", "coordinates": [-75.338345, 43.6372101105]}, "type": "Feature", "properties": {"collection_times": [{"days": "Mon-Fri", "time": "4:00pm"}, {"days": "Sat", "time": "11:00am"}, {"days": "Sun", "time": "Closed"}], "id": "1336800001", "name": "USPS COLLECTION BOX - BLUE BOX", "address": {"city": "LYONS FALLS", "state": "NY", "street": "3864 FULTON ST", "postcode": "13368"}}},
{"geometry": {"type": "Point", "coordinates": [-75.362783192, 43.618655038]}, "type": "Feature", "properties": {"collection_times": [{"days": "Mon-Fri", "time": "4:00pm"}, {"days": "Sat", "time": "11:00am"}, {"days": "Sun", "time": "Closed"}], "id": "1336800002", "name": "USPS COLLECTION BOX - PO LOBBY", "address": {"city": "LYONS FALLS", "state": "NY", "street": "3864 FULTON ST", "postcode": "13368"}}}
]}
