{"type": "FeatureCollection", "features": [
{"geometry": {"type": "Point", "coordinates": [-75.5126828148, 42.8989590307]}, "type": "Feature", "properties": {"collection_times": [{"days": "Mon-Fri", "time": "4:30pm"}, {"days": "Sat", "time": "10:30am"}, {"days": "Sun", "time": "Closed"}], "id": "1340200001", "name": "USPS COLLECTION BOX - BLUE BOX", "address": {"city": "MADISON", "state": "NY", "street": "7326 ROUTE 20", "postcode": "13402"}}},
{"geometry": {"type": "Point", "coordinates": [-75.5126828148, 42.8989590307]}, "type": "Feature", "properties": {"collection_times": [{"days": "Mon-Fri", "time": "4:30pm"}, {"days": "Sat", "time": "10:45am"}, {"days": "Sun", "time": "Closed"}], "id": "1340200002", "name": "USPS COLLECTION BOX - PO LOBBY", "address": {"city": "MADISON", "state": "NY", "street": "7326 ROUTE 20", "postcode": "13402"}}},
{"geometry": {"type": "Point", "coordinates": [-75.5126828148, 42.8989590307]}, "type": "Feature", "properties": {"collection_times": [{"days": "Mon-Fri", "time": "4:30pm"}, {"days": "Sat", "time": "10:45am"}, {"days": "Sun", "time": "Closed"}], "id": "1340200003", "name": "USPS COLLECTION BOX - PO LOBBY", "address": {"city": "MADISON", "state": "NY", "street": "7326 ROUTE 20", "postcode": "13402"}}},
{"geometry": {"type": "Point", "coordinates": [-75.2758201828, 43.1394816806]}, "type": "Feature", "properties": {"collection_times": [{"days": "Mon-Fri", "time": "4:45pm"}, {"days": "Sat", "time": "11:45am"}, {"days": "Sun", "time": "Closed"}], "id": "1340300001", "name": "USPS COLLECTION BOX - BLUE BOX", "address": {"city": "MARCY", "state": "NY", "street": "5735 CAVANAUGH RD", "postcode": "13403"}}},
{"geometry": {"type": "Point", "coordinates": [-75.2758201828, 43.1394816806]}, "type": "Feature", "properties": {"collection_times": [{"days": "Mon-Fri", "time": "4:45pm"}, {"days": "Sat", "time": "11:45am"}, {"days": "Sun", "time": "Closed"}], "id": "1340300003", "name": "USPS COLLECTION BOX - PO LOBBY", "address": {"city": "MARCY", "state": "NY", "street": "5735 CAVANAUGH RD", "postcode": "13403"}}},
{"geometry": {"type": "Point", "coordinates": [-75.4691339435, 43.7354929137]}, "type": "Feature", "properties": {"collection_times": [{"days": "Mon-Fri", "time": "4:15pm"}, {"days": "Sat", "time": "11:15am"}, {"days": "Sun", "time": "Closed"}], "id": "1340400001", "name": "USPS COLLECTION BOX - BLUE BOX", "address": {"city": "MARTINSBURG", "state": "NY", "street": "5604 WHITAKER RD", "postcode": "13404"}}},
{"geometry": {"type": "Point", "coordinates": [-75.4691339435, 43.7354929137]}, "type": "Feature", "properties": {"collection_times": [{"days": "Mon-Fri", "time": "10:00am"}, {"days": "Sat", "time": "11:15am"}, {"days": "Sun", "time": "Closed"}], "id": "1340400002", "name": "USPS COLLECTION BOX - PO LOBBY", "address": {"city": "MARTINSBURG", "state": "NY", "street": "5604 WHITAKER RD", "postcode": "13404"}}},
{"geometry": {"type": "Point", "coordinates": [-74.9691673596, 43.1389317165]}, "type": "Feature", "properties": {"collection_times": [{"days": "Mon-Sat", "time": "11:00am"}, {"days": "Sun", "time": "Closed"}], "id": "1340600003", "name": "USPS COLLECTION BOX - BLUE BOX", "address": {"city": "MIDDLEVILLE", "state": "NY", "street": "3 S MAIN ST", "postcode": "13406"}}},
{"geometry": {"type": "Point", "coordinates": [-75.0050408171, 43.0092604905]}, "type": "Feature", "properties": {"collection_times": [{"days": "Mon-Fri", "time": "5:00pm"}, {"days": "Sat", "time": "11:30am"}, {"days": "Sun", "time": "Closed"}], "id": "1340700002", "name": "USPS COLLECTION BOX - BLUE BOX", "address": {"city": "MOHAWK", "state": "NY", "street": "25 COLUMBIA ST", "postcode": "13407"}}},
{"geometry": {"type": "Point", "coordinates": [-75.005304617, 43.0111875307]}, "type": "Feature", "properties": {"collection_times": [{"days": "Mon-Sat", "time": "1:00pm"}, {"days": "Sun", "time": "Closed"}], "id": "1340700007", "name": "USPS COLLECTION BOX - BLUE BOX", "address": {"city": "MOHAWK", "state": "NY", "street": "24 W MAIN ST", "postcode": "13407"}}},
{"geometry": {"type": "Point", "coordinates": [-75.005006795, 43.009246626]}, "type": "Feature", "properties": {"collection_times": [{"days": "Mon-Fri", "time": "5:00pm"}, {"days": "Sat", "time": "11:30am"}, {"days": "Sun", "time": "Closed"}], "id": "1340700023", "name": "USPS COLLECTION BOX - PO LOBBY", "address": {"city": "MOHAWK", "state": "NY", "street": "25 COLUMBIA ST", "postcode": "13407"}}},
{"geometry": {"type": "Point", "coordinates": [-75.0050408171, 43.0092604905]}, "type": "Feature", "properties": {"collection_times": [{"days": "Mon-Fri", "time": "5:00pm"}, {"days": "Sat", "time": "11:30am"}, {"days": "Sun", "time": "Closed"}], "id": "1340700026", "name": "USPS COLLECTION BOX - BLUE BOX", "address": {"city": "MOHAWK", "state": "NY", "street": "25 COLUMBIA ST", "postcode": "13407"}}},
{"geometry": {"type": "Point", "coordinates": [-75.6458224804, 42.898288293]}, "type": "Feature", "properties": {"collection_times": [{"days": "Mon-Fri", "time": "4:20pm"}, {"days": "Sat", "time": "12:30pm"}, {"days": "Sun", "time": "Closed"}], "id": "1340800002", "name": "USPS COLLECTION BOX - BLUE BOX", "address": {"city": "MORRISVILLE", "state": "NY", "street": "18 EATON ST", "postcode": "13408"}}},
{"geometry": {"type": "Point", "coordinates": [-75.6458224804, 42.898288293]}, "type": "Feature", "properties": {"collection_times": [{"days": "Mon-Fri", "time": "4:20pm"}, {"days": "Sat", "time": "12:50pm"}, {"days": "Sun", "time": "Closed"}], "id": "1340800003", "name": "USPS COLLECTION BOX - PO LOBBY", "address": {"city": "MORRISVILLE", "state": "NY", "street": "18 EATON ST", "postcode": "13408"}}},
{"geometry": {"type": "Point", "coordinates": [-75.5876788643, 42.9769077458]}, "type": "Feature", "properties": {"collection_times": [{"days": "Mon-Fri", "time": "4:30pm"}, {"days": "Sat", "time": "10:00am"}, {"days": "Sun", "time": "Closed"}], "id": "1340900001", "name": "USPS COLLECTION BOX - BLUE BOX", "address": {"city": "MUNNSVILLE", "state": "NY", "street": "6188 VALLEY MILLS RD", "postcode": "13409"}}},
{"geometry": {"type": "Point", "coordinates": [-75.5876788643, 42.9769077458]}, "type": "Feature", "properties": {"collection_times": [{"days": "Mon-Fri", "time": "2:45pm"}, {"days": "Sat", "time": "10:30am"}, {"days": "Sun", "time": "Closed"}], "id": "1340900003", "name": "USPS COLLECTION BOX - PO LOBBY", "address": {"city": "MUNNSVILLE", "state": "NY", "street": "6188 VALLEY MILLS RD", "postcode": "13409"}}},
{"geometry": {"type": "Point", "coordinates": [-74.6127441372, 42.9333053549]}, "type": "Feature", "properties": {"collection_times": [{"days": "Mon-Fri", "time": "4:45pm"}, {"days": "Sat", "time": "11:30am"}, {"days": "Sun", "time": "Closed"}], "id": "1341000001", "name": "USPS COLLECTION BOX - BLUE BOX", "address": {"city": "NELLISTON", "state": "NY", "street": "19 E MAIN ST", "postcode": "13410"}}},
{"geometry": {"type": "Point", "coordinates": [-74.612744137, 42.933305355]}, "type": "Feature", "properties": {"collection_times": [{"days": "Mon-Fri", "time": "4:30pm"}, {"days": "Sat", "time": "11:30am"}, {"days": "Sun", "time": "Closed"}], "id": "1341000002", "name": "USPS COLLECTION BOX - PO LOBBY", "address": {"city": "NELLISTON", "state": "NY", "street": "19 E MAIN ST", "postcode": "13410"}}},
{"geometry": {"type": "Point", "coordinates": [-75.3314708873, 42.6243067729]}, "type": "Feature", "properties": {"collection_times": [{"days": "Mon-Fri", "time": "4:15pm"}, {"days": "Sat", "time": "11:45am"}, {"days": "Sun", "time": "Closed"}], "id": "1341100001", "name": "USPS COLLECTION BOX - BLUE BOX", "address": {"city": "NEW BERLIN", "state": "NY", "street": "8 GENESEE ST", "postcode": "13411"}}},
{"geometry": {"type": "Point", "coordinates": [-75.3314708873, 42.6243067729]}, "type": "Feature", "properties": {"collection_times": [{"days": "Mon-Fri", "time": "4:15pm"}, {"days": "Sat", "time": "11:45am"}, {"days": "Sun", "time": "Closed"}], "id": "1341100002", "name": "USPS COLLECTION BOX - PO LOBBY", "address": {"city": "NEW BERLIN", "state": "NY", "street": "8 GENESEE ST", "postcode": "13411"}}},
{"geometry": {"type": "Point", "coordinates": [-75.2884269179, 43.0730917733]}, "type": "Feature", "properties": {"collection_times": [{"days": "Mon-Fri", "time": "5:00pm"}, {"days": "Sat", "time": "2:00pm"}, {"days": "Sun", "time": "Closed"}], "id": "1341300002", "name": "USPS COLLECTION BOX - BLUE BOX", "address": {"city": "NEW HARTFORD", "state": "NY", "street": "48 GENESEE ST", "postcode": "13413"}}},
{"geometry": {"type": "Point", "coordinates": [-75.3204697274, 43.080797568]}, "type": "Feature", "properties": {"collection_times": [{"days": "Mon-Fri", "time": "4:45pm"}, {"days": "Sat", "time": "11:00am"}, {"days": "Sun", "time": "Closed"}], "id": "1341300006", "name": "USPS COLLECTION BOX - BLUE BOX", "address": {"city": "NEW HARTFORD", "state": "NY", "street": "8496 SENECA TPKE", "postcode": "13413"}}},
{"geometry": {"type": "Point", "coordinates": [-75.3306211006, 43.0832287951]}, "type": "Feature", "properties": {"collection_times": [{"days": "Mon-Sat", "time": "10:00am"}, {"days": "Sun", "time": "Closed"}], "id": "1341300008", "name": "USPS COLLECTION BOX - BLUE BOX", "address": {"city": "NEW HARTFORD", "state": "NY", "street": "8369 SENECA TPKE", "postcode": "13413"}}},
{"geometry": {"type": "Point", "coordinates": [-75.3150068229, 43.0763378127]}, "type": "Feature", "properties": {"collection_times": [{"days": "Mon-Sat", "time": "12:00pm"}, {"days": "Sun", "time": "Closed"}], "id": "1341300011", "name": "USPS COLLECTION BOX - BLUE BOX", "address": {"city": "NEW HARTFORD", "state": "NY", "street": "21 HARA CRES", "postcode": "13413"}}},
{"geometry": {"type": "Point", "coordinates": [-75.2777909515, 43.0549735371]}, "type": "Feature", "properties": {"collection_times": [{"days": "Mon-Fri", "time": "3:00pm"}, {"days": "Sat", "time": "2:00pm"}, {"days": "Sun", "time": "Closed"}], "id": "1341300014", "name": "USPS COLLECTION BOX - BLUE BOX", "address": {"city": "NEW HARTFORD", "state": "NY", "street": "40 KELLOGG RD", "postcode": "13413"}}},
{"geometry": {"type": "Point", "coordinates": [-75.3016500332, 43.0751927084]}, "type": "Feature", "properties": {"collection_times": [{"days": "Mon-Sat", "time": "9:00am"}, {"days": "Sun", "time": "Closed"}], "id": "1341300015", "name": "USPS COLLECTION BOX - BLUE BOX", "address": {"city": "NEW HARTFORD", "state": "NY", "street": "150 GENESEE ST", "postcode": "13413"}}},
{"geometry": {"type": "Point", "coordinates": [-75.2853871738, 43.0745410907]}, "type": "Feature", "properties": {"collection_times": [{"days": "Mon-Fri", "time": "3:30pm"}, {"days": "Sat", "time": "10:00am"}, {"days": "Sun", "time": "Closed"}], "id": "1341300017", "name": "USPS COLLECTION BOX - BLUE BOX", "address": {"city": "NEW HARTFORD", "state": "NY", "street": "95 GENESEE ST", "postcode": "13413"}}},
{"geometry": {"type": "Point", "coordinates": [-75.3073477333, 43.0713057569]}, "type": "Feature", "properties": {"collection_times": [{"days": "Mon-Fri", "time": "4:15pm"}, {"days": "Sat-Sun", "time": "Closed"}], "id": "1341300019", "name": "USPS COLLECTION BOX - BLUE BOX", "address": {"city": "NEW HARTFORD", "state": "NY", "street": "1 INDUSTRIAL PARK DR", "postcode": "13413"}}},
{"geometry": {"type": "Point", "coordinates": [-75.2918921957, 43.0781266018]}, "type": "Feature", "properties": {"collection_times": [{"days": "Mon-Fri", "time": "3:30pm"}, {"days": "Sat", "time": "9:00am"}, {"days": "Sun", "time": "Closed"}], "id": "1341300020", "name": "USPS COLLECTION BOX - BLUE BOX", "address": {"city": "NEW HARTFORD", "state": "NY", "street": "35 NEW HARTFORD SHOPPING CTR", "postcode": "13413"}}},
{"geometry": {"type": "Point", "coordinates": [-75.3132599093, 43.092604688]}, "type": "Feature", "properties": {"collection_times": [{"days": "Mon-Fri", "time": "4:30pm"}, {"days": "Sat-Sun", "time": "Closed"}], "id": "1341300022", "name": "USPS COLLECTION BOX - BLUE BOX", "address": {"city": "NEW HARTFORD", "state": "NY", "street": "1 ELLINWOOD CT", "postcode": "13413"}}},
{"geometry": {"type": "Point", "coordinates": [-75.317366826, 43.0840507051]}, "type": "Feature", "properties": {"collection_times": [{"days": "Mon-Fri", "time": "4:30pm"}, {"days": "Sat", "time": "12:00pm"}, {"days": "Sun", "time": "Closed"}], "id": "1341300025", "name": "USPS COLLECTION BOX - BLUE BOX", "address": {"city": "NEW HARTFORD", "state": "NY", "street": "1 SANGERTOWN SQ", "postcode": "13413"}}},
{"geometry": {"type": "Point", "coordinates": [-75.2897246239, 43.0763082387]}, "type": "Feature", "properties": {"collection_times": [{"days": "Mon-Fri", "time": "5:15pm"}, {"days": "Sat", "time": "3:15pm"}, {"days": "Sun", "time": "Closed"}], "id": "1341300027", "name": "USPS COLLECTION BOX - BLUE BOX", "address": {"city": "NEW HARTFORD", "state": "NY", "street": "40 CAMPION RD", "postcode": "13413"}}},
{"geometry": {"type": "Point", "coordinates": [-75.2897246239, 43.0763082387]}, "type": "Feature", "properties": {"collection_times": [{"days": "Mon-Fri", "time": "5:15pm"}, {"days": "Sat", "time": "3:15pm"}, {"days": "Sun", "time": "Closed"}], "id": "1341300028", "name": "USPS COLLECTION BOX - BLUE BOX", "address": {"city": "NEW HARTFORD", "state": "NY", "street": "40 CAMPION RD", "postcode": "13413"}}},
{"geometry": {"type": "Point", "coordinates": [-75.3125971355, 43.0916145448]}, "type": "Feature", "properties": {"collection_times": [{"days": "Mon-Fri", "time": "4:30pm"}, {"days": "Sat-Sun", "time": "Closed"}], "id": "1341300031", "name": "USPS COLLECTION BOX - BLUE BOX", "address": {"city": "NEW HARTFORD", "state": "NY", "street": "7 ELLINWOOD CT", "postcode": "13413"}}},
{"geometry": {"type": "Point", "coordinates": [-75.2890436216, 43.0723688968]}, "type": "Feature", "properties": {"collection_times": [{"days": "Mon-Sat", "time": "2:00pm"}, {"days": "Sun", "time": "Closed"}], "id": "1341300032", "name": "USPS COLLECTION BOX - BLUE BOX", "address": {"city": "NEW HARTFORD", "state": "NY", "street": "6 PEARL ST", "postcode": "13413"}}},
{"geometry": {"type": "Point", "coordinates": [-75.3146613989, 43.0866047136]}, "type": "Feature", "properties": {"collection_times": [{"days": "Mon-Fri", "time": "4:30pm"}, {"days": "Sat", "time": "10:00am"}, {"days": "Sun", "time": "Closed"}], "id": "1341300033", "name": "USPS COLLECTION BOX - BLUE BOX", "address": {"city": "NEW HARTFORD", "state": "NY", "street": "4605 COMMERCIAL DR", "postcode": "13413"}}},
{"geometry": {"type": "Point", "coordinates": [-75.2897246239, 43.0763082387]}, "type": "Feature", "properties": {"collection_times": [{"days": "Mon-Fri", "time": "5:45pm"}, {"days": "Sat", "time": "4:00pm"}, {"days": "Sun", "time": "Closed"}], "id": "1341300034", "name": "USPS COLLECTION BOX - PO LOBBY", "address": {"city": "NEW HARTFORD", "state": "NY", "street": "40 CAMPION RD", "postcode": "13413"}}},
{"geometry": {"type": "Point", "coordinates": [-75.305466141, 43.0949730347]}, "type": "Feature", "properties": {"collection_times": [{"days": "Mon-Sat", "time": "9:30am"}, {"days": "Sun", "time": "Closed"}], "id": "1341300035", "name": "USPS COLLECTION BOX - BLUE BOX", "address": {"city": "NEW HARTFORD", "state": "NY", "street": "4765 COMMERCIAL DR", "postcode": "13413"}}},
{"geometry": {"type": "Point", "coordinates": [-75.2786438473, 43.0900045376]}, "type": "Feature", "properties": {"collection_times": [{"days": "Mon-Fri", "time": "4:15pm"}, {"days": "Sat-Sun", "time": "Closed"}], "id": "1341300036", "name": "USPS COLLECTION BOX - BLUE BOX", "address": {"city": "NEW HARTFORD", "state": "NY", "street": "555 FRENCH RD", "postcode": "13413"}}},
{"geometry": {"type": "Point", "coordinates": [-75.3421311533, 43.0744163096]}, "type": "Feature", "properties": {"collection_times": [{"days": "Mon-Fri", "time": "10:30am"}, {"days": "Sat", "time": "10:00am"}, {"days": "Sun", "time": "Closed"}], "id": "1341300037", "name": "USPS COLLECTION BOX - BLUE BOX", "address": {"city": "NEW HARTFORD", "state": "NY", "street": "1 THE MDWS", "postcode": "13413"}}},
{"geometry": {"type": "Point", "coordinates": [-75.3422761271, 43.074351903]}, "type": "Feature", "properties": {"collection_times": [{"days": "Mon-Fri", "time": "4:30pm"}, {"days": "Sat", "time": "9:00am"}, {"days": "Sun", "time": "Closed"}], "id": "1341300038", "name": "USPS COLLECTION BOX - BLUE BOX", "address": {"city": "NEW HARTFORD", "state": "NY", "street": "4311 MIDDLE SETTLEMENT RD", "postcode": "13413"}}},
{"geometry": {"type": "Point", "coordinates": [-75.0149011876, 43.1858565106]}, "type": "Feature", "properties": {"collection_times": [{"days": "Mon-Fri", "time": "2:30pm"}, {"days": "Sat", "time": "7:00am"}, {"days": "Sun", "time": "Closed"}], "id": "1341600001", "name": "USPS COLLECTION BOX - BLUE BOX", "address": {"city": "NEWPORT", "state": "NY", "street": "3087 BRIDGE ST", "postcode": "13416"}}},
{"geometry": {"type": "Point", "coordinates": [-75.0149011876, 43.1858565106]}, "type": "Feature", "properties": {"collection_times": [{"days": "Mon-Fri", "time": "4:00pm"}, {"days": "Sat", "time": "10:30am"}, {"days": "Sun", "time": "Closed"}], "id": "1341600002", "name": "USPS COLLECTION BOX - PO LOBBY", "address": {"city": "NEWPORT", "state": "NY", "street": "3087 BRIDGE ST", "postcode": "13416"}}},
{"geometry": {"type": "Point", "coordinates": [-75.2909679138, 43.1056728291]}, "type": "Feature", "properties": {"collection_times": [{"days": "Mon-Fri", "time": "5:00pm"}, {"days": "Sat", "time": "10:45am"}, {"days": "Sun", "time": "Closed"}], "id": "1341700001", "name": "USPS COLLECTION BOX - BLUE BOX", "address": {"city": "NEW YORK MILLS", "state": "NY", "street": "310 MAIN ST", "postcode": "13417"}}},
{"geometry": {"type": "Point", "coordinates": [-75.2909679138, 43.1056728291]}, "type": "Feature", "properties": {"collection_times": [{"days": "Mon-Fri", "time": "4:00pm"}, {"days": "Sat", "time": "10:45am"}, {"days": "Sun", "time": "Closed"}], "id": "1341700003", "name": "USPS COLLECTION BOX - PO LOBBY", "address": {"city": "NEW YORK MILLS", "state": "NY", "street": "310 MAIN ST", "postcode": "13417"}}},
{"geometry": {"type": "Point", "coordinates": [-75.2938223938, 43.1026030506]}, "type": "Feature", "properties": {"collection_times": [{"days": "Mon-Sat", "time": "12:30pm"}, {"days": "Sun", "time": "Closed"}], "id": "1341700005", "name": "USPS COLLECTION BOX - BLUE BOX", "address": {"city": "NEW YORK MILLS", "state": "NY", "street": "427 MAIN ST", "postcode": "13417"}}},
{"geometry": {"type": "Point", "coordinates": [-75.2903882639, 43.0969615193]}, "type": "Feature", "properties": {"collection_times": [{"days": "Mon-Sat", "time": "12:15pm"}, {"days": "Sun", "time": "Closed"}], "id": "1341700007", "name": "USPS COLLECTION BOX - BLUE BOX", "address": {"city": "NEW YORK MILLS", "state": "NY", "street": "10 PULASKI ST", "postcode": "13417"}}},
{"geometry": {"type": "Point", "coordinates": [-75.3045009643, 43.0913637575]}, "type": "Feature", "properties": {"collection_times": [{"days": "Mon-Sat", "time": "11:30am"}, {"days": "Sun", "time": "Closed"}], "id": "1341700009", "name": "USPS COLLECTION BOX - BLUE BOX", "address": {"city": "NEW YORK MILLS", "state": "NY", "street": "77 CLINTON ST", "postcode": "13417"}}},
{"geometry": {"type": "Point", "coordinates": [-75.2973121227, 43.0970052888]}, "type": "Feature", "properties": {"collection_times": [{"days": "Mon-Sat", "time": "12:15pm"}, {"days": "Sun", "time": "Closed"}], "id": "1341700010", "name": "USPS COLLECTION BOX - BLUE BOX", "address": {"city": "NEW YORK MILLS", "state": "NY", "street": "587 MAIN ST", "postcode": "13417"}}},
{"geometry": {"type": "Point", "coordinates": [-74.9780480595, 43.707519764]}, "type": "Feature", "properties": {"collection_times": [{"days": "Mon-Fri", "time": "4:15pm"}, {"days": "Sat", "time": "11:45am"}, {"days": "Sun", "time": "Closed"}], "id": "1342000001", "name": "USPS COLLECTION BOX - BLUE BOX", "address": {"city": "THENDARA", "state": "NY", "street": "2992 STATE ROUTE 28", "postcode": "13420"}}},
{"geometry": {"type": "Point", "coordinates": [-74.9780480595, 43.707519764]}, "type": "Feature", "properties": {"collection_times": [{"days": "Mon-Fri", "time": "4:30pm"}, {"days": "Sat", "time": "12:00pm"}, {"days": "Sun", "time": "Closed"}], "id": "1342000004", "name": "USPS COLLECTION BOX - PO LOBBY", "address": {"city": "THENDARA", "state": "NY", "street": "2992 STATE ROUTE 28", "postcode": "13420"}}},
{"geometry": {"type": "Point", "coordinates": [-74.9022194117, 43.7345495125]}, "type": "Feature", "properties": {"collection_times": [{"days": "Mon-Sat", "time": "11:45am"}, {"days": "Sun", "time": "Closed"}], "id": "1342000008", "name": "USPS COLLECTION BOX - BLUE BOX", "address": {"city": "THENDARA", "state": "NY", "street": "2828 STATE ROUTE 28", "postcode": "13420"}}},
{"geometry": {"type": "Point", "coordinates": [-74.9022194117, 43.7345495125]}, "type": "Feature", "properties": {"collection_times": [{"days": "Mon-Sat", "time": "11:45am"}, {"days": "Sun", "time": "Closed"}], "id": "1342000009", "name": "USPS COLLECTION BOX - PO LOBBY", "address": {"city": "THENDARA", "state": "NY", "street": "2828 STATE ROUTE 28", "postcode": "13420"}}},
{"geometry": {"type": "Point", "coordinates": [-75.6530633723, 43.0944489145]}, "type": "Feature", "properties": {"collection_times": [{"days": "Mon-Fri", "time": "5:00pm"}, {"days": "Sat", "time": "3:30pm"}, {"days": "Sun", "time": "Closed"}], "id": "1342100002", "name": "USPS COLLECTION BOX - PO LOBBY", "address": {"city": "ONEIDA", "state": "NY", "street": "133 FARRIER AVE", "postcode": "13421"}}},
{"geometry": {"type": "Point", "coordinates": [-75.6530633723, 43.0944489145]}, "type": "Feature", "properties": {"collection_times": [{"days": "Mon-Fri", "time": "5:00pm"}, {"days": "Sat", "time": "3:30pm"}, {"days": "Sun", "time": "Closed"}], "id": "1342100003", "name": "USPS COLLECTION BOX - BLUE BOX", "address": {"city": "ONEIDA", "state": "NY", "street": "133 FARRIER AVE", "postcode": "13421"}}},
{"geometry": {"type": "Point", "coordinates": [-75.6530633723, 43.0944489145]}, "type": "Feature", "properties": {"collection_times": [{"days": "Mon-Fri", "time": "5:00pm"}, {"days": "Sat", "time": "3:30pm"}, {"days": "Sun", "time": "Closed"}], "id": "1342100004", "name": "USPS COLLECTION BOX - BLUE BOX", "address": {"city": "ONEIDA", "state": "NY", "street": "133 FARRIER AVE", "postcode": "13421"}}},
{"geometry": {"type": "Point", "coordinates": [-75.6530633723, 43.0944489145]}, "type": "Feature", "properties": {"collection_times": [{"days": "Mon-Fri", "time": "5:00pm"}, {"days": "Sat", "time": "3:30pm"}, {"days": "Sun", "time": "Closed"}], "id": "1342100005", "name": "USPS COLLECTION BOX - BLUE BOX", "address": {"city": "ONEIDA", "state": "NY", "street": "133 FARRIER AVE", "postcode": "13421"}}},
{"geometry": {"type": "Point", "coordinates": [-75.6530633723, 43.0944489145]}, "type": "Feature", "properties": {"collection_times": [{"days": "Mon-Fri", "time": "5:00pm"}, {"days": "Sat", "time": "3:30pm"}, {"days": "Sun", "time": "Closed"}], "id": "1342100006", "name": "USPS COLLECTION BOX - BLUE BOX", "address": {"city": "ONEIDA", "state": "NY", "street": "133 FARRIER AVE", "postcode": "13421"}}},
{"geometry": {"type": "Point", "coordinates": [-75.6527759132, 43.0965841554]}, "type": "Feature", "properties": {"collection_times": [{"days": "Mon-Fri", "time": "4:30pm"}, {"days": "Sat", "time": "9:15am"}, {"days": "Sun", "time": "Closed"}], "id": "1342100007", "name": "USPS COLLECTION BOX - BLUE BOX", "address": {"city": "ONEIDA", "state": "NY", "street": "109 N MAIN ST", "postcode": "13421"}}},
{"geometry": {"type": "Point", "coordinates": [-75.6550389137, 43.0938503372]}, "type": "Feature", "properties": {"collection_times": [{"days": "Mon-Sat", "time": "9:00am"}, {"days": "Sun", "time": "Closed"}], "id": "1342100012", "name": "USPS COLLECTION BOX - BLUE BOX", "address": {"city": "ONEIDA", "state": "NY", "street": "226 FARRIER AVE", "postcode": "13421"}}},
{"geometry": {"type": "Point", "coordinates": [-75.6573196586, 43.0874067597]}, "type": "Feature", "properties": {"collection_times": [{"days": "Mon-Sat", "time": "10:00am"}, {"days": "Sun", "time": "Closed"}], "id": "1342100016", "name": "USPS COLLECTION BOX - BLUE BOX", "address": {"city": "ONEIDA", "state": "NY", "street": "386 CLEVELAND AVE", "postcode": "13421"}}},
{"geometry": {"type": "Point", "coordinates": [-75.64875857, 43.0816804219]}, "type": "Feature", "properties": {"collection_times": [{"days": "Mon-Sat", "time": "1:30pm"}, {"days": "Sun", "time": "Closed"}], "id": "1342100018", "name": "USPS COLLECTION BOX - BLUE BOX", "address": {"city": "ONEIDA", "state": "NY", "street": "416 E WALNUT ST", "postcode": "13421"}}},
{"geometry": {"type": "Point", "coordinates": [-75.646496767, 43.0891741004]}, "type": "Feature", "properties": {"collection_times": [{"days": "Mon-Sat", "time": "12:00pm"}, {"days": "Sun", "time": "Closed"}], "id": "1342100019", "name": "USPS COLLECTION BOX - BLUE BOX", "address": {"city": "ONEIDA", "state": "NY", "street": "405 ELIZABETH ST", "postcode": "13421"}}},
{"geometry": {"type": "Point", "coordinates": [-75.6514687436, 43.0943069594]}, "type": "Feature", "properties": {"collection_times": [{"days": "Mon-Fri", "time": "4:30pm"}, {"days": "Sat", "time": "9:00am"}, {"days": "Sun", "time": "Closed"}], "id": "1342100024", "name": "USPS COLLECTION BOX - BLUE BOX", "address": {"city": "ONEIDA", "state": "NY", "street": "165 MAIN ST", "postcode": "13421"}}},
{"geometry": {"type": "Point", "coordinates": [-75.6428899252, 43.0802084544]}, "type": "Feature", "properties": {"collection_times": [{"days": "Mon-Fri", "time": "4:30pm"}, {"days": "Sat", "time": "10:00am"}, {"days": "Sun", "time": "Closed"}], "id": "1342100026", "name": "USPS COLLECTION BOX - BLUE BOX", "address": {"city": "ONEIDA", "state": "NY", "street": "581 MAIN ST", "postcode": "13421"}}},
{"geometry": {"type": "Point", "coordinates": [-75.6528838962, 43.097763079]}, "type": "Feature", "properties": {"collection_times": [{"days": "Mon-Sat", "time": "9:00am"}, {"days": "Sun", "time": "Closed"}], "id": "1342100029", "name": "USPS COLLECTION BOX - BLUE BOX", "address": {"city": "ONEIDA", "state": "NY", "street": "133 E ELM ST", "postcode": "13421"}}},
{"geometry": {"type": "Point", "coordinates": [-75.6469086395, 43.0870633789]}, "type": "Feature", "properties": {"collection_times": [{"days": "Mon-Sat", "time": "9:30am"}, {"days": "Sun", "time": "Closed"}], "id": "1342100032", "name": "USPS COLLECTION BOX - BLUE BOX", "address": {"city": "ONEIDA", "state": "NY", "street": "1081 NORTHSIDE SHOPPING CTR", "postcode": "13421"}}},
{"geometry": {"type": "Point", "coordinates": [-75.6517940573, 43.0948605842]}, "type": "Feature", "properties": {"collection_times": [{"days": "Mon-Fri", "time": "4:30pm"}, {"days": "Sat", "time": "9:00am"}, {"days": "Sun", "time": "Closed"}], "id": "1342100034", "name": "USPS COLLECTION BOX - BLUE BOX", "address": {"city": "ONEIDA", "state": "NY", "street": "131 MAIN ST", "postcode": "13421"}}},
{"geometry": {"type": "Point", "coordinates": [-75.6437739957, 43.0633223659]}, "type": "Feature", "properties": {"collection_times": [{"days": "Mon-Fri", "time": "4:30pm"}, {"days": "Sat", "time": "10:00am"}, {"days": "Sun", "time": "Closed"}], "id": "1342100037", "name": "USPS COLLECTION BOX - BLUE BOX", "address": {"city": "ONEIDA", "state": "NY", "street": "15 GLENWOOD PLZ", "postcode": "13421"}}},
{"geometry": {"type": "Point", "coordinates": [-75.6520543083, 43.0773291323]}, "type": "Feature", "properties": {"collection_times": [{"days": "Mon-Fri", "time": "4:30pm"}, {"days": "Sat", "time": "9:00am"}, {"days": "Sun", "time": "Closed"}], "id": "1342100038", "name": "USPS COLLECTION BOX - BLUE BOX", "address": {"city": "ONEIDA", "state": "NY", "street": "600 SENECA ST", "postcode": "13421"}}},
{"geometry": {"type": "Point", "coordinates": [-75.6922417902, 43.0761059527]}, "type": "Feature", "properties": {"collection_times": [{"days": "Mon-Sat", "time": "11:00am"}, {"days": "Sun", "time": "Closed"}], "id": "1342100041", "name": "USPS COLLECTION BOX - BLUE BOX", "address": {"city": "ONEIDA", "state": "NY", "street": "2024 GENESEE ST", "postcode": "13421"}}},
{"geometry": {"type": "Point", "coordinates": [-75.6434636603, 43.07889537]}, "type": "Feature", "properties": {"collection_times": [{"days": "Mon-Sat", "time": "9:00am"}, {"days": "Sun", "time": "Closed"}], "id": "1342100049", "name": "USPS COLLECTION BOX - BLUE BOX", "address": {"city": "ONEIDA", "state": "NY", "street": "142 GENESEE ST", "postcode": "13421"}}},
{"geometry": {"type": "Point", "coordinates": [-75.3322852301, 43.1574672296]}, "type": "Feature", "properties": {"collection_times": [{"days": "Mon-Fri", "time": "4:30pm"}, {"days": "Sat", "time": "10:00am"}, {"days": "Sun", "time": "Closed"}], "id": "1342400001", "name": "USPS COLLECTION BOX - BLUE BOX", "address": {"city": "ORISKANY", "state": "NY", "street": "101 PARK AVE", "postcode": "13424"}}},
{"geometry": {"type": "Point", "coordinates": [-75.3322852301, 43.1574672296]}, "type": "Feature", "properties": {"collection_times": [{"days": "Mon-Fri", "time": "4:45pm"}, {"days": "Sat", "time": "10:00am"}, {"days": "Sun", "time": "Closed"}], "id": "1342400003", "name": "USPS COLLECTION BOX - PO LOBBY", "address": {"city": "ORISKANY", "state": "NY", "street": "101 PARK AVE", "postcode": "13424"}}},
{"geometry": {"type": "Point", "coordinates": [-75.3322852301, 43.1574672296]}, "type": "Feature", "properties": {"collection_times": [{"days": "Mon-Fri", "time": "4:45pm"}, {"days": "Sat", "time": "10:00am"}, {"days": "Sun", "time": "Closed"}], "id": "1342400004", "name": "USPS COLLECTION BOX - PO LOBBY", "address": {"city": "ORISKANY", "state": "NY", "street": "101 PARK AVE", "postcode": "13424"}}},
{"geometry": {"type": "Point", "coordinates": [-75.4670113562, 42.9375789452]}, "type": "Feature", "properties": {"collection_times": [{"days": "Mon-Fri", "time": "4:00pm"}, {"days": "Sat", "time": "11:30am"}, {"days": "Sun", "time": "Closed"}], "id": "1342500001", "name": "USPS COLLECTION BOX - BLUE BOX", "address": {"city": "ORISKANY FALLS", "state": "NY", "street": "216 MAIN ST", "postcode": "13425"}}},
{"geometry": {"type": "Point", "coordinates": [-75.4670113562, 42.9375789452]}, "type": "Feature", "properties": {"collection_times": [{"days": "Mon-Fri", "time": "4:00pm"}, {"days": "Sat", "time": "11:15am"}, {"days": "Sun", "time": "Closed"}], "id": "1342500002", "name": "USPS COLLECTION BOX - PO LOBBY", "address": {"city": "ORISKANY FALLS", "state": "NY", "street": "216 MAIN ST", "postcode": "13425"}}},
{"geometry": {"type": "Point", "coordinates": [-75.9961499905, 43.5750465038]}, "type": "Feature", "properties": {"collection_times": [{"days": "Mon-Fri", "time": "4:00pm"}, {"days": "Sat", "time": "11:45am"}, {"days": "Sun", "time": "Closed"}], "id": "1342600001", "name": "USPS COLLECTION BOX - BLUE BOX", "address": {"city": "ORWELL", "state": "NY", "street": "2007 COUNTY ROUTE 2", "postcode": "13426"}}},
{"geometry": {"type": "Point", "coordinates": [-75.9970649762, 43.5748821801]}, "type": "Feature", "properties": {"collection_times": [{"days": "Mon-Fri", "time": "4:00pm"}, {"days": "Sat", "time": "11:45am"}, {"days": "Sun", "time": "Closed"}], "id": "1342600002", "name": "USPS COLLECTION BOX - PO LOBBY", "address": {"city": "ORWELL", "state": "NY", "street": "2007 COUNTY ROUTE 2", "postcode": "13426"}}},
{"geometry": {"type": "Point", "coordinates": [-74.5365846511, 42.922160271]}, "type": "Feature", "properties": {"collection_times": [{"days": "Mon-Fri", "time": "4:45pm"}, {"days": "Sat", "time": "12:00pm"}, {"days": "Sun", "time": "Closed"}], "id": "1342800001", "name": "USPS COLLECTION BOX - BLUE BOX", "address": {"city": "PALATINE BRIDGE", "state": "NY", "street": "48 DUTCHTOWN PLZ", "postcode": "13428"}}},
{"geometry": {"type": "Point", "coordinates": [-74.5365846511, 42.922160271]}, "type": "Feature", "properties": {"collection_times": [{"days": "Mon-Fri", "time": "4:45pm"}, {"days": "Sat", "time": "12:00pm"}, {"days": "Sun", "time": "Closed"}], "id": "1342800006", "name": "USPS COLLECTION BOX - PO LOBBY", "address": {"city": "PALATINE BRIDGE", "state": "NY", "street": "48 DUTCHTOWN PLZ", "postcode": "13428"}}},
{"geometry": {"type": "Point", "coordinates": [-74.5365846511, 42.922160271]}, "type": "Feature", "properties": {"collection_times": [{"days": "Mon-Sat", "time": "9:30am"}, {"days": "Sun", "time": "Closed"}], "id": "1342800007", "name": "USPS COLLECTION BOX - BLUE BOX", "address": {"city": "PALATINE BRIDGE", "state": "NY", "street": "109 PALATINE PLZ", "postcode": "13428"}}},
{"geometry": {"type": "Point", "coordinates": [-75.0603041211, 43.2265029887]}, "type": "Feature", "properties": {"collection_times": [{"days": "Mon-Fri", "time": "4:00pm"}, {"days": "Sat", "time": "10:15am"}, {"days": "Sun", "time": "Closed"}], "id": "1343100001", "name": "USPS COLLECTION BOX - BLUE BOX", "address": {"city": "POLAND", "state": "NY", "street": "24 COLD BROOK ST", "postcode": "13431"}}},
{"geometry": {"type": "Point", "coordinates": [-75.0603041211, 43.2265029887]}, "type": "Feature", "properties": {"collection_times": [{"days": "Mon-Fri", "time": "2:45pm"}, {"days": "Sat", "time": "10:45am"}, {"days": "Sun", "time": "Closed"}], "id": "1343100002", "name": "USPS COLLECTION BOX - PO LOBBY", "address": {"city": "POLAND", "state": "NY", "street": "24 COLD BROOK ST", "postcode": "13431"}}},
{"geometry": {"type": "Point", "coordinates": [-75.2399286429, 43.6022886357]}, "type": "Feature", "properties": {"collection_times": [{"days": "Mon-Fri", "time": "4:30pm"}, {"days": "Sat", "time": "10:45am"}, {"days": "Sun", "time": "Closed"}], "id": "1343300001", "name": "USPS COLLECTION BOX - BLUE BOX", "address": {"city": "PORT LEYDEN", "state": "NY", "street": "7085 W MAIN ST", "postcode": "13433"}}},
{"geometry": {"type": "Point", "coordinates": [-75.2399286429, 43.6022886357]}, "type": "Feature", "properties": {"collection_times": [{"days": "Mon-Fri", "time": "4:30pm"}, {"days": "Sat", "time": "10:45am"}, {"days": "Sun", "time": "Closed"}], "id": "1343300002", "name": "USPS COLLECTION BOX - PO LOBBY", "address": {"city": "PORT LEYDEN", "state": "NY", "street": "7085 W MAIN ST", "postcode": "13433"}}},
{"geometry": {"type": "Point", "coordinates": [-75.1532854949, 43.3030810827]}, "type": "Feature", "properties": {"collection_times": [{"days": "Mon-Fri", "time": "4:30pm"}, {"days": "Sat", "time": "10:30am"}, {"days": "Sun", "time": "Closed"}], "id": "1343500001", "name": "USPS COLLECTION BOX - BLUE BOX", "address": {"city": "PROSPECT", "state": "NY", "street": "209 CHURCH ST", "postcode": "13435"}}},
{"geometry": {"type": "Point", "coordinates": [-75.1532854949, 43.3030810827]}, "type": "Feature", "properties": {"collection_times": [{"days": "Mon-Fri", "time": "4:45pm"}, {"days": "Sat", "time": "10:45am"}, {"days": "Sun", "time": "Closed"}], "id": "1343500002", "name": "USPS COLLECTION BOX - PO LOBBY", "address": {"city": "PROSPECT", "state": "NY", "street": "209 CHURCH ST", "postcode": "13435"}}},
{"geometry": {"type": "Point", "coordinates": [-74.657861157, 43.812482691]}, "type": "Feature", "properties": {"collection_times": [{"days": "Mon-Fri", "time": "1:00pm"}, {"days": "Sat", "time": "11:30am"}, {"days": "Sun", "time": "Closed"}], "id": "1343600001", "name": "USPS COLLECTION BOX - PO LOBBY", "address": {"city": "RAQUETTE LAKE", "state": "NY", "street": "185 MAIN ST", "postcode": "13436"}}},
{"geometry": {"type": "Point", "coordinates": [-74.552638101, 43.8711452044]}, "type": "Feature", "properties": {"collection_times": [{"days": "Mon-Fri", "time": "3:45pm"}, {"days": "Sat", "time": "11:30am"}, {"days": "Sun", "time": "Closed"}], "id": "1343600002", "name": "USPS COLLECTION BOX - BLUE BOX", "address": {"city": "RAQUETTE LAKE", "state": "NY", "street": "185 MAIN ST", "postcode": "13436"}}},
{"geometry": {"type": "Point", "coordinates": [-75.8219283986, 43.5335916733]}, "type": "Feature", "properties": {"collection_times": [{"days": "Mon-Fri", "time": "3:30pm"}, {"days": "Sat", "time": "10:15am"}, {"days": "Sun", "time": "Closed"}], "id": "1343700001", "name": "USPS COLLECTION BOX - BLUE BOX", "address": {"city": "REDFIELD", "state": "NY", "street": "7 SCHOOL RD", "postcode": "13437"}}},
{"geometry": {"type": "Point", "coordinates": [-75.8219283986, 43.5335916733]}, "type": "Feature", "properties": {"collection_times": [{"days": "Mon-Fri", "time": "12:30pm"}, {"days": "Sat", "time": "11:00am"}, {"days": "Sun", "time": "Closed"}], "id": "1343700002", "name": "USPS COLLECTION BOX - PO LOBBY", "address": {"city": "REDFIELD", "state": "NY", "street": "7 SCHOOL RD", "postcode": "13437"}}},
{"geometry": {"type": "Point", "coordinates": [-75.1912344623, 43.3242539148]}, "type": "Feature", "properties": {"collection_times": [{"days": "Mon-Fri", "time": "4:45pm"}, {"days": "Sat", "time": "10:30am"}, {"days": "Sun", "time": "Closed"}], "id": "1343800001", "name": "USPS COLLECTION BOX - BLUE BOX", "address": {"city": "REMSEN", "state": "NY", "street": "10565 STEUBEN ST", "postcode": "13438"}}},
{"geometry": {"type": "Point", "coordinates": [-75.0974671869, 43.337723416]}, "type": "Feature", "properties": {"collection_times": [{"days": "Mon-Sat", "time": "11:00am"}, {"days": "Sun", "time": "Closed"}], "id": "1343800002", "name": "USPS COLLECTION BOX - BLUE BOX", "address": {"city": "REMSEN", "state": "NY", "street": "12034 STATE ROUTE 365", "postcode": "13438"}}},
{"geometry": {"type": "Point", "coordinates": [-75.1912344623, 43.3242539148]}, "type": "Feature", "properties": {"collection_times": [{"days": "Mon-Fri", "time": "5:00pm"}, {"days": "Sat", "time": "10:30am"}, {"days": "Sun", "time": "Closed"}], "id": "1343800003", "name": "USPS COLLECTION BOX - PO LOBBY", "address": {"city": "REMSEN", "state": "NY", "street": "10565 STEUBEN ST", "postcode": "13438"}}},
{"geometry": {"type": "Point", "coordinates": [-75.1912344623, 43.3242539148]}, "type": "Feature", "properties": {"collection_times": [{"days": "Mon-Fri", "time": "5:00pm"}, {"days": "Sat", "time": "10:30am"}, {"days": "Sun", "time": "Closed"}], "id": "1343800004", "name": "USPS COLLECTION BOX - PO LOBBY", "address": {"city": "REMSEN", "state": "NY", "street": "10565 STEUBEN ST", "postcode": "13438"}}},
{"geometry": {"type": "Point", "coordinates": [-74.9848769671, 42.8533341937]}, "type": "Feature", "properties": {"collection_times": [{"days": "Mon-Fri", "time": "5:00pm"}, {"days": "Sat", "time": "12:30pm"}, {"days": "Sun", "time": "Closed"}], "id": "1343900001", "name": "USPS COLLECTION BOX - BLUE BOX", "address": {"city": "RICHFLD SPGS", "state": "NY", "street": "152 MAIN ST", "postcode": "13439"}}},
{"geometry": {"type": "Point", "coordinates": [-74.9848769671, 42.8533341937]}, "type": "Feature", "properties": {"collection_times": [{"days": "Mon-Fri", "time": "5:00pm"}, {"days": "Sat", "time": "12:30pm"}, {"days": "Sun", "time": "Closed"}], "id": "1343900004", "name": "USPS COLLECTION BOX - PO LOBBY", "address": {"city": "RICHFLD SPGS", "state": "NY", "street": "152 MAIN ST", "postcode": "13439"}}},
{"geometry": {"type": "Point", "coordinates": [-75.4583701538, 43.2131718318]}, "type": "Feature", "properties": {"collection_times": [{"days": "Mon-Fri", "time": "5:00pm"}, {"days": "Sat", "time": "12:00pm"}, {"days": "Sun", "time": "Closed"}], "id": "1344000008", "name": "USPS COLLECTION BOX - BLUE BOX", "address": {"city": "ROME", "state": "NY", "street": "143 N WASHINGTON ST", "postcode": "13440"}}},
{"geometry": {"type": "Point", "coordinates": [-75.4594876141, 43.2117383668]}, "type": "Feature", "properties": {"collection_times": [{"days": "Mon-Fri", "time": "5:00pm"}, {"days": "Sat", "time": "9:15am"}, {"days": "Sun", "time": "Closed"}], "id": "1344000011", "name": "USPS COLLECTION BOX - BLUE BOX", "address": {"city": "ROME", "state": "NY", "street": "200 W DOMINICK ST", "postcode": "13440"}}},
{"geometry": {"type": "Point", "coordinates": [-75.4576012952, 43.2125552508]}, "type": "Feature", "properties": {"collection_times": [{"days": "Mon-Fri", "time": "4:45pm"}, {"days": "Sat", "time": "9:00am"}, {"days": "Sun", "time": "Closed"}], "id": "1344000012", "name": "USPS COLLECTION BOX - BLUE BOX", "address": {"city": "ROME", "state": "NY", "street": "126 W LIBERTY ST", "postcode": "13440"}}},
{"geometry": {"type": "Point", "coordinates": [-75.4573877617, 43.210731918]}, "type": "Feature", "properties": {"collection_times": [{"days": "Mon-Fri", "time": "4:45pm"}, {"days": "Sat", "time": "9:00am"}, {"days": "Sun", "time": "Closed"}], "id": "1344000014", "name": "USPS COLLECTION BOX - BLUE BOX", "address": {"city": "ROME", "state": "NY", "street": "100 W DOMINICK ST", "postcode": "13440"}}},
{"geometry": {"type": "Point", "coordinates": [-75.4600427332, 43.2120126454]}, "type": "Feature", "properties": {"collection_times": [{"days": "Mon-Fri", "time": "4:45pm"}, {"days": "Sat", "time": "9:00am"}, {"days": "Sun", "time": "Closed"}], "id": "1344000017", "name": "USPS COLLECTION BOX - BLUE BOX", "address": {"city": "ROME", "state": "NY", "street": "226 W DOMINICK ST", "postcode": "13440"}}},
{"geometry": {"type": "Point", "coordinates": [-75.4542242285, 43.2177875759]}, "type": "Feature", "properties": {"collection_times": [{"days": "Mon-Sat", "time": "9:00am"}, {"days": "Sun", "time": "Closed"}], "id": "1344000020", "name": "USPS COLLECTION BOX - BLUE BOX", "address": {"city": "ROME", "state": "NY", "street": "613 N WASHINGTON ST", "postcode": "13440"}}},
{"geometry": {"type": "Point", "coordinates": [-75.4621957101, 43.2199537242]}, "type": "Feature", "properties": {"collection_times": [{"days": "Mon-Sat", "time": "12:00pm"}, {"days": "Sun", "time": "Closed"}], "id": "1344000024", "name": "USPS COLLECTION BOX - BLUE BOX", "address": {"city": "ROME", "state": "NY", "street": "504 W THOMAS ST", "postcode": "13440"}}},
{"geometry": {"type": "Point", "coordinates": [-75.4242930272, 43.2205495422]}, "type": "Feature", "properties": {"collection_times": [{"days": "Mon-Fri", "time": "4:15pm"}, {"days": "Sat-Sun", "time": "Closed"}], "id": "1344000025", "name": "USPS COLLECTION BOX - BLUE BOX", "address": {"city": "ROME", "state": "NY", "street": "1300 FLOYD AVE", "postcode": "13440"}}},
{"geometry": {"type": "Point", "coordinates": [-75.4549523532, 43.2121265534]}, "type": "Feature", "properties": {"collection_times": [{"days": "Mon-Sat", "time": "9:00am"}, {"days": "Sun", "time": "Closed"}], "id": "1344000030", "name": "USPS COLLECTION BOX - BLUE BOX", "address": {"city": "ROME", "state": "NY", "street": "200 CHURCH ST", "postcode": "13440"}}},
{"geometry": {"type": "Point", "coordinates": [-75.4402485154, 43.2295217432]}, "type": "Feature", "properties": {"collection_times": [{"days": "Mon-Sat", "time": "9:00am"}, {"days": "Sun", "time": "Closed"}], "id": "1344000055", "name": "USPS COLLECTION BOX - BLUE BOX", "address": {"city": "ROME", "state": "NY", "street": "1625 BLACK RIVER BLVD N", "postcode": "13440"}}},
{"geometry": {"type": "Point", "coordinates": [-75.4411151744, 43.2268715514]}, "type": "Feature", "properties": {"collection_times": [{"days": "Mon-Sat", "time": "9:30am"}, {"days": "Sun", "time": "Closed"}], "id": "1344000058", "name": "USPS COLLECTION BOX - BLUE BOX", "address": {"city": "ROME", "state": "NY", "street": "127 RINGDAHL CT", "postcode": "13440"}}},
{"geometry": {"type": "Point", "coordinates": [-75.4374636578, 43.2332452471]}, "type": "Feature", "properties": {"collection_times": [{"days": "Mon-Fri", "time": "4:15pm"}, {"days": "Sat", "time": "9:00am"}, {"days": "Sun", "time": "Closed"}], "id": "1344000059", "name": "USPS COLLECTION BOX - BLUE BOX", "address": {"city": "ROME", "state": "NY", "street": "1790 BLACK RIVER BLVD N", "postcode": "13440"}}},
{"geometry": {"type": "Point", "coordinates": [-75.4697161038, 43.2768464301]}, "type": "Feature", "properties": {"collection_times": [{"days": "Mon-Sat", "time": "10:00am"}, {"days": "Sun", "time": "Closed"}], "id": "1344000062", "name": "USPS COLLECTION BOX - BLUE BOX", "address": {"city": "ROME", "state": "NY", "street": "8593 TURIN RD", "postcode": "13440"}}},
{"geometry": {"type": "Point", "coordinates": [-75.4613713445, 43.2421418456]}, "type": "Feature", "properties": {"collection_times": [{"days": "Mon-Sat", "time": "9:30am"}, {"days": "Sun", "time": "Closed"}], "id": "1344000063", "name": "USPS COLLECTION BOX - BLUE BOX", "address": {"city": "ROME", "state": "NY", "street": "2 WOODCREEK APTS", "postcode": "13440"}}},
{"geometry": {"type": "Point", "coordinates": [-75.48552999, 43.2245701176]}, "type": "Feature", "properties": {"collection_times": [{"days": "Mon-Sat", "time": "10:00am"}, {"days": "Sun", "time": "Closed"}], "id": "1344000065", "name": "USPS COLLECTION BOX - BLUE BOX", "address": {"city": "ROME", "state": "NY", "street": "1140 ERIE BLVD W", "postcode": "13440"}}},
{"geometry": {"type": "Point", "coordinates": [-75.4721602793, 43.2255022678]}, "type": "Feature", "properties": {"collection_times": [{"days": "Mon-Sat", "time": "1:00pm"}, {"days": "Sun", "time": "Closed"}], "id": "1344000081", "name": "USPS COLLECTION BOX - BLUE BOX", "address": {"city": "ROME", "state": "NY", "street": "401 N LEVITT ST", "postcode": "13440"}}},
{"geometry": {"type": "Point", "coordinates": [-75.4995061362, 43.2331820226]}, "type": "Feature", "properties": {"collection_times": [{"days": "Mon-Sat", "time": "9:00am"}, {"days": "Sun", "time": "Closed"}], "id": "1344000083", "name": "USPS COLLECTION BOX - BLUE BOX", "address": {"city": "ROME", "state": "NY", "street": "5815 ROME TABERG RD", "postcode": "13440"}}},
{"geometry": {"type": "Point", "coordinates": [-75.461835314, 43.2127703313]}, "type": "Feature", "properties": {"collection_times": [{"days": "Mon-Fri", "time": "4:45pm"}, {"days": "Sat", "time": "9:00am"}, {"days": "Sun", "time": "Closed"}], "id": "1344000086", "name": "USPS COLLECTION BOX - BLUE BOX", "address": {"city": "ROME", "state": "NY", "street": "301 W DOMINICK ST", "postcode": "13440"}}},
{"geometry": {"type": "Point", "coordinates": [-75.4552890705, 43.2131155429]}, "type": "Feature", "properties": {"collection_times": [{"days": "Mon-Fri", "time": "4:45pm"}, {"days": "Sat", "time": "9:00am"}, {"days": "Sun", "time": "Closed"}], "id": "1344000087", "name": "USPS COLLECTION BOX - BLUE BOX", "address": {"city": "ROME", "state": "NY", "street": "301 N JAMES ST", "postcode": "13440"}}},
{"geometry": {"type": "Point", "coordinates": [-75.4578571954, 43.2135311646]}, "type": "Feature", "properties": {"collection_times": [{"days": "Mon-Fri", "time": "4:45pm"}, {"days": "Sat", "time": "9:00am"}, {"days": "Sun", "time": "Closed"}], "id": "1344000088", "name": "USPS COLLECTION BOX - BLUE BOX", "address": {"city": "ROME", "state": "NY", "street": "220 N WASHINGTON ST", "postcode": "13440"}}},
{"geometry": {"type": "Point", "coordinates": [-75.4495173784, 43.2198162635]}, "type": "Feature", "properties": {"collection_times": [{"days": "Mon-Fri", "time": "5:45pm"}, {"days": "Sat", "time": "3:30pm"}, {"days": "Sun", "time": "Closed"}], "id": "1344000096", "name": "USPS COLLECTION BOX - PO LOBBY", "address": {"city": "ROME", "state": "NY", "street": "110 E GARDEN ST", "postcode": "13440"}}},
{"geometry": {"type": "Point", "coordinates": [-75.4495173784, 43.2198162635]}, "type": "Feature", "properties": {"collection_times": [{"days": "Mon-Fri", "time": "5:45pm"}, {"days": "Sat", "time": "3:30pm"}, {"days": "Sun", "time": "Closed"}], "id": "1344000098", "name": "USPS COLLECTION BOX - PO LOBBY", "address": {"city": "ROME", "state": "NY", "street": "110 E GARDEN ST", "postcode": "13440"}}},
{"geometry": {"type": "Point", "coordinates": [-75.4165456098, 43.2226268758]}, "type": "Feature", "properties": {"collection_times": [{"days": "Mon-Fri", "time": "4:15pm"}, {"days": "Sat-Sun", "time": "Closed"}], "id": "1344000102", "name": "USPS COLLECTION BOX - BLUE BOX", "address": {"city": "ROME", "state": "NY", "street": "160 BROOKS RD", "postcode": "13440"}}},
{"geometry": {"type": "Point", "coordinates": [-75.4588661238, 43.2095248932]}, "type": "Feature", "properties": {"collection_times": [{"days": "Mon-Sat", "time": "9:00am"}, {"days": "Sun", "time": "Closed"}], "id": "1344000104", "name": "USPS COLLECTION BOX - BLUE BOX", "address": {"city": "ROME", "state": "NY", "street": "200 S JAMES ST", "postcode": "13440"}}},
{"geometry": {"type": "Point", "coordinates": [-75.4360111667, 43.2376581685]}, "type": "Feature", "properties": {"collection_times": [{"days": "Mon-Fri", "time": "4:15pm"}, {"days": "Sat", "time": "9:30am"}, {"days": "Sun", "time": "Closed"}], "id": "1344000105", "name": "USPS COLLECTION BOX - BLUE BOX", "address": {"city": "ROME", "state": "NY", "street": "1916 BLACK RIVER BLVD N", "postcode": "13440"}}},
{"geometry": {"type": "Point", "coordinates": [-75.4495173784, 43.2198162635]}, "type": "Feature", "properties": {"collection_times": [{"days": "Mon-Fri", "time": "5:45pm"}, {"days": "Sat", "time": "3:30pm"}, {"days": "Sun", "time": "Closed"}], "id": "1344000106", "name": "USPS COLLECTION BOX - BLUE BOX", "address": {"city": "ROME", "state": "NY", "street": "110 E GARDEN ST", "postcode": "13440"}}},
{"geometry": {"type": "Point", "coordinates": [-74.6778262099, 42.998748034]}, "type": "Feature", "properties": {"collection_times": [{"days": "Mon-Fri", "time": "5:00pm"}, {"days": "Sat", "time": "12:00pm"}, {"days": "Sun", "time": "Closed"}], "id": "1345200001", "name": "USPS COLLECTION BOX - BLUE BOX", "address": {"city": "ST JOHNSVILLE", "state": "NY", "street": "15 E MAIN ST", "postcode": "13452"}}},
{"geometry": {"type": "Point", "coordinates": [-74.6795674023, 42.9993780513]}, "type": "Feature", "properties": {"collection_times": [{"days": "Mon-Fri", "time": "2:00pm"}, {"days": "Sat", "time": "1:00pm"}, {"days": "Sun", "time": "Closed"}], "id": "1345200011", "name": "USPS COLLECTION BOX - BLUE BOX", "address": {"city": "ST JOHNSVILLE", "state": "NY", "street": "7 CENTER ST", "postcode": "13452"}}},
{"geometry": {"type": "Point", "coordinates": [-74.6778262099, 42.998748034]}, "type": "Feature", "properties": {"collection_times": [{"days": "Mon-Fri", "time": "5:00pm"}, {"days": "Sat", "time": "12:00pm"}, {"days": "Sun", "time": "Closed"}], "id": "1345200018", "name": "USPS COLLECTION BOX - PO LOBBY", "address": {"city": "ST JOHNSVILLE", "state": "NY", "street": "15 E MAIN ST", "postcode": "13452"}}},
{"geometry": {"type": "Point", "coordinates": [-74.6105194616, 43.0206007813]}, "type": "Feature", "properties": {"collection_times": [{"days": "Mon-Fri", "time": "2:00pm"}, {"days": "Sat-Sun", "time": "Closed"}], "id": "1345200019", "name": "USPS COLLECTION BOX - BLUE BOX", "address": {"city": "ST JOHNSVILLE", "state": "NY", "street": "1 MUNICIPAL PARKING LOT", "postcode": "13452"}}},
{"geometry": {"type": "Point", "coordinates": [-74.7450366356, 43.1616910827]}, "type": "Feature", "properties": {"collection_times": [{"days": "Mon-Fri", "time": "4:15pm"}, {"days": "Sat", "time": "10:45am"}, {"days": "Sun", "time": "Closed"}], "id": "1345400001", "name": "USPS COLLECTION BOX - BLUE BOX", "address": {"city": "SALISBURY CTR", "state": "NY", "street": "181 STATE ROUTE 29A", "postcode": "13454"}}},
{"geometry": {"type": "Point", "coordinates": [-74.7450366356, 43.1616910827]}, "type": "Feature", "properties": {"collection_times": [{"days": "Mon-Fri", "time": "3:30pm"}, {"days": "Sat", "time": "11:00am"}, {"days": "Sun", "time": "Closed"}], "id": "1345400002", "name": "USPS COLLECTION BOX - PO LOBBY", "address": {"city": "SALISBURY CTR", "state": "NY", "street": "181 STATE ROUTE 29A", "postcode": "13454"}}},
{"geometry": {"type": "Point", "coordinates": [-75.3722832916, 42.9142607063]}, "type": "Feature", "properties": {"collection_times": [{"days": "Mon-Fri", "time": "4:30pm"}, {"days": "Sat", "time": "10:30am"}, {"days": "Sun", "time": "Closed"}], "id": "1345500001", "name": "USPS COLLECTION BOX - BLUE BOX", "address": {"city": "SANGERFIELD", "state": "NY", "street": "1084 STATE ROUTE 12", "postcode": "13455"}}},
{"geometry": {"type": "Point", "coordinates": [-75.3722832916, 42.9142607063]}, "type": "Feature", "properties": {"collection_times": [{"days": "Mon-Fri", "time": "4:45pm"}, {"days": "Sat", "time": "10:45am"}, {"days": "Sun", "time": "Closed"}], "id": "1345500002", "name": "USPS COLLECTION BOX - PO LOBBY", "address": {"city": "SANGERFIELD", "state": "NY", "street": "1084 STATE ROUTE 12", "postcode": "13455"}}},
{"geometry": {"type": "Point", "coordinates": [-75.2603541187, 43.0048906401]}, "type": "Feature", "properties": {"collection_times": [{"days": "Mon-Fri", "time": "4:45pm"}, {"days": "Sat", "time": "12:00pm"}, {"days": "Sun", "time": "Closed"}], "id": "1345600001", "name": "USPS COLLECTION BOX - BLUE BOX", "address": {"city": "SAUQUOIT", "state": "NY", "street": "2944 ONEIDA ST", "postcode": "13456"}}},
{"geometry": {"type": "Point", "coordinates": [-75.2603541187, 43.0048906401]}, "type": "Feature", "properties": {"collection_times": [{"days": "Mon-Fri", "time": "4:45pm"}, {"days": "Sat", "time": "12:00pm"}, {"days": "Sun", "time": "Closed"}], "id": "1345600002", "name": "USPS COLLECTION BOX - PO LOBBY", "address": {"city": "SAUQUOIT", "state": "NY", "street": "2944 ONEIDA ST", "postcode": "13456"}}},
{"geometry": {"type": "Point", "coordinates": [-75.2603541187, 43.0048906401]}, "type": "Feature", "properties": {"collection_times": [{"days": "Mon-Fri", "time": "4:45pm"}, {"days": "Sat", "time": "12:00pm"}, {"days": "Sun", "time": "Closed"}], "id": "1345600003", "name": "USPS COLLECTION BOX - PO LOBBY", "address": {"city": "SAUQUOIT", "state": "NY", "street": "2944 ONEIDA ST", "postcode": "13456"}}},
{"geometry": {"type": "Point", "coordinates": [-75.0305901792, 42.7801499674]}, "type": "Feature", "properties": {"collection_times": [{"days": "Mon-Fri", "time": "4:45pm"}, {"days": "Sat", "time": "11:00am"}, {"days": "Sun", "time": "Closed"}], "id": "1345700001", "name": "USPS COLLECTION BOX - BLUE BOX", "address": {"city": "SCHUYLER LAKE", "state": "NY", "street": "7367 STATE HIGHWAY 28", "postcode": "13457"}}},
{"geometry": {"type": "Point", "coordinates": [-75.0305901792, 42.7801499674]}, "type": "Feature", "properties": {"collection_times": [{"days": "Mon-Fri", "time": "12:00pm"}, {"days": "Sat", "time": "11:00am"}, {"days": "Sun", "time": "Closed"}], "id": "1345700002", "name": "USPS COLLECTION BOX - PO LOBBY", "address": {"city": "SCHUYLER LAKE", "state": "NY", "street": "7367 STATE HIGHWAY 28", "postcode": "13457"}}},
{"geometry": {"type": "Point", "coordinates": [-74.6219833258, 42.7896808304]}, "type": "Feature", "properties": {"collection_times": [{"days": "Mon-Fri", "time": "4:15pm"}, {"days": "Sat", "time": "11:45am"}, {"days": "Sun", "time": "Closed"}], "id": "1345900001", "name": "USPS COLLECTION BOX - BLUE BOX", "address": {"city": "SHARON SPRINGS", "state": "NY", "street": "105 MAIN ST STE2", "postcode": "13459"}}},
{"geometry": {"type": "Point", "coordinates": [-74.6219833258, 42.7896808304]}, "type": "Feature", "properties": {"collection_times": [{"days": "Mon-Fri", "time": "4:20pm"}, {"days": "Sat", "time": "12:00pm"}, {"days": "Sun", "time": "Closed"}], "id": "1345900003", "name": "USPS COLLECTION BOX - PO LOBBY", "address": {"city": "SHARON SPRINGS", "state": "NY", "street": "105 MAIN ST STE2", "postcode": "13459"}}},
{"geometry": {"type": "Point", "coordinates": [-75.4991410593, 42.6781651182]}, "type": "Feature", "properties": {"collection_times": [{"days": "Mon-Fri", "time": "4:20pm"}, {"days": "Sat", "time": "12:45pm"}, {"days": "Sun", "time": "Closed"}], "id": "1346000001", "name": "USPS COLLECTION BOX - BLUE BOX", "address": {"city": "SHERBURNE", "state": "NY", "street": "4 W STATE ST", "postcode": "13460"}}},
{"geometry": {"type": "Point", "coordinates": [-75.4991410593, 42.6781651182]}, "type": "Feature", "properties": {"collection_times": [{"days": "Mon-Fri", "time": "4:30pm"}, {"days": "Sat", "time": "12:45pm"}, {"days": "Sun", "time": "Closed"}], "id": "1346000002", "name": "USPS COLLECTION BOX - PO LOBBY", "address": {"city": "SHERBURNE", "state": "NY", "street": "4 W STATE ST", "postcode": "13460"}}},
{"geometry": {"type": "Point", "coordinates": [-75.6008721484, 43.0697736694]}, "type": "Feature", "properties": {"collection_times": [{"days": "Mon-Fri", "time": "5:00pm"}, {"days": "Sat", "time": "2:30pm"}, {"days": "Sun", "time": "Closed"}], "id": "1346100001", "name": "USPS COLLECTION BOX - BLUE BOX", "address": {"city": "SHERRILL", "state": "NY", "street": "510 SHERRILL RD", "postcode": "13461"}}},
{"geometry": {"type": "Point", "coordinates": [-75.5927644049, 43.0769884401]}, "type": "Feature", "properties": {"collection_times": [{"days": "Mon-Fri", "time": "12:45pm"}, {"days": "Sat", "time": "12:00pm"}, {"days": "Sun", "time": "Closed"}], "id": "1346100005", "name": "USPS COLLECTION BOX - BLUE BOX", "address": {"city": "SHERRILL", "state": "NY", "street": "278 E SENECA ST", "postcode": "13461"}}},
{"geometry": {"type": "Point", "coordinates": [-75.6008721484, 43.0697736694]}, "type": "Feature", "properties": {"collection_times": [{"days": "Mon-Fri", "time": "4:15pm"}, {"days": "Sat", "time": "12:00pm"}, {"days": "Sun", "time": "Closed"}], "id": "1346100007", "name": "USPS COLLECTION BOX - PO LOBBY", "address": {"city": "SHERRILL", "state": "NY", "street": "510 SHERRILL RD", "postcode": "13461"}}},
{"geometry": {"type": "Point", "coordinates": [-75.5711190552, 42.6868577316]}, "type": "Feature", "properties": {"collection_times": [{"days": "Mon-Fri", "time": "4:15pm"}, {"days": "Sat", "time": "11:15am"}, {"days": "Sun", "time": "Closed"}], "id": "1346400001", "name": "USPS COLLECTION BOX - BLUE BOX", "address": {"city": "SMYRNA", "state": "NY", "street": "9 W MAIN ST", "postcode": "13464"}}},
{"geometry": {"type": "Point", "coordinates": [-75.5711190552, 42.6868577316]}, "type": "Feature", "properties": {"collection_times": [{"days": "Mon-Fri", "time": "12:00pm"}, {"days": "Sat", "time": "11:00am"}, {"days": "Sun", "time": "Closed"}], "id": "1346400002", "name": "USPS COLLECTION BOX - PO LOBBY", "address": {"city": "SMYRNA", "state": "NY", "street": "9 W MAIN ST", "postcode": "13464"}}},
{"geometry": {"type": "Point", "coordinates": [-74.8523129174, 42.8448766702]}, "type": "Feature", "properties": {"collection_times": [{"days": "Mon-Fri", "time": "4:30pm"}, {"days": "Sat", "time": "11:30am"}, {"days": "Sun", "time": "Closed"}], "id": "1346800001", "name": "USPS COLLECTION BOX - BLUE BOX", "address": {"city": "SPRINGFIELD CTR", "state": "NY", "street": "7670 ST HWY 80", "postcode": "13468"}}},
{"geometry": {"type": "Point", "coordinates": [-74.8587042562, 42.8527643135]}, "type": "Feature", "properties": {"collection_times": [{"days": "Mon-Fri", "time": "4:00pm"}, {"days": "Sat", "time": "11:30am"}, {"days": "Sun", "time": "Closed"}], "id": "1346800002", "name": "USPS COLLECTION BOX - PO LOBBY", "address": {"city": "SPRINGFIELD CTR", "state": "NY", "street": "7670 STATE HIGHWAY 80", "postcode": "13468"}}},
{"geometry": {"type": "Point", "coordinates": [-75.2876887515, 43.2230093459]}, "type": "Feature", "properties": {"collection_times": [{"days": "Mon-Fri", "time": "4:00pm"}, {"days": "Sat", "time": "10:45am"}, {"days": "Sun", "time": "Closed"}], "id": "1346900001", "name": "USPS COLLECTION BOX - BLUE BOX", "address": {"city": "STITTVILLE", "state": "NY", "street": "9060 MAIN ST", "postcode": "13469"}}},
{"geometry": {"type": "Point", "coordinates": [-75.2876887515, 43.2230093459]}, "type": "Feature", "properties": {"collection_times": [{"days": "Mon-Fri", "time": "11:30am"}, {"days": "Sat", "time": "11:00am"}, {"days": "Sun", "time": "Closed"}], "id": "1346900002", "name": "USPS COLLECTION BOX - PO LOBBY", "address": {"city": "STITTVILLE", "state": "NY", "street": "9060 MAIN ST", "postcode": "13469"}}},
{"geometry": {"type": "Point", "coordinates": [-74.5581705032, 43.1825365732]}, "type": "Feature", "properties": {"collection_times": [{"days": "Mon-Fri", "time": "4:00pm"}, {"days": "Sat", "time": "11:15am"}, {"days": "Sun", "time": "Closed"}], "id": "1347000001", "name": "USPS COLLECTION BOX - BLUE BOX", "address": {"city": "STRATFORD", "state": "NY", "street": "6186 STATE HIGHWAY 29A", "postcode": "13470"}}},
{"geometry": {"type": "Point", "coordinates": [-74.5581705032, 43.1825365732]}, "type": "Feature", "properties": {"collection_times": [{"days": "Mon-Fri", "time": "12:00pm"}, {"days": "Sat", "time": "11:45am"}, {"days": "Sun", "time": "Closed"}], "id": "1347000002", "name": "USPS COLLECTION BOX - PO LOBBY", "address": {"city": "STRATFORD", "state": "NY", "street": "6186 STATE HIGHWAY 29A", "postcode": "13470"}}},
{"geometry": {"type": "Point", "coordinates": [-75.6226288215, 43.3104672331]}, "type": "Feature", "properties": {"collection_times": [{"days": "Mon-Fri", "time": "4:15pm"}, {"days": "Sat", "time": "10:30am"}, {"days": "Sun", "time": "Closed"}], "id": "1347100001", "name": "USPS COLLECTION BOX - BLUE BOX", "address": {"city": "TABERG", "state": "NY", "street": "9300 MAIN ST", "postcode": "13471"}}},
{"geometry": {"type": "Point", "coordinates": [-75.6226288215, 43.3104672331]}, "type": "Feature", "properties": {"collection_times": [{"days": "Mon-Fri", "time": "2:15pm"}, {"days": "Sat", "time": "10:45am"}, {"days": "Sun", "time": "Closed"}], "id": "1347100002", "name": "USPS COLLECTION BOX - PO LOBBY", "address": {"city": "TABERG", "state": "NY", "street": "9300 MAIN ST", "postcode": "13471"}}},
{"geometry": {"type": "Point", "coordinates": [-75.4523010837, 43.6929650236]}, "type": "Feature", "properties": {"collection_times": [{"days": "Mon-Fri", "time": "4:00pm"}, {"days": "Sat", "time": "10:30am"}, {"days": "Sun", "time": "Closed"}], "id": "1347300001", "name": "USPS COLLECTION BOX - BLUE BOX", "address": {"city": "TURIN", "state": "NY", "street": "4205 STATE ROUTE 26", "postcode": "13473"}}},
{"geometry": {"type": "Point", "coordinates": [-75.4523010837, 43.6929650236]}, "type": "Feature", "properties": {"collection_times": [{"days": "Mon-Fri", "time": "12:00pm"}, {"days": "Sat", "time": "10:30am"}, {"days": "Sun", "time": "Closed"}], "id": "1347300002", "name": "USPS COLLECTION BOX - PO LOBBY", "address": {"city": "TURIN", "state": "NY", "street": "4205 STATE ROUTE 26", "postcode": "13473"}}},
{"geometry": {"type": "Point", "coordinates": [-74.8120066674, 42.8858577931]}, "type": "Feature", "properties": {"collection_times": [{"days": "Mon-Fri", "time": "4:30pm"}, {"days": "Sat", "time": "11:30am"}, {"days": "Sun", "time": "Closed"}], "id": "1347500001", "name": "USPS COLLECTION BOX - BLUE BOX", "address": {"city": "VAN HORNESVILLE", "state": "NY", "street": "2178 STATE ROUTE 80", "postcode": "13475"}}},
{"geometry": {"type": "Point", "coordinates": [-74.8120066674, 42.8858577931]}, "type": "Feature", "properties": {"collection_times": [{"days": "Mon-Fri", "time": "12:30pm"}, {"days": "Sat", "time": "11:30am"}, {"days": "Sun", "time": "Closed"}], "id": "1347500002", "name": "USPS COLLECTION BOX - PO LOBBY", "address": {"city": "VAN HORNESVILLE", "state": "NY", "street": "2178 STATE ROUTE 80", "postcode": "13475"}}},
{"geometry": {"type": "Point", "coordinates": [-75.5389497619, 43.0791868407]}, "type": "Feature", "properties": {"collection_times": [{"days": "Mon-Fri", "time": "4:15pm"}, {"days": "Sat", "time": "11:15am"}, {"days": "Sun", "time": "Closed"}], "id": "1347600001", "name": "USPS COLLECTION BOX - BLUE BOX", "address": {"city": "VERNON", "state": "NY", "street": "4470 PETERBORO ST", "postcode": "13476"}}},
{"geometry": {"type": "Point", "coordinates": [-75.5389497619, 43.0791868407]}, "type": "Feature", "properties": {"collection_times": [{"days": "Mon-Fri", "time": "4:30pm"}, {"days": "Sat", "time": "11:15am"}, {"days": "Sun", "time": "Closed"}], "id": "1347600002", "name": "USPS COLLECTION BOX - PO LOBBY", "address": {"city": "VERNON", "state": "NY", "street": "4470 PETERBORO ST", "postcode": "13476"}}},
{"geometry": {"type": "Point", "coordinates": [-75.5021544801, 43.0515796645]}, "type": "Feature", "properties": {"collection_times": [{"days": "Mon-Fri", "time": "12:00pm"}, {"days": "Sat", "time": "10:45am"}, {"days": "Sun", "time": "Closed"}], "id": "1347700001", "name": "USPS COLLECTION BOX - BLUE BOX", "address": {"city": "VERNON CENTER", "state": "NY", "street": "3905 STATE ROUTE 26", "postcode": "13477"}}},
{"geometry": {"type": "Point", "coordinates": [-75.5021544801, 43.0515796645]}, "type": "Feature", "properties": {"collection_times": [{"days": "Mon-Fri", "time": "12:00pm"}, {"days": "Sat", "time": "11:00am"}, {"days": "Sun", "time": "Closed"}], "id": "1347700002", "name": "USPS COLLECTION BOX - PO LOBBY", "address": {"city": "VERNON CENTER", "state": "NY", "street": "3905 STATE ROUTE 26", "postcode": "13477"}}},
{"geometry": {"type": "Point", "coordinates": [-75.5723761072, 43.1401134964]}, "type": "Feature", "properties": {"collection_times": [{"days": "Mon-Fri", "time": "4:30pm"}, {"days": "Sat", "time": "11:15am"}, {"days": "Sun", "time": "Closed"}], "id": "1347800001", "name": "USPS COLLECTION BOX - BLUE BOX", "address": {"city": "VERONA", "state": "NY", "street": "5731 ROCK RD", "postcode": "13478"}}},
{"geometry": {"type": "Point", "coordinates": [-75.5723761072, 43.1401134964]}, "type": "Feature", "properties": {"collection_times": [{"days": "Mon-Fri", "time": "4:30pm"}, {"days": "Sat", "time": "11:30am"}, {"days": "Sun", "time": "Closed"}], "id": "1347800002", "name": "USPS COLLECTION BOX - PO LOBBY", "address": {"city": "VERONA", "state": "NY", "street": "5731 ROCK RD", "postcode": "13478"}}},
{"geometry": {"type": "Point", "coordinates": [-75.2733170907, 43.0531779609]}, "type": "Feature", "properties": {"collection_times": [{"days": "Mon-Fri", "time": "4:30pm"}, {"days": "Sat", "time": "11:45am"}, {"days": "Sun", "time": "Closed"}], "id": "1347900001", "name": "USPS COLLECTION BOX - BLUE BOX", "address": {"city": "WASHINGTN MLS", "state": "NY", "street": "3910 ONEIDA ST", "postcode": "13479"}}},
{"geometry": {"type": "Point", "coordinates": [-75.2733170907, 43.0531779609]}, "type": "Feature", "properties": {"collection_times": [{"days": "Mon-Fri", "time": "4:30pm"}, {"days": "Sat", "time": "11:45am"}, {"days": "Sun", "time": "Closed"}], "id": "1347900003", "name": "USPS COLLECTION BOX - PO LOBBY", "address": {"city": "WASHINGTN MLS", "state": "NY", "street": "3910 ONEIDA ST", "postcode": "13479"}}},
{"geometry": {"type": "Point", "coordinates": [-75.2733170907, 43.0531779609]}, "type": "Feature", "properties": {"collection_times": [{"days": "Mon-Fri", "time": "4:30pm"}, {"days": "Sat", "time": "11:45am"}, {"days": "Sun", "time": "Closed"}], "id": "1347900004", "name": "USPS COLLECTION BOX - BLUE BOX", "address": {"city": "WASHINGTN MLS", "state": "NY", "street": "3910 ONEIDA ST", "postcode": "13479"}}},
{"geometry": {"type": "Point", "coordinates": [-75.3803546591, 42.9309911935]}, "type": "Feature", "properties": {"collection_times": [{"days": "Mon-Fri", "time": "5:00pm"}, {"days": "Sat", "time": "11:00am"}, {"days": "Sun", "time": "Closed"}], "id": "1348000001", "name": "USPS COLLECTION BOX - BLUE BOX", "address": {"city": "WATERVILLE", "state": "NY", "street": "101 W MAIN ST", "postcode": "13480"}}},
{"geometry": {"type": "Point", "coordinates": [-75.3760131997, 42.9312822014]}, "type": "Feature", "properties": {"collection_times": [{"days": "Mon-Sat", "time": "12:00pm"}, {"days": "Sun", "time": "Closed"}], "id": "1348000002", "name": "USPS COLLECTION BOX - BLUE BOX", "address": {"city": "WATERVILLE", "state": "NY", "street": "102 STAFFORD AVE", "postcode": "13480"}}},
{"geometry": {"type": "Point", "coordinates": [-75.3725412151, 42.9289742485]}, "type": "Feature", "properties": {"collection_times": [{"days": "Mon-Sat", "time": "12:00pm"}, {"days": "Sun", "time": "Closed"}], "id": "1348000004", "name": "USPS COLLECTION BOX - BLUE BOX", "address": {"city": "WATERVILLE", "state": "NY", "street": "417 WHITE ST", "postcode": "13480"}}},
{"geometry": {"type": "Point", "coordinates": [-75.377590084, 42.9350936952]}, "type": "Feature", "properties": {"collection_times": [{"days": "Mon-Sat", "time": "12:00pm"}, {"days": "Sun", "time": "Closed"}], "id": "1348000005", "name": "USPS COLLECTION BOX - BLUE BOX", "address": {"city": "WATERVILLE", "state": "NY", "street": "175 W BACON ST", "postcode": "13480"}}},
{"geometry": {"type": "Point", "coordinates": [-75.3836039646, 42.9288127466]}, "type": "Feature", "properties": {"collection_times": [{"days": "Mon-Sat", "time": "10:00am"}, {"days": "Sun", "time": "Closed"}], "id": "1348000006", "name": "USPS COLLECTION BOX - BLUE BOX", "address": {"city": "WATERVILLE", "state": "NY", "street": "146 SANGER AVE", "postcode": "13480"}}},
{"geometry": {"type": "Point", "coordinates": [-75.3803546591, 42.9309911935]}, "type": "Feature", "properties": {"collection_times": [{"days": "Mon-Fri", "time": "5:00pm"}, {"days": "Sat", "time": "11:00am"}, {"days": "Sun", "time": "Closed"}], "id": "1348000009", "name": "USPS COLLECTION BOX - PO LOBBY", "address": {"city": "WATERVILLE", "state": "NY", "street": "101 W MAIN ST", "postcode": "13480"}}},
{"geometry": {"type": "Point", "coordinates": [-75.1846870259, 42.7091225104]}, "type": "Feature", "properties": {"collection_times": [{"days": "Mon-Fri", "time": "12:15pm"}, {"days": "Sat", "time": "1:45pm"}, {"days": "Sun", "time": "Closed"}], "id": "1348200001", "name": "USPS COLLECTION BOX - BLUE BOX", "address": {"city": "WEST BURLINGTON", "state": "NY", "street": "2353 STATE HIGHWAY 80", "postcode": "13482"}}},
{"geometry": {"type": "Point", "coordinates": [-75.1846870259, 42.7091225104]}, "type": "Feature", "properties": {"collection_times": [{"days": "Mon-Fri", "time": "2:30pm"}, {"days": "Sat", "time": "2:00pm"}, {"days": "Sun", "time": "Closed"}], "id": "1348200003", "name": "USPS COLLECTION BOX - PO LOBBY", "address": {"city": "WEST BURLINGTON", "state": "NY", "street": "2353 STATE HIGHWAY 80", "postcode": "13482"}}},
{"geometry": {"type": "Point", "coordinates": [-75.8199648694, 43.3891890605]}, "type": "Feature", "properties": {"collection_times": [{"days": "Mon-Fri", "time": "4:00pm"}, {"days": "Sat", "time": "9:45am"}, {"days": "Sun", "time": "Closed"}], "id": "1348300001", "name": "USPS COLLECTION BOX - BLUE BOX", "address": {"city": "WESTDALE", "state": "NY", "street": "11129 STATE ROUTE 13", "postcode": "13483"}}},
{"geometry": {"type": "Point", "coordinates": [-75.8199648694, 43.3891890605]}, "type": "Feature", "properties": {"collection_times": [{"days": "Mon-Fri", "time": "10:00am"}, {"days": "Sat", "time": "9:45am"}, {"days": "Sun", "time": "Closed"}], "id": "1348300002", "name": "USPS COLLECTION BOX - PO LOBBY", "address": {"city": "WESTDALE", "state": "NY", "street": "11129 STATE ROUTE 13", "postcode": "13483"}}},
{"geometry": {"type": "Point", "coordinates": [-75.656539749, 42.8544186624]}, "type": "Feature", "properties": {"collection_times": [{"days": "Mon-Fri", "time": "4:00pm"}, {"days": "Sat", "time": "9:45am"}, {"days": "Sun", "time": "Closed"}], "id": "1348400001", "name": "USPS COLLECTION BOX - BLUE BOX", "address": {"city": "WEST EATON", "state": "NY", "street": "3328 STATE ROUTE 26", "postcode": "13484"}}},
{"geometry": {"type": "Point", "coordinates": [-75.656539749, 42.8544186624]}, "type": "Feature", "properties": {"collection_times": [{"days": "Mon-Fri", "time": "11:00am"}, {"days": "Sat", "time": "10:00am"}, {"days": "Sun", "time": "Closed"}], "id": "1348400002", "name": "USPS COLLECTION BOX - PO LOBBY", "address": {"city": "WEST EATON", "state": "NY", "street": "3328 STATE ROUTE 26", "postcode": "13484"}}},
{"geometry": {"type": "Point", "coordinates": [-75.2773363523, 42.7635931407]}, "type": "Feature", "properties": {"collection_times": [{"days": "Mon-Fri", "time": "4:15pm"}, {"days": "Sat", "time": "11:45am"}, {"days": "Sun", "time": "Closed"}], "id": "1348500001", "name": "USPS COLLECTION BOX - BLUE BOX", "address": {"city": "WEST EDMESTON", "state": "NY", "street": "140 COUNTY HIGHWAY 18C", "postcode": "13485"}}},
{"geometry": {"type": "Point", "coordinates": [-75.2773363523, 42.7635931407]}, "type": "Feature", "properties": {"collection_times": [{"days": "Mon-Fri", "time": "12:00pm"}, {"days": "Sat", "time": "11:30am"}, {"days": "Sun", "time": "Closed"}], "id": "1348500002", "name": "USPS COLLECTION BOX - PO LOBBY", "address": {"city": "WEST EDMESTON", "state": "NY", "street": "140 COUNTY HIGHWAY 18C", "postcode": "13485"}}},
{"geometry": {"type": "Point", "coordinates": [-75.3817003358, 43.3053051654]}, "type": "Feature", "properties": {"collection_times": [{"days": "Mon-Fri", "time": "3:45pm"}, {"days": "Sat", "time": "11:45am"}, {"days": "Sun", "time": "Closed"}], "id": "1348600001", "name": "USPS COLLECTION BOX - BLUE BOX", "address": {"city": "WESTERNVILLE", "state": "NY", "street": "7638 GIFFORD HILL RD", "postcode": "13486"}}},
{"geometry": {"type": "Point", "coordinates": [-75.3816599316, 43.3053301288]}, "type": "Feature", "properties": {"collection_times": [{"days": "Mon-Fri", "time": "11:30am"}, {"days": "Sat", "time": "11:45am"}, {"days": "Sun", "time": "Closed"}], "id": "1348600002", "name": "USPS COLLECTION BOX - PO LOBBY", "address": {"city": "WESTERNVILLE", "state": "NY", "street": "7638 GIFFORD HILL RD", "postcode": "13486"}}},
{"geometry": {"type": "Point", "coordinates": [-74.7517469126, 42.6901517616]}, "type": "Feature", "properties": {"collection_times": [{"days": "Mon-Fri", "time": "3:45pm"}, {"days": "Sat", "time": "11:15am"}, {"days": "Sun", "time": "Closed"}], "id": "1348800001", "name": "USPS COLLECTION BOX - BLUE BOX", "address": {"city": "WESTFORD", "state": "NY", "street": "1743 COUNTY HIGHWAY 34", "postcode": "13488"}}},
{"geometry": {"type": "Point", "coordinates": [-74.7517469126, 42.6901517616]}, "type": "Feature", "properties": {"collection_times": [{"days": "Mon-Fri", "time": "1:00pm"}, {"days": "Sat", "time": "11:30am"}, {"days": "Sun", "time": "Closed"}], "id": "1348800002", "name": "USPS COLLECTION BOX - PO LOBBY", "address": {"city": "WESTFORD", "state": "NY", "street": "1743 COUNTY HIGHWAY 34", "postcode": "13488"}}},
{"geometry": {"type": "Point", "coordinates": [-75.5565278504, 43.4587779831]}, "type": "Feature", "properties": {"collection_times": [{"days": "Mon-Fri", "time": "4:20pm"}, {"days": "Sat", "time": "11:15am"}, {"days": "Sun", "time": "Closed"}], "id": "1348900001", "name": "USPS COLLECTION BOX - BLUE BOX", "address": {"city": "WEST LEYDEN", "state": "NY", "street": "1054 STATE ROUTE 26", "postcode": "13489"}}},
{"geometry": {"type": "Point", "coordinates": [-75.5565278504, 43.4587779831]}, "type": "Feature", "properties": {"collection_times": [{"days": "Mon-Fri", "time": "12:00pm"}, {"days": "Sat", "time": "11:15am"}, {"days": "Sun", "time": "Closed"}], "id": "1348900002", "name": "USPS COLLECTION BOX - PO LOBBY", "address": {"city": "WEST LEYDEN", "state": "NY", "street": "1054 STATE ROUTE 26", "postcode": "13489"}}},
{"geometry": {"type": "Point", "coordinates": [-75.4047650226, 43.1186715607]}, "type": "Feature", "properties": {"collection_times": [{"days": "Mon-Fri", "time": "5:00pm"}, {"days": "Sat", "time": "12:00pm"}, {"days": "Sun", "time": "Closed"}], "id": "1349000001", "name": "USPS COLLECTION BOX - PO LOBBY", "address": {"city": "WESTMORELAND", "state": "NY", "street": "5281 ROUTE 233", "postcode": "13490"}}},
{"geometry": {"type": "Point", "coordinates": [-75.4047650226, 43.1186715607]}, "type": "Feature", "properties": {"collection_times": [{"days": "Mon-Fri", "time": "4:45pm"}, {"days": "Sat", "time": "12:00pm"}, {"days": "Sun", "time": "Closed"}], "id": "1349000002", "name": "USPS COLLECTION BOX - BLUE BOX", "address": {"city": "WESTMORELAND", "state": "NY", "street": "5281 ROUTE 233", "postcode": "13490"}}},
{"geometry": {"type": "Point", "coordinates": [-75.1945867892, 42.8850458197]}, "type": "Feature", "properties": {"collection_times": [{"days": "Mon-Fri", "time": "4:15pm"}, {"days": "Sat", "time": "12:00pm"}, {"days": "Sun", "time": "Closed"}], "id": "1349100001", "name": "USPS COLLECTION BOX - BLUE BOX", "address": {"city": "WEST WINFIELD", "state": "NY", "street": "376 W MAIN ST", "postcode": "13491"}}},
{"geometry": {"type": "Point", "coordinates": [-75.1945867892, 42.8850458197]}, "type": "Feature", "properties": {"collection_times": [{"days": "Mon-Fri", "time": "4:45pm"}, {"days": "Sat", "time": "12:00pm"}, {"days": "Sun", "time": "Closed"}], "id": "1349100002", "name": "USPS COLLECTION BOX - PO LOBBY", "address": {"city": "WEST WINFIELD", "state": "NY", "street": "376 W MAIN ST", "postcode": "13491"}}},
{"geometry": {"type": "Point", "coordinates": [-75.2949471748, 43.1230485706]}, "type": "Feature", "properties": {"collection_times": [{"days": "Mon-Fri", "time": "5:00pm"}, {"days": "Sat", "time": "2:30pm"}, {"days": "Sun", "time": "Closed"}], "id": "1349200001", "name": "USPS COLLECTION BOX - BLUE BOX", "address": {"city": "WHITESBORO", "state": "NY", "street": "30 ROOSEVELT DR", "postcode": "13492"}}},
{"geometry": {"type": "Point", "coordinates": [-75.2975612155, 43.1254528421]}, "type": "Feature", "properties": {"collection_times": [{"days": "Mon-Sat", "time": "8:30am"}, {"days": "Sun", "time": "Closed"}], "id": "1349200008", "name": "USPS COLLECTION BOX - BLUE BOX", "address": {"city": "WHITESBORO", "state": "NY", "street": "214 ORISKANY BLVD", "postcode": "13492"}}},
{"geometry": {"type": "Point", "coordinates": [-75.3055218579, 43.1138423437]}, "type": "Feature", "properties": {"collection_times": [{"days": "Mon-Sat", "time": "8:30am"}, {"days": "Sun", "time": "Closed"}], "id": "1349200009", "name": "USPS COLLECTION BOX - BLUE BOX", "address": {"city": "WHITESBORO", "state": "NY", "street": "10 BEDFORD DR", "postcode": "13492"}}},
{"geometry": {"type": "Point", "coordinates": [-75.2920491383, 43.1215564191]}, "type": "Feature", "properties": {"collection_times": [{"days": "Mon-Sat", "time": "8:30am"}, {"days": "Sun", "time": "Closed"}], "id": "1349200011", "name": "USPS COLLECTION BOX - BLUE BOX", "address": {"city": "WHITESBORO", "state": "NY", "street": "10 CLINTON ST", "postcode": "13492"}}},
{"geometry": {"type": "Point", "coordinates": [-75.2936061526, 43.1202533177]}, "type": "Feature", "properties": {"collection_times": [{"days": "Mon-Fri", "time": "3:00pm"}, {"days": "Sat", "time": "9:30am"}, {"days": "Sun", "time": "Closed"}], "id": "1349200018", "name": "USPS COLLECTION BOX - BLUE BOX", "address": {"city": "WHITESBORO", "state": "NY", "street": "131 ORISKANY BLVD", "postcode": "13492"}}},
{"geometry": {"type": "Point", "coordinates": [-75.2912955934, 43.1222945855]}, "type": "Feature", "properties": {"collection_times": [{"days": "Mon-Sat", "time": "9:00am"}, {"days": "Sun", "time": "Closed"}], "id": "1349200020", "name": "USPS COLLECTION BOX - BLUE BOX", "address": {"city": "WHITESBORO", "state": "NY", "street": "101 MAIN ST", "postcode": "13492"}}},
{"geometry": {"type": "Point", "coordinates": [-75.2949471748, 43.1230485706]}, "type": "Feature", "properties": {"collection_times": [{"days": "Mon-Fri", "time": "5:00pm"}, {"days": "Sat", "time": "2:30pm"}, {"days": "Sun", "time": "Closed"}], "id": "1349200022", "name": "USPS COLLECTION BOX - PO LOBBY", "address": {"city": "WHITESBORO", "state": "NY", "street": "30 ROOSEVELT DR", "postcode": "13492"}}},
{"geometry": {"type": "Point", "coordinates": [-75.2939998376, 43.1216368603]}, "type": "Feature", "properties": {"collection_times": [{"days": "Mon-Fri", "time": "5:00pm"}, {"days": "Sat", "time": "2:00pm"}, {"days": "Sun", "time": "Closed"}], "id": "1349200023", "name": "USPS COLLECTION BOX - BLUE BOX", "address": {"city": "WHITESBORO", "state": "NY", "street": "10 ROOSEVELT DR", "postcode": "13492"}}},
{"geometry": {"type": "Point", "coordinates": [-75.2906485149, 43.1166991896]}, "type": "Feature", "properties": {"collection_times": [{"days": "Mon-Fri", "time": "3:00pm"}, {"days": "Sat", "time": "8:30am"}, {"days": "Sun", "time": "Closed"}], "id": "1349200024", "name": "USPS COLLECTION BOX - BLUE BOX", "address": {"city": "WHITESBORO", "state": "NY", "street": "34 ORISKANY BLVD", "postcode": "13492"}}},
{"geometry": {"type": "Point", "coordinates": [-75.304828644, 43.1105619985]}, "type": "Feature", "properties": {"collection_times": [{"days": "Mon-Sat", "time": "10:30am"}, {"days": "Sun", "time": "Closed"}], "id": "1349200026", "name": "USPS COLLECTION BOX - BLUE BOX", "address": {"city": "WHITESBORO", "state": "NY", "street": "6 REDWOOD AVE", "postcode": "13492"}}},
{"geometry": {"type": "Point", "coordinates": [-75.2939998376, 43.1216368603]}, "type": "Feature", "properties": {"collection_times": [{"days": "Mon-Fri", "time": "5:00pm"}, {"days": "Sat", "time": "2:00pm"}, {"days": "Sun", "time": "Closed"}], "id": "1349200027", "name": "USPS COLLECTION BOX - BLUE BOX", "address": {"city": "WHITESBORO", "state": "NY", "street": "10 ROOSEVELT DR", "postcode": "13492"}}},
{"geometry": {"type": "Point", "coordinates": [-75.889101931, 43.423373254]}, "type": "Feature", "properties": {"collection_times": [{"days": "Mon-Fri", "time": "3:00pm"}, {"days": "Sat", "time": "10:45am"}, {"days": "Sun", "time": "Closed"}], "id": "1349300001", "name": "USPS COLLECTION BOX - PO LOBBY", "address": {"city": "WILLIAMSTOWN", "state": "NY", "street": "509 STATE ROUTE 13", "postcode": "13493"}}},
{"geometry": {"type": "Point", "coordinates": [-75.8891019311, 43.4233732538]}, "type": "Feature", "properties": {"collection_times": [{"days": "Mon-Fri", "time": "4:15pm"}, {"days": "Sat", "time": "10:45am"}, {"days": "Sun", "time": "Closed"}], "id": "1349300002", "name": "USPS COLLECTION BOX - BLUE BOX", "address": {"city": "WILLIAMSTOWN", "state": "NY", "street": "509 STATE ROUTE 13", "postcode": "13493"}}},
{"geometry": {"type": "Point", "coordinates": [-75.1576665971, 43.5205382146]}, "type": "Feature", "properties": {"collection_times": [{"days": "Mon-Fri", "time": "4:45pm"}, {"days": "Sat", "time": "10:30am"}, {"days": "Sun", "time": "Closed"}], "id": "1349400001", "name": "USPS COLLECTION BOX - BLUE BOX", "address": {"city": "WOODGATE", "state": "NY", "street": "11045 WOODGATE RD", "postcode": "13494"}}},
{"geometry": {"type": "Point", "coordinates": [-75.1579065677, 43.5205494291]}, "type": "Feature", "properties": {"collection_times": [{"days": "Mon-Fri", "time": "12:00pm"}, {"days": "Sat", "time": "10:30am"}, {"days": "Sun", "time": "Closed"}], "id": "1349400002", "name": "USPS COLLECTION BOX - PO LOBBY", "address": {"city": "WOODGATE", "state": "NY", "street": "11045 WOODGATE RD", "postcode": "13494"}}},
{"geometry": {"type": "Point", "coordinates": [-75.2711585186, 43.1126653829]}, "type": "Feature", "properties": {"collection_times": [{"days": "Mon-Fri", "time": "5:00pm"}, {"days": "Sat", "time": "11:30am"}, {"days": "Sun", "time": "Closed"}], "id": "1349500001", "name": "USPS COLLECTION BOX - BLUE BOX", "address": {"city": "YORKVILLE", "state": "NY", "street": "2 MYERS AVE", "postcode": "13495"}}},
{"geometry": {"type": "Point", "coordinates": [-75.2711585186, 43.1126653829]}, "type": "Feature", "properties": {"collection_times": [{"days": "Mon-Fri", "time": "5:00pm"}, {"days": "Sat", "time": "11:30am"}, {"days": "Sun", "time": "Closed"}], "id": "1349500003", "name": "USPS COLLECTION BOX - PO LOBBY", "address": {"city": "YORKVILLE", "state": "NY", "street": "2 MYERS AVE", "postcode": "13495"}}},
{"geometry": {"type": "Point", "coordinates": [-75.2754758832, 43.115477193]}, "type": "Feature", "properties": {"collection_times": [{"days": "Mon-Sat", "time": "10:00am"}, {"days": "Sun", "time": "Closed"}], "id": "1349500004", "name": "USPS COLLECTION BOX - BLUE BOX", "address": {"city": "YORKVILLE", "state": "NY", "street": "89 WHITESBORO ST", "postcode": "13495"}}},
{"geometry": {"type": "Point", "coordinates": [-75.2711585186, 43.1126653829]}, "type": "Feature", "properties": {"collection_times": [{"days": "Mon-Fri", "time": "5:00pm"}, {"days": "Sat", "time": "11:30am"}, {"days": "Sun", "time": "Closed"}], "id": "1349500010", "name": "USPS COLLECTION BOX - PO LOBBY", "address": {"city": "YORKVILLE", "state": "NY", "street": "2 MYERS AVE", "postcode": "13495"}}}
]}
