{"type": "FeatureCollection", "features": [
{"geometry": {"type": "Point", "coordinates": [-75.2094020188, 43.0849406824]}, "type": "Feature", "properties": {"collection_times": [{"days": "Mon-Sat", "time": "10:00am"}, {"days": "Sun", "time": "Closed"}], "id": "1350100003", "name": "USPS COLLECTION BOX - BLUE BOX", "address": {"city": "UTICA", "state": "NY", "street": "1172 ALBANY ST", "postcode": "13501"}}},
{"geometry": {"type": "Point", "coordinates": [-75.2075359468, 43.0818542946]}, "type": "Feature", "properties": {"collection_times": [{"days": "Mon-Fri", "time": "5:00pm"}, {"days": "Sat", "time": "3:00pm"}, {"days": "Sun", "time": "Closed"}], "id": "1350100004", "name": "USPS COLLECTION BOX - BLUE BOX", "address": {"city": "UTICA", "state": "NY", "street": "1256 ALBANY ST", "postcode": "13501"}}},
{"geometry": {"type": "Point", "coordinates": [-75.2106660583, 43.0789900835]}, "type": "Feature", "properties": {"collection_times": [{"days": "Mon-Sat", "time": "11:00am"}, {"days": "Sun", "time": "Closed"}], "id": "1350100005", "name": "USPS COLLECTION BOX - BLUE BOX", "address": {"city": "UTICA", "state": "NY", "street": "1742 ARMORY DR", "postcode": "13501"}}},
{"geometry": {"type": "Point", "coordinates": [-75.2086431503, 43.0925662831]}, "type": "Feature", "properties": {"collection_times": [{"days": "Mon-Sat", "time": "11:00am"}, {"days": "Sun", "time": "Closed"}], "id": "1350100008", "name": "USPS COLLECTION BOX - BLUE BOX", "address": {"city": "UTICA", "state": "NY", "street": "1115 BLANDINA ST", "postcode": "13501"}}},
{"geometry": {"type": "Point", "coordinates": [-75.2227216897, 43.0997315908]}, "type": "Feature", "properties": {"collection_times": [{"days": "Mon-Fri", "time": "5:00pm"}, {"days": "Sat", "time": "3:00pm"}, {"days": "Sun", "time": "Closed"}], "id": "1350100014", "name": "USPS COLLECTION BOX - BLUE BOX", "address": {"city": "UTICA", "state": "NY", "street": "506 BLEECKER ST", "postcode": "13501"}}},
{"geometry": {"type": "Point", "coordinates": [-75.2170927695, 43.0981324097]}, "type": "Feature", "properties": {"collection_times": [{"days": "Mon-Fri", "time": "1:30pm"}, {"days": "Sat", "time": "3:00pm"}, {"days": "Sun", "time": "Closed"}], "id": "1350100016", "name": "USPS COLLECTION BOX - BLUE BOX", "address": {"city": "UTICA", "state": "NY", "street": "717 BLEECKER ST", "postcode": "13501"}}},
{"geometry": {"type": "Point", "coordinates": [-75.2023502514, 43.0936640223]}, "type": "Feature", "properties": {"collection_times": [{"days": "Mon-Sat", "time": "11:30am"}, {"days": "Sun", "time": "Closed"}], "id": "1350100020", "name": "USPS COLLECTION BOX - BLUE BOX", "address": {"city": "UTICA", "state": "NY", "street": "1501 BLEECKER ST", "postcode": "13501"}}},
{"geometry": {"type": "Point", "coordinates": [-75.2230077956, 43.1027223973]}, "type": "Feature", "properties": {"collection_times": [{"days": "Mon-Fri", "time": "5:00pm"}, {"days": "Sat", "time": "3:00pm"}, {"days": "Sun", "time": "Closed"}], "id": "1350100031", "name": "USPS COLLECTION BOX - BLUE BOX", "address": {"city": "UTICA", "state": "NY", "street": "421 BROAD ST", "postcode": "13501"}}},
{"geometry": {"type": "Point", "coordinates": [-75.2293795375, 43.1007008532]}, "type": "Feature", "properties": {"collection_times": [{"days": "Mon-Fri", "time": "4:30pm"}, {"days": "Sat", "time": "2:30pm"}, {"days": "Sun", "time": "Closed"}], "id": "1350100042", "name": "USPS COLLECTION BOX - BLUE BOX", "address": {"city": "UTICA", "state": "NY", "street": "209 ELIZABETH ST", "postcode": "13501"}}},
{"geometry": {"type": "Point", "coordinates": [-75.2441371247, 43.088878713]}, "type": "Feature", "properties": {"collection_times": [{"days": "Mon-Sat", "time": "12:00pm"}, {"days": "Sun", "time": "Closed"}], "id": "1350100045", "name": "USPS COLLECTION BOX - BLUE BOX", "address": {"city": "UTICA", "state": "NY", "street": "1574 ELM ST", "postcode": "13501"}}},
{"geometry": {"type": "Point", "coordinates": [-75.233195889, 43.10037498]}, "type": "Feature", "properties": {"collection_times": [{"days": "Mon-Fri", "time": "5:00pm"}, {"days": "Sat", "time": "2:30pm"}, {"days": "Sun", "time": "Closed"}], "id": "1350100056", "name": "USPS COLLECTION BOX - BLUE BOX", "address": {"city": "UTICA", "state": "NY", "street": "233 GENESEE ST", "postcode": "13501"}}},
{"geometry": {"type": "Point", "coordinates": [-75.2450917787, 43.0945693201]}, "type": "Feature", "properties": {"collection_times": [{"days": "Mon-Fri", "time": "5:00pm"}, {"days": "Sat", "time": "2:30pm"}, {"days": "Sun", "time": "Closed"}], "id": "1350100062", "name": "USPS COLLECTION BOX - BLUE BOX", "address": {"city": "UTICA", "state": "NY", "street": "1411 GENESEE ST", "postcode": "13501"}}},
{"geometry": {"type": "Point", "coordinates": [-75.2675860656, 43.0833656034]}, "type": "Feature", "properties": {"collection_times": [{"days": "Mon-Fri", "time": "3:00pm"}, {"days": "Sat", "time": "2:30pm"}, {"days": "Sun", "time": "Closed"}], "id": "1350100070", "name": "USPS COLLECTION BOX - BLUE BOX", "address": {"city": "UTICA", "state": "NY", "street": "2223 GENESEE ST", "postcode": "13501"}}},
{"geometry": {"type": "Point", "coordinates": [-75.2822753399, 43.0759938043]}, "type": "Feature", "properties": {"collection_times": [{"days": "Mon-Fri", "time": "5:00pm"}, {"days": "Sat", "time": "2:30pm"}, {"days": "Sun", "time": "Closed"}], "id": "1350100071", "name": "USPS COLLECTION BOX - BLUE BOX", "address": {"city": "UTICA", "state": "NY", "street": "2713 GENESEE ST", "postcode": "13501"}}},
{"geometry": {"type": "Point", "coordinates": [-75.2136079684, 43.0855567892]}, "type": "Feature", "properties": {"collection_times": [{"days": "Mon-Sat", "time": "11:00am"}, {"days": "Sun", "time": "Closed"}], "id": "1350100073", "name": "USPS COLLECTION BOX - BLUE BOX", "address": {"city": "UTICA", "state": "NY", "street": "1156 HILTON AVE", "postcode": "13501"}}},
{"geometry": {"type": "Point", "coordinates": [-75.219893992, 43.099896163]}, "type": "Feature", "properties": {"collection_times": [{"days": "Mon-Fri", "time": "1:30pm"}, {"days": "Sat", "time": "3:00pm"}, {"days": "Sun", "time": "Closed"}], "id": "1350100079", "name": "USPS COLLECTION BOX - BLUE BOX", "address": {"city": "UTICA", "state": "NY", "street": "609 JAY ST", "postcode": "13501"}}},
{"geometry": {"type": "Point", "coordinates": [-75.2243251915, 43.1039815691]}, "type": "Feature", "properties": {"collection_times": [{"days": "Mon-Fri", "time": "1:30pm"}, {"days": "Sat", "time": "3:00pm"}, {"days": "Sun", "time": "Closed"}], "id": "1350100084", "name": "USPS COLLECTION BOX - BLUE BOX", "address": {"city": "UTICA", "state": "NY", "street": "310 MAIN ST", "postcode": "13501"}}},
{"geometry": {"type": "Point", "coordinates": [-75.2282414891, 43.0825333914]}, "type": "Feature", "properties": {"collection_times": [{"days": "Mon-Sat", "time": "10:30am"}, {"days": "Sun", "time": "Closed"}], "id": "1350100089", "name": "USPS COLLECTION BOX - BLUE BOX", "address": {"city": "UTICA", "state": "NY", "street": "1556 MOHAWK ST", "postcode": "13501"}}},
{"geometry": {"type": "Point", "coordinates": [-75.2631158174, 43.0774863861]}, "type": "Feature", "properties": {"collection_times": [{"days": "Mon-Sat", "time": "1:00pm"}, {"days": "Sun", "time": "Closed"}], "id": "1350100095", "name": "USPS COLLECTION BOX - BLUE BOX", "address": {"city": "UTICA", "state": "NY", "street": "2303 ONEIDA ST", "postcode": "13501"}}},
{"geometry": {"type": "Point", "coordinates": [-75.2669665609, 43.0745114061]}, "type": "Feature", "properties": {"collection_times": [{"days": "Mon-Fri", "time": "4:00pm"}, {"days": "Sat", "time": "2:30pm"}, {"days": "Sun", "time": "Closed"}], "id": "1350100097", "name": "USPS COLLECTION BOX - BLUE BOX", "address": {"city": "UTICA", "state": "NY", "street": "2518 ONEIDA ST", "postcode": "13501"}}},
{"geometry": {"type": "Point", "coordinates": [-75.2268874541, 43.1022856514]}, "type": "Feature", "properties": {"collection_times": [{"days": "Mon-Fri", "time": "5:00pm"}, {"days": "Sat", "time": "3:00pm"}, {"days": "Sun", "time": "Closed"}], "id": "1350100098", "name": "USPS COLLECTION BOX - BLUE BOX", "address": {"city": "UTICA", "state": "NY", "street": "221 ORISKANY ST E", "postcode": "13501"}}},
{"geometry": {"type": "Point", "coordinates": [-75.2373358074, 43.0968707329]}, "type": "Feature", "properties": {"collection_times": [{"days": "Mon-Sat", "time": "9:30am"}, {"days": "Sun", "time": "Closed"}], "id": "1350100101", "name": "USPS COLLECTION BOX - BLUE BOX", "address": {"city": "UTICA", "state": "NY", "street": "1116 PARK AVE", "postcode": "13501"}}},
{"geometry": {"type": "Point", "coordinates": [-75.2578871328, 43.0871361342]}, "type": "Feature", "properties": {"collection_times": [{"days": "Mon-Fri", "time": "4:00pm"}, {"days": "Sat", "time": "1:30pm"}, {"days": "Sun", "time": "Closed"}], "id": "1350100103", "name": "USPS COLLECTION BOX - BLUE BOX", "address": {"city": "UTICA", "state": "NY", "street": "3 PARKSIDE CT", "postcode": "13501"}}},
{"geometry": {"type": "Point", "coordinates": [-75.2327589383, 43.0978401995]}, "type": "Feature", "properties": {"collection_times": [{"days": "Mon-Sat", "time": "11:00am"}, {"days": "Sun", "time": "Closed"}], "id": "1350100108", "name": "USPS COLLECTION BOX - BLUE BOX", "address": {"city": "UTICA", "state": "NY", "street": "100 RUTGER ST", "postcode": "13501"}}},
{"geometry": {"type": "Point", "coordinates": [-75.215912905, 43.0906945703]}, "type": "Feature", "properties": {"collection_times": [{"days": "Mon-Sat", "time": "11:00am"}, {"days": "Sun", "time": "Closed"}], "id": "1350100116", "name": "USPS COLLECTION BOX - BLUE BOX", "address": {"city": "UTICA", "state": "NY", "street": "901 SOUTH ST", "postcode": "13501"}}},
{"geometry": {"type": "Point", "coordinates": [-75.1860952524, 43.0912385545]}, "type": "Feature", "properties": {"collection_times": [{"days": "Mon-Sat", "time": "6:00pm"}, {"days": "Sun", "time": "Closed"}], "id": "1350100132", "name": "USPS COLLECTION BOX - PO LOBBY", "address": {"city": "UTICA", "state": "NY", "street": "100 PITCHER ST", "postcode": "13501"}}},
{"geometry": {"type": "Point", "coordinates": [-75.1860952524, 43.0912385545]}, "type": "Feature", "properties": {"collection_times": [{"days": "Mon-Sat", "time": "6:00pm"}, {"days": "Sun", "time": "Closed"}], "id": "1350100133", "name": "USPS COLLECTION BOX - BLUE BOX", "address": {"city": "UTICA", "state": "NY", "street": "100 PITCHER ST", "postcode": "13501"}}},
{"geometry": {"type": "Point", "coordinates": [-75.2327720337, 43.0979467029]}, "type": "Feature", "properties": {"collection_times": [{"days": "Mon-Fri", "time": "5:00pm"}, {"days": "Sat", "time": "2:30pm"}, {"days": "Sun", "time": "Closed"}], "id": "1350100142", "name": "USPS COLLECTION BOX - BLUE BOX", "address": {"city": "UTICA", "state": "NY", "street": "2 STEUBEN PARK", "postcode": "13501"}}},
{"geometry": {"type": "Point", "coordinates": [-75.1860952524, 43.0912385545]}, "type": "Feature", "properties": {"collection_times": [{"days": "Mon-Sat", "time": "6:00pm"}, {"days": "Sun", "time": "Closed"}], "id": "1350100143", "name": "USPS COLLECTION BOX - PO LOBBY", "address": {"city": "UTICA", "state": "NY", "street": "100 PITCHER ST", "postcode": "13501"}}},
{"geometry": {"type": "Point", "coordinates": [-75.2423624492, 43.0931400799]}, "type": "Feature", "properties": {"collection_times": [{"days": "Mon-Sat", "time": "10:30am"}, {"days": "Sun", "time": "Closed"}], "id": "1350100145", "name": "USPS COLLECTION BOX - BLUE BOX", "address": {"city": "UTICA", "state": "NY", "street": "1445 KEMBLE ST", "postcode": "13501"}}},
{"geometry": {"type": "Point", "coordinates": [-75.2238355373, 43.1039578637]}, "type": "Feature", "properties": {"collection_times": [{"days": "Mon-Fri", "time": "1:30pm"}, {"days": "Sat", "time": "3:00pm"}, {"days": "Sun", "time": "Closed"}], "id": "1350100148", "name": "USPS COLLECTION BOX - BLUE BOX", "address": {"city": "UTICA", "state": "NY", "street": "321 MAIN ST", "postcode": "13501"}}},
{"geometry": {"type": "Point", "coordinates": [-75.2570314507, 43.0887162848]}, "type": "Feature", "properties": {"collection_times": [{"days": "Mon-Fri", "time": "5:30pm"}, {"days": "Sat", "time": "2:30pm"}, {"days": "Sun", "time": "Closed"}], "id": "1350100149", "name": "USPS COLLECTION BOX - BLUE BOX", "address": {"city": "UTICA", "state": "NY", "street": "1709 GENESEE ST", "postcode": "13501"}}},
{"geometry": {"type": "Point", "coordinates": [-75.2566041721, 43.0888727497]}, "type": "Feature", "properties": {"collection_times": [{"days": "Mon-Fri", "time": "5:30pm"}, {"days": "Sat", "time": "2:30pm"}, {"days": "Sun", "time": "Closed"}], "id": "1350100151", "name": "USPS COLLECTION BOX - PO LOBBY", "address": {"city": "UTICA", "state": "NY", "street": "1709 GENESEE ST", "postcode": "13501"}}},
{"geometry": {"type": "Point", "coordinates": [-75.2380491695, 43.0980125414]}, "type": "Feature", "properties": {"collection_times": [{"days": "Mon-Fri", "time": "5:00pm"}, {"days": "Sat", "time": "2:30pm"}, {"days": "Sun", "time": "Closed"}], "id": "1350100152", "name": "USPS COLLECTION BOX - BLUE BOX", "address": {"city": "UTICA", "state": "NY", "street": "291 GENESEE ST", "postcode": "13501"}}},
{"geometry": {"type": "Point", "coordinates": [-75.2198034772, 43.0759466693]}, "type": "Feature", "properties": {"collection_times": [{"days": "Mon-Fri", "time": "5:00pm"}, {"days": "Sat", "time": "1:30pm"}, {"days": "Sun", "time": "Closed"}], "id": "1350100154", "name": "USPS COLLECTION BOX - BLUE BOX", "address": {"city": "UTICA", "state": "NY", "street": "1101 SHERMAN DR", "postcode": "13501"}}},
{"geometry": {"type": "Point", "coordinates": [-75.2297392746, 43.0891842464]}, "type": "Feature", "properties": {"collection_times": [{"days": "Mon-Sat", "time": "6:00pm"}, {"days": "Sun", "time": "Closed"}], "id": "1350100160", "name": "USPS COLLECTION BOX - BLUE BOX", "address": {"city": "UTICA", "state": "NY", "street": "100 PITCHER ST", "postcode": "13501"}}},
{"geometry": {"type": "Point", "coordinates": [-75.257031451, 43.088716285]}, "type": "Feature", "properties": {"collection_times": [{"days": "Mon-Fri", "time": "5:30pm"}, {"days": "Sat", "time": "2:30pm"}, {"days": "Sun", "time": "Closed"}], "id": "1350100161", "name": "USPS COLLECTION BOX - BLUE BOX", "address": {"city": "UTICA", "state": "NY", "street": "1709 GENESEE ST", "postcode": "13501"}}},
{"geometry": {"type": "Point", "coordinates": [-75.2363680085, 43.1017415167]}, "type": "Feature", "properties": {"collection_times": [{"days": "Mon-Fri", "time": "4:30pm"}, {"days": "Sat", "time": "2:30pm"}, {"days": "Sun", "time": "Closed"}], "id": "1350200002", "name": "USPS COLLECTION BOX - BLUE BOX", "address": {"city": "UTICA", "state": "NY", "street": "1 KENNEDY PLZ", "postcode": "13502"}}},
{"geometry": {"type": "Point", "coordinates": [-75.2085188243, 43.1151976586]}, "type": "Feature", "properties": {"collection_times": [{"days": "Mon-Fri", "time": "5:00pm"}, {"days": "Sat", "time": "1:30pm"}, {"days": "Sun", "time": "Closed"}], "id": "1350200007", "name": "USPS COLLECTION BOX - BLUE BOX", "address": {"city": "UTICA", "state": "NY", "street": "50 AUERT AVE", "postcode": "13502"}}},
{"geometry": {"type": "Point", "coordinates": [-75.1693673871, 43.1080318652]}, "type": "Feature", "properties": {"collection_times": [{"days": "Mon-Sat", "time": "9:00am"}, {"days": "Sun", "time": "Closed"}], "id": "1350200008", "name": "USPS COLLECTION BOX - BLUE BOX", "address": {"city": "UTICA", "state": "NY", "street": "401 BRIARCLIFF AVE", "postcode": "13502"}}},
{"geometry": {"type": "Point", "coordinates": [-75.2730862789, 43.0935690748]}, "type": "Feature", "properties": {"collection_times": [{"days": "Mon-Fri", "time": "4:30pm"}, {"days": "Sat", "time": "3:00pm"}, {"days": "Sun", "time": "Closed"}], "id": "1350200009", "name": "USPS COLLECTION BOX - BLUE BOX", "address": {"city": "UTICA", "state": "NY", "street": "1600 BURRSTONE RD", "postcode": "13502"}}},
{"geometry": {"type": "Point", "coordinates": [-75.2730862789, 43.0935690748]}, "type": "Feature", "properties": {"collection_times": [{"days": "Mon-Fri", "time": "4:30pm"}, {"days": "Sat", "time": "3:00pm"}, {"days": "Sun", "time": "Closed"}], "id": "1350200010", "name": "USPS COLLECTION BOX - BLUE BOX", "address": {"city": "UTICA", "state": "NY", "street": "1600 BURRSTONE RD", "postcode": "13502"}}},
{"geometry": {"type": "Point", "coordinates": [-75.2001456287, 43.1131767973]}, "type": "Feature", "properties": {"collection_times": [{"days": "Mon-Sat", "time": "9:00am"}, {"days": "Sun", "time": "Closed"}], "id": "1350200013", "name": "USPS COLLECTION BOX - BLUE BOX", "address": {"city": "UTICA", "state": "NY", "street": "7 CANDLEWYCK LN", "postcode": "13502"}}},
{"geometry": {"type": "Point", "coordinates": [-75.2664183706, 43.108216655]}, "type": "Feature", "properties": {"collection_times": [{"days": "Mon-Sat", "time": "10:00am"}, {"days": "Sun", "time": "Closed"}], "id": "1350200015", "name": "USPS COLLECTION BOX - BLUE BOX", "address": {"city": "UTICA", "state": "NY", "street": "2219 CAROLINE ST", "postcode": "13502"}}},
{"geometry": {"type": "Point", "coordinates": [-75.2755551414, 43.0987335918]}, "type": "Feature", "properties": {"collection_times": [{"days": "Mon-Fri", "time": "4:45pm"}, {"days": "Sat", "time": "3:00pm"}, {"days": "Sun", "time": "Closed"}], "id": "1350200016", "name": "USPS COLLECTION BOX - BLUE BOX", "address": {"city": "UTICA", "state": "NY", "street": "1656 CHAMPLIN AVE", "postcode": "13502"}}},
{"geometry": {"type": "Point", "coordinates": [-75.235845811, 43.102871992]}, "type": "Feature", "properties": {"collection_times": [{"days": "Mon-Fri", "time": "5:00pm"}, {"days": "Sat", "time": "3:00pm"}, {"days": "Sun", "time": "Closed"}], "id": "1350200017", "name": "USPS COLLECTION BOX - BLUE BOX", "address": {"city": "UTICA", "state": "NY", "street": "401 COLUMBIA ST", "postcode": "13502"}}},
{"geometry": {"type": "Point", "coordinates": [-75.2370818796, 43.100579466]}, "type": "Feature", "properties": {"collection_times": [{"days": "Mon-Fri", "time": "5:00pm"}, {"days": "Sat", "time": "3:00pm"}, {"days": "Sun", "time": "Closed"}], "id": "1350200020", "name": "USPS COLLECTION BOX - BLUE BOX", "address": {"city": "UTICA", "state": "NY", "street": "904 CORNELIA ST", "postcode": "13502"}}},
{"geometry": {"type": "Point", "coordinates": [-75.2275380092, 43.1273789196]}, "type": "Feature", "properties": {"collection_times": [{"days": "Mon-Sat", "time": "12:00pm"}, {"days": "Sun", "time": "Closed"}], "id": "1350200022", "name": "USPS COLLECTION BOX - BLUE BOX", "address": {"city": "UTICA", "state": "NY", "street": "407 CYPRESS ST", "postcode": "13502"}}},
{"geometry": {"type": "Point", "coordinates": [-75.2807971057, 43.0856083869]}, "type": "Feature", "properties": {"collection_times": [{"days": "Mon-Fri", "time": "5:00pm"}, {"days": "Sat", "time": "2:00pm"}, {"days": "Sun", "time": "Closed"}], "id": "1350200025", "name": "USPS COLLECTION BOX - BLUE BOX", "address": {"city": "UTICA", "state": "NY", "street": "485 FRENCH RD", "postcode": "13502"}}},
{"geometry": {"type": "Point", "coordinates": [-75.2671761956, 43.087438033]}, "type": "Feature", "properties": {"collection_times": [{"days": "Mon-Sat", "time": "12:30pm"}, {"days": "Sun", "time": "Closed"}], "id": "1350200027", "name": "USPS COLLECTION BOX - BLUE BOX", "address": {"city": "UTICA", "state": "NY", "street": "901 HILLCREST AVE", "postcode": "13502"}}},
{"geometry": {"type": "Point", "coordinates": [-75.266895102, 43.095149235]}, "type": "Feature", "properties": {"collection_times": [{"days": "Mon-Sat", "time": "11:30am"}, {"days": "Sun", "time": "Closed"}], "id": "1350200028", "name": "USPS COLLECTION BOX - BLUE BOX", "address": {"city": "UTICA", "state": "NY", "street": "1649 GRANDVIEW AVE", "postcode": "13502"}}},
{"geometry": {"type": "Point", "coordinates": [-75.2525193575, 43.1013133422]}, "type": "Feature", "properties": {"collection_times": [{"days": "Mon-Sat", "time": "2:00pm"}, {"days": "Sun", "time": "Closed"}], "id": "1350200029", "name": "USPS COLLECTION BOX - BLUE BOX", "address": {"city": "UTICA", "state": "NY", "street": "1204 GRAY AVE", "postcode": "13502"}}},
{"geometry": {"type": "Point", "coordinates": [-75.2338425094, 43.1001799675]}, "type": "Feature", "properties": {"collection_times": [{"days": "Mon-Fri", "time": "4:30pm"}, {"days": "Sat", "time": "2:30pm"}, {"days": "Sun", "time": "Closed"}], "id": "1350200033", "name": "USPS COLLECTION BOX - BLUE BOX", "address": {"city": "UTICA", "state": "NY", "street": "244 GENESEE ST", "postcode": "13502"}}},
{"geometry": {"type": "Point", "coordinates": [-75.235022491, 43.099567631]}, "type": "Feature", "properties": {"collection_times": [{"days": "Mon-Fri", "time": "5:00pm"}, {"days": "Sat", "time": "3:00pm"}, {"days": "Sun", "time": "Closed"}], "id": "1350200035", "name": "USPS COLLECTION BOX - BLUE BOX", "address": {"city": "UTICA", "state": "NY", "street": "258 GENESEE ST", "postcode": "13502"}}},
{"geometry": {"type": "Point", "coordinates": [-75.237576564, 43.098355682]}, "type": "Feature", "properties": {"collection_times": [{"days": "Mon-Fri", "time": "5:00pm"}, {"days": "Sat", "time": "3:00pm"}, {"days": "Sun", "time": "Closed"}], "id": "1350200039", "name": "USPS COLLECTION BOX - BLUE BOX", "address": {"city": "UTICA", "state": "NY", "street": "284 GENESEE ST", "postcode": "13502"}}},
{"geometry": {"type": "Point", "coordinates": [-75.2486335801, 43.0929531161]}, "type": "Feature", "properties": {"collection_times": [{"days": "Mon-Fri", "time": "5:00pm"}, {"days": "Sat", "time": "3:00pm"}, {"days": "Sun", "time": "Closed"}], "id": "1350200041", "name": "USPS COLLECTION BOX - BLUE BOX", "address": {"city": "UTICA", "state": "NY", "street": "1508 GENESEE ST", "postcode": "13502"}}},
{"geometry": {"type": "Point", "coordinates": [-75.2453199042, 43.0945886911]}, "type": "Feature", "properties": {"collection_times": [{"days": "Mon-Fri", "time": "5:00pm"}, {"days": "Sat", "time": "3:00pm"}, {"days": "Sun", "time": "Closed"}], "id": "1350200042", "name": "USPS COLLECTION BOX - BLUE BOX", "address": {"city": "UTICA", "state": "NY", "street": "1416 GENESEE ST", "postcode": "13502"}}},
{"geometry": {"type": "Point", "coordinates": [-75.2667054965, 43.0839440487]}, "type": "Feature", "properties": {"collection_times": [{"days": "Mon-Sat", "time": "9:00am"}, {"days": "Sun", "time": "Closed"}], "id": "1350200050", "name": "USPS COLLECTION BOX - BLUE BOX", "address": {"city": "UTICA", "state": "NY", "street": "2200 GENESEE ST", "postcode": "13502"}}},
{"geometry": {"type": "Point", "coordinates": [-75.2668532536, 43.0838693618]}, "type": "Feature", "properties": {"collection_times": [{"days": "Mon-Fri", "time": "4:00pm"}, {"days": "Sat", "time": "2:00pm"}, {"days": "Sun", "time": "Closed"}], "id": "1350200051", "name": "USPS COLLECTION BOX - BLUE BOX", "address": {"city": "UTICA", "state": "NY", "street": "2206 GENESEE ST", "postcode": "13502"}}},
{"geometry": {"type": "Point", "coordinates": [-75.2759735323, 43.0792724305]}, "type": "Feature", "properties": {"collection_times": [{"days": "Mon-Sat", "time": "10:00am"}, {"days": "Sun", "time": "Closed"}], "id": "1350200052", "name": "USPS COLLECTION BOX - BLUE BOX", "address": {"city": "UTICA", "state": "NY", "street": "2600 GENESEE ST", "postcode": "13502"}}},
{"geometry": {"type": "Point", "coordinates": [-75.279842835, 43.0773381685]}, "type": "Feature", "properties": {"collection_times": [{"days": "Mon-Sat", "time": "10:30am"}, {"days": "Sun", "time": "Closed"}], "id": "1350200053", "name": "USPS COLLECTION BOX - BLUE BOX", "address": {"city": "UTICA", "state": "NY", "street": "2644 GENESEE ST", "postcode": "13502"}}},
{"geometry": {"type": "Point", "coordinates": [-75.1808881441, 43.1101721895]}, "type": "Feature", "properties": {"collection_times": [{"days": "Mon-Sat", "time": "2:00pm"}, {"days": "Sun", "time": "Closed"}], "id": "1350200058", "name": "USPS COLLECTION BOX - BLUE BOX", "address": {"city": "UTICA", "state": "NY", "street": "1301 HERKIMER RD", "postcode": "13502"}}},
{"geometry": {"type": "Point", "coordinates": [-75.2363023685, 43.1018401332]}, "type": "Feature", "properties": {"collection_times": [{"days": "Mon-Fri", "time": "4:30pm"}, {"days": "Sat", "time": "2:30pm"}, {"days": "Sun", "time": "Closed"}], "id": "1350200060", "name": "USPS COLLECTION BOX - BLUE BOX", "address": {"city": "UTICA", "state": "NY", "street": "2 KENNEDY PLZ", "postcode": "13502"}}},
{"geometry": {"type": "Point", "coordinates": [-75.2565617471, 43.0942043714]}, "type": "Feature", "properties": {"collection_times": [{"days": "Mon-Sat", "time": "2:00pm"}, {"days": "Sun", "time": "Closed"}], "id": "1350200068", "name": "USPS COLLECTION BOX - BLUE BOX", "address": {"city": "UTICA", "state": "NY", "street": "1613 LINCOLN AVE", "postcode": "13502"}}},
{"geometry": {"type": "Point", "coordinates": [-75.2101875414, 43.1249900476]}, "type": "Feature", "properties": {"collection_times": [{"days": "Mon-Sat", "time": "9:00am"}, {"days": "Sun", "time": "Closed"}], "id": "1350200074", "name": "USPS COLLECTION BOX - BLUE BOX", "address": {"city": "UTICA", "state": "NY", "street": "503 MEADOW DR", "postcode": "13502"}}},
{"geometry": {"type": "Point", "coordinates": [-75.2338183701, 43.1043122852]}, "type": "Feature", "properties": {"collection_times": [{"days": "Mon-Fri", "time": "3:30pm"}, {"days": "Sat", "time": "3:00pm"}, {"days": "Sun", "time": "Closed"}], "id": "1350200076", "name": "USPS COLLECTION BOX - BLUE BOX", "address": {"city": "UTICA", "state": "NY", "street": "413 ORISKANY ST W", "postcode": "13502"}}},
{"geometry": {"type": "Point", "coordinates": [-75.2434075687, 43.1073106339]}, "type": "Feature", "properties": {"collection_times": [{"days": "Mon-Sat", "time": "2:00pm"}, {"days": "Sun", "time": "Closed"}], "id": "1350200077", "name": "USPS COLLECTION BOX - BLUE BOX", "address": {"city": "UTICA", "state": "NY", "street": "926 ORISKANY ST W", "postcode": "13502"}}},
{"geometry": {"type": "Point", "coordinates": [-75.2546506849, 43.09709171]}, "type": "Feature", "properties": {"collection_times": [{"days": "Mon-Sat", "time": "11:00am"}, {"days": "Sun", "time": "Closed"}], "id": "1350200078", "name": "USPS COLLECTION BOX - BLUE BOX", "address": {"city": "UTICA", "state": "NY", "street": "1107 OSWEGO ST", "postcode": "13502"}}},
{"geometry": {"type": "Point", "coordinates": [-75.1683736473, 43.1479301134]}, "type": "Feature", "properties": {"collection_times": [{"days": "Mon-Sat", "time": "10:00am"}, {"days": "Sun", "time": "Closed"}], "id": "1350200080", "name": "USPS COLLECTION BOX - BLUE BOX", "address": {"city": "UTICA", "state": "NY", "street": "625 RESIDENTIAL DR", "postcode": "13502"}}},
{"geometry": {"type": "Point", "coordinates": [-75.2853489584, 43.0754034861]}, "type": "Feature", "properties": {"collection_times": [{"days": "Mon-Sat", "time": "2:30pm"}, {"days": "Sun", "time": "Closed"}], "id": "1350200081", "name": "USPS COLLECTION BOX - BLUE BOX", "address": {"city": "UTICA", "state": "NY", "street": "30 RICHARDSON AVE", "postcode": "13502"}}},
{"geometry": {"type": "Point", "coordinates": [-75.2158655837, 43.1184035158]}, "type": "Feature", "properties": {"collection_times": [{"days": "Mon-Sat", "time": "11:30am"}, {"days": "Sun", "time": "Closed"}], "id": "1350200082", "name": "USPS COLLECTION BOX - BLUE BOX", "address": {"city": "UTICA", "state": "NY", "street": "74 RIVERSIDE DR", "postcode": "13502"}}},
{"geometry": {"type": "Point", "coordinates": [-75.2268053912, 43.1262041452]}, "type": "Feature", "properties": {"collection_times": [{"days": "Mon-Sat", "time": "10:00am"}, {"days": "Sun", "time": "Closed"}], "id": "1350200085", "name": "USPS COLLECTION BOX - BLUE BOX", "address": {"city": "UTICA", "state": "NY", "street": "710 HORATIO ST", "postcode": "13502"}}},
{"geometry": {"type": "Point", "coordinates": [-75.2767429667, 43.0840993165]}, "type": "Feature", "properties": {"collection_times": [{"days": "Mon-Sat", "time": "2:30pm"}, {"days": "Sun", "time": "Closed"}], "id": "1350200086", "name": "USPS COLLECTION BOX - BLUE BOX", "address": {"city": "UTICA", "state": "NY", "street": "244 ROOSEVELT DR", "postcode": "13502"}}},
{"geometry": {"type": "Point", "coordinates": [-75.230877774, 43.1022610015]}, "type": "Feature", "properties": {"collection_times": [{"days": "Mon-Fri", "time": "4:45pm"}, {"days": "Sat", "time": "1:00pm"}, {"days": "Sun", "time": "Closed"}], "id": "1350200089", "name": "USPS COLLECTION BOX - PO LOBBY", "address": {"city": "UTICA", "state": "NY", "street": "500 SENECA ST", "postcode": "13502"}}},
{"geometry": {"type": "Point", "coordinates": [-75.2279187171, 43.1074724204]}, "type": "Feature", "properties": {"collection_times": [{"days": "Mon-Fri", "time": "5:00pm"}, {"days": "Sat", "time": "1:00pm"}, {"days": "Sun", "time": "Closed"}], "id": "1350200090", "name": "USPS COLLECTION BOX - BLUE BOX", "address": {"city": "UTICA", "state": "NY", "street": "500 SENECA ST", "postcode": "13502"}}},
{"geometry": {"type": "Point", "coordinates": [-75.2584781151, 43.0916357316]}, "type": "Feature", "properties": {"collection_times": [{"days": "Mon-Fri", "time": "4:30pm"}, {"days": "Sat", "time": "3:00pm"}, {"days": "Sun", "time": "Closed"}], "id": "1350200097", "name": "USPS COLLECTION BOX - BLUE BOX", "address": {"city": "UTICA", "state": "NY", "street": "1675 BENNETT ST", "postcode": "13502"}}},
{"geometry": {"type": "Point", "coordinates": [-75.2630195303, 43.0880953968]}, "type": "Feature", "properties": {"collection_times": [{"days": "Mon-Sat", "time": "10:00am"}, {"days": "Sun", "time": "Closed"}], "id": "1350200098", "name": "USPS COLLECTION BOX - BLUE BOX", "address": {"city": "UTICA", "state": "NY", "street": "1938 SUNSET AVE", "postcode": "13502"}}},
{"geometry": {"type": "Point", "coordinates": [-75.2706704173, 43.0842524434]}, "type": "Feature", "properties": {"collection_times": [{"days": "Mon-Sat", "time": "10:30am"}, {"days": "Sun", "time": "Closed"}], "id": "1350200099", "name": "USPS COLLECTION BOX - BLUE BOX", "address": {"city": "UTICA", "state": "NY", "street": "2300 SUNSET AVE", "postcode": "13502"}}},
{"geometry": {"type": "Point", "coordinates": [-75.209545016, 43.1179820862]}, "type": "Feature", "properties": {"collection_times": [{"days": "Mon-Fri", "time": "5:30pm"}, {"days": "Sat", "time": "4:30pm"}, {"days": "Sun", "time": "Closed"}], "id": "1350200103", "name": "USPS COLLECTION BOX - BLUE BOX", "address": {"city": "UTICA", "state": "NY", "street": "433 COVENTRY AVE", "postcode": "13502"}}},
{"geometry": {"type": "Point", "coordinates": [-75.2399099777, 43.1041837973]}, "type": "Feature", "properties": {"collection_times": [{"days": "Mon-Sat", "time": "9:30am"}, {"days": "Sun", "time": "Closed"}], "id": "1350200105", "name": "USPS COLLECTION BOX - BLUE BOX", "address": {"city": "UTICA", "state": "NY", "street": "624 COLUMBIA ST", "postcode": "13502"}}},
{"geometry": {"type": "Point", "coordinates": [-75.2440082151, 43.1034064182]}, "type": "Feature", "properties": {"collection_times": [{"days": "Mon-Fri", "time": "4:00pm"}, {"days": "Sat", "time": "3:00pm"}, {"days": "Sun", "time": "Closed"}], "id": "1350200106", "name": "USPS COLLECTION BOX - BLUE BOX", "address": {"city": "UTICA", "state": "NY", "street": "804 VARICK ST", "postcode": "13502"}}},
{"geometry": {"type": "Point", "coordinates": [-75.2637351316, 43.1111383949]}, "type": "Feature", "properties": {"collection_times": [{"days": "Mon-Sat", "time": "3:00pm"}, {"days": "Sun", "time": "Closed"}], "id": "1350200113", "name": "USPS COLLECTION BOX - BLUE BOX", "address": {"city": "UTICA", "state": "NY", "street": "2214 WHITESBORO ST", "postcode": "13502"}}},
{"geometry": {"type": "Point", "coordinates": [-75.2881725327, 43.0824880512]}, "type": "Feature", "properties": {"collection_times": [{"days": "Mon-Fri", "time": "5:00pm"}, {"days": "Sat", "time": "2:00pm"}, {"days": "Sun", "time": "Closed"}], "id": "1350200121", "name": "USPS COLLECTION BOX - BLUE BOX", "address": {"city": "UTICA", "state": "NY", "street": "100 LOMOND CT", "postcode": "13502"}}},
{"geometry": {"type": "Point", "coordinates": [-75.2881725327, 43.0824880512]}, "type": "Feature", "properties": {"collection_times": [{"days": "Mon-Fri", "time": "5:00pm"}, {"days": "Sat", "time": "2:00pm"}, {"days": "Sun", "time": "Closed"}], "id": "1350200122", "name": "USPS COLLECTION BOX - BLUE BOX", "address": {"city": "UTICA", "state": "NY", "street": "100 LOMOND CT", "postcode": "13502"}}},
{"geometry": {"type": "Point", "coordinates": [-75.2869937912, 43.0738098987]}, "type": "Feature", "properties": {"collection_times": [{"days": "Mon-Fri", "time": "4:30pm"}, {"days": "Sat", "time": "3:00pm"}, {"days": "Sun", "time": "Closed"}], "id": "1350200127", "name": "USPS COLLECTION BOX - BLUE BOX", "address": {"city": "UTICA", "state": "NY", "street": "70 GENESEE ST", "postcode": "13502"}}},
{"geometry": {"type": "Point", "coordinates": [-75.1683736473, 43.1479301134]}, "type": "Feature", "properties": {"collection_times": [{"days": "Mon-Sat", "time": "10:00am"}, {"days": "Sun", "time": "Closed"}], "id": "1350200128", "name": "USPS COLLECTION BOX - BLUE BOX", "address": {"city": "UTICA", "state": "NY", "street": "440 HILLTOP DR", "postcode": "13502"}}},
{"geometry": {"type": "Point", "coordinates": [-75.251346271, 43.0916043588]}, "type": "Feature", "properties": {"collection_times": [{"days": "Mon-Fri", "time": "5:00pm"}, {"days": "Sat", "time": "3:00pm"}, {"days": "Sun", "time": "Closed"}], "id": "1350200130", "name": "USPS COLLECTION BOX - BLUE BOX", "address": {"city": "UTICA", "state": "NY", "street": "1600 GENESEE ST", "postcode": "13502"}}},
{"geometry": {"type": "Point", "coordinates": [-75.2527809748, 43.0994146258]}, "type": "Feature", "properties": {"collection_times": [{"days": "Mon-Sat", "time": "12:00pm"}, {"days": "Sun", "time": "Closed"}], "id": "1350200132", "name": "USPS COLLECTION BOX - BLUE BOX", "address": {"city": "UTICA", "state": "NY", "street": "1312 LENOX AVE", "postcode": "13502"}}},
{"geometry": {"type": "Point", "coordinates": [-75.2630638325, 43.106721561]}, "type": "Feature", "properties": {"collection_times": [{"days": "Mon-Sat", "time": "11:00am"}, {"days": "Sun", "time": "Closed"}], "id": "1350200133", "name": "USPS COLLECTION BOX - BLUE BOX", "address": {"city": "UTICA", "state": "NY", "street": "1101 KELLOGG AVE", "postcode": "13502"}}},
{"geometry": {"type": "Point", "coordinates": [-75.2543127661, 43.0901388814]}, "type": "Feature", "properties": {"collection_times": [{"days": "Mon-Fri", "time": "5:00pm"}, {"days": "Sat", "time": "3:00pm"}, {"days": "Sun", "time": "Closed"}], "id": "1350200134", "name": "USPS COLLECTION BOX - BLUE BOX", "address": {"city": "UTICA", "state": "NY", "street": "1634 GENESEE ST", "postcode": "13502"}}},
{"geometry": {"type": "Point", "coordinates": [-75.2801308267, 43.0870648846]}, "type": "Feature", "properties": {"collection_times": [{"days": "Mon-Fri", "time": "4:30pm"}, {"days": "Sat", "time": "2:00pm"}, {"days": "Sun", "time": "Closed"}], "id": "1350200135", "name": "USPS COLLECTION BOX - BLUE BOX", "address": {"city": "UTICA", "state": "NY", "street": "525 FRENCH RD", "postcode": "13502"}}},
{"geometry": {"type": "Point", "coordinates": [-75.2460831204, 43.1059493668]}, "type": "Feature", "properties": {"collection_times": [{"days": "Mon-Sat", "time": "11:00am"}, {"days": "Sun", "time": "Closed"}], "id": "1350200137", "name": "USPS COLLECTION BOX - BLUE BOX", "address": {"city": "UTICA", "state": "NY", "street": "1021 COLUMBIA ST", "postcode": "13502"}}},
{"geometry": {"type": "Point", "coordinates": [-75.209545016, 43.1179820862]}, "type": "Feature", "properties": {"collection_times": [{"days": "Mon-Fri", "time": "5:30pm"}, {"days": "Sat", "time": "4:30pm"}, {"days": "Sun", "time": "Closed"}], "id": "1350200140", "name": "USPS COLLECTION BOX - BLUE BOX", "address": {"city": "UTICA", "state": "NY", "street": "433 COVENTRY AVE", "postcode": "13502"}}},
{"geometry": {"type": "Point", "coordinates": [-75.285194983, 43.092071742]}, "type": "Feature", "properties": {"collection_times": [{"days": "Mon-Fri", "time": "5:00pm"}, {"days": "Sat", "time": "2:00pm"}, {"days": "Sun", "time": "Closed"}], "id": "1350200141", "name": "USPS COLLECTION BOX - BLUE BOX", "address": {"city": "UTICA", "state": "NY", "street": "122 BUSINESS PARK DR", "postcode": "13502"}}},
{"geometry": {"type": "Point", "coordinates": [-75.2827846839, 43.0897447066]}, "type": "Feature", "properties": {"collection_times": [{"days": "Mon-Fri", "time": "5:00pm"}, {"days": "Sat", "time": "2:00pm"}, {"days": "Sun", "time": "Closed"}], "id": "1350200143", "name": "USPS COLLECTION BOX - BLUE BOX", "address": {"city": "UTICA", "state": "NY", "street": "114 BUSINESS PARK DR", "postcode": "13502"}}}
]}
