{"type": "FeatureCollection", "features": [
{"geometry": {"type": "Point", "coordinates": [-75.940602842, 43.9811192452]}, "type": "Feature", "properties": {"collection_times": [{"days": "Mon-Fri", "time": "6:30pm"}, {"days": "Sat", "time": "4:30pm"}, {"days": "Sun", "time": "Closed"}], "id": "1360100001", "name": "USPS COLLECTION BOX - PO LOBBY", "address": {"city": "WATERTOWN", "state": "NY", "street": "232 COMMERCE PARK DR", "postcode": "13601"}}},
{"geometry": {"type": "Point", "coordinates": [-75.9109850984, 43.9738452306]}, "type": "Feature", "properties": {"collection_times": [{"days": "Mon-Fri", "time": "5:00pm"}, {"days": "Sat", "time": "4:00pm"}, {"days": "Sun", "time": "Closed"}], "id": "1360100014", "name": "USPS COLLECTION BOX - BLUE BOX", "address": {"city": "WATERTOWN", "state": "NY", "street": "200 WASHINGTON ST", "postcode": "13601"}}},
{"geometry": {"type": "Point", "coordinates": [-75.9146794792, 43.9725274143]}, "type": "Feature", "properties": {"collection_times": [{"days": "Mon-Fri", "time": "5:00pm"}, {"days": "Sat-Sun", "time": "Closed"}], "id": "1360100015", "name": "USPS COLLECTION BOX - BLUE BOX", "address": {"city": "WATERTOWN", "state": "NY", "street": "161 CLINTON ST", "postcode": "13601"}}},
{"geometry": {"type": "Point", "coordinates": [-75.9857954233, 44.0021084862]}, "type": "Feature", "properties": {"collection_times": [{"days": "Mon-Fri", "time": "5:00pm"}, {"days": "Sat", "time": "4:00pm"}, {"days": "Sun", "time": "Closed"}], "id": "1360100023", "name": "USPS COLLECTION BOX - BLUE BOX", "address": {"city": "WATERTOWN", "state": "NY", "street": "128 W MAIN ST", "postcode": "13601"}}},
{"geometry": {"type": "Point", "coordinates": [-75.905548219, 43.9756397793]}, "type": "Feature", "properties": {"collection_times": [{"days": "Mon-Sat", "time": "8:30am"}, {"days": "Sun", "time": "Closed"}], "id": "1360100024", "name": "USPS COLLECTION BOX - BLUE BOX", "address": {"city": "WATERTOWN", "state": "NY", "street": "230 FACTORY ST", "postcode": "13601"}}},
{"geometry": {"type": "Point", "coordinates": [-75.9037480682, 43.9739589055]}, "type": "Feature", "properties": {"collection_times": [{"days": "Mon-Sat", "time": "10:30am"}, {"days": "Sun", "time": "Closed"}], "id": "1360100025", "name": "USPS COLLECTION BOX - BLUE BOX", "address": {"city": "WATERTOWN", "state": "NY", "street": "142 MECHANIC ST", "postcode": "13601"}}},
{"geometry": {"type": "Point", "coordinates": [-75.8808433039, 43.9688484119]}, "type": "Feature", "properties": {"collection_times": [{"days": "Mon-Fri", "time": "5:00pm"}, {"days": "Sat", "time": "4:00pm"}, {"days": "Sun", "time": "Closed"}], "id": "1360100026", "name": "USPS COLLECTION BOX - BLUE BOX", "address": {"city": "WATERTOWN", "state": "NY", "street": "144 EASTERN BLVD", "postcode": "13601"}}},
{"geometry": {"type": "Point", "coordinates": [-75.911164672, 43.972690192]}, "type": "Feature", "properties": {"collection_times": [{"days": "Mon-Fri", "time": "5:00pm"}, {"days": "Sat-Sun", "time": "Closed"}], "id": "1360100027", "name": "USPS COLLECTION BOX - BLUE BOX", "address": {"city": "WATERTOWN", "state": "NY", "street": "245 WASHINGTON ST", "postcode": "13601"}}},
{"geometry": {"type": "Point", "coordinates": [-75.911975235, 43.9689075598]}, "type": "Feature", "properties": {"collection_times": [{"days": "Mon-Sat", "time": "4:00pm"}, {"days": "Sun", "time": "Closed"}], "id": "1360100031", "name": "USPS COLLECTION BOX - BLUE BOX", "address": {"city": "WATERTOWN", "state": "NY", "street": "531 WASHINGTON ST", "postcode": "13601"}}},
{"geometry": {"type": "Point", "coordinates": [-75.9127607198, 43.964896146]}, "type": "Feature", "properties": {"collection_times": [{"days": "Mon-Fri", "time": "4:00pm"}, {"days": "Sat", "time": "3:30pm"}, {"days": "Sun", "time": "Closed"}], "id": "1360100033", "name": "USPS COLLECTION BOX - BLUE BOX", "address": {"city": "WATERTOWN", "state": "NY", "street": "830 WASHINGTON ST", "postcode": "13601"}}},
{"geometry": {"type": "Point", "coordinates": [-75.9117386432, 43.9700917018]}, "type": "Feature", "properties": {"collection_times": [{"days": "Mon-Fri", "time": "4:00pm"}, {"days": "Sat", "time": "10:00am"}, {"days": "Sun", "time": "Closed"}], "id": "1360100034", "name": "USPS COLLECTION BOX - BLUE BOX", "address": {"city": "WATERTOWN", "state": "NY", "street": "428 WASHINGTON ST", "postcode": "13601"}}},
{"geometry": {"type": "Point", "coordinates": [-75.9278566614, 43.9735665149]}, "type": "Feature", "properties": {"collection_times": [{"days": "Mon-Fri", "time": "4:00pm"}, {"days": "Sat-Sun", "time": "Closed"}], "id": "1360100035", "name": "USPS COLLECTION BOX - BLUE BOX", "address": {"city": "WATERTOWN", "state": "NY", "street": "751 WATERMAN DR", "postcode": "13601"}}},
{"geometry": {"type": "Point", "coordinates": [-75.947577568, 43.9758716393]}, "type": "Feature", "properties": {"collection_times": [{"days": "Mon-Fri", "time": "4:00pm"}, {"days": "Sat", "time": "3:30pm"}, {"days": "Sun", "time": "Closed"}], "id": "1360100037", "name": "USPS COLLECTION BOX - BLUE BOX", "address": {"city": "WATERTOWN", "state": "NY", "street": "1283 ARSENAL ST", "postcode": "13601"}}},
{"geometry": {"type": "Point", "coordinates": [-75.9161725814, 43.9719811583]}, "type": "Feature", "properties": {"collection_times": [{"days": "Mon-Fri", "time": "4:00pm"}, {"days": "Sat", "time": "3:30pm"}, {"days": "Sun", "time": "Closed"}], "id": "1360100038", "name": "USPS COLLECTION BOX - BLUE BOX", "address": {"city": "WATERTOWN", "state": "NY", "street": "6304 ARSENAL ST", "postcode": "13601"}}},
{"geometry": {"type": "Point", "coordinates": [-75.9159452453, 43.9713385405]}, "type": "Feature", "properties": {"collection_times": [{"days": "Mon-Fri", "time": "5:00pm"}, {"days": "Sat", "time": "4:00pm"}, {"days": "Sun", "time": "Closed"}], "id": "1360100048", "name": "USPS COLLECTION BOX - BLUE BOX", "address": {"city": "WATERTOWN", "state": "NY", "street": "200 MULLIN ST", "postcode": "13601"}}},
{"geometry": {"type": "Point", "coordinates": [-75.905115256, 43.988274964]}, "type": "Feature", "properties": {"collection_times": [{"days": "Mon-Sat", "time": "1:00pm"}, {"days": "Sun", "time": "Closed"}], "id": "1360100051", "name": "USPS COLLECTION BOX - BLUE BOX", "address": {"city": "WATERTOWN", "state": "NY", "street": "859 MILL ST", "postcode": "13601"}}},
{"geometry": {"type": "Point", "coordinates": [-75.9077461567, 43.9900742446]}, "type": "Feature", "properties": {"collection_times": [{"days": "Mon-Sat", "time": "10:00am"}, {"days": "Sun", "time": "Closed"}], "id": "1360100052", "name": "USPS COLLECTION BOX - BLUE BOX", "address": {"city": "WATERTOWN", "state": "NY", "street": "933 LERAY ST", "postcode": "13601"}}},
{"geometry": {"type": "Point", "coordinates": [-75.9091810859, 43.9880017005]}, "type": "Feature", "properties": {"collection_times": [{"days": "Mon-Sat", "time": "11:00am"}, {"days": "Sun", "time": "Closed"}], "id": "1360100053", "name": "USPS COLLECTION BOX - BLUE BOX", "address": {"city": "WATERTOWN", "state": "NY", "street": "847 LERAY ST", "postcode": "13601"}}},
{"geometry": {"type": "Point", "coordinates": [-75.907506016, 43.9671910864]}, "type": "Feature", "properties": {"collection_times": [{"days": "Mon-Fri", "time": "2:00pm"}, {"days": "Sat", "time": "1:00pm"}, {"days": "Sun", "time": "Closed"}], "id": "1360100060", "name": "USPS COLLECTION BOX - BLUE BOX", "address": {"city": "WATERTOWN", "state": "NY", "street": "636 GOTHAM ST", "postcode": "13601"}}},
{"geometry": {"type": "Point", "coordinates": [-75.9161725814, 43.9719811583]}, "type": "Feature", "properties": {"collection_times": [{"days": "Mon-Sat", "time": "1:30pm"}, {"days": "Sun", "time": "Closed"}], "id": "1360100061", "name": "USPS COLLECTION BOX - BLUE BOX", "address": {"city": "WATERTOWN", "state": "NY", "street": "700 PLAZA RD", "postcode": "13601"}}},
{"geometry": {"type": "Point", "coordinates": [-75.9055825248, 43.9840293243]}, "type": "Feature", "properties": {"collection_times": [{"days": "Mon-Sat", "time": "8:30am"}, {"days": "Sun", "time": "Closed"}], "id": "1360100063", "name": "USPS COLLECTION BOX - BLUE BOX", "address": {"city": "WATERTOWN", "state": "NY", "street": "701 MILL ST", "postcode": "13601"}}},
{"geometry": {"type": "Point", "coordinates": [-75.9153939864, 43.9891479877]}, "type": "Feature", "properties": {"collection_times": [{"days": "Mon-Sat", "time": "11:00am"}, {"days": "Sun", "time": "Closed"}], "id": "1360100074", "name": "USPS COLLECTION BOX - BLUE BOX", "address": {"city": "WATERTOWN", "state": "NY", "street": "816 BRADLEY ST", "postcode": "13601"}}},
{"geometry": {"type": "Point", "coordinates": [-75.9158414775, 43.9826943089]}, "type": "Feature", "properties": {"collection_times": [{"days": "Mon-Sat", "time": "10:00am"}, {"days": "Sun", "time": "Closed"}], "id": "1360100075", "name": "USPS COLLECTION BOX - BLUE BOX", "address": {"city": "WATERTOWN", "state": "NY", "street": "615 W MAIN ST", "postcode": "13601"}}},
{"geometry": {"type": "Point", "coordinates": [-75.8913195885, 43.9678298842]}, "type": "Feature", "properties": {"collection_times": [{"days": "Mon-Sat", "time": "12:30pm"}, {"days": "Sun", "time": "Closed"}], "id": "1360100080", "name": "USPS COLLECTION BOX - BLUE BOX", "address": {"city": "WATERTOWN", "state": "NY", "street": "221 S INDIANA AVE", "postcode": "13601"}}},
{"geometry": {"type": "Point", "coordinates": [-75.8947004852, 43.9684769628]}, "type": "Feature", "properties": {"collection_times": [{"days": "Mon-Sat", "time": "1:00pm"}, {"days": "Sun", "time": "Closed"}], "id": "1360100081", "name": "USPS COLLECTION BOX - BLUE BOX", "address": {"city": "WATERTOWN", "state": "NY", "street": "1020 ACADEMY ST", "postcode": "13601"}}},
{"geometry": {"type": "Point", "coordinates": [-75.9126720265, 43.96494719]}, "type": "Feature", "properties": {"collection_times": [{"days": "Mon-Sat", "time": "1:00pm"}, {"days": "Sun", "time": "Closed"}], "id": "1360100086", "name": "USPS COLLECTION BOX - BLUE BOX", "address": {"city": "WATERTOWN", "state": "NY", "street": "825 WASHINGTON ST", "postcode": "13601"}}},
{"geometry": {"type": "Point", "coordinates": [-75.9797882607, 44.0014554604]}, "type": "Feature", "properties": {"collection_times": [{"days": "Mon-Sat", "time": "11:30am"}, {"days": "Sun", "time": "Closed"}], "id": "1360100089", "name": "USPS COLLECTION BOX - BLUE BOX", "address": {"city": "WATERTOWN", "state": "NY", "street": "281 E MAIN ST", "postcode": "13601"}}},
{"geometry": {"type": "Point", "coordinates": [-75.8964500816, 43.9712770267]}, "type": "Feature", "properties": {"collection_times": [{"days": "Mon-Sat", "time": "9:00am"}, {"days": "Sun", "time": "Closed"}], "id": "1360100090", "name": "USPS COLLECTION BOX - BLUE BOX", "address": {"city": "WATERTOWN", "state": "NY", "street": "905 STATE ST", "postcode": "13601"}}},
{"geometry": {"type": "Point", "coordinates": [-75.8974283886, 43.9691772745]}, "type": "Feature", "properties": {"collection_times": [{"days": "Mon-Sat", "time": "11:00am"}, {"days": "Sun", "time": "Closed"}], "id": "1360100091", "name": "USPS COLLECTION BOX - BLUE BOX", "address": {"city": "WATERTOWN", "state": "NY", "street": "902 ACADEMY ST", "postcode": "13601"}}},
{"geometry": {"type": "Point", "coordinates": [-75.9022058088, 43.9704649199]}, "type": "Feature", "properties": {"collection_times": [{"days": "Mon-Sat", "time": "9:00am"}, {"days": "Sun", "time": "Closed"}], "id": "1360100093", "name": "USPS COLLECTION BOX - BLUE BOX", "address": {"city": "WATERTOWN", "state": "NY", "street": "611 ACADEMY ST", "postcode": "13601"}}},
{"geometry": {"type": "Point", "coordinates": [-75.9083896389, 43.9683370564]}, "type": "Feature", "properties": {"collection_times": [{"days": "Mon-Sat", "time": "1:00pm"}, {"days": "Sun", "time": "Closed"}], "id": "1360100094", "name": "USPS COLLECTION BOX - BLUE BOX", "address": {"city": "WATERTOWN", "state": "NY", "street": "201 WINSLOW ST", "postcode": "13601"}}},
{"geometry": {"type": "Point", "coordinates": [-75.9157938266, 43.9675885606]}, "type": "Feature", "properties": {"collection_times": [{"days": "Mon-Sat", "time": "10:00am"}, {"days": "Sun", "time": "Closed"}], "id": "1360100097", "name": "USPS COLLECTION BOX - BLUE BOX", "address": {"city": "WATERTOWN", "state": "NY", "street": "629 SHERMAN ST", "postcode": "13601"}}},
{"geometry": {"type": "Point", "coordinates": [-75.9161725814, 43.9719811583]}, "type": "Feature", "properties": {"collection_times": [{"days": "Mon-Fri", "time": "9:00am"}, {"days": "Sat", "time": "8:30am"}, {"days": "Sun", "time": "Closed"}], "id": "1360100098", "name": "USPS COLLECTION BOX - BLUE BOX", "address": {"city": "WATERTOWN", "state": "NY", "street": "301 F.A.W.", "postcode": "13601"}}},
{"geometry": {"type": "Point", "coordinates": [-75.9164089652, 43.9611154091]}, "type": "Feature", "properties": {"collection_times": [{"days": "Mon-Sat", "time": "12:30pm"}, {"days": "Sun", "time": "Closed"}], "id": "1360100099", "name": "USPS COLLECTION BOX - BLUE BOX", "address": {"city": "WATERTOWN", "state": "NY", "street": "157 CHESTNUT ST", "postcode": "13601"}}},
{"geometry": {"type": "Point", "coordinates": [-75.914054643, 43.95748526]}, "type": "Feature", "properties": {"collection_times": [{"days": "Mon-Fri", "time": "5:00pm"}, {"days": "Sat", "time": "4:00pm"}, {"days": "Sun", "time": "Closed"}], "id": "1360100100", "name": "USPS COLLECTION BOX - BLUE BOX", "address": {"city": "WATERTOWN", "state": "NY", "street": "1328 WASHINGTON ST", "postcode": "13601"}}},
{"geometry": {"type": "Point", "coordinates": [-75.9440141175, 43.984756982]}, "type": "Feature", "properties": {"collection_times": [{"days": "Mon-Sat", "time": "2:00pm"}, {"days": "Sun", "time": "Closed"}], "id": "1360100102", "name": "USPS COLLECTION BOX - BLUE BOX", "address": {"city": "WATERTOWN", "state": "NY", "street": "1203 FAICHNEY DR", "postcode": "13601"}}},
{"geometry": {"type": "Point", "coordinates": [-75.9217748671, 43.9688685222]}, "type": "Feature", "properties": {"collection_times": [{"days": "Mon-Sat", "time": "11:00am"}, {"days": "Sun", "time": "Closed"}], "id": "1360100104", "name": "USPS COLLECTION BOX - BLUE BOX", "address": {"city": "WATERTOWN", "state": "NY", "street": "345 PADDOCK ST", "postcode": "13601"}}},
{"geometry": {"type": "Point", "coordinates": [-75.9389727245, 43.976888984]}, "type": "Feature", "properties": {"collection_times": [{"days": "Mon-Fri", "time": "5:00pm"}, {"days": "Sat-Sun", "time": "Closed"}], "id": "1360100106", "name": "USPS COLLECTION BOX - BLUE BOX", "address": {"city": "WATERTOWN", "state": "NY", "street": "1116 ARSENAL ST", "postcode": "13601"}}},
{"geometry": {"type": "Point", "coordinates": [-75.9084955922, 44.0374689257]}, "type": "Feature", "properties": {"collection_times": [{"days": "Mon-Sat", "time": "9:00am"}, {"days": "Sun", "time": "Closed"}], "id": "1360100108", "name": "USPS COLLECTION BOX - BLUE BOX", "address": {"city": "WATERTOWN", "state": "NY", "street": "23215 STATE ROUTE 342", "postcode": "13601"}}},
{"geometry": {"type": "Point", "coordinates": [-75.911573944, 43.975606448]}, "type": "Feature", "properties": {"collection_times": [{"days": "Mon-Fri", "time": "5:00pm"}, {"days": "Sat", "time": "4:00pm"}, {"days": "Sun", "time": "Closed"}], "id": "1360100112", "name": "USPS COLLECTION BOX - BLUE BOX", "address": {"city": "WATERTOWN", "state": "NY", "street": "107 COURT ST", "postcode": "13601"}}},
{"geometry": {"type": "Point", "coordinates": [-75.9311214259, 43.9843995905]}, "type": "Feature", "properties": {"collection_times": [{"days": "Mon-Fri", "time": "5:00pm"}, {"days": "Sat", "time": "4:00pm"}, {"days": "Sun", "time": "Closed"}], "id": "1360100114", "name": "USPS COLLECTION BOX - BLUE BOX", "address": {"city": "WATERTOWN", "state": "NY", "street": "905 COFFEEN ST", "postcode": "13601"}}},
{"geometry": {"type": "Point", "coordinates": [-75.9751633996, 43.9977203068]}, "type": "Feature", "properties": {"collection_times": [{"days": "Mon-Sat", "time": "1:30pm"}, {"days": "Sun", "time": "Closed"}], "id": "1360100116", "name": "USPS COLLECTION BOX - BLUE BOX", "address": {"city": "WATERTOWN", "state": "NY", "street": "19835 STATE ROUTE 12F", "postcode": "13601"}}},
{"geometry": {"type": "Point", "coordinates": [-75.883696601, 43.9736666038]}, "type": "Feature", "properties": {"collection_times": [{"days": "Mon-Sat", "time": "10:00am"}, {"days": "Sun", "time": "Closed"}], "id": "1360100118", "name": "USPS COLLECTION BOX - BLUE BOX", "address": {"city": "WATERTOWN", "state": "NY", "street": "256 MICHIGAN AVE", "postcode": "13601"}}},
{"geometry": {"type": "Point", "coordinates": [-75.8779533103, 43.9634037752]}, "type": "Feature", "properties": {"collection_times": [{"days": "Mon-Sat", "time": "8:30am"}, {"days": "Sun", "time": "Closed"}], "id": "1360100119", "name": "USPS COLLECTION BOX - BLUE BOX", "address": {"city": "WATERTOWN", "state": "NY", "street": "1815 OLMSTEAD DR", "postcode": "13601"}}},
{"geometry": {"type": "Point", "coordinates": [-75.883865058, 43.9744007007]}, "type": "Feature", "properties": {"collection_times": [{"days": "Mon-Sat", "time": "10:30am"}, {"days": "Sun", "time": "Closed"}], "id": "1360100120", "name": "USPS COLLECTION BOX - BLUE BOX", "address": {"city": "WATERTOWN", "state": "NY", "street": "1429 GILL ST", "postcode": "13601"}}},
{"geometry": {"type": "Point", "coordinates": [-75.9356196563, 43.9818196656]}, "type": "Feature", "properties": {"collection_times": [{"days": "Mon-Sat", "time": "10:00am"}, {"days": "Sun", "time": "Closed"}], "id": "1360100121", "name": "USPS COLLECTION BOX - BLUE BOX", "address": {"city": "WATERTOWN", "state": "NY", "street": "207 WEALTHA AVE", "postcode": "13601"}}},
{"geometry": {"type": "Point", "coordinates": [-75.940602842, 43.9811192452]}, "type": "Feature", "properties": {"collection_times": [{"days": "Mon-Fri", "time": "6:30pm"}, {"days": "Sat", "time": "4:30pm"}, {"days": "Sun", "time": "Closed"}], "id": "1360100122", "name": "USPS COLLECTION BOX - PO LOBBY", "address": {"city": "WATERTOWN", "state": "NY", "street": "232 COMMERCE PARK DR", "postcode": "13601"}}},
{"geometry": {"type": "Point", "coordinates": [-75.8959674812, 43.9879408528]}, "type": "Feature", "properties": {"collection_times": [{"days": "Mon-Fri", "time": "11:00am"}, {"days": "Sat", "time": "10:00am"}, {"days": "Sun", "time": "Closed"}], "id": "1360100127", "name": "USPS COLLECTION BOX - BLUE BOX", "address": {"city": "WATERTOWN", "state": "NY", "street": "845 STARBUCK AVE", "postcode": "13601"}}},
{"geometry": {"type": "Point", "coordinates": [-75.8108490002, 44.0382420728]}, "type": "Feature", "properties": {"collection_times": [{"days": "Mon-Sat", "time": "9:00am"}, {"days": "Sun", "time": "Closed"}], "id": "1360300001", "name": "USPS COLLECTION BOX - BLUE BOX", "address": {"city": "WATERTOWN", "state": "NY", "street": "2502 GARRISON DR", "postcode": "13603"}}},
{"geometry": {"type": "Point", "coordinates": [-75.812153736, 44.049019781]}, "type": "Feature", "properties": {"collection_times": [{"days": "Mon-Sat", "time": "9:00am"}, {"days": "Sun", "time": "Closed"}], "id": "1360300002", "name": "USPS COLLECTION BOX - BLUE BOX", "address": {"city": "WATERTOWN", "state": "NY", "street": "9909B GATES ST", "postcode": "13603"}}},
{"geometry": {"type": "Point", "coordinates": [-76.0215775661, 43.8092767112]}, "type": "Feature", "properties": {"collection_times": [{"days": "Mon-Fri", "time": "5:00pm"}, {"days": "Sat", "time": "2:15pm"}, {"days": "Sun", "time": "Closed"}], "id": "1360500001", "name": "USPS COLLECTION BOX - BLUE BOX", "address": {"city": "ADAMS", "state": "NY", "street": "27 E CHURCH ST", "postcode": "13605"}}},
{"geometry": {"type": "Point", "coordinates": [-76.019993584, 43.8264662879]}, "type": "Feature", "properties": {"collection_times": [{"days": "Mon-Fri", "time": "2:00pm"}, {"days": "Sat", "time": "1:00pm"}, {"days": "Sun", "time": "Closed"}], "id": "1360500002", "name": "USPS COLLECTION BOX - BLUE BOX", "address": {"city": "ADAMS", "state": "NY", "street": "10916 US ROUTE 11", "postcode": "13605"}}},
{"geometry": {"type": "Point", "coordinates": [-76.0240842561, 43.8091016333]}, "type": "Feature", "properties": {"collection_times": [{"days": "Mon-Fri", "time": "1:50pm"}, {"days": "Sat", "time": "12:50pm"}, {"days": "Sun", "time": "Closed"}], "id": "1360500003", "name": "USPS COLLECTION BOX - BLUE BOX", "address": {"city": "ADAMS", "state": "NY", "street": "4 MAIN ST", "postcode": "13605"}}},
{"geometry": {"type": "Point", "coordinates": [-76.0215775661, 43.8092767112]}, "type": "Feature", "properties": {"collection_times": [{"days": "Mon-Fri", "time": "5:15pm"}, {"days": "Sat", "time": "2:15pm"}, {"days": "Sun", "time": "Closed"}], "id": "1360500007", "name": "USPS COLLECTION BOX - PO LOBBY", "address": {"city": "ADAMS", "state": "NY", "street": "27 E CHURCH ST", "postcode": "13605"}}},
{"geometry": {"type": "Point", "coordinates": [-76.0059092746, 43.861345833]}, "type": "Feature", "properties": {"collection_times": [{"days": "Mon-Fri", "time": "5:00pm"}, {"days": "Sat", "time": "11:30am"}, {"days": "Sun", "time": "Closed"}], "id": "1360600001", "name": "USPS COLLECTION BOX - BLUE BOX", "address": {"city": "ADAMS CENTER", "state": "NY", "street": "13346 NORTH ST", "postcode": "13606"}}},
{"geometry": {"type": "Point", "coordinates": [-76.0059092746, 43.861345833]}, "type": "Feature", "properties": {"collection_times": [{"days": "Mon-Fri", "time": "5:00pm"}, {"days": "Sat", "time": "11:30am"}, {"days": "Sun", "time": "Closed"}], "id": "1360600002", "name": "USPS COLLECTION BOX - PO LOBBY", "address": {"city": "ADAMS CENTER", "state": "NY", "street": "13346 NORTH ST", "postcode": "13606"}}},
{"geometry": {"type": "Point", "coordinates": [-75.9191203072, 44.3351279962]}, "type": "Feature", "properties": {"collection_times": [{"days": "Mon-Fri", "time": "4:45pm"}, {"days": "Sat", "time": "12:00pm"}, {"days": "Sun", "time": "Closed"}], "id": "1360700001", "name": "USPS COLLECTION BOX - PO LOBBY", "address": {"city": "ALEXANDRIA BAY", "state": "NY", "street": "13 BETHUNE ST", "postcode": "13607"}}},
{"geometry": {"type": "Point", "coordinates": [-75.9191203072, 44.3351279962]}, "type": "Feature", "properties": {"collection_times": [{"days": "Mon-Fri", "time": "5:00pm"}, {"days": "Sat", "time": "12:00pm"}, {"days": "Sun", "time": "Closed"}], "id": "1360700003", "name": "USPS COLLECTION BOX - BLUE BOX", "address": {"city": "ALEXANDRIA BAY", "state": "NY", "street": "13 BETHUNE ST", "postcode": "13607"}}},
{"geometry": {"type": "Point", "coordinates": [-75.9164480029, 44.334702131]}, "type": "Feature", "properties": {"collection_times": [{"days": "Mon-Sat", "time": "9:00am"}, {"days": "Sun", "time": "Closed"}], "id": "1360700005", "name": "USPS COLLECTION BOX - BLUE BOX", "address": {"city": "ALEXANDRIA BAY", "state": "NY", "street": "70 CHURCH ST", "postcode": "13607"}}},
{"geometry": {"type": "Point", "coordinates": [-75.919327325, 44.3277439664]}, "type": "Feature", "properties": {"collection_times": [{"days": "Mon-Sat", "time": "8:30am"}, {"days": "Sun", "time": "Closed"}], "id": "1360700012", "name": "USPS COLLECTION BOX - BLUE BOX", "address": {"city": "ALEXANDRIA BAY", "state": "NY", "street": "45560 STATE ROUTE 12", "postcode": "13607"}}},
{"geometry": {"type": "Point", "coordinates": [-75.922037691, 44.3262637974]}, "type": "Feature", "properties": {"collection_times": [{"days": "Mon-Fri", "time": "3:45pm"}, {"days": "Sat", "time": "12:00pm"}, {"days": "Sun", "time": "Closed"}], "id": "1360700013", "name": "USPS COLLECTION BOX - EXPRESS", "address": {"city": "ALEXANDRIA BAY", "state": "NY", "street": "13 BETHUNE ST", "postcode": "13607"}}},
{"geometry": {"type": "Point", "coordinates": [-75.9293162636, 44.3099518139]}, "type": "Feature", "properties": {"collection_times": [{"days": "Mon-Sat", "time": "10:00am"}, {"days": "Sun", "time": "Closed"}], "id": "1360700014", "name": "USPS COLLECTION BOX - BLUE BOX", "address": {"city": "ALEXANDRIA BAY", "state": "NY", "street": "44927 CROSS ISLAND RD", "postcode": "13607"}}},
{"geometry": {"type": "Point", "coordinates": [-75.9293162636, 44.3099518139]}, "type": "Feature", "properties": {"collection_times": [{"days": "Mon-Sat", "time": "11:00am"}, {"days": "Sun", "time": "Closed"}], "id": "1360700015", "name": "USPS COLLECTION BOX - BLUE BOX", "address": {"city": "ALEXANDRIA BAY", "state": "NY", "street": "21 STATE ROUTE 12", "postcode": "13607"}}},
{"geometry": {"type": "Point", "coordinates": [-75.6076282692, 44.1996157123]}, "type": "Feature", "properties": {"collection_times": [{"days": "Mon-Fri", "time": "4:30pm"}, {"days": "Sat", "time": "11:30am"}, {"days": "Sun", "time": "Closed"}], "id": "1360800001", "name": "USPS COLLECTION BOX - BLUE BOX", "address": {"city": "ANTWERP", "state": "NY", "street": "50 MAIN ST", "postcode": "13608"}}},
{"geometry": {"type": "Point", "coordinates": [-75.6076282692, 44.1996157123]}, "type": "Feature", "properties": {"collection_times": [{"days": "Mon-Fri", "time": "12:00pm"}, {"days": "Sat", "time": "11:30am"}, {"days": "Sun", "time": "Closed"}], "id": "1360800002", "name": "USPS COLLECTION BOX - PO LOBBY", "address": {"city": "ANTWERP", "state": "NY", "street": "50 MAIN ST", "postcode": "13608"}}},
{"geometry": {"type": "Point", "coordinates": [-76.1344776194, 43.7876698225]}, "type": "Feature", "properties": {"collection_times": [{"days": "Mon-Fri", "time": "1:00pm"}, {"days": "Sat", "time": "11:45am"}, {"days": "Sun", "time": "Closed"}], "id": "1361100001", "name": "USPS COLLECTION BOX - PO LOBBY", "address": {"city": "BELLEVILLE", "state": "NY", "street": "8279 NY STATE RT 289", "postcode": "13611"}}},
{"geometry": {"type": "Point", "coordinates": [-76.1344776194, 43.7876698225]}, "type": "Feature", "properties": {"collection_times": [{"days": "Mon-Fri", "time": "4:30pm"}, {"days": "Sat", "time": "11:45am"}, {"days": "Sun", "time": "Closed"}], "id": "1361100002", "name": "USPS COLLECTION BOX - BLUE BOX", "address": {"city": "BELLEVILLE", "state": "NY", "street": "8279 NY STATE RT 289", "postcode": "13611"}}},
{"geometry": {"type": "Point", "coordinates": [-75.8008760117, 44.0054477854]}, "type": "Feature", "properties": {"collection_times": [{"days": "Mon-Fri", "time": "4:30pm"}, {"days": "Sat", "time": "11:30am"}, {"days": "Sun", "time": "Closed"}], "id": "1361200003", "name": "USPS COLLECTION BOX - PO LOBBY", "address": {"city": "BLACK RIVER", "state": "NY", "street": "28553 STATE ROUTE 3", "postcode": "13612"}}},
{"geometry": {"type": "Point", "coordinates": [-75.7989367859, 44.0060066757]}, "type": "Feature", "properties": {"collection_times": [{"days": "Mon-Sat", "time": "9:00am"}, {"days": "Sun", "time": "Closed"}], "id": "1361200005", "name": "USPS COLLECTION BOX - BLUE BOX", "address": {"city": "BLACK RIVER", "state": "NY", "street": "28553 STATE ROUTE 3", "postcode": "13612"}}},
{"geometry": {"type": "Point", "coordinates": [-75.7744165984, 43.9860085687]}, "type": "Feature", "properties": {"collection_times": [{"days": "Mon-Sat", "time": "8:30am"}, {"days": "Sun", "time": "Closed"}], "id": "1361200006", "name": "USPS COLLECTION BOX - BLUE BOX", "address": {"city": "BLACK RIVER", "state": "NY", "street": "2300 NASH BLVD (P2300)", "postcode": "13612"}}},
{"geometry": {"type": "Point", "coordinates": [-74.7738184749, 44.8076976265]}, "type": "Feature", "properties": {"collection_times": [{"days": "Mon-Fri", "time": "4:30pm"}, {"days": "Sat", "time": "11:45am"}, {"days": "Sun", "time": "Closed"}], "id": "1361300001", "name": "USPS COLLECTION BOX - BLUE BOX", "address": {"city": "BRASHER FALLS", "state": "NY", "street": "905 STATE HIGHWAY 11C", "postcode": "13613"}}},
{"geometry": {"type": "Point", "coordinates": [-74.7734142818, 44.8077672607]}, "type": "Feature", "properties": {"collection_times": [{"days": "Mon-Fri", "time": "3:30pm"}, {"days": "Sat", "time": "11:45am"}, {"days": "Sun", "time": "Closed"}], "id": "1361300002", "name": "USPS COLLECTION BOX - PO LOBBY", "address": {"city": "BRASHER FALLS", "state": "NY", "street": "905 STATE HIGHWAY 11C", "postcode": "13613"}}},
{"geometry": {"type": "Point", "coordinates": [-75.6877202969, 44.5430074419]}, "type": "Feature", "properties": {"collection_times": [{"days": "Mon-Fri", "time": "4:30pm"}, {"days": "Sat", "time": "11:45am"}, {"days": "Sun", "time": "Closed"}], "id": "1361400001", "name": "USPS COLLECTION BOX - BLUE BOX", "address": {"city": "BRIER HILL", "state": "NY", "street": "39 COUNTY ROUTE 2", "postcode": "13614"}}},
{"geometry": {"type": "Point", "coordinates": [-75.6877202969, 44.5430074419]}, "type": "Feature", "properties": {"collection_times": [{"days": "Mon-Fri", "time": "12:00pm"}, {"days": "Sat", "time": "11:45am"}, {"days": "Sun", "time": "Closed"}], "id": "1361400002", "name": "USPS COLLECTION BOX - PO LOBBY", "address": {"city": "BRIER HILL", "state": "NY", "street": "39 COUNTY ROUTE 2", "postcode": "13614"}}},
{"geometry": {"type": "Point", "coordinates": [-75.9837279345, 44.0035903179]}, "type": "Feature", "properties": {"collection_times": [{"days": "Mon-Fri", "time": "4:30pm"}, {"days": "Sat", "time": "11:30am"}, {"days": "Sun", "time": "Closed"}], "id": "1361500001", "name": "USPS COLLECTION BOX - BLUE BOX", "address": {"city": "BROWNVILLE", "state": "NY", "street": "118 BROWN BLVD", "postcode": "13615"}}},
{"geometry": {"type": "Point", "coordinates": [-75.9837279345, 44.0035903179]}, "type": "Feature", "properties": {"collection_times": [{"days": "Mon-Fri", "time": "4:45pm"}, {"days": "Sat", "time": "11:45am"}, {"days": "Sun", "time": "Closed"}], "id": "1361500002", "name": "USPS COLLECTION BOX - PO LOBBY", "address": {"city": "BROWNVILLE", "state": "NY", "street": "118 BROWN BLVD", "postcode": "13615"}}},
{"geometry": {"type": "Point", "coordinates": [-75.8391818551, 44.0264940023]}, "type": "Feature", "properties": {"collection_times": [{"days": "Mon-Fri", "time": "4:45pm"}, {"days": "Sat", "time": "11:00am"}, {"days": "Sun", "time": "Closed"}], "id": "1361600001", "name": "USPS COLLECTION BOX - BLUE BOX", "address": {"city": "CALCIUM", "state": "NY", "street": "24841 COUNTY ROUTE 138", "postcode": "13616"}}},
{"geometry": {"type": "Point", "coordinates": [-75.8391818551, 44.0264940023]}, "type": "Feature", "properties": {"collection_times": [{"days": "Mon-Fri", "time": "4:45pm"}, {"days": "Sat", "time": "11:00am"}, {"days": "Sun", "time": "Closed"}], "id": "1361600002", "name": "USPS COLLECTION BOX - PO LOBBY", "address": {"city": "CALCIUM", "state": "NY", "street": "24841 COUNTY ROUTE 138", "postcode": "13616"}}},
{"geometry": {"type": "Point", "coordinates": [-75.1693218775, 44.595625024]}, "type": "Feature", "properties": {"collection_times": [{"days": "Mon-Fri", "time": "5:00pm"}, {"days": "Sat", "time": "12:00pm"}, {"days": "Sun", "time": "Closed"}], "id": "1361700005", "name": "USPS COLLECTION BOX - BLUE BOX", "address": {"city": "CANTON", "state": "NY", "street": "100 MAIN ST", "postcode": "13617"}}},
{"geometry": {"type": "Point", "coordinates": [-75.1668873479, 44.5903028916]}, "type": "Feature", "properties": {"collection_times": [{"days": "Mon-Fri", "time": "9:45am"}, {"days": "Sat", "time": "9:00am"}, {"days": "Sun", "time": "Closed"}], "id": "1361700006", "name": "USPS COLLECTION BOX - BLUE BOX", "address": {"city": "CANTON", "state": "NY", "street": "1 COLLEGE ST", "postcode": "13617"}}},
{"geometry": {"type": "Point", "coordinates": [-75.1632840549, 44.5984605766]}, "type": "Feature", "properties": {"collection_times": [{"days": "Mon-Fri", "time": "12:00pm"}, {"days": "Sat", "time": "11:00am"}, {"days": "Sun", "time": "Closed"}], "id": "1361700008", "name": "USPS COLLECTION BOX - BLUE BOX", "address": {"city": "CANTON", "state": "NY", "street": "40 JUDSON ST", "postcode": "13617"}}},
{"geometry": {"type": "Point", "coordinates": [-75.1708680049, 44.600469241]}, "type": "Feature", "properties": {"collection_times": [{"days": "Mon-Sat", "time": "9:00am"}, {"days": "Sun", "time": "Closed"}], "id": "1361700009", "name": "USPS COLLECTION BOX - BLUE BOX", "address": {"city": "CANTON", "state": "NY", "street": "40 STATE ROUTE 310", "postcode": "13617"}}},
{"geometry": {"type": "Point", "coordinates": [-75.1714665821, 44.5996056809]}, "type": "Feature", "properties": {"collection_times": [{"days": "Mon-Sat", "time": "10:00am"}, {"days": "Sun", "time": "Closed"}], "id": "1361700011", "name": "USPS COLLECTION BOX - BLUE BOX", "address": {"city": "CANTON", "state": "NY", "street": "27 STATE ST", "postcode": "13617"}}},
{"geometry": {"type": "Point", "coordinates": [-75.1712430352, 44.5955273207]}, "type": "Feature", "properties": {"collection_times": [{"days": "Mon-Sat", "time": "8:30am"}, {"days": "Sun", "time": "Closed"}], "id": "1361700012", "name": "USPS COLLECTION BOX - BLUE BOX", "address": {"city": "CANTON", "state": "NY", "street": "43 MAIN ST", "postcode": "13617"}}},
{"geometry": {"type": "Point", "coordinates": [-75.1510077748, 44.5967491262]}, "type": "Feature", "properties": {"collection_times": [{"days": "Mon-Sat", "time": "10:00am"}, {"days": "Sun", "time": "Closed"}], "id": "1361700014", "name": "USPS COLLECTION BOX - BLUE BOX", "address": {"city": "CANTON", "state": "NY", "street": "4 W MAIN ST", "postcode": "13617"}}},
{"geometry": {"type": "Point", "coordinates": [-75.148581058, 44.5970978079]}, "type": "Feature", "properties": {"collection_times": [{"days": "Mon-Fri", "time": "4:30pm"}, {"days": "Sat", "time": "12:00pm"}, {"days": "Sun", "time": "Closed"}], "id": "1361700015", "name": "USPS COLLECTION BOX - BLUE BOX", "address": {"city": "CANTON", "state": "NY", "street": "111 MAIN ST", "postcode": "13617"}}},
{"geometry": {"type": "Point", "coordinates": [-75.1671274886, 44.5955339362]}, "type": "Feature", "properties": {"collection_times": [{"days": "Mon-Fri", "time": "5:00pm"}, {"days": "Sat", "time": "12:00pm"}, {"days": "Sun", "time": "Closed"}], "id": "1361700016", "name": "USPS COLLECTION BOX - BLUE BOX", "address": {"city": "CANTON", "state": "NY", "street": "1 PARK PL", "postcode": "13617"}}},
{"geometry": {"type": "Point", "coordinates": [-75.148581058, 44.5970978079]}, "type": "Feature", "properties": {"collection_times": [{"days": "Mon-Sat", "time": "9:00am"}, {"days": "Sun", "time": "Closed"}], "id": "1361700017", "name": "USPS COLLECTION BOX - BLUE BOX", "address": {"city": "CANTON", "state": "NY", "street": "111 E MAIN ST", "postcode": "13617"}}},
{"geometry": {"type": "Point", "coordinates": [-75.1696088878, 44.5988269223]}, "type": "Feature", "properties": {"collection_times": [{"days": "Mon-Fri", "time": "1:00pm"}, {"days": "Sat", "time": "10:30am"}, {"days": "Sun", "time": "Closed"}], "id": "1361700018", "name": "USPS COLLECTION BOX - BLUE BOX", "address": {"city": "CANTON", "state": "NY", "street": "48 COURT ST", "postcode": "13617"}}},
{"geometry": {"type": "Point", "coordinates": [-75.1693218775, 44.595625024]}, "type": "Feature", "properties": {"collection_times": [{"days": "Mon-Fri", "time": "5:00pm"}, {"days": "Sat", "time": "12:00pm"}, {"days": "Sun", "time": "Closed"}], "id": "1361700020", "name": "USPS COLLECTION BOX - PO LOBBY", "address": {"city": "CANTON", "state": "NY", "street": "100 MAIN ST", "postcode": "13617"}}},
{"geometry": {"type": "Point", "coordinates": [-75.1693218775, 44.595625024]}, "type": "Feature", "properties": {"collection_times": [{"days": "Mon-Fri", "time": "5:00pm"}, {"days": "Sat", "time": "12:00pm"}, {"days": "Sun", "time": "Closed"}], "id": "1361700025", "name": "USPS COLLECTION BOX - BLUE BOX", "address": {"city": "CANTON", "state": "NY", "street": "100 MAIN ST", "postcode": "13617"}}},
{"geometry": {"type": "Point", "coordinates": [-76.3339272342, 44.1286318623]}, "type": "Feature", "properties": {"collection_times": [{"days": "Mon-Fri", "time": "4:15pm"}, {"days": "Sat", "time": "11:15am"}, {"days": "Sun", "time": "Closed"}], "id": "1361800001", "name": "USPS COLLECTION BOX - BLUE BOX", "address": {"city": "CAPE VINCENT", "state": "NY", "street": "362 E BROADWAY ST", "postcode": "13618"}}},
{"geometry": {"type": "Point", "coordinates": [-76.3339272342, 44.1286318623]}, "type": "Feature", "properties": {"collection_times": [{"days": "Mon-Fri", "time": "4:30pm"}, {"days": "Sat", "time": "11:15am"}, {"days": "Sun", "time": "Closed"}], "id": "1361800002", "name": "USPS COLLECTION BOX - PO LOBBY", "address": {"city": "CAPE VINCENT", "state": "NY", "street": "362 E BROADWAY ST", "postcode": "13618"}}},
{"geometry": {"type": "Point", "coordinates": [-75.6075255868, 43.9798062077]}, "type": "Feature", "properties": {"collection_times": [{"days": "Mon-Fri", "time": "5:00pm"}, {"days": "Sat", "time": "3:00pm"}, {"days": "Sun", "time": "Closed"}], "id": "1361900001", "name": "USPS COLLECTION BOX - BLUE BOX", "address": {"city": "CARTHAGE", "state": "NY", "street": "521 STATE ST", "postcode": "13619"}}},
{"geometry": {"type": "Point", "coordinates": [-75.6072308101, 43.9799847876]}, "type": "Feature", "properties": {"collection_times": [{"days": "Mon-Fri", "time": "5:00pm"}, {"days": "Sat", "time": "3:00pm"}, {"days": "Sun", "time": "Closed"}], "id": "1361900003", "name": "USPS COLLECTION BOX - BLUE BOX", "address": {"city": "CARTHAGE", "state": "NY", "street": "514 STATE ST", "postcode": "13619"}}},
{"geometry": {"type": "Point", "coordinates": [-75.608501308, 43.9828238891]}, "type": "Feature", "properties": {"collection_times": [{"days": "Mon-Sat", "time": "11:00am"}, {"days": "Sun", "time": "Closed"}], "id": "1361900004", "name": "USPS COLLECTION BOX - BLUE BOX", "address": {"city": "CARTHAGE", "state": "NY", "street": "703 FULTON ST", "postcode": "13619"}}},
{"geometry": {"type": "Point", "coordinates": [-75.6121164306, 43.9819414017]}, "type": "Feature", "properties": {"collection_times": [{"days": "Mon-Sat", "time": "10:30am"}, {"days": "Sun", "time": "Closed"}], "id": "1361900005", "name": "USPS COLLECTION BOX - BLUE BOX", "address": {"city": "CARTHAGE", "state": "NY", "street": "505 ALEXANDRIA ST", "postcode": "13619"}}},
{"geometry": {"type": "Point", "coordinates": [-75.6144646042, 43.974640179]}, "type": "Feature", "properties": {"collection_times": [{"days": "Mon-Sat", "time": "2:30pm"}, {"days": "Sun", "time": "Closed"}], "id": "1361900007", "name": "USPS COLLECTION BOX - BLUE BOX", "address": {"city": "CARTHAGE", "state": "NY", "street": "3 BRIDGE ST", "postcode": "13619"}}},
{"geometry": {"type": "Point", "coordinates": [-75.6092674823, 43.9777399344]}, "type": "Feature", "properties": {"collection_times": [{"days": "Mon-Sat", "time": "2:00pm"}, {"days": "Sun", "time": "Closed"}], "id": "1361900009", "name": "USPS COLLECTION BOX - BLUE BOX", "address": {"city": "CARTHAGE", "state": "NY", "street": "120 S MECHANIC ST", "postcode": "13619"}}},
{"geometry": {"type": "Point", "coordinates": [-75.608992236, 43.9783984396]}, "type": "Feature", "properties": {"collection_times": [{"days": "Mon-Sat", "time": "2:00pm"}, {"days": "Sun", "time": "Closed"}], "id": "1361900010", "name": "USPS COLLECTION BOX - BLUE BOX", "address": {"city": "CARTHAGE", "state": "NY", "street": "313 STATE ST", "postcode": "13619"}}},
{"geometry": {"type": "Point", "coordinates": [-75.6230505853, 43.970408931]}, "type": "Feature", "properties": {"collection_times": [{"days": "Mon-Sat", "time": "2:30pm"}, {"days": "Sun", "time": "Closed"}], "id": "1361900011", "name": "USPS COLLECTION BOX - BLUE BOX", "address": {"city": "CARTHAGE", "state": "NY", "street": "61 HIGH ST", "postcode": "13619"}}},
{"geometry": {"type": "Point", "coordinates": [-75.6264193115, 43.965245847]}, "type": "Feature", "properties": {"collection_times": [{"days": "Mon-Sat", "time": "10:00am"}, {"days": "Sun", "time": "Closed"}], "id": "1361900013", "name": "USPS COLLECTION BOX - BLUE BOX", "address": {"city": "CARTHAGE", "state": "NY", "street": "836 TAMARAC DR", "postcode": "13619"}}},
{"geometry": {"type": "Point", "coordinates": [-75.6043822449, 43.9825458938]}, "type": "Feature", "properties": {"collection_times": [{"days": "Mon-Sat", "time": "9:00am"}, {"days": "Sun", "time": "Closed"}], "id": "1361900015", "name": "USPS COLLECTION BOX - BLUE BOX", "address": {"city": "CARTHAGE", "state": "NY", "street": "821 STATE ST", "postcode": "13619"}}},
{"geometry": {"type": "Point", "coordinates": [-75.6075255868, 43.9798062077]}, "type": "Feature", "properties": {"collection_times": [{"days": "Mon-Fri", "time": "5:00pm"}, {"days": "Sat", "time": "3:00pm"}, {"days": "Sun", "time": "Closed"}], "id": "1361900016", "name": "USPS COLLECTION BOX - PO LOBBY", "address": {"city": "CARTHAGE", "state": "NY", "street": "521 STATE ST", "postcode": "13619"}}},
{"geometry": {"type": "Point", "coordinates": [-75.5285201745, 43.8790063491]}, "type": "Feature", "properties": {"collection_times": [{"days": "Mon-Fri", "time": "4:30pm"}, {"days": "Sat", "time": "11:15am"}, {"days": "Sun", "time": "Closed"}], "id": "1362000001", "name": "USPS COLLECTION BOX - BLUE BOX", "address": {"city": "CASTORLAND", "state": "NY", "street": "5154 STATE ROUTE 410", "postcode": "13620"}}},
{"geometry": {"type": "Point", "coordinates": [-75.512310544, 43.889245764]}, "type": "Feature", "properties": {"collection_times": [{"days": "Mon-Fri", "time": "3:00pm"}, {"days": "Sat", "time": "11:15am"}, {"days": "Sun", "time": "Closed"}], "id": "1362000002", "name": "USPS COLLECTION BOX - PO LOBBY", "address": {"city": "CASTORLAND", "state": "NY", "street": "5154 STATE ROUTE 410", "postcode": "13620"}}},
{"geometry": {"type": "Point", "coordinates": [-75.080343253, 44.8492999274]}, "type": "Feature", "properties": {"collection_times": [{"days": "Mon-Fri", "time": "3:30pm"}, {"days": "Sat", "time": "11:30am"}, {"days": "Sun", "time": "Closed"}], "id": "1362100001", "name": "USPS COLLECTION BOX - BLUE BOX", "address": {"city": "CHASE MILLS", "state": "NY", "street": "5275 COUNTY ROUTE 14", "postcode": "13621"}}},
{"geometry": {"type": "Point", "coordinates": [-75.080343253, 44.8492999274]}, "type": "Feature", "properties": {"collection_times": [{"days": "Mon-Fri", "time": "1:00pm"}, {"days": "Sat", "time": "12:00pm"}, {"days": "Sun", "time": "Closed"}], "id": "1362100002", "name": "USPS COLLECTION BOX - PO LOBBY", "address": {"city": "CHASE MILLS", "state": "NY", "street": "5275 COUNTY ROUTE 14", "postcode": "13621"}}},
{"geometry": {"type": "Point", "coordinates": [-76.1300643668, 44.0670765925]}, "type": "Feature", "properties": {"collection_times": [{"days": "Mon-Fri", "time": "4:30pm"}, {"days": "Sat", "time": "11:45am"}, {"days": "Sun", "time": "Closed"}], "id": "1362200001", "name": "USPS COLLECTION BOX - BLUE BOX", "address": {"city": "CHAUMONT", "state": "NY", "street": "12061 STATE ROUTE 12E", "postcode": "13622"}}},
{"geometry": {"type": "Point", "coordinates": [-76.1300643668, 44.0670765925]}, "type": "Feature", "properties": {"collection_times": [{"days": "Mon-Fri", "time": "4:30pm"}, {"days": "Sat", "time": "11:45am"}, {"days": "Sun", "time": "Closed"}], "id": "1362200002", "name": "USPS COLLECTION BOX - PO LOBBY", "address": {"city": "CHAUMONT", "state": "NY", "street": "12061 STATE ROUTE 12E", "postcode": "13622"}}},
{"geometry": {"type": "Point", "coordinates": [-76.1300643668, 44.0670765925]}, "type": "Feature", "properties": {"collection_times": [{"days": "Mon-Fri", "time": "4:30pm"}, {"days": "Sat", "time": "11:45am"}, {"days": "Sun", "time": "Closed"}], "id": "1362200003", "name": "USPS COLLECTION BOX - PO LOBBY", "address": {"city": "CHAUMONT", "state": "NY", "street": "12061 STATE ROUTE 12E", "postcode": "13622"}}},
{"geometry": {"type": "Point", "coordinates": [-75.7557943692, 44.4419938898]}, "type": "Feature", "properties": {"collection_times": [{"days": "Mon-Fri", "time": "3:50pm"}, {"days": "Sat", "time": "10:50am"}, {"days": "Sun", "time": "Closed"}], "id": "1362300001", "name": "USPS COLLECTION BOX - BLUE BOX", "address": {"city": "CHIPPEWA BAY", "state": "NY", "street": "1176 COUNTY ROUTE 6", "postcode": "13623"}}},
{"geometry": {"type": "Point", "coordinates": [-75.7557943692, 44.4419938898]}, "type": "Feature", "properties": {"collection_times": [{"days": "Mon-Fri", "time": "11:00am"}, {"days": "Sat", "time": "11:30am"}, {"days": "Sun", "time": "Closed"}], "id": "1362300002", "name": "USPS COLLECTION BOX - PO LOBBY", "address": {"city": "CHIPPEWA BAY", "state": "NY", "street": "1176 COUNTY ROUTE 6", "postcode": "13623"}}},
{"geometry": {"type": "Point", "coordinates": [-76.0878137239, 44.2419681745]}, "type": "Feature", "properties": {"collection_times": [{"days": "Mon-Fri", "time": "4:30pm"}, {"days": "Sat", "time": "12:00pm"}, {"days": "Sun", "time": "Closed"}], "id": "1362400001", "name": "USPS COLLECTION BOX - PO LOBBY", "address": {"city": "CLAYTON", "state": "NY", "street": "236 JOHN ST", "postcode": "13624"}}},
{"geometry": {"type": "Point", "coordinates": [-76.0878137239, 44.2419681745]}, "type": "Feature", "properties": {"collection_times": [{"days": "Mon-Fri", "time": "5:00pm"}, {"days": "Sat", "time": "12:00pm"}, {"days": "Sun", "time": "Closed"}], "id": "1362400002", "name": "USPS COLLECTION BOX - BLUE BOX", "address": {"city": "CLAYTON", "state": "NY", "street": "236 JOHN ST", "postcode": "13624"}}},
{"geometry": {"type": "Point", "coordinates": [-76.0849264483, 44.2368866696]}, "type": "Feature", "properties": {"collection_times": [{"days": "Mon-Sat", "time": "10:00am"}, {"days": "Sun", "time": "Closed"}], "id": "1362400004", "name": "USPS COLLECTION BOX - BLUE BOX", "address": {"city": "CLAYTON", "state": "NY", "street": "634 JAMES ST", "postcode": "13624"}}},
{"geometry": {"type": "Point", "coordinates": [-76.0891434503, 44.2419380378]}, "type": "Feature", "properties": {"collection_times": [{"days": "Mon-Sat", "time": "9:00am"}, {"days": "Sun", "time": "Closed"}], "id": "1362400008", "name": "USPS COLLECTION BOX - BLUE BOX", "address": {"city": "CLAYTON", "state": "NY", "street": "538 RIVERSIDE DR", "postcode": "13624"}}},
{"geometry": {"type": "Point", "coordinates": [-76.0821521628, 44.2367235547]}, "type": "Feature", "properties": {"collection_times": [{"days": "Mon-Sat", "time": "10:00am"}, {"days": "Sun", "time": "Closed"}], "id": "1362400014", "name": "USPS COLLECTION BOX - BLUE BOX", "address": {"city": "CLAYTON", "state": "NY", "street": "475 STATE ST", "postcode": "13624"}}},
{"geometry": {"type": "Point", "coordinates": [-76.0823875717, 44.2338158416]}, "type": "Feature", "properties": {"collection_times": [{"days": "Mon-Sat", "time": "10:00am"}, {"days": "Sun", "time": "Closed"}], "id": "1362400015", "name": "USPS COLLECTION BOX - BLUE BOX", "address": {"city": "CLAYTON", "state": "NY", "street": "822 JAMES ST", "postcode": "13624"}}},
{"geometry": {"type": "Point", "coordinates": [-74.819813881, 44.3126271521]}, "type": "Feature", "properties": {"collection_times": [{"days": "Mon-Fri", "time": "4:00pm"}, {"days": "Sat", "time": "11:45am"}, {"days": "Sun", "time": "Closed"}], "id": "1362500001", "name": "USPS COLLECTION BOX - BLUE BOX", "address": {"city": "COLTON", "state": "NY", "street": "4841 NYS RT 56", "postcode": "13625"}}},
{"geometry": {"type": "Point", "coordinates": [-74.819813881, 44.3126271521]}, "type": "Feature", "properties": {"collection_times": [{"days": "Mon-Fri", "time": "3:30pm"}, {"days": "Sat", "time": "11:45am"}, {"days": "Sun", "time": "Closed"}], "id": "1362500002", "name": "USPS COLLECTION BOX - PO LOBBY", "address": {"city": "COLTON", "state": "NY", "street": "4841 NYS RT 56", "postcode": "13625"}}},
{"geometry": {"type": "Point", "coordinates": [-75.7155293219, 43.8480048789]}, "type": "Feature", "properties": {"collection_times": [{"days": "Mon-Fri", "time": "4:30pm"}, {"days": "Sat", "time": "10:30am"}, {"days": "Sun", "time": "Closed"}], "id": "1362600001", "name": "USPS COLLECTION BOX - BLUE BOX", "address": {"city": "COPENHAGEN", "state": "NY", "street": "100 MAIN ST", "postcode": "13626"}}},
{"geometry": {"type": "Point", "coordinates": [-75.7155293219, 43.8480048789]}, "type": "Feature", "properties": {"collection_times": [{"days": "Mon-Fri", "time": "4:30pm"}, {"days": "Sat", "time": "10:30am"}, {"days": "Sun", "time": "Closed"}], "id": "1362600002", "name": "USPS COLLECTION BOX - PO LOBBY", "address": {"city": "COPENHAGEN", "state": "NY", "street": "100 MAIN ST", "postcode": "13626"}}},
{"geometry": {"type": "Point", "coordinates": [-75.7155293219, 43.8480048789]}, "type": "Feature", "properties": {"collection_times": [{"days": "Mon-Sat", "time": "8:45am"}, {"days": "Sun", "time": "Closed"}], "id": "1362600003", "name": "USPS COLLECTION BOX - BLUE BOX", "address": {"city": "COPENHAGEN", "state": "NY", "street": "100 PHALEN DR", "postcode": "13626"}}},
{"geometry": {"type": "Point", "coordinates": [-75.6841374602, 44.0392584525]}, "type": "Feature", "properties": {"collection_times": [{"days": "Mon-Sat", "time": "10:00am"}, {"days": "Sun", "time": "Closed"}], "id": "1362800001", "name": "USPS COLLECTION BOX - BLUE BOX", "address": {"city": "DEFERIET", "state": "NY", "street": "43 ANDERSON AVE", "postcode": "13628"}}},
{"geometry": {"type": "Point", "coordinates": [-75.2743804632, 44.5045478303]}, "type": "Feature", "properties": {"collection_times": [{"days": "Mon-Fri", "time": "4:20pm"}, {"days": "Sat", "time": "11:00am"}, {"days": "Sun", "time": "Closed"}], "id": "1363000001", "name": "USPS COLLECTION BOX - BLUE BOX", "address": {"city": "DE KALB JUNCTION", "state": "NY", "street": "4329 RT 11", "postcode": "13630"}}},
{"geometry": {"type": "Point", "coordinates": [-75.2743804632, 44.5045478303]}, "type": "Feature", "properties": {"collection_times": [{"days": "Mon-Fri", "time": "12:00pm"}, {"days": "Sat", "time": "11:00am"}, {"days": "Sun", "time": "Closed"}], "id": "1363000003", "name": "USPS COLLECTION BOX - PO LOBBY", "address": {"city": "DE KALB JUNCTION", "state": "NY", "street": "4329 RT 11", "postcode": "13630"}}},
{"geometry": {"type": "Point", "coordinates": [-76.0660919887, 44.1389502148]}, "type": "Feature", "properties": {"collection_times": [{"days": "Mon-Fri", "time": "4:30pm"}, {"days": "Sat", "time": "11:15am"}, {"days": "Sun", "time": "Closed"}], "id": "1363200001", "name": "USPS COLLECTION BOX - BLUE BOX", "address": {"city": "DEPAUVILLE", "state": "NY", "street": "32523 STATE ROUTE 12", "postcode": "13632"}}},
{"geometry": {"type": "Point", "coordinates": [-76.0662272347, 44.1391903055]}, "type": "Feature", "properties": {"collection_times": [{"days": "Mon-Fri", "time": "12:00pm"}, {"days": "Sat", "time": "11:15am"}, {"days": "Sun", "time": "Closed"}], "id": "1363200002", "name": "USPS COLLECTION BOX - PO LOBBY", "address": {"city": "DEPAUVILLE", "state": "NY", "street": "32523 STATE ROUTE 12", "postcode": "13632"}}},
{"geometry": {"type": "Point", "coordinates": [-75.435635924, 44.552218477]}, "type": "Feature", "properties": {"collection_times": [{"days": "Mon-Fri", "time": "3:30pm"}, {"days": "Sat", "time": "11:30am"}, {"days": "Sun", "time": "Closed"}], "id": "1363300001", "name": "USPS COLLECTION BOX - BLUE BOX", "address": {"city": "DE PEYSTER", "state": "NY", "street": "4386 COUNTY ROUTE 10", "postcode": "13633"}}},
{"geometry": {"type": "Point", "coordinates": [-76.0441316335, 44.0096654196]}, "type": "Feature", "properties": {"collection_times": [{"days": "Mon-Fri", "time": "4:45pm"}, {"days": "Sat", "time": "11:45am"}, {"days": "Sun", "time": "Closed"}], "id": "1363400001", "name": "USPS COLLECTION BOX - BLUE BOX", "address": {"city": "DEXTER", "state": "NY", "street": "612 BROWN ST", "postcode": "13634"}}},
{"geometry": {"type": "Point", "coordinates": [-76.0441316335, 44.0096654196]}, "type": "Feature", "properties": {"collection_times": [{"days": "Mon-Fri", "time": "4:45pm"}, {"days": "Sat", "time": "11:45am"}, {"days": "Sun", "time": "Closed"}], "id": "1363400002", "name": "USPS COLLECTION BOX - PO LOBBY", "address": {"city": "DEXTER", "state": "NY", "street": "612 BROWN ST", "postcode": "13634"}}},
{"geometry": {"type": "Point", "coordinates": [-76.0441316335, 44.0096654196]}, "type": "Feature", "properties": {"collection_times": [{"days": "Mon-Fri", "time": "4:45pm"}, {"days": "Sat", "time": "11:45am"}, {"days": "Sun", "time": "Closed"}], "id": "1363400003", "name": "USPS COLLECTION BOX - PO LOBBY", "address": {"city": "DEXTER", "state": "NY", "street": "612 BROWN ST", "postcode": "13634"}}},
{"geometry": {"type": "Point", "coordinates": [-75.2496376935, 44.3265326164]}, "type": "Feature", "properties": {"collection_times": [{"days": "Mon-Fri", "time": "3:50pm"}, {"days": "Sat", "time": "11:30am"}, {"days": "Sun", "time": "Closed"}], "id": "1363500001", "name": "USPS COLLECTION BOX - BLUE BOX", "address": {"city": "EDWARDS", "state": "NY", "street": "196 MAIN ST", "postcode": "13635"}}},
{"geometry": {"type": "Point", "coordinates": [-75.2494172903, 44.3267184098]}, "type": "Feature", "properties": {"collection_times": [{"days": "Mon-Fri", "time": "4:00pm"}, {"days": "Sat", "time": "11:30am"}, {"days": "Sun", "time": "Closed"}], "id": "1363500002", "name": "USPS COLLECTION BOX - PO LOBBY", "address": {"city": "EDWARDS", "state": "NY", "street": "196 MAIN ST", "postcode": "13635"}}},
{"geometry": {"type": "Point", "coordinates": [-76.1308439368, 43.7343469074]}, "type": "Feature", "properties": {"collection_times": [{"days": "Mon-Fri", "time": "4:00pm"}, {"days": "Sat", "time": "11:00am"}, {"days": "Sun", "time": "Closed"}], "id": "1363600001", "name": "USPS COLLECTION BOX - BLUE BOX", "address": {"city": "ELLISBURG", "state": "NY", "street": "12109 STATE ROUTE 193", "postcode": "13636"}}},
{"geometry": {"type": "Point", "coordinates": [-76.1308439368, 43.7343469074]}, "type": "Feature", "properties": {"collection_times": [{"days": "Mon-Fri", "time": "12:00pm"}, {"days": "Sat", "time": "11:00am"}, {"days": "Sun", "time": "Closed"}], "id": "1363600002", "name": "USPS COLLECTION BOX - PO LOBBY", "address": {"city": "ELLISBURG", "state": "NY", "street": "12109 STATE ROUTE 193", "postcode": "13636"}}},
{"geometry": {"type": "Point", "coordinates": [-75.8067912557, 44.0877866551]}, "type": "Feature", "properties": {"collection_times": [{"days": "Mon-Fri", "time": "4:30pm"}, {"days": "Sat", "time": "11:00am"}, {"days": "Sun", "time": "Closed"}], "id": "1363700001", "name": "USPS COLLECTION BOX - BLUE BOX", "address": {"city": "EVANS MILLS", "state": "NY", "street": "8496 LERAY ST", "postcode": "13637"}}},
{"geometry": {"type": "Point", "coordinates": [-75.8067912557, 44.0877866551]}, "type": "Feature", "properties": {"collection_times": [{"days": "Mon-Fri", "time": "4:45pm"}, {"days": "Sat", "time": "11:00am"}, {"days": "Sun", "time": "Closed"}], "id": "1363700006", "name": "USPS COLLECTION BOX - PO LOBBY", "address": {"city": "EVANS MILLS", "state": "NY", "street": "8496 LERAY ST", "postcode": "13637"}}},
{"geometry": {"type": "Point", "coordinates": [-75.1387766941, 44.2483366629]}, "type": "Feature", "properties": {"collection_times": [{"days": "Mon-Fri", "time": "4:30pm"}, {"days": "Sat", "time": "11:30am"}, {"days": "Sun", "time": "Closed"}], "id": "1363900001", "name": "USPS COLLECTION BOX - BLUE BOX", "address": {"city": "FINE", "state": "NY", "street": "8 SPRING ST", "postcode": "13639"}}},
{"geometry": {"type": "Point", "coordinates": [-75.138742927, 44.248351723]}, "type": "Feature", "properties": {"collection_times": [{"days": "Mon-Fri", "time": "12:00pm"}, {"days": "Sat", "time": "11:30am"}, {"days": "Sun", "time": "Closed"}], "id": "1363900002", "name": "USPS COLLECTION BOX - PO LOBBY", "address": {"city": "FINE", "state": "NY", "street": "8 SPRING ST", "postcode": "13639"}}},
{"geometry": {"type": "Point", "coordinates": [-75.9914428694, 44.3094980073]}, "type": "Feature", "properties": {"collection_times": [{"days": "Mon-Fri", "time": "3:30pm"}, {"days": "Sat", "time": "10:45am"}, {"days": "Sun", "time": "Closed"}], "id": "1364000002", "name": "USPS COLLECTION BOX - PO LOBBY", "address": {"city": "FINEVIEW", "state": "NY", "street": "44392 COUNTY ROUTE 191", "postcode": "13640"}}},
{"geometry": {"type": "Point", "coordinates": [-75.9914428694, 44.3094980073]}, "type": "Feature", "properties": {"collection_times": [{"days": "Mon-Fri", "time": "3:30pm"}, {"days": "Sat", "time": "10:45am"}, {"days": "Sun", "time": "Closed"}], "id": "1364000003", "name": "USPS COLLECTION BOX - BLUE BOX", "address": {"city": "FINEVIEW", "state": "NY", "street": "44392 COUNTY ROUTE 191", "postcode": "13640"}}},
{"geometry": {"type": "Point", "coordinates": [-76.007124134, 44.2774144163]}, "type": "Feature", "properties": {"collection_times": [{"days": "Mon-Fri", "time": "4:00pm"}, {"days": "Sat", "time": "9:30am"}, {"days": "Sun", "time": "Closed"}], "id": "1364100001", "name": "USPS COLLECTION BOX - BLUE BOX", "address": {"city": "FISHERS LANDING", "state": "NY", "street": "18064 REEDS POINT RD", "postcode": "13641"}}},
{"geometry": {"type": "Point", "coordinates": [-76.007124134, 44.2774144163]}, "type": "Feature", "properties": {"collection_times": [{"days": "Mon-Fri", "time": "11:00am"}, {"days": "Sat", "time": "9:45am"}, {"days": "Sun", "time": "Closed"}], "id": "1364100002", "name": "USPS COLLECTION BOX - PO LOBBY", "address": {"city": "FISHERS LANDING", "state": "NY", "street": "18064 REEDS POINT RD", "postcode": "13641"}}},
{"geometry": {"type": "Point", "coordinates": [-75.4660588532, 44.3347967677]}, "type": "Feature", "properties": {"collection_times": [{"days": "Mon-Fri", "time": "5:00pm"}, {"days": "Sat", "time": "3:30pm"}, {"days": "Sun", "time": "Closed"}], "id": "1364200002", "name": "USPS COLLECTION BOX - BLUE BOX", "address": {"city": "GOUVERNEUR", "state": "NY", "street": "35 GROVE ST", "postcode": "13642"}}},
{"geometry": {"type": "Point", "coordinates": [-75.4680923596, 44.3351611191]}, "type": "Feature", "properties": {"collection_times": [{"days": "Mon-Fri", "time": "3:00pm"}, {"days": "Sat", "time": "8:00am"}, {"days": "Sun", "time": "Closed"}], "id": "1364200005", "name": "USPS COLLECTION BOX - BLUE BOX", "address": {"city": "GOUVERNEUR", "state": "NY", "street": "42 CHURCH ST", "postcode": "13642"}}},
{"geometry": {"type": "Point", "coordinates": [-75.4689015035, 44.3352912446]}, "type": "Feature", "properties": {"collection_times": [{"days": "Mon-Fri", "time": "3:00pm"}, {"days": "Sat", "time": "2:00pm"}, {"days": "Sun", "time": "Closed"}], "id": "1364200006", "name": "USPS COLLECTION BOX - BLUE BOX", "address": {"city": "GOUVERNEUR", "state": "NY", "street": "15 E MAIN ST", "postcode": "13642"}}},
{"geometry": {"type": "Point", "coordinates": [-75.4543382927, 44.3402651369]}, "type": "Feature", "properties": {"collection_times": [{"days": "Mon-Sat", "time": "11:00am"}, {"days": "Sun", "time": "Closed"}], "id": "1364200007", "name": "USPS COLLECTION BOX - BLUE BOX", "address": {"city": "GOUVERNEUR", "state": "NY", "street": "389 E MAIN ST", "postcode": "13642"}}},
{"geometry": {"type": "Point", "coordinates": [-75.4595277367, 44.3396634609]}, "type": "Feature", "properties": {"collection_times": [{"days": "Mon-Sat", "time": "9:00am"}, {"days": "Sun", "time": "Closed"}], "id": "1364200008", "name": "USPS COLLECTION BOX - BLUE BOX", "address": {"city": "GOUVERNEUR", "state": "NY", "street": "136 ROWLEY ST", "postcode": "13642"}}},
{"geometry": {"type": "Point", "coordinates": [-75.4710367445, 44.339315671]}, "type": "Feature", "properties": {"collection_times": [{"days": "Mon-Sat", "time": "10:00am"}, {"days": "Sun", "time": "Closed"}], "id": "1364200013", "name": "USPS COLLECTION BOX - BLUE BOX", "address": {"city": "GOUVERNEUR", "state": "NY", "street": "123 CLINTON ST", "postcode": "13642"}}},
{"geometry": {"type": "Point", "coordinates": [-75.4504875643, 44.3386484821]}, "type": "Feature", "properties": {"collection_times": [{"days": "Mon-Sat", "time": "9:00am"}, {"days": "Sun", "time": "Closed"}], "id": "1364200016", "name": "USPS COLLECTION BOX - BLUE BOX", "address": {"city": "GOUVERNEUR", "state": "NY", "street": "1100 LARCH CIR", "postcode": "13642"}}},
{"geometry": {"type": "Point", "coordinates": [-75.4745229245, 44.3382332635]}, "type": "Feature", "properties": {"collection_times": [{"days": "Mon-Sat", "time": "11:00am"}, {"days": "Sun", "time": "Closed"}], "id": "1364200017", "name": "USPS COLLECTION BOX - BLUE BOX", "address": {"city": "GOUVERNEUR", "state": "NY", "street": "77 W BARNEY ST", "postcode": "13642"}}},
{"geometry": {"type": "Point", "coordinates": [-75.4789353615, 44.3321386589]}, "type": "Feature", "properties": {"collection_times": [{"days": "Mon-Sat", "time": "10:00am"}, {"days": "Sun", "time": "Closed"}], "id": "1364200018", "name": "USPS COLLECTION BOX - BLUE BOX", "address": {"city": "GOUVERNEUR", "state": "NY", "street": "90 JOHNSTOWN ST", "postcode": "13642"}}},
{"geometry": {"type": "Point", "coordinates": [-75.4760643201, 44.3306919001]}, "type": "Feature", "properties": {"collection_times": [{"days": "Mon-Sat", "time": "10:00am"}, {"days": "Sun", "time": "Closed"}], "id": "1364200022", "name": "USPS COLLECTION BOX - BLUE BOX", "address": {"city": "GOUVERNEUR", "state": "NY", "street": "210 W MAIN ST", "postcode": "13642"}}},
{"geometry": {"type": "Point", "coordinates": [-75.4604610913, 44.3374891823]}, "type": "Feature", "properties": {"collection_times": [{"days": "Mon-Sat", "time": "10:00am"}, {"days": "Sun", "time": "Closed"}], "id": "1364200024", "name": "USPS COLLECTION BOX - BLUE BOX", "address": {"city": "GOUVERNEUR", "state": "NY", "street": "242 E MAIN ST", "postcode": "13642"}}},
{"geometry": {"type": "Point", "coordinates": [-75.4660588532, 44.3347967677]}, "type": "Feature", "properties": {"collection_times": [{"days": "Mon-Fri", "time": "5:00pm"}, {"days": "Sat", "time": "3:30pm"}, {"days": "Sun", "time": "Closed"}], "id": "1364200025", "name": "USPS COLLECTION BOX - PO LOBBY", "address": {"city": "GOUVERNEUR", "state": "NY", "street": "35 GROVE ST", "postcode": "13642"}}},
{"geometry": {"type": "Point", "coordinates": [-75.7194620549, 44.0338023557]}, "type": "Feature", "properties": {"collection_times": [{"days": "Mon-Fri", "time": "4:30pm"}, {"days": "Sat", "time": "11:30am"}, {"days": "Sun", "time": "Closed"}], "id": "1364300001", "name": "USPS COLLECTION BOX - BLUE BOX", "address": {"city": "GREAT BEND", "state": "NY", "street": "32675 NYS RT 26", "postcode": "13643"}}},
{"geometry": {"type": "Point", "coordinates": [-75.7194620549, 44.0338023557]}, "type": "Feature", "properties": {"collection_times": [{"days": "Mon-Fri", "time": "4:30pm"}, {"days": "Sat", "time": "11:45am"}, {"days": "Sun", "time": "Closed"}], "id": "1364300003", "name": "USPS COLLECTION BOX - PO LOBBY", "address": {"city": "GREAT BEND", "state": "NY", "street": "32675 NYS RT 26", "postcode": "13643"}}},
{"geometry": {"type": "Point", "coordinates": [-75.4504222049, 44.307043467]}, "type": "Feature", "properties": {"collection_times": [{"days": "Mon-Fri", "time": "4:15pm"}, {"days": "Sat", "time": "11:30am"}, {"days": "Sun", "time": "Closed"}], "id": "1364500001", "name": "USPS COLLECTION BOX - BLUE BOX", "address": {"city": "HAILESBORO", "state": "NY", "street": "97 MAIN ST", "postcode": "13645"}}},
{"geometry": {"type": "Point", "coordinates": [-75.4504222049, 44.307043467]}, "type": "Feature", "properties": {"collection_times": [{"days": "Mon-Fri", "time": "12:00pm"}, {"days": "Sat", "time": "11:30am"}, {"days": "Sun", "time": "Closed"}], "id": "1364500002", "name": "USPS COLLECTION BOX - PO LOBBY", "address": {"city": "HAILESBORO", "state": "NY", "street": "97 MAIN ST", "postcode": "13645"}}},
{"geometry": {"type": "Point", "coordinates": [-75.6963088031, 44.4451479118]}, "type": "Feature", "properties": {"collection_times": [{"days": "Mon-Fri", "time": "4:30pm"}, {"days": "Sat", "time": "10:45am"}, {"days": "Sun", "time": "Closed"}], "id": "1364600001", "name": "USPS COLLECTION BOX - BLUE BOX", "address": {"city": "HAMMOND", "state": "NY", "street": "50 S MAIN ST", "postcode": "13646"}}},
{"geometry": {"type": "Point", "coordinates": [-75.696288311, 44.445133803]}, "type": "Feature", "properties": {"collection_times": [{"days": "Mon-Fri", "time": "3:00pm"}, {"days": "Sat", "time": "11:00am"}, {"days": "Sun", "time": "Closed"}], "id": "1364600002", "name": "USPS COLLECTION BOX - PO LOBBY", "address": {"city": "HAMMOND", "state": "NY", "street": "50 S MAIN ST", "postcode": "13646"}}},
{"geometry": {"type": "Point", "coordinates": [-74.966355068, 44.6142782804]}, "type": "Feature", "properties": {"collection_times": [{"days": "Mon-Fri", "time": "4:00pm"}, {"days": "Sat", "time": "11:30am"}, {"days": "Sun", "time": "Closed"}], "id": "1364700001", "name": "USPS COLLECTION BOX - BLUE BOX", "address": {"city": "HANNAWA FALLS", "state": "NY", "street": "5890 STATE HIGHWAY 56", "postcode": "13647"}}},
{"geometry": {"type": "Point", "coordinates": [-74.966355068, 44.6142782804]}, "type": "Feature", "properties": {"collection_times": [{"days": "Mon-Fri", "time": "3:45pm"}, {"days": "Sat", "time": "11:45am"}, {"days": "Sun", "time": "Closed"}], "id": "1364700002", "name": "USPS COLLECTION BOX - PO LOBBY", "address": {"city": "HANNAWA FALLS", "state": "NY", "street": "5890 STATE HIGHWAY 56", "postcode": "13647"}}},
{"geometry": {"type": "Point", "coordinates": [-75.3628634869, 44.1515868541]}, "type": "Feature", "properties": {"collection_times": [{"days": "Mon-Fri", "time": "4:30pm"}, {"days": "Sat", "time": "12:00pm"}, {"days": "Sun", "time": "Closed"}], "id": "1364800001", "name": "USPS COLLECTION BOX - BLUE BOX", "address": {"city": "HARRISVILLE", "state": "NY", "street": "14220 STATE ST", "postcode": "13648"}}},
{"geometry": {"type": "Point", "coordinates": [-75.3628634869, 44.1515868541]}, "type": "Feature", "properties": {"collection_times": [{"days": "Mon-Fri", "time": "5:00pm"}, {"days": "Sat", "time": "12:00pm"}, {"days": "Sun", "time": "Closed"}], "id": "1364800002", "name": "USPS COLLECTION BOX - PO LOBBY", "address": {"city": "HARRISVILLE", "state": "NY", "street": "14220 STATE ST", "postcode": "13648"}}},
{"geometry": {"type": "Point", "coordinates": [-74.726596328, 44.921597311]}, "type": "Feature", "properties": {"collection_times": [{"days": "Mon-Fri", "time": "12:00pm"}, {"days": "Sat", "time": "11:30am"}, {"days": "Sun", "time": "Closed"}], "id": "1364900002", "name": "USPS COLLECTION BOX - PO LOBBY", "address": {"city": "HELENA", "state": "NY", "street": "589 QUINELL RD", "postcode": "13649"}}},
{"geometry": {"type": "Point", "coordinates": [-74.7266061218, 44.9230816406]}, "type": "Feature", "properties": {"collection_times": [{"days": "Mon-Fri", "time": "3:15pm"}, {"days": "Sat", "time": "11:30am"}, {"days": "Sun", "time": "Closed"}], "id": "1364900003", "name": "USPS COLLECTION BOX - BLUE BOX", "address": {"city": "HELENA", "state": "NY", "street": "589 QUINELL RD", "postcode": "13649"}}},
{"geometry": {"type": "Point", "coordinates": [-76.1859821895, 43.846054118]}, "type": "Feature", "properties": {"collection_times": [{"days": "Mon-Fri", "time": "4:30pm"}, {"days": "Sat", "time": "11:30am"}, {"days": "Sun", "time": "Closed"}], "id": "1365000001", "name": "USPS COLLECTION BOX - BLUE BOX", "address": {"city": "HENDERSON", "state": "NY", "street": "8872 STATE ROUTE 178", "postcode": "13650"}}},
{"geometry": {"type": "Point", "coordinates": [-76.184248548, 43.846242243]}, "type": "Feature", "properties": {"collection_times": [{"days": "Mon-Fri", "time": "3:00pm"}, {"days": "Sat", "time": "11:30am"}, {"days": "Sun", "time": "Closed"}], "id": "1365000002", "name": "USPS COLLECTION BOX - PO LOBBY", "address": {"city": "HENDERSON", "state": "NY", "street": "8872 STATE ROUTE 178", "postcode": "13650"}}},
{"geometry": {"type": "Point", "coordinates": [-76.2014889445, 43.8630694624]}, "type": "Feature", "properties": {"collection_times": [{"days": "Mon-Fri", "time": "4:30pm"}, {"days": "Sat", "time": "11:45am"}, {"days": "Sun", "time": "Closed"}], "id": "1365100001", "name": "USPS COLLECTION BOX - BLUE BOX", "address": {"city": "HENDERSON HARBOR", "state": "NY", "street": "13190 CO RTE 123", "postcode": "13651"}}},
{"geometry": {"type": "Point", "coordinates": [-76.2003174504, 43.8598774237]}, "type": "Feature", "properties": {"collection_times": [{"days": "Mon-Fri", "time": "12:00pm"}, {"days": "Sat", "time": "11:45am"}, {"days": "Sun", "time": "Closed"}], "id": "1365100002", "name": "USPS COLLECTION BOX - PO LOBBY", "address": {"city": "HENDERSON HARBOR", "state": "NY", "street": "13190 COUNTY ROUTE 123", "postcode": "13651"}}},
{"geometry": {"type": "Point", "coordinates": [-75.232755295, 44.466652666]}, "type": "Feature", "properties": {"collection_times": [{"days": "Mon-Fri", "time": "4:00pm"}, {"days": "Sat", "time": "11:30am"}, {"days": "Sun", "time": "Closed"}], "id": "1365200003", "name": "USPS COLLECTION BOX - PO LOBBY", "address": {"city": "HERMON", "state": "NY", "street": "88 MAIN ST", "postcode": "13652"}}},
{"geometry": {"type": "Point", "coordinates": [-75.4037342825, 44.6159616902]}, "type": "Feature", "properties": {"collection_times": [{"days": "Mon-Fri", "time": "3:45pm"}, {"days": "Sat", "time": "11:00am"}, {"days": "Sun", "time": "Closed"}], "id": "1365400001", "name": "USPS COLLECTION BOX - BLUE BOX", "address": {"city": "HEUVELTON", "state": "NY", "street": "107B STATE ST", "postcode": "13654"}}},
{"geometry": {"type": "Point", "coordinates": [-75.4037342825, 44.6159616902]}, "type": "Feature", "properties": {"collection_times": [{"days": "Mon-Fri", "time": "3:45pm"}, {"days": "Sat", "time": "11:00am"}, {"days": "Sun", "time": "Closed"}], "id": "1365400002", "name": "USPS COLLECTION BOX - PO LOBBY", "address": {"city": "HEUVELTON", "state": "NY", "street": "107B STATE ST", "postcode": "13654"}}},
{"geometry": {"type": "Point", "coordinates": [-74.6672578167, 44.9743709514]}, "type": "Feature", "properties": {"collection_times": [{"days": "Mon-Fri", "time": "3:30pm"}, {"days": "Sat", "time": "2:30pm"}, {"days": "Sun", "time": "Closed"}], "id": "1365500001", "name": "USPS COLLECTION BOX - BLUE BOX", "address": {"city": "HOGANSBURG", "state": "NY", "street": "11 SAINT REGIS ST", "postcode": "13655"}}},
{"geometry": {"type": "Point", "coordinates": [-74.6672578167, 44.9743709514]}, "type": "Feature", "properties": {"collection_times": [{"days": "Mon-Fri", "time": "3:30pm"}, {"days": "Sat", "time": "2:30pm"}, {"days": "Sun", "time": "Closed"}], "id": "1365500002", "name": "USPS COLLECTION BOX - PO LOBBY", "address": {"city": "HOGANSBURG", "state": "NY", "street": "11 SAINT REGIS ST", "postcode": "13655"}}},
{"geometry": {"type": "Point", "coordinates": [-74.6517611672, 44.9692847705]}, "type": "Feature", "properties": {"collection_times": [{"days": "Mon-Sat", "time": "10:00am"}, {"days": "Sun", "time": "Closed"}], "id": "1365500003", "name": "USPS COLLECTION BOX - BLUE BOX", "address": {"city": "HOGANSBURG", "state": "NY", "street": "935 STATE ROUTE 37", "postcode": "13655"}}},
{"geometry": {"type": "Point", "coordinates": [-75.9661926103, 44.1942565108]}, "type": "Feature", "properties": {"collection_times": [{"days": "Mon-Fri", "time": "4:30pm"}, {"days": "Sat", "time": "11:00am"}, {"days": "Sun", "time": "Closed"}], "id": "1365600001", "name": "USPS COLLECTION BOX - BLUE BOX", "address": {"city": "LA FARGEVILLE", "state": "NY", "street": "36327 STATE ROUTE 180", "postcode": "13656"}}},
{"geometry": {"type": "Point", "coordinates": [-75.9661926103, 44.1942565108]}, "type": "Feature", "properties": {"collection_times": [{"days": "Mon-Fri", "time": "3:45pm"}, {"days": "Sat", "time": "11:00am"}, {"days": "Sun", "time": "Closed"}], "id": "1365600002", "name": "USPS COLLECTION BOX - PO LOBBY", "address": {"city": "LA FARGEVILLE", "state": "NY", "street": "36327 STATE ROUTE 180", "postcode": "13656"}}},
{"geometry": {"type": "Point", "coordinates": [-75.3204922036, 44.7318439318]}, "type": "Feature", "properties": {"collection_times": [{"days": "Mon-Fri", "time": "3:30pm"}, {"days": "Sat", "time": "11:30am"}, {"days": "Sun", "time": "Closed"}], "id": "1365800001", "name": "USPS COLLECTION BOX - BLUE BOX", "address": {"city": "LISBON", "state": "NY", "street": "7007 COUNTY ROUTE 10", "postcode": "13658"}}},
{"geometry": {"type": "Point", "coordinates": [-75.3204922036, 44.7318439318]}, "type": "Feature", "properties": {"collection_times": [{"days": "Mon-Fri", "time": "3:30pm"}, {"days": "Sat", "time": "11:30am"}, {"days": "Sun", "time": "Closed"}], "id": "1365800002", "name": "USPS COLLECTION BOX - PO LOBBY", "address": {"city": "LISBON", "state": "NY", "street": "7007 COUNTY ROUTE 10", "postcode": "13658"}}},
{"geometry": {"type": "Point", "coordinates": [-75.858785654, 43.7408080705]}, "type": "Feature", "properties": {"collection_times": [{"days": "Mon-Fri", "time": "2:20pm"}, {"days": "Sat", "time": "11:45am"}, {"days": "Sun", "time": "Closed"}], "id": "1365900001", "name": "USPS COLLECTION BOX - BLUE BOX", "address": {"city": "LORRAINE", "state": "NY", "street": "20693 COUNTY ROUTE 93", "postcode": "13659"}}},
{"geometry": {"type": "Point", "coordinates": [-75.858785654, 43.7408080705]}, "type": "Feature", "properties": {"collection_times": [{"days": "Mon-Fri", "time": "12:00pm"}, {"days": "Sat", "time": "11:45am"}, {"days": "Sun", "time": "Closed"}], "id": "1365900002", "name": "USPS COLLECTION BOX - PO LOBBY", "address": {"city": "LORRAINE", "state": "NY", "street": "20693 COUNTY ROUTE 93", "postcode": "13659"}}},
{"geometry": {"type": "Point", "coordinates": [-75.1333149725, 44.7485816182]}, "type": "Feature", "properties": {"collection_times": [{"days": "Mon-Fri", "time": "3:00pm"}, {"days": "Sat", "time": "11:15am"}, {"days": "Sun", "time": "Closed"}], "id": "1366000001", "name": "USPS COLLECTION BOX - PO LOBBY", "address": {"city": "MADRID", "state": "NY", "street": "3 CHURCH ST", "postcode": "13660"}}},
{"geometry": {"type": "Point", "coordinates": [-75.1333149725, 44.7485816182]}, "type": "Feature", "properties": {"collection_times": [{"days": "Mon-Fri", "time": "4:15pm"}, {"days": "Sat", "time": "11:45am"}, {"days": "Sun", "time": "Closed"}], "id": "1366000002", "name": "USPS COLLECTION BOX - BLUE BOX", "address": {"city": "MADRID", "state": "NY", "street": "3 CHURCH ST", "postcode": "13660"}}},
{"geometry": {"type": "Point", "coordinates": [-76.0625990341, 43.7123450536]}, "type": "Feature", "properties": {"collection_times": [{"days": "Mon-Fri", "time": "4:30pm"}, {"days": "Sat", "time": "11:15am"}, {"days": "Sun", "time": "Closed"}], "id": "1366100001", "name": "USPS COLLECTION BOX - BLUE BOX", "address": {"city": "MANNSVILLE", "state": "NY", "street": "306 S MAIN ST", "postcode": "13661"}}},
{"geometry": {"type": "Point", "coordinates": [-76.0625990341, 43.7123450536]}, "type": "Feature", "properties": {"collection_times": [{"days": "Mon-Fri", "time": "12:00pm"}, {"days": "Sat", "time": "11:15am"}, {"days": "Sun", "time": "Closed"}], "id": "1366100002", "name": "USPS COLLECTION BOX - PO LOBBY", "address": {"city": "MANNSVILLE", "state": "NY", "street": "306 S MAIN ST", "postcode": "13661"}}},
{"geometry": {"type": "Point", "coordinates": [-74.8923308529, 44.929684355]}, "type": "Feature", "properties": {"collection_times": [{"days": "Mon-Fri", "time": "5:00pm"}, {"days": "Sat", "time": "4:00pm"}, {"days": "Sun", "time": "Closed"}], "id": "1366200004", "name": "USPS COLLECTION BOX - BLUE BOX", "address": {"city": "MASSENA", "state": "NY", "street": "96 MAIN ST", "postcode": "13662"}}},
{"geometry": {"type": "Point", "coordinates": [-74.8923308529, 44.929684355]}, "type": "Feature", "properties": {"collection_times": [{"days": "Mon-Fri", "time": "5:00pm"}, {"days": "Sat", "time": "4:00pm"}, {"days": "Sun", "time": "Closed"}], "id": "1366200005", "name": "USPS COLLECTION BOX - BLUE BOX", "address": {"city": "MASSENA", "state": "NY", "street": "96 MAIN ST", "postcode": "13662"}}},
{"geometry": {"type": "Point", "coordinates": [-74.8932317048, 44.9344766772]}, "type": "Feature", "properties": {"collection_times": [{"days": "Mon-Sat", "time": "8:30am"}, {"days": "Sun", "time": "Closed"}], "id": "1366200010", "name": "USPS COLLECTION BOX - BLUE BOX", "address": {"city": "MASSENA", "state": "NY", "street": "4 CENTER ST", "postcode": "13662"}}},
{"geometry": {"type": "Point", "coordinates": [-74.8912732876, 44.9320124182]}, "type": "Feature", "properties": {"collection_times": [{"days": "Mon-Sat", "time": "10:00am"}, {"days": "Sun", "time": "Closed"}], "id": "1366200011", "name": "USPS COLLECTION BOX - BLUE BOX", "address": {"city": "MASSENA", "state": "NY", "street": "31 GLENN ST", "postcode": "13662"}}},
{"geometry": {"type": "Point", "coordinates": [-74.8814443229, 44.9376898862]}, "type": "Feature", "properties": {"collection_times": [{"days": "Mon-Sat", "time": "10:00am"}, {"days": "Sun", "time": "Closed"}], "id": "1366200013", "name": "USPS COLLECTION BOX - BLUE BOX", "address": {"city": "MASSENA", "state": "NY", "street": "70 WILLOW ST", "postcode": "13662"}}},
{"geometry": {"type": "Point", "coordinates": [-74.8900962434, 44.9297233926]}, "type": "Feature", "properties": {"collection_times": [{"days": "Mon-Sat", "time": "9:00am"}, {"days": "Sun", "time": "Closed"}], "id": "1366200022", "name": "USPS COLLECTION BOX - BLUE BOX", "address": {"city": "MASSENA", "state": "NY", "street": "53 E ORVIS ST", "postcode": "13662"}}},
{"geometry": {"type": "Point", "coordinates": [-74.8892468789, 44.9196433993]}, "type": "Feature", "properties": {"collection_times": [{"days": "Mon-Sat", "time": "10:00am"}, {"days": "Sun", "time": "Closed"}], "id": "1366200024", "name": "USPS COLLECTION BOX - BLUE BOX", "address": {"city": "MASSENA", "state": "NY", "street": "386 MAIN ST", "postcode": "13662"}}},
{"geometry": {"type": "Point", "coordinates": [-74.8829334269, 44.9275987983]}, "type": "Feature", "properties": {"collection_times": [{"days": "Mon-Sat", "time": "10:00am"}, {"days": "Sun", "time": "Closed"}], "id": "1366200025", "name": "USPS COLLECTION BOX - BLUE BOX", "address": {"city": "MASSENA", "state": "NY", "street": "50 PARKER AVE", "postcode": "13662"}}},
{"geometry": {"type": "Point", "coordinates": [-74.8902642236, 44.9229462207]}, "type": "Feature", "properties": {"collection_times": [{"days": "Mon-Sat", "time": "9:00am"}, {"days": "Sun", "time": "Closed"}], "id": "1366200026", "name": "USPS COLLECTION BOX - BLUE BOX", "address": {"city": "MASSENA", "state": "NY", "street": "300 MAIN ST", "postcode": "13662"}}},
{"geometry": {"type": "Point", "coordinates": [-74.8857062827, 44.9234099407]}, "type": "Feature", "properties": {"collection_times": [{"days": "Mon-Sat", "time": "8:30am"}, {"days": "Sun", "time": "Closed"}], "id": "1366200027", "name": "USPS COLLECTION BOX - BLUE BOX", "address": {"city": "MASSENA", "state": "NY", "street": "89 GROVE ST", "postcode": "13662"}}},
{"geometry": {"type": "Point", "coordinates": [-74.8736318205, 44.9288456371]}, "type": "Feature", "properties": {"collection_times": [{"days": "Mon-Sat", "time": "10:00am"}, {"days": "Sun", "time": "Closed"}], "id": "1366200034", "name": "USPS COLLECTION BOX - BLUE BOX", "address": {"city": "MASSENA", "state": "NY", "street": "30 STEARNS ST", "postcode": "13662"}}},
{"geometry": {"type": "Point", "coordinates": [-74.8760091126, 44.925273135]}, "type": "Feature", "properties": {"collection_times": [{"days": "Mon-Sat", "time": "9:30am"}, {"days": "Sun", "time": "Closed"}], "id": "1366200036", "name": "USPS COLLECTION BOX - BLUE BOX", "address": {"city": "MASSENA", "state": "NY", "street": "49 STEPHENVILLE ST", "postcode": "13662"}}},
{"geometry": {"type": "Point", "coordinates": [-74.8988525057, 44.9415742756]}, "type": "Feature", "properties": {"collection_times": [{"days": "Mon-Sat", "time": "10:00am"}, {"days": "Sun", "time": "Closed"}], "id": "1366200038", "name": "USPS COLLECTION BOX - BLUE BOX", "address": {"city": "MASSENA", "state": "NY", "street": "200 N MAIN ST", "postcode": "13662"}}},
{"geometry": {"type": "Point", "coordinates": [-74.8928288786, 44.9313203872]}, "type": "Feature", "properties": {"collection_times": [{"days": "Mon-Sat", "time": "2:00pm"}, {"days": "Sun", "time": "Closed"}], "id": "1366200039", "name": "USPS COLLECTION BOX - BLUE BOX", "address": {"city": "MASSENA", "state": "NY", "street": "60 MAIN ST", "postcode": "13662"}}},
{"geometry": {"type": "Point", "coordinates": [-74.8922575094, 44.9294418484]}, "type": "Feature", "properties": {"collection_times": [{"days": "Mon-Fri", "time": "5:00pm"}, {"days": "Sat", "time": "4:00pm"}, {"days": "Sun", "time": "Closed"}], "id": "1366200040", "name": "USPS COLLECTION BOX - PO LOBBY", "address": {"city": "MASSENA", "state": "NY", "street": "100 MAIN ST", "postcode": "13662"}}},
{"geometry": {"type": "Point", "coordinates": [-74.8930429942, 44.9320266138]}, "type": "Feature", "properties": {"collection_times": [{"days": "Mon-Sat", "time": "8:30am"}, {"days": "Sun", "time": "Closed"}], "id": "1366200042", "name": "USPS COLLECTION BOX - BLUE BOX", "address": {"city": "MASSENA", "state": "NY", "street": "41 MAIN ST", "postcode": "13662"}}},
{"geometry": {"type": "Point", "coordinates": [-74.8675915372, 44.9304789966]}, "type": "Feature", "properties": {"collection_times": [{"days": "Mon-Sat", "time": "9:30am"}, {"days": "Sun", "time": "Closed"}], "id": "1366200043", "name": "USPS COLLECTION BOX - BLUE BOX", "address": {"city": "MASSENA", "state": "NY", "street": "55 VICTORY RD", "postcode": "13662"}}},
{"geometry": {"type": "Point", "coordinates": [-74.8928372007, 44.9313392899]}, "type": "Feature", "properties": {"collection_times": [{"days": "Mon-Sat", "time": "9:00am"}, {"days": "Sun", "time": "Closed"}], "id": "1366200045", "name": "USPS COLLECTION BOX - BLUE BOX", "address": {"city": "MASSENA", "state": "NY", "street": "71 E HATFIELD ST", "postcode": "13662"}}},
{"geometry": {"type": "Point", "coordinates": [-74.8922090081, 44.929282149]}, "type": "Feature", "properties": {"collection_times": [{"days": "Mon-Fri", "time": "4:30pm"}, {"days": "Sat", "time": "4:00pm"}, {"days": "Sun", "time": "Closed"}], "id": "1366200046", "name": "USPS COLLECTION BOX - BLUE BOX", "address": {"city": "MASSENA", "state": "NY", "street": "113 MAIN ST", "postcode": "13662"}}},
{"geometry": {"type": "Point", "coordinates": [-75.6490732517, 44.5871171831]}, "type": "Feature", "properties": {"collection_times": [{"days": "Mon-Fri", "time": "4:30pm"}, {"days": "Sat", "time": "11:15am"}, {"days": "Sun", "time": "Closed"}], "id": "1366400001", "name": "USPS COLLECTION BOX - BLUE BOX", "address": {"city": "MORRISTOWN", "state": "NY", "street": "306 MAIN ST", "postcode": "13664"}}},
{"geometry": {"type": "Point", "coordinates": [-75.6490732517, 44.5871171831]}, "type": "Feature", "properties": {"collection_times": [{"days": "Mon-Fri", "time": "4:45pm"}, {"days": "Sat", "time": "11:30am"}, {"days": "Sun", "time": "Closed"}], "id": "1366400002", "name": "USPS COLLECTION BOX - PO LOBBY", "address": {"city": "MORRISTOWN", "state": "NY", "street": "306 MAIN ST", "postcode": "13664"}}},
{"geometry": {"type": "Point", "coordinates": [-75.4963284072, 44.06913849]}, "type": "Feature", "properties": {"collection_times": [{"days": "Mon-Fri", "time": "4:30pm"}, {"days": "Sat", "time": "11:30am"}, {"days": "Sun", "time": "Closed"}], "id": "1366500001", "name": "USPS COLLECTION BOX - BLUE BOX", "address": {"city": "NATURAL BRIDGE", "state": "NY", "street": "43889 STATE ROUTE 3", "postcode": "13665"}}},
{"geometry": {"type": "Point", "coordinates": [-75.4963284072, 44.06913849]}, "type": "Feature", "properties": {"collection_times": [{"days": "Mon-Fri", "time": "12:00pm"}, {"days": "Sat", "time": "11:45am"}, {"days": "Sun", "time": "Closed"}], "id": "1366500002", "name": "USPS COLLECTION BOX - PO LOBBY", "address": {"city": "NATURAL BRIDGE", "state": "NY", "street": "43889 STATE ROUTE 3", "postcode": "13665"}}},
{"geometry": {"type": "Point", "coordinates": [-74.9898609103, 44.2111470601]}, "type": "Feature", "properties": {"collection_times": [{"days": "Mon-Fri", "time": "3:45pm"}, {"days": "Sat", "time": "11:45am"}, {"days": "Sun", "time": "Closed"}], "id": "1366600001", "name": "USPS COLLECTION BOX - BLUE BOX", "address": {"city": "NEWTON FALLS", "state": "NY", "street": "926 COUNTY ROUTE 60", "postcode": "13666"}}},
{"geometry": {"type": "Point", "coordinates": [-74.9898296724, 44.2111513927]}, "type": "Feature", "properties": {"collection_times": [{"days": "Mon-Fri", "time": "12:00pm"}, {"days": "Sat", "time": "11:45am"}, {"days": "Sun", "time": "Closed"}], "id": "1366600002", "name": "USPS COLLECTION BOX - PO LOBBY", "address": {"city": "NEWTON FALLS", "state": "NY", "street": "926 COUNTY ROUTE 60", "postcode": "13666"}}},
{"geometry": {"type": "Point", "coordinates": [-74.9830614396, 44.8006814969]}, "type": "Feature", "properties": {"collection_times": [{"days": "Mon-Fri", "time": "4:30pm"}, {"days": "Sat", "time": "11:45am"}, {"days": "Sun", "time": "Closed"}], "id": "1366700002", "name": "USPS COLLECTION BOX - BLUE BOX", "address": {"city": "NORFOLK", "state": "NY", "street": "2 E HIGH ST", "postcode": "13667"}}},
{"geometry": {"type": "Point", "coordinates": [-74.9830614396, 44.8006814969]}, "type": "Feature", "properties": {"collection_times": [{"days": "Mon-Fri", "time": "4:45pm"}, {"days": "Sat", "time": "11:45am"}, {"days": "Sun", "time": "Closed"}], "id": "1366700003", "name": "USPS COLLECTION BOX - PO LOBBY", "address": {"city": "NORFOLK", "state": "NY", "street": "2 E HIGH ST", "postcode": "13667"}}},
{"geometry": {"type": "Point", "coordinates": [-74.9936512882, 44.7494723863]}, "type": "Feature", "properties": {"collection_times": [{"days": "Mon-Fri", "time": "5:00pm"}, {"days": "Sat", "time": "12:00pm"}, {"days": "Sun", "time": "Closed"}], "id": "1366800001", "name": "USPS COLLECTION BOX - BLUE BOX", "address": {"city": "NORWOOD", "state": "NY", "street": "34 S MAIN ST", "postcode": "13668"}}},
{"geometry": {"type": "Point", "coordinates": [-75.0023850743, 44.7456254037]}, "type": "Feature", "properties": {"collection_times": [{"days": "Mon-Sat", "time": "1:30pm"}, {"days": "Sun", "time": "Closed"}], "id": "1366800002", "name": "USPS COLLECTION BOX - BLUE BOX", "address": {"city": "NORWOOD", "state": "NY", "street": "58 SPRING ST", "postcode": "13668"}}},
{"geometry": {"type": "Point", "coordinates": [-74.9936512882, 44.7494723863]}, "type": "Feature", "properties": {"collection_times": [{"days": "Mon-Fri", "time": "4:45pm"}, {"days": "Sat", "time": "12:00pm"}, {"days": "Sun", "time": "Closed"}], "id": "1366800003", "name": "USPS COLLECTION BOX - PO LOBBY", "address": {"city": "NORWOOD", "state": "NY", "street": "34 S MAIN ST", "postcode": "13668"}}},
{"geometry": {"type": "Point", "coordinates": [-75.4911683401, 44.6956844251]}, "type": "Feature", "properties": {"collection_times": [{"days": "Mon-Fri", "time": "5:00pm"}, {"days": "Sat", "time": "3:30pm"}, {"days": "Sun", "time": "Closed"}], "id": "1366900001", "name": "USPS COLLECTION BOX - PO LOBBY", "address": {"city": "OGDENSBURG", "state": "NY", "street": "431 STATE ST", "postcode": "13669"}}},
{"geometry": {"type": "Point", "coordinates": [-75.4911683401, 44.6956844251]}, "type": "Feature", "properties": {"collection_times": [{"days": "Mon-Fri", "time": "5:00pm"}, {"days": "Sat", "time": "3:30pm"}, {"days": "Sun", "time": "Closed"}], "id": "1366900002", "name": "USPS COLLECTION BOX - PO LOBBY", "address": {"city": "OGDENSBURG", "state": "NY", "street": "431 STATE ST", "postcode": "13669"}}},
{"geometry": {"type": "Point", "coordinates": [-75.4911683401, 44.6956844251]}, "type": "Feature", "properties": {"collection_times": [{"days": "Mon-Fri", "time": "5:00pm"}, {"days": "Sat", "time": "3:30pm"}, {"days": "Sun", "time": "Closed"}], "id": "1366900004", "name": "USPS COLLECTION BOX - BLUE BOX", "address": {"city": "OGDENSBURG", "state": "NY", "street": "431 STATE ST", "postcode": "13669"}}},
{"geometry": {"type": "Point", "coordinates": [-75.4911683401, 44.6956844251]}, "type": "Feature", "properties": {"collection_times": [{"days": "Mon-Fri", "time": "5:00pm"}, {"days": "Sat", "time": "3:30pm"}, {"days": "Sun", "time": "Closed"}], "id": "1366900006", "name": "USPS COLLECTION BOX - BLUE BOX", "address": {"city": "OGDENSBURG", "state": "NY", "street": "431 STATE ST", "postcode": "13669"}}},
{"geometry": {"type": "Point", "coordinates": [-75.479785909, 44.6902581923]}, "type": "Feature", "properties": {"collection_times": [{"days": "Mon-Sat", "time": "9:30am"}, {"days": "Sun", "time": "Closed"}], "id": "1366900009", "name": "USPS COLLECTION BOX - BLUE BOX", "address": {"city": "OGDENSBURG", "state": "NY", "street": "701 CANTON ST", "postcode": "13669"}}},
{"geometry": {"type": "Point", "coordinates": [-75.4913197589, 44.6981970299]}, "type": "Feature", "properties": {"collection_times": [{"days": "Mon-Fri", "time": "3:30pm"}, {"days": "Sat", "time": "9:00am"}, {"days": "Sun", "time": "Closed"}], "id": "1366900015", "name": "USPS COLLECTION BOX - BLUE BOX", "address": {"city": "OGDENSBURG", "state": "NY", "street": "402 FORD ST", "postcode": "13669"}}},
{"geometry": {"type": "Point", "coordinates": [-75.479035913, 44.7035700296]}, "type": "Feature", "properties": {"collection_times": [{"days": "Mon-Sat", "time": "10:30am"}, {"days": "Sun", "time": "Closed"}], "id": "1366900017", "name": "USPS COLLECTION BOX - BLUE BOX", "address": {"city": "OGDENSBURG", "state": "NY", "street": "1336 FORD ST", "postcode": "13669"}}},
{"geometry": {"type": "Point", "coordinates": [-75.4576156034, 44.7057713818]}, "type": "Feature", "properties": {"collection_times": [{"days": "Mon-Sat", "time": "10:00am"}, {"days": "Sun", "time": "Closed"}], "id": "1366900019", "name": "USPS COLLECTION BOX - BLUE BOX", "address": {"city": "OGDENSBURG", "state": "NY", "street": "2981 FORD STREET EXT", "postcode": "13669"}}},
{"geometry": {"type": "Point", "coordinates": [-75.4781183782, 44.6994897552]}, "type": "Feature", "properties": {"collection_times": [{"days": "Mon-Sat", "time": "11:00am"}, {"days": "Sun", "time": "Closed"}], "id": "1366900023", "name": "USPS COLLECTION BOX - BLUE BOX", "address": {"city": "OGDENSBURG", "state": "NY", "street": "1111 JAY ST", "postcode": "13669"}}},
{"geometry": {"type": "Point", "coordinates": [-75.4943528657, 44.685741655]}, "type": "Feature", "properties": {"collection_times": [{"days": "Mon-Sat", "time": "10:45am"}, {"days": "Sun", "time": "Closed"}], "id": "1366900035", "name": "USPS COLLECTION BOX - BLUE BOX", "address": {"city": "OGDENSBURG", "state": "NY", "street": "825 NEW YORK AVE", "postcode": "13669"}}},
{"geometry": {"type": "Point", "coordinates": [-75.4993540818, 44.6910246694]}, "type": "Feature", "properties": {"collection_times": [{"days": "Mon-Sat", "time": "2:30pm"}, {"days": "Sun", "time": "Closed"}], "id": "1366900042", "name": "USPS COLLECTION BOX - BLUE BOX", "address": {"city": "OGDENSBURG", "state": "NY", "street": "3 LYON PL", "postcode": "13669"}}},
{"geometry": {"type": "Point", "coordinates": [-75.4947609865, 44.698166273]}, "type": "Feature", "properties": {"collection_times": [{"days": "Mon-Sat", "time": "9:00am"}, {"days": "Sun", "time": "Closed"}], "id": "1366900048", "name": "USPS COLLECTION BOX - BLUE BOX", "address": {"city": "OGDENSBURG", "state": "NY", "street": "202 WASHINGTON ST", "postcode": "13669"}}},
{"geometry": {"type": "Point", "coordinates": [-75.4942203743, 44.6983993159]}, "type": "Feature", "properties": {"collection_times": [{"days": "Mon-Sat", "time": "9:00am"}, {"days": "Sun", "time": "Closed"}], "id": "1366900049", "name": "USPS COLLECTION BOX - BLUE BOX", "address": {"city": "OGDENSBURG", "state": "NY", "street": "232 WASHINGTON ST", "postcode": "13669"}}},
{"geometry": {"type": "Point", "coordinates": [-75.4506254607, 44.716104447]}, "type": "Feature", "properties": {"collection_times": [{"days": "Mon-Fri", "time": "2:30pm"}, {"days": "Sat-Sun", "time": "Closed"}], "id": "1366900052", "name": "USPS COLLECTION BOX - BLUE BOX", "address": {"city": "OGDENSBURG", "state": "NY", "street": "800 PROCTOR AVE", "postcode": "13669"}}},
{"geometry": {"type": "Point", "coordinates": [-75.5025081848, 44.6902179717]}, "type": "Feature", "properties": {"collection_times": [{"days": "Mon-Sat", "time": "1:00pm"}, {"days": "Sun", "time": "Closed"}], "id": "1366900053", "name": "USPS COLLECTION BOX - BLUE BOX", "address": {"city": "OGDENSBURG", "state": "NY", "street": "424 RENSSELAER AVE", "postcode": "13669"}}},
{"geometry": {"type": "Point", "coordinates": [-74.7720854501, 44.5445376273]}, "type": "Feature", "properties": {"collection_times": [{"days": "Mon-Fri", "time": "4:30pm"}, {"days": "Sat", "time": "11:45am"}, {"days": "Sun", "time": "Closed"}], "id": "1367200001", "name": "USPS COLLECTION BOX - BLUE BOX", "address": {"city": "PARISHVILLE", "state": "NY", "street": "1763 STATE HIGHWAY 72", "postcode": "13672"}}},
{"geometry": {"type": "Point", "coordinates": [-74.7720854501, 44.5445376273]}, "type": "Feature", "properties": {"collection_times": [{"days": "Mon-Fri", "time": "12:30pm"}, {"days": "Sat", "time": "11:45am"}, {"days": "Sun", "time": "Closed"}], "id": "1367200002", "name": "USPS COLLECTION BOX - PO LOBBY", "address": {"city": "PARISHVILLE", "state": "NY", "street": "1763 STATE HIGHWAY 72", "postcode": "13672"}}},
{"geometry": {"type": "Point", "coordinates": [-75.7086203303, 44.1462014365]}, "type": "Feature", "properties": {"collection_times": [{"days": "Mon-Fri", "time": "4:15pm"}, {"days": "Sat", "time": "10:45am"}, {"days": "Sun", "time": "Closed"}], "id": "1367300001", "name": "USPS COLLECTION BOX - BLUE BOX", "address": {"city": "PHILADELPHIA", "state": "NY", "street": "2 S MAIN ST", "postcode": "13673"}}},
{"geometry": {"type": "Point", "coordinates": [-75.7108426673, 44.1516024369]}, "type": "Feature", "properties": {"collection_times": [{"days": "Mon-Sat", "time": "12:00pm"}, {"days": "Sun", "time": "Closed"}], "id": "1367300004", "name": "USPS COLLECTION BOX - BLUE BOX", "address": {"city": "PHILADELPHIA", "state": "NY", "street": "300 EAGLE AVE", "postcode": "13673"}}},
{"geometry": {"type": "Point", "coordinates": [-75.7086203303, 44.1462014365]}, "type": "Feature", "properties": {"collection_times": [{"days": "Mon-Fri", "time": "4:30pm"}, {"days": "Sat", "time": "11:00am"}, {"days": "Sun", "time": "Closed"}], "id": "1367300007", "name": "USPS COLLECTION BOX - PO LOBBY", "address": {"city": "PHILADELPHIA", "state": "NY", "street": "2 S MAIN ST", "postcode": "13673"}}},
{"geometry": {"type": "Point", "coordinates": [-75.7063805736, 44.1571826981]}, "type": "Feature", "properties": {"collection_times": [{"days": "Mon-Sat", "time": "10:00am"}, {"days": "Sun", "time": "Closed"}], "id": "1367300008", "name": "USPS COLLECTION BOX - BLUE BOX", "address": {"city": "PHILADELPHIA", "state": "NY", "street": "56 MAIN ST", "postcode": "13673"}}},
{"geometry": {"type": "Point", "coordinates": [-76.0586702142, 43.7349530154]}, "type": "Feature", "properties": {"collection_times": [{"days": "Mon-Fri", "time": "4:30pm"}, {"days": "Sat", "time": "10:30am"}, {"days": "Sun", "time": "Closed"}], "id": "1367400001", "name": "USPS COLLECTION BOX - BLUE BOX", "address": {"city": "PIERREPNT MNR", "state": "NY", "street": "4685 US ROUTE 11", "postcode": "13674"}}},
{"geometry": {"type": "Point", "coordinates": [-76.0586526957, 43.7351118853]}, "type": "Feature", "properties": {"collection_times": [{"days": "Mon-Fri", "time": "12:00pm"}, {"days": "Sat", "time": "10:30am"}, {"days": "Sun", "time": "Closed"}], "id": "1367400002", "name": "USPS COLLECTION BOX - PO LOBBY", "address": {"city": "PIERREPNT MNR", "state": "NY", "street": "4685 US ROUTE 11", "postcode": "13674"}}},
{"geometry": {"type": "Point", "coordinates": [-74.9846809104, 44.6698308569]}, "type": "Feature", "properties": {"collection_times": [{"days": "Mon-Fri", "time": "5:00pm"}, {"days": "Sat", "time": "3:30pm"}, {"days": "Sun", "time": "Closed"}], "id": "1367600002", "name": "USPS COLLECTION BOX - BLUE BOX", "address": {"city": "POTSDAM", "state": "NY", "street": "21 ELM ST", "postcode": "13676"}}},
{"geometry": {"type": "Point", "coordinates": [-74.9868599208, 44.6716123931]}, "type": "Feature", "properties": {"collection_times": [{"days": "Mon-Fri", "time": "3:00pm"}, {"days": "Sat", "time": "10:30am"}, {"days": "Sun", "time": "Closed"}], "id": "1367600006", "name": "USPS COLLECTION BOX - BLUE BOX", "address": {"city": "POTSDAM", "state": "NY", "street": "70 MARKET ST", "postcode": "13676"}}},
{"geometry": {"type": "Point", "coordinates": [-74.9814774575, 44.6768741946]}, "type": "Feature", "properties": {"collection_times": [{"days": "Mon-Sat", "time": "1:00pm"}, {"days": "Sun", "time": "Closed"}], "id": "1367600007", "name": "USPS COLLECTION BOX - BLUE BOX", "address": {"city": "POTSDAM", "state": "NY", "street": "50 LEROY ST", "postcode": "13676"}}},
{"geometry": {"type": "Point", "coordinates": [-74.9845566997, 44.6779554191]}, "type": "Feature", "properties": {"collection_times": [{"days": "Mon-Sat", "time": "9:30am"}, {"days": "Sun", "time": "Closed"}], "id": "1367600008", "name": "USPS COLLECTION BOX - BLUE BOX", "address": {"city": "POTSDAM", "state": "NY", "street": "56 WAVERLY ST", "postcode": "13676"}}},
{"geometry": {"type": "Point", "coordinates": [-74.9869072278, 44.6840206667]}, "type": "Feature", "properties": {"collection_times": [{"days": "Mon-Sat", "time": "11:00am"}, {"days": "Sun", "time": "Closed"}], "id": "1367600009", "name": "USPS COLLECTION BOX - BLUE BOX", "address": {"city": "POTSDAM", "state": "NY", "street": "200 MARKET ST", "postcode": "13676"}}},
{"geometry": {"type": "Point", "coordinates": [-74.9870621274, 44.6840576734]}, "type": "Feature", "properties": {"collection_times": [{"days": "Mon-Sat", "time": "11:15am"}, {"days": "Sun", "time": "Closed"}], "id": "1367600010", "name": "USPS COLLECTION BOX - BLUE BOX", "address": {"city": "POTSDAM", "state": "NY", "street": "201 MARKET ST", "postcode": "13676"}}},
{"geometry": {"type": "Point", "coordinates": [-74.9869261665, 44.6799297776]}, "type": "Feature", "properties": {"collection_times": [{"days": "Mon-Sat", "time": "11:45am"}, {"days": "Sun", "time": "Closed"}], "id": "1367600012", "name": "USPS COLLECTION BOX - BLUE BOX", "address": {"city": "POTSDAM", "state": "NY", "street": "145 MARKET ST", "postcode": "13676"}}},
{"geometry": {"type": "Point", "coordinates": [-74.9868587379, 44.6709179962]}, "type": "Feature", "properties": {"collection_times": [{"days": "Mon-Fri", "time": "3:00pm"}, {"days": "Sat", "time": "10:30am"}, {"days": "Sun", "time": "Closed"}], "id": "1367600013", "name": "USPS COLLECTION BOX - BLUE BOX", "address": {"city": "POTSDAM", "state": "NY", "street": "63 MARKET ST", "postcode": "13676"}}},
{"geometry": {"type": "Point", "coordinates": [-74.98686, 44.66963]}, "type": "Feature", "properties": {"collection_times": [{"days": "Mon-Fri", "time": "3:00pm"}, {"days": "Sat", "time": "10:00am"}, {"days": "Sun", "time": "Closed"}], "id": "1367600014", "name": "USPS COLLECTION BOX - BLUE BOX", "address": {"city": "POTSDAM", "state": "NY", "street": "35 MARKET ST", "postcode": "13676"}}},
{"geometry": {"type": "Point", "coordinates": [-74.9768272712, 44.6613961569]}, "type": "Feature", "properties": {"collection_times": [{"days": "Mon-Sat", "time": "12:30pm"}, {"days": "Sun", "time": "Closed"}], "id": "1367600016", "name": "USPS COLLECTION BOX - BLUE BOX", "address": {"city": "POTSDAM", "state": "NY", "street": "1 BARRINGTON DR", "postcode": "13676"}}},
{"geometry": {"type": "Point", "coordinates": [-74.9830370471, 44.6855971397]}, "type": "Feature", "properties": {"collection_times": [{"days": "Mon-Sat", "time": "9:30am"}, {"days": "Sun", "time": "Closed"}], "id": "1367600020", "name": "USPS COLLECTION BOX - BLUE BOX", "address": {"city": "POTSDAM", "state": "NY", "street": "4 MAYFIELD DR", "postcode": "13676"}}},
{"geometry": {"type": "Point", "coordinates": [-74.9846809104, 44.6698308569]}, "type": "Feature", "properties": {"collection_times": [{"days": "Mon-Fri", "time": "5:45pm"}, {"days": "Sat", "time": "3:45pm"}, {"days": "Sun", "time": "Closed"}], "id": "1367600021", "name": "USPS COLLECTION BOX - PO LOBBY", "address": {"city": "POTSDAM", "state": "NY", "street": "21 ELM ST", "postcode": "13676"}}},
{"geometry": {"type": "Point", "coordinates": [-74.9934111476, 44.6672780315]}, "type": "Feature", "properties": {"collection_times": [{"days": "Mon-Sat", "time": "2:00pm"}, {"days": "Sun", "time": "Closed"}], "id": "1367600022", "name": "USPS COLLECTION BOX - BLUE BOX", "address": {"city": "POTSDAM", "state": "NY", "street": "48 MAPLE ST", "postcode": "13676"}}},
{"geometry": {"type": "Point", "coordinates": [-75.0243056188, 44.6666769748]}, "type": "Feature", "properties": {"collection_times": [{"days": "Mon-Sat", "time": "1:00pm"}, {"days": "Sun", "time": "Closed"}], "id": "1367600023", "name": "USPS COLLECTION BOX - BLUE BOX", "address": {"city": "POTSDAM", "state": "NY", "street": "7494 US RT 11", "postcode": "13676"}}},
{"geometry": {"type": "Point", "coordinates": [-74.9836399065, 44.671010267]}, "type": "Feature", "properties": {"collection_times": [{"days": "Mon-Sat", "time": "9:20am"}, {"days": "Sun", "time": "Closed"}], "id": "1367600024", "name": "USPS COLLECTION BOX - BLUE BOX", "address": {"city": "POTSDAM", "state": "NY", "street": "28 MUNSON ST", "postcode": "13676"}}},
{"geometry": {"type": "Point", "coordinates": [-74.9695638778, 44.6815800054]}, "type": "Feature", "properties": {"collection_times": [{"days": "Mon-Sat", "time": "11:15am"}, {"days": "Sun", "time": "Closed"}], "id": "1367600025", "name": "USPS COLLECTION BOX - BLUE BOX", "address": {"city": "POTSDAM", "state": "NY", "street": "3 DEBRA DR", "postcode": "13676"}}},
{"geometry": {"type": "Point", "coordinates": [-74.9815555328, 44.6835153262]}, "type": "Feature", "properties": {"collection_times": [{"days": "Mon-Sat", "time": "11:00am"}, {"days": "Sun", "time": "Closed"}], "id": "1367600027", "name": "USPS COLLECTION BOX - BLUE BOX", "address": {"city": "POTSDAM", "state": "NY", "street": "118 LEROY ST", "postcode": "13676"}}},
{"geometry": {"type": "Point", "coordinates": [-75.1858478822, 44.5148830025]}, "type": "Feature", "properties": {"collection_times": [{"days": "Mon-Fri", "time": "3:30pm"}, {"days": "Sat", "time": "11:00am"}, {"days": "Sun", "time": "Closed"}], "id": "1367700001", "name": "USPS COLLECTION BOX - BLUE BOX", "address": {"city": "PYRITES", "state": "NY", "street": "169 COUNTY ROUTE 21 EXT", "postcode": "13677"}}},
{"geometry": {"type": "Point", "coordinates": [-74.9776616751, 44.837700986]}, "type": "Feature", "properties": {"collection_times": [{"days": "Mon-Fri", "time": "4:30pm"}, {"days": "Sat", "time": "11:30am"}, {"days": "Sun", "time": "Closed"}], "id": "1367800001", "name": "USPS COLLECTION BOX - BLUE BOX", "address": {"city": "RAYMONDVILLE", "state": "NY", "street": "8766 STATE HIGHWAY 56", "postcode": "13678"}}},
{"geometry": {"type": "Point", "coordinates": [-74.9776616751, 44.837700986]}, "type": "Feature", "properties": {"collection_times": [{"days": "Mon-Fri", "time": "12:30pm"}, {"days": "Sat", "time": "11:45am"}, {"days": "Sun", "time": "Closed"}], "id": "1367800002", "name": "USPS COLLECTION BOX - PO LOBBY", "address": {"city": "RAYMONDVILLE", "state": "NY", "street": "8766 STATE HIGHWAY 56", "postcode": "13678"}}},
{"geometry": {"type": "Point", "coordinates": [-75.8015779555, 44.3011960013]}, "type": "Feature", "properties": {"collection_times": [{"days": "Mon-Fri", "time": "4:00pm"}, {"days": "Sat", "time": "11:00am"}, {"days": "Sun", "time": "Closed"}], "id": "1367900001", "name": "USPS COLLECTION BOX - BLUE BOX", "address": {"city": "REDWOOD", "state": "NY", "street": "43711 STATE ROUTE 37", "postcode": "13679"}}},
{"geometry": {"type": "Point", "coordinates": [-75.8015779555, 44.3011960013]}, "type": "Feature", "properties": {"collection_times": [{"days": "Mon-Fri", "time": "3:00pm"}, {"days": "Sat", "time": "11:00am"}, {"days": "Sun", "time": "Closed"}], "id": "1367900003", "name": "USPS COLLECTION BOX - PO LOBBY", "address": {"city": "REDWOOD", "state": "NY", "street": "43711 STATE ROUTE 37", "postcode": "13679"}}},
{"geometry": {"type": "Point", "coordinates": [-75.3191779362, 44.5902484755]}, "type": "Feature", "properties": {"collection_times": [{"days": "Mon-Fri", "time": "3:30pm"}, {"days": "Sat", "time": "11:30am"}, {"days": "Sun", "time": "Closed"}], "id": "1368000001", "name": "USPS COLLECTION BOX - BLUE BOX", "address": {"city": "RENSSLAER FLS", "state": "NY", "street": "217 RENSSELAER ST", "postcode": "13680"}}},
{"geometry": {"type": "Point", "coordinates": [-75.3191779362, 44.5902484755]}, "type": "Feature", "properties": {"collection_times": [{"days": "Mon-Fri", "time": "12:00pm"}, {"days": "Sat", "time": "11:30am"}, {"days": "Sun", "time": "Closed"}], "id": "1368000002", "name": "USPS COLLECTION BOX - PO LOBBY", "address": {"city": "RENSSLAER FLS", "state": "NY", "street": "217 RENSSELAER ST", "postcode": "13680"}}},
{"geometry": {"type": "Point", "coordinates": [-75.391513511, 44.417438281]}, "type": "Feature", "properties": {"collection_times": [{"days": "Mon-Fri", "time": "4:30pm"}, {"days": "Sat", "time": "11:30am"}, {"days": "Sun", "time": "Closed"}], "id": "1368100001", "name": "USPS COLLECTION BOX - BLUE BOX", "address": {"city": "RICHVILLE", "state": "NY", "street": "160 MAIN ST", "postcode": "13681"}}},
{"geometry": {"type": "Point", "coordinates": [-75.391513511, 44.417438281]}, "type": "Feature", "properties": {"collection_times": [{"days": "Mon-Fri", "time": "12:00pm"}, {"days": "Sat", "time": "11:45am"}, {"days": "Sun", "time": "Closed"}], "id": "1368100002", "name": "USPS COLLECTION BOX - PO LOBBY", "address": {"city": "RICHVILLE", "state": "NY", "street": "160 MAIN ST", "postcode": "13681"}}},
{"geometry": {"type": "Point", "coordinates": [-75.9408796544, 43.8494204237]}, "type": "Feature", "properties": {"collection_times": [{"days": "Mon-Fri", "time": "4:45pm"}, {"days": "Sat", "time": "10:45am"}, {"days": "Sun", "time": "Closed"}], "id": "1368200001", "name": "USPS COLLECTION BOX - BLUE BOX", "address": {"city": "RODMAN", "state": "NY", "street": "12509 SCHOOL ST", "postcode": "13682"}}},
{"geometry": {"type": "Point", "coordinates": [-75.9408796544, 43.8494204237]}, "type": "Feature", "properties": {"collection_times": [{"days": "Mon-Fri", "time": "12:00pm"}, {"days": "Sat", "time": "10:45am"}, {"days": "Sun", "time": "Closed"}], "id": "1368200002", "name": "USPS COLLECTION BOX - PO LOBBY", "address": {"city": "RODMAN", "state": "NY", "street": "12509 SCHOOL ST", "postcode": "13682"}}},
{"geometry": {"type": "Point", "coordinates": [-74.7146928395, 44.9779424122]}, "type": "Feature", "properties": {"collection_times": [{"days": "Mon-Fri", "time": "4:00pm"}, {"days": "Sat", "time": "12:15pm"}, {"days": "Sun", "time": "Closed"}], "id": "1368300001", "name": "USPS COLLECTION BOX - BLUE BOX", "address": {"city": "ROOSEVELTOWN", "state": "NY", "street": "3 COUNTY ROUTE 45", "postcode": "13683"}}},
{"geometry": {"type": "Point", "coordinates": [-74.7146928395, 44.9779424122]}, "type": "Feature", "properties": {"collection_times": [{"days": "Mon-Fri", "time": "4:00pm"}, {"days": "Sat", "time": "11:30am"}, {"days": "Sun", "time": "Closed"}], "id": "1368300002", "name": "USPS COLLECTION BOX - PO LOBBY", "address": {"city": "ROOSEVELTOWN", "state": "NY", "street": "3 COUNTY ROUTE 45", "postcode": "13683"}}},
{"geometry": {"type": "Point", "coordinates": [-75.0613160759, 44.3880012178]}, "type": "Feature", "properties": {"collection_times": [{"days": "Mon-Fri", "time": "3:30pm"}, {"days": "Sat", "time": "11:30am"}, {"days": "Sun", "time": "Closed"}], "id": "1368400001", "name": "USPS COLLECTION BOX - BLUE BOX", "address": {"city": "RUSSELL", "state": "NY", "street": "4 PESTLE ST", "postcode": "13684"}}},
{"geometry": {"type": "Point", "coordinates": [-75.1509271784, 44.4291428569]}, "type": "Feature", "properties": {"collection_times": [{"days": "Mon-Fri", "time": "12:00pm"}, {"days": "Sat", "time": "11:30am"}, {"days": "Sun", "time": "Closed"}], "id": "1368400002", "name": "USPS COLLECTION BOX - PO LOBBY", "address": {"city": "RUSSELL", "state": "NY", "street": "4 PESTLE ST", "postcode": "13684"}}},
{"geometry": {"type": "Point", "coordinates": [-76.1197844534, 43.9467448236]}, "type": "Feature", "properties": {"collection_times": [{"days": "Mon-Fri", "time": "5:00pm"}, {"days": "Sat", "time": "12:00pm"}, {"days": "Sun", "time": "Closed"}], "id": "1368500001", "name": "USPS COLLECTION BOX - BLUE BOX", "address": {"city": "SACKETS HARBOR", "state": "NY", "street": "107 W MAIN ST", "postcode": "13685"}}},
{"geometry": {"type": "Point", "coordinates": [-76.1197844534, 43.9467448236]}, "type": "Feature", "properties": {"collection_times": [{"days": "Mon-Fri", "time": "5:00pm"}, {"days": "Sat", "time": "12:00pm"}, {"days": "Sun", "time": "Closed"}], "id": "1368500002", "name": "USPS COLLECTION BOX - PO LOBBY", "address": {"city": "SACKETS HARBOR", "state": "NY", "street": "107 W MAIN ST", "postcode": "13685"}}},
{"geometry": {"type": "Point", "coordinates": [-76.110925622, 43.9502292476]}, "type": "Feature", "properties": {"collection_times": [{"days": "Mon-Sat", "time": "9:30am"}, {"days": "Sun", "time": "Closed"}], "id": "1368500003", "name": "USPS COLLECTION BOX - BLUE BOX", "address": {"city": "SACKETS HARBOR", "state": "NY", "street": "101 BARRACKS DR", "postcode": "13685"}}},
{"geometry": {"type": "Point", "coordinates": [-74.8889724324, 44.5096948848]}, "type": "Feature", "properties": {"collection_times": [{"days": "Mon-Fri", "time": "3:45pm"}, {"days": "Sat", "time": "11:45am"}, {"days": "Sun", "time": "Closed"}], "id": "1368700001", "name": "USPS COLLECTION BOX - BLUE BOX", "address": {"city": "SOUTH COLTON", "state": "NY", "street": "3935 STATE HIGHWAY 56", "postcode": "13687"}}},
{"geometry": {"type": "Point", "coordinates": [-74.8889724324, 44.5096948848]}, "type": "Feature", "properties": {"collection_times": [{"days": "Mon-Fri", "time": "12:00pm"}, {"days": "Sat", "time": "11:30am"}, {"days": "Sun", "time": "Closed"}], "id": "1368700002", "name": "USPS COLLECTION BOX - PO LOBBY", "address": {"city": "SOUTH COLTON", "state": "NY", "street": "3935 STATE HIGHWAY 56", "postcode": "13687"}}},
{"geometry": {"type": "Point", "coordinates": [-75.047076081, 44.1663966443]}, "type": "Feature", "properties": {"collection_times": [{"days": "Mon-Fri", "time": "4:00pm"}, {"days": "Sat", "time": "11:45am"}, {"days": "Sun", "time": "Closed"}], "id": "1369000001", "name": "USPS COLLECTION BOX - BLUE BOX", "address": {"city": "STAR LAKE", "state": "NY", "street": "4052 STATE HIGHWAY 3", "postcode": "13690"}}},
{"geometry": {"type": "Point", "coordinates": [-75.047076081, 44.1663966443]}, "type": "Feature", "properties": {"collection_times": [{"days": "Mon-Fri", "time": "3:30pm"}, {"days": "Sat", "time": "11:45am"}, {"days": "Sun", "time": "Closed"}], "id": "1369000002", "name": "USPS COLLECTION BOX - PO LOBBY", "address": {"city": "STAR LAKE", "state": "NY", "street": "4052 STATE HIGHWAY 3", "postcode": "13690"}}},
{"geometry": {"type": "Point", "coordinates": [-75.7963516428, 44.2160016625]}, "type": "Feature", "properties": {"collection_times": [{"days": "Mon-Fri", "time": "4:30pm"}, {"days": "Sat", "time": "11:15am"}, {"days": "Sun", "time": "Closed"}], "id": "1369100001", "name": "USPS COLLECTION BOX - BLUE BOX", "address": {"city": "THERESA", "state": "NY", "street": "112 COMMERCIAL ST", "postcode": "13691"}}},
{"geometry": {"type": "Point", "coordinates": [-75.7963516428, 44.2160016625]}, "type": "Feature", "properties": {"collection_times": [{"days": "Mon-Fri", "time": "2:45pm"}, {"days": "Sat", "time": "11:15am"}, {"days": "Sun", "time": "Closed"}], "id": "1369100003", "name": "USPS COLLECTION BOX - PO LOBBY", "address": {"city": "THERESA", "state": "NY", "street": "112 COMMERCIAL ST", "postcode": "13691"}}},
{"geometry": {"type": "Point", "coordinates": [-76.0265477997, 44.2870852882]}, "type": "Feature", "properties": {"collection_times": [{"days": "Mon-Sat", "time": "9:00am"}, {"days": "Sun", "time": "Closed"}], "id": "1369200003", "name": "USPS COLLECTION BOX - BLUE BOX", "address": {"city": "THOUS IS PK", "state": "NY", "street": "42822 ST LAWRENCE AVE", "postcode": "13692"}}},
{"geometry": {"type": "Point", "coordinates": [-76.1983033547, 44.0811336939]}, "type": "Feature", "properties": {"collection_times": [{"days": "Mon-Fri", "time": "4:30pm"}, {"days": "Sat", "time": "11:45am"}, {"days": "Sun", "time": "Closed"}], "id": "1369300001", "name": "USPS COLLECTION BOX - BLUE BOX", "address": {"city": "THREE MILE BAY", "state": "NY", "street": "8685 STATE ROUTE 12E", "postcode": "13693"}}},
{"geometry": {"type": "Point", "coordinates": [-76.1983033547, 44.0811336939]}, "type": "Feature", "properties": {"collection_times": [{"days": "Mon-Fri", "time": "12:00pm"}, {"days": "Sat", "time": "11:45am"}, {"days": "Sun", "time": "Closed"}], "id": "1369300002", "name": "USPS COLLECTION BOX - PO LOBBY", "address": {"city": "THREE MILE BAY", "state": "NY", "street": "8685 STATE ROUTE 12E", "postcode": "13693"}}},
{"geometry": {"type": "Point", "coordinates": [-75.2037081287, 44.8643400677]}, "type": "Feature", "properties": {"collection_times": [{"days": "Mon-Fri", "time": "4:15pm"}, {"days": "Sat", "time": "12:00pm"}, {"days": "Sun", "time": "Closed"}], "id": "1369400001", "name": "USPS COLLECTION BOX - BLUE BOX", "address": {"city": "WADDINGTON", "state": "NY", "street": "23 MAIN ST", "postcode": "13694"}}},
{"geometry": {"type": "Point", "coordinates": [-75.2037081287, 44.8643400677]}, "type": "Feature", "properties": {"collection_times": [{"days": "Mon-Fri", "time": "4:15pm"}, {"days": "Sat", "time": "12:00pm"}, {"days": "Sun", "time": "Closed"}], "id": "1369400002", "name": "USPS COLLECTION BOX - PO LOBBY", "address": {"city": "WADDINGTON", "state": "NY", "street": "23 MAIN ST", "postcode": "13694"}}},
{"geometry": {"type": "Point", "coordinates": [-74.9222088475, 44.133481994]}, "type": "Feature", "properties": {"collection_times": [{"days": "Mon-Fri", "time": "3:30pm"}, {"days": "Sat", "time": "11:30am"}, {"days": "Sun", "time": "Closed"}], "id": "1369500001", "name": "USPS COLLECTION BOX - BLUE BOX", "address": {"city": "WANAKENA", "state": "NY", "street": "6 HAMELE ST", "postcode": "13695"}}},
{"geometry": {"type": "Point", "coordinates": [-74.9219779761, 44.1336167184]}, "type": "Feature", "properties": {"collection_times": [{"days": "Mon-Fri", "time": "12:00pm"}, {"days": "Sat", "time": "11:30am"}, {"days": "Sun", "time": "Closed"}], "id": "1369500002", "name": "USPS COLLECTION BOX - PO LOBBY", "address": {"city": "WANAKENA", "state": "NY", "street": "6 HAMELE ST", "postcode": "13695"}}},
{"geometry": {"type": "Point", "coordinates": [-74.9141412188, 44.7367044834]}, "type": "Feature", "properties": {"collection_times": [{"days": "Mon-Fri", "time": "1:30pm"}, {"days": "Sat", "time": "11:45am"}, {"days": "Sun", "time": "Closed"}], "id": "1369600001", "name": "USPS COLLECTION BOX - PO LOBBY", "address": {"city": "WEST STOCKHOLM", "state": "NY", "street": "9 LIVINGSTON RD", "postcode": "13696"}}},
{"geometry": {"type": "Point", "coordinates": [-74.9141412188, 44.7367044834]}, "type": "Feature", "properties": {"collection_times": [{"days": "Mon-Fri", "time": "4:30pm"}, {"days": "Sat", "time": "11:30am"}, {"days": "Sun", "time": "Closed"}], "id": "1369600002", "name": "USPS COLLECTION BOX - BLUE BOX", "address": {"city": "WEST STOCKHOLM", "state": "NY", "street": "9 LIVINGSTON RD", "postcode": "13696"}}},
{"geometry": {"type": "Point", "coordinates": [-74.7869505024, 44.7947347622]}, "type": "Feature", "properties": {"collection_times": [{"days": "Mon-Fri", "time": "4:00pm"}, {"days": "Sat", "time": "11:30am"}, {"days": "Sun", "time": "Closed"}], "id": "1369700001", "name": "USPS COLLECTION BOX - BLUE BOX", "address": {"city": "WINTHROP", "state": "NY", "street": "656 STATE HIGHWAY 11C", "postcode": "13697"}}},
{"geometry": {"type": "Point", "coordinates": [-74.7870572986, 44.7945874613]}, "type": "Feature", "properties": {"collection_times": [{"days": "Mon-Fri", "time": "4:00pm"}, {"days": "Sat", "time": "11:30am"}, {"days": "Sun", "time": "Closed"}], "id": "1369700002", "name": "USPS COLLECTION BOX - PO LOBBY", "address": {"city": "WINTHROP", "state": "NY", "street": "656 STATE HIGHWAY 11C", "postcode": "13697"}}}
]}
