{"type": "FeatureCollection", "features": [
{"geometry": {"type": "Point", "coordinates": [-75.5285288638, 42.2243464127]}, "type": "Feature", "properties": {"collection_times": [{"days": "Mon-Fri", "time": "4:15pm"}, {"days": "Sat", "time": "12:00pm"}, {"days": "Sun", "time": "Closed"}], "id": "1373000001", "name": "USPS COLLECTION BOX - BLUE BOX", "address": {"city": "AFTON", "state": "NY", "street": "89 MAIN ST", "postcode": "13730"}}},
{"geometry": {"type": "Point", "coordinates": [-75.5263902981, 42.228007497]}, "type": "Feature", "properties": {"collection_times": [{"days": "Mon-Fri", "time": "1:15pm"}, {"days": "Sat", "time": "12:00pm"}, {"days": "Sun", "time": "Closed"}], "id": "1373000002", "name": "USPS COLLECTION BOX - BLUE BOX", "address": {"city": "AFTON", "state": "NY", "street": "169 MAIN ST", "postcode": "13730"}}},
{"geometry": {"type": "Point", "coordinates": [-75.5285288638, 42.2243464127]}, "type": "Feature", "properties": {"collection_times": [{"days": "Mon-Fri", "time": "4:15pm"}, {"days": "Sat", "time": "12:00pm"}, {"days": "Sun", "time": "Closed"}], "id": "1373000003", "name": "USPS COLLECTION BOX - PO LOBBY", "address": {"city": "AFTON", "state": "NY", "street": "89 MAIN ST", "postcode": "13730"}}},
{"geometry": {"type": "Point", "coordinates": [-75.5285288638, 42.2243464127]}, "type": "Feature", "properties": {"collection_times": [{"days": "Mon-Fri", "time": "4:15pm"}, {"days": "Sat", "time": "12:00pm"}, {"days": "Sun", "time": "Closed"}], "id": "1373000004", "name": "USPS COLLECTION BOX - PO LOBBY", "address": {"city": "AFTON", "state": "NY", "street": "89 MAIN ST", "postcode": "13730"}}},
{"geometry": {"type": "Point", "coordinates": [-74.787843175, 42.1858062625]}, "type": "Feature", "properties": {"collection_times": [{"days": "Mon-Fri", "time": "4:15pm"}, {"days": "Sat", "time": "10:45am"}, {"days": "Sun", "time": "Closed"}], "id": "1373100001", "name": "USPS COLLECTION BOX - BLUE BOX", "address": {"city": "ANDES", "state": "NY", "street": "204 LOWER MAIN ST", "postcode": "13731"}}},
{"geometry": {"type": "Point", "coordinates": [-74.787843175, 42.1858062625]}, "type": "Feature", "properties": {"collection_times": [{"days": "Mon-Fri", "time": "4:45pm"}, {"days": "Sat", "time": "11:00am"}, {"days": "Sun", "time": "Closed"}], "id": "1373100002", "name": "USPS COLLECTION BOX - PO LOBBY", "address": {"city": "ANDES", "state": "NY", "street": "204 LOWER MAIN ST", "postcode": "13731"}}},
{"geometry": {"type": "Point", "coordinates": [-76.1587973743, 42.0796518449]}, "type": "Feature", "properties": {"collection_times": [{"days": "Mon-Fri", "time": "5:00pm"}, {"days": "Sat", "time": "12:00pm"}, {"days": "Sun", "time": "Closed"}], "id": "1373200001", "name": "USPS COLLECTION BOX - BLUE BOX", "address": {"city": "APALACHIN", "state": "NY", "street": "6100 STATE ROUTE 434", "postcode": "13732"}}},
{"geometry": {"type": "Point", "coordinates": [-76.1219948691, 42.0618314941]}, "type": "Feature", "properties": {"collection_times": [{"days": "Mon-Sat", "time": "10:30am"}, {"days": "Sun", "time": "Closed"}], "id": "1373200005", "name": "USPS COLLECTION BOX - BLUE BOX", "address": {"city": "APALACHIN", "state": "NY", "street": "8806 STATE ROUTE 434", "postcode": "13732"}}},
{"geometry": {"type": "Point", "coordinates": [-76.1587973743, 42.0796518449]}, "type": "Feature", "properties": {"collection_times": [{"days": "Mon-Fri", "time": "5:00pm"}, {"days": "Sat", "time": "12:00pm"}, {"days": "Sun", "time": "Closed"}], "id": "1373200006", "name": "USPS COLLECTION BOX - PO LOBBY", "address": {"city": "APALACHIN", "state": "NY", "street": "6100 STATE ROUTE 434", "postcode": "13732"}}},
{"geometry": {"type": "Point", "coordinates": [-75.4777133649, 42.2924879092]}, "type": "Feature", "properties": {"collection_times": [{"days": "Mon-Fri", "time": "4:30pm"}, {"days": "Sat", "time": "11:45am"}, {"days": "Sun", "time": "Closed"}], "id": "1373300001", "name": "USPS COLLECTION BOX - BLUE BOX", "address": {"city": "BAINBRIDGE", "state": "NY", "street": "17 E MAIN ST", "postcode": "13733"}}},
{"geometry": {"type": "Point", "coordinates": [-75.4777133649, 42.2924879092]}, "type": "Feature", "properties": {"collection_times": [{"days": "Mon-Fri", "time": "4:30pm"}, {"days": "Sat", "time": "11:45am"}, {"days": "Sun", "time": "Closed"}], "id": "1373300003", "name": "USPS COLLECTION BOX - PO LOBBY", "address": {"city": "BAINBRIDGE", "state": "NY", "street": "17 E MAIN ST", "postcode": "13733"}}},
{"geometry": {"type": "Point", "coordinates": [-75.4820675381, 42.2914599643]}, "type": "Feature", "properties": {"collection_times": [{"days": "Mon-Fri", "time": "3:00pm"}, {"days": "Sat", "time": "1:00pm"}, {"days": "Sun", "time": "Closed"}], "id": "1373300008", "name": "USPS COLLECTION BOX - BLUE BOX", "address": {"city": "BAINBRIDGE", "state": "NY", "street": "40 S MAIN ST", "postcode": "13733"}}},
{"geometry": {"type": "Point", "coordinates": [-75.4818217814, 42.2915640183]}, "type": "Feature", "properties": {"collection_times": [{"days": "Mon-Fri", "time": "3:00pm"}, {"days": "Sat", "time": "1:00pm"}, {"days": "Sun", "time": "Closed"}], "id": "1373300009", "name": "USPS COLLECTION BOX - BLUE BOX", "address": {"city": "BAINBRIDGE", "state": "NY", "street": "19 N MAIN ST", "postcode": "13733"}}},
{"geometry": {"type": "Point", "coordinates": [-76.1859566343, 42.2940196887]}, "type": "Feature", "properties": {"collection_times": [{"days": "Mon-Fri", "time": "4:35pm"}, {"days": "Sat", "time": "11:00am"}, {"days": "Sun", "time": "Closed"}], "id": "1373600001", "name": "USPS COLLECTION BOX - BLUE BOX", "address": {"city": "BERKSHIRE", "state": "NY", "street": "12324 STATE ROUTE 38", "postcode": "13736"}}},
{"geometry": {"type": "Point", "coordinates": [-76.1857880034, 42.2938888316]}, "type": "Feature", "properties": {"collection_times": [{"days": "Mon-Fri", "time": "3:00pm"}, {"days": "Sat", "time": "11:00am"}, {"days": "Sun", "time": "Closed"}], "id": "1373600003", "name": "USPS COLLECTION BOX - PO LOBBY", "address": {"city": "BERKSHIRE", "state": "NY", "street": "12324 STATE ROUTE 38", "postcode": "13736"}}},
{"geometry": {"type": "Point", "coordinates": [-76.0238666646, 42.1087551682]}, "type": "Feature", "properties": {"collection_times": [{"days": "Mon-Fri", "time": "4:30pm"}, {"days": "Sat", "time": "11:45am"}, {"days": "Sun", "time": "Closed"}], "id": "1373700001", "name": "USPS COLLECTION BOX - BLUE BOX", "address": {"city": "BIBLE SCH PK", "state": "NY", "street": "400 RIVERSIDE DR", "postcode": "13737"}}},
{"geometry": {"type": "Point", "coordinates": [-75.9614382011, 42.1019668214]}, "type": "Feature", "properties": {"collection_times": [{"days": "Mon-Fri", "time": "4:30pm"}, {"days": "Sat", "time": "12:00pm"}, {"days": "Sun", "time": "Closed"}], "id": "1373700002", "name": "USPS COLLECTION BOX - PO LOBBY", "address": {"city": "BIBLE SCH PK", "state": "NY", "street": "400 RIVERSIDE DR", "postcode": "13737"}}},
{"geometry": {"type": "Point", "coordinates": [-76.1256232872, 42.5682171502]}, "type": "Feature", "properties": {"collection_times": [{"days": "Mon-Fri", "time": "4:30pm"}, {"days": "Sat", "time": "11:45am"}, {"days": "Sun", "time": "Closed"}], "id": "1373800001", "name": "USPS COLLECTION BOX - BLUE BOX", "address": {"city": "BLODGETT MILLS", "state": "NY", "street": "2320 BLODGETT MILLS RD", "postcode": "13738"}}},
{"geometry": {"type": "Point", "coordinates": [-76.1256232872, 42.5682171502]}, "type": "Feature", "properties": {"collection_times": [{"days": "Mon-Fri", "time": "4:30pm"}, {"days": "Sat", "time": "11:45am"}, {"days": "Sun", "time": "Closed"}], "id": "1373800002", "name": "USPS COLLECTION BOX - PO LOBBY", "address": {"city": "BLODGETT MILLS", "state": "NY", "street": "2320 BLODGETT MILLS RD", "postcode": "13738"}}},
{"geometry": {"type": "Point", "coordinates": [-74.8075477922, 42.3330626175]}, "type": "Feature", "properties": {"collection_times": [{"days": "Mon-Fri", "time": "12:30pm"}, {"days": "Sat", "time": "11:45am"}, {"days": "Sun", "time": "Closed"}], "id": "1373900001", "name": "USPS COLLECTION BOX - PO LOBBY", "address": {"city": "BLOOMVILLE", "state": "NY", "street": "51948 STATE HIGHWAY 10", "postcode": "13739"}}},
{"geometry": {"type": "Point", "coordinates": [-74.8075477922, 42.3330626175]}, "type": "Feature", "properties": {"collection_times": [{"days": "Mon-Fri", "time": "4:45pm"}, {"days": "Sat", "time": "11:45am"}, {"days": "Sun", "time": "Closed"}], "id": "1373900004", "name": "USPS COLLECTION BOX - BLUE BOX", "address": {"city": "BLOOMVILLE", "state": "NY", "street": "51948 STATE HIGHWAY 10", "postcode": "13739"}}},
{"geometry": {"type": "Point", "coordinates": [-76.337820309, 42.2277806628]}, "type": "Feature", "properties": {"collection_times": [{"days": "Mon-Fri", "time": "4:45pm"}, {"days": "Sat", "time": "12:00pm"}, {"days": "Sun", "time": "Closed"}], "id": "1374300001", "name": "USPS COLLECTION BOX - BLUE BOX", "address": {"city": "CANDOR", "state": "NY", "street": "62 MAIN ST", "postcode": "13743"}}},
{"geometry": {"type": "Point", "coordinates": [-76.337820309, 42.2277806628]}, "type": "Feature", "properties": {"collection_times": [{"days": "Mon-Fri", "time": "5:00pm"}, {"days": "Sat", "time": "12:00pm"}, {"days": "Sun", "time": "Closed"}], "id": "1374300002", "name": "USPS COLLECTION BOX - PO LOBBY", "address": {"city": "CANDOR", "state": "NY", "street": "62 MAIN ST", "postcode": "13743"}}},
{"geometry": {"type": "Point", "coordinates": [-76.337820309, 42.2277806628]}, "type": "Feature", "properties": {"collection_times": [{"days": "Mon-Fri", "time": "5:00pm"}, {"days": "Sat", "time": "12:00pm"}, {"days": "Sun", "time": "Closed"}], "id": "1374300007", "name": "USPS COLLECTION BOX - PO LOBBY", "address": {"city": "CANDOR", "state": "NY", "street": "62 MAIN ST", "postcode": "13743"}}},
{"geometry": {"type": "Point", "coordinates": [-75.9181490978, 42.2274819482]}, "type": "Feature", "properties": {"collection_times": [{"days": "Mon-Fri", "time": "4:30pm"}, {"days": "Sat", "time": "11:15am"}, {"days": "Sun", "time": "Closed"}], "id": "1374400001", "name": "USPS COLLECTION BOX - BLUE BOX", "address": {"city": "CASTLE CREEK", "state": "NY", "street": "1094 CASTLE CREEK RD", "postcode": "13744"}}},
{"geometry": {"type": "Point", "coordinates": [-75.918022798, 42.2273529963]}, "type": "Feature", "properties": {"collection_times": [{"days": "Mon-Fri", "time": "12:00pm"}, {"days": "Sat", "time": "11:30am"}, {"days": "Sun", "time": "Closed"}], "id": "1374400002", "name": "USPS COLLECTION BOX - PO LOBBY", "address": {"city": "CASTLE CREEK", "state": "NY", "street": "1094 CASTLE CREEK RD", "postcode": "13744"}}},
{"geometry": {"type": "Point", "coordinates": [-75.8746870798, 42.1689026809]}, "type": "Feature", "properties": {"collection_times": [{"days": "Mon-Fri", "time": "4:00pm"}, {"days": "Sat", "time": "12:00pm"}, {"days": "Sun", "time": "Closed"}], "id": "1374500001", "name": "USPS COLLECTION BOX - PO LOBBY", "address": {"city": "CHENANGO BRIDGE", "state": "NY", "street": "511 MAIN ST", "postcode": "13745"}}},
{"geometry": {"type": "Point", "coordinates": [-75.8746870798, 42.1689026809]}, "type": "Feature", "properties": {"collection_times": [{"days": "Mon-Fri", "time": "4:00pm"}, {"days": "Sat", "time": "12:00pm"}, {"days": "Sun", "time": "Closed"}], "id": "1374500002", "name": "USPS COLLECTION BOX - BLUE BOX", "address": {"city": "CHENANGO BRIDGE", "state": "NY", "street": "511 MAIN ST", "postcode": "13745"}}},
{"geometry": {"type": "Point", "coordinates": [-75.8746870798, 42.1689026809]}, "type": "Feature", "properties": {"collection_times": [{"days": "Mon-Fri", "time": "4:00pm"}, {"days": "Sat", "time": "12:00pm"}, {"days": "Sun", "time": "Closed"}], "id": "1374500003", "name": "USPS COLLECTION BOX - BLUE BOX", "address": {"city": "CHENANGO BRIDGE", "state": "NY", "street": "511 MAIN ST", "postcode": "13745"}}},
{"geometry": {"type": "Point", "coordinates": [-75.8459980647, 42.2399538845]}, "type": "Feature", "properties": {"collection_times": [{"days": "Mon-Fri", "time": "4:00pm"}, {"days": "Sat", "time": "10:30am"}, {"days": "Sun", "time": "Closed"}], "id": "1374600001", "name": "USPS COLLECTION BOX - BLUE BOX", "address": {"city": "CHENANGO FORKS", "state": "NY", "street": "6554 NY RT 79", "postcode": "13746"}}},
{"geometry": {"type": "Point", "coordinates": [-75.7671862234, 42.2699474902]}, "type": "Feature", "properties": {"collection_times": [{"days": "Mon-Sat", "time": "11:30am"}, {"days": "Sun", "time": "Closed"}], "id": "1374600002", "name": "USPS COLLECTION BOX - BLUE BOX", "address": {"city": "CHENANGO FORKS", "state": "NY", "street": "895 STATE ROUTE 369", "postcode": "13746"}}},
{"geometry": {"type": "Point", "coordinates": [-75.8459980647, 42.2399538845]}, "type": "Feature", "properties": {"collection_times": [{"days": "Mon-Fri", "time": "4:15pm"}, {"days": "Sat", "time": "10:30am"}, {"days": "Sun", "time": "Closed"}], "id": "1374600003", "name": "USPS COLLECTION BOX - PO LOBBY", "address": {"city": "CHENANGO FORKS", "state": "NY", "street": "6554 STATE ROUTE 79", "postcode": "13746"}}},
{"geometry": {"type": "Point", "coordinates": [-74.9824997714, 42.4907970187]}, "type": "Feature", "properties": {"collection_times": [{"days": "Mon-Fri", "time": "4:15pm"}, {"days": "Sat", "time": "11:15am"}, {"days": "Sun", "time": "Closed"}], "id": "1374700001", "name": "USPS COLLECTION BOX - BLUE BOX", "address": {"city": "COLLIERSVILLE", "state": "NY", "street": "6173 STATE HIGHWAY 7", "postcode": "13747"}}},
{"geometry": {"type": "Point", "coordinates": [-74.9736891602, 42.4904305916]}, "type": "Feature", "properties": {"collection_times": [{"days": "Mon-Fri", "time": "1:00pm"}, {"days": "Sat", "time": "11:30am"}, {"days": "Sun", "time": "Closed"}], "id": "1374700002", "name": "USPS COLLECTION BOX - PO LOBBY", "address": {"city": "COLLIERSVILLE", "state": "NY", "street": "6173 STATE HIGHWAY 7", "postcode": "13747"}}},
{"geometry": {"type": "Point", "coordinates": [-75.8154976074, 42.0713280535]}, "type": "Feature", "properties": {"collection_times": [{"days": "Mon-Fri", "time": "4:30pm"}, {"days": "Sat", "time": "12:00pm"}, {"days": "Sun", "time": "Closed"}], "id": "1374800001", "name": "USPS COLLECTION BOX - BLUE BOX", "address": {"city": "CONKLIN", "state": "NY", "street": "1101 CONKLIN RD", "postcode": "13748"}}},
{"geometry": {"type": "Point", "coordinates": [-75.8154976074, 42.0713280535]}, "type": "Feature", "properties": {"collection_times": [{"days": "Mon-Fri", "time": "4:30pm"}, {"days": "Sat", "time": "12:00pm"}, {"days": "Sun", "time": "Closed"}], "id": "1374800002", "name": "USPS COLLECTION BOX - PO LOBBY", "address": {"city": "CONKLIN", "state": "NY", "street": "1101 CONKLIN RD", "postcode": "13748"}}},
{"geometry": {"type": "Point", "coordinates": [-75.7798084775, 42.0204903201]}, "type": "Feature", "properties": {"collection_times": [{"days": "Mon-Fri", "time": "4:30pm"}, {"days": "Sat", "time": "11:30am"}, {"days": "Sun", "time": "Closed"}], "id": "1374900001", "name": "USPS COLLECTION BOX - BLUE BOX", "address": {"city": "CORBETTSVILLE", "state": "NY", "street": "10 CORBETTSVILLE RD", "postcode": "13749"}}},
{"geometry": {"type": "Point", "coordinates": [-75.7798084775, 42.0204903201]}, "type": "Feature", "properties": {"collection_times": [{"days": "Mon-Fri", "time": "4:30pm"}, {"days": "Sat", "time": "11:30am"}, {"days": "Sun", "time": "Closed"}], "id": "1374900002", "name": "USPS COLLECTION BOX - PO LOBBY", "address": {"city": "CORBETTSVILLE", "state": "NY", "street": "10 CORBETTSVILLE RD", "postcode": "13749"}}},
{"geometry": {"type": "Point", "coordinates": [-74.8472216931, 42.4701898465]}, "type": "Feature", "properties": {"collection_times": [{"days": "Mon-Fri", "time": "4:30pm"}, {"days": "Sat", "time": "11:45am"}, {"days": "Sun", "time": "Closed"}], "id": "1375000001", "name": "USPS COLLECTION BOX - BLUE BOX", "address": {"city": "DAVENPORT", "state": "NY", "street": "15682 STATE ROUTE 23", "postcode": "13750"}}},
{"geometry": {"type": "Point", "coordinates": [-74.848508529, 42.469553606]}, "type": "Feature", "properties": {"collection_times": [{"days": "Mon-Fri", "time": "3:30pm"}, {"days": "Sat", "time": "11:45am"}, {"days": "Sun", "time": "Closed"}], "id": "1375000002", "name": "USPS COLLECTION BOX - PO LOBBY", "address": {"city": "DAVENPORT", "state": "NY", "street": "15682 STATE HIGHWAY 23", "postcode": "13750"}}},
{"geometry": {"type": "Point", "coordinates": [-74.9175211371, 42.2779169469]}, "type": "Feature", "properties": {"collection_times": [{"days": "Mon-Fri", "time": "5:00pm"}, {"days": "Sat", "time": "12:00pm"}, {"days": "Sun", "time": "Closed"}], "id": "1375300001", "name": "USPS COLLECTION BOX - BLUE BOX", "address": {"city": "DELHI", "state": "NY", "street": "8 COURT ST", "postcode": "13753"}}},
{"geometry": {"type": "Point", "coordinates": [-74.9175211371, 42.2779169469]}, "type": "Feature", "properties": {"collection_times": [{"days": "Mon-Fri", "time": "5:00pm"}, {"days": "Sat", "time": "12:00pm"}, {"days": "Sun", "time": "Closed"}], "id": "1375300002", "name": "USPS COLLECTION BOX - BLUE BOX", "address": {"city": "DELHI", "state": "NY", "street": "8 COURT ST", "postcode": "13753"}}},
{"geometry": {"type": "Point", "coordinates": [-74.9175211371, 42.2779169469]}, "type": "Feature", "properties": {"collection_times": [{"days": "Mon-Fri", "time": "5:00pm"}, {"days": "Sat", "time": "12:00pm"}, {"days": "Sun", "time": "Closed"}], "id": "1375300003", "name": "USPS COLLECTION BOX - PO LOBBY", "address": {"city": "DELHI", "state": "NY", "street": "8 COURT ST", "postcode": "13753"}}},
{"geometry": {"type": "Point", "coordinates": [-74.9176639191, 42.2767498232]}, "type": "Feature", "properties": {"collection_times": [{"days": "Mon-Sat", "time": "2:30pm"}, {"days": "Sun", "time": "Closed"}], "id": "1375300004", "name": "USPS COLLECTION BOX - BLUE BOX", "address": {"city": "DELHI", "state": "NY", "street": "90 MAIN ST", "postcode": "13753"}}},
{"geometry": {"type": "Point", "coordinates": [-74.916052729, 42.2779871982]}, "type": "Feature", "properties": {"collection_times": [{"days": "Mon-Fri", "time": "1:30pm"}, {"days": "Sat", "time": "10:00am"}, {"days": "Sun", "time": "Closed"}], "id": "1375300005", "name": "USPS COLLECTION BOX - BLUE BOX", "address": {"city": "DELHI", "state": "NY", "street": "124 MAIN ST", "postcode": "13753"}}},
{"geometry": {"type": "Point", "coordinates": [-74.9196063377, 42.2753290894]}, "type": "Feature", "properties": {"collection_times": [{"days": "Mon-Fri", "time": "2:30pm"}, {"days": "Sat", "time": "10:00am"}, {"days": "Sun", "time": "Closed"}], "id": "1375300006", "name": "USPS COLLECTION BOX - BLUE BOX", "address": {"city": "DELHI", "state": "NY", "street": "47 MAIN ST", "postcode": "13753"}}},
{"geometry": {"type": "Point", "coordinates": [-74.9225902607, 42.267731716]}, "type": "Feature", "properties": {"collection_times": [{"days": "Mon-Sat", "time": "10:00am"}, {"days": "Sun", "time": "Closed"}], "id": "1375300007", "name": "USPS COLLECTION BOX - BLUE BOX", "address": {"city": "DELHI", "state": "NY", "street": "3 MAIN ST", "postcode": "13753"}}},
{"geometry": {"type": "Point", "coordinates": [-74.927778772, 42.297396479]}, "type": "Feature", "properties": {"collection_times": [{"days": "Mon-Fri", "time": "10:00am"}, {"days": "Sat-Sun", "time": "Closed"}], "id": "1375300009", "name": "USPS COLLECTION BOX - BLUE BOX", "address": {"city": "DELHI", "state": "NY", "street": "649 BRONCO DR", "postcode": "13753"}}},
{"geometry": {"type": "Point", "coordinates": [-74.9175211371, 42.2779169469]}, "type": "Feature", "properties": {"collection_times": [{"days": "Mon-Fri", "time": "5:00pm"}, {"days": "Sat", "time": "12:00pm"}, {"days": "Sun", "time": "Closed"}], "id": "1375300015", "name": "USPS COLLECTION BOX - PO LOBBY", "address": {"city": "DELHI", "state": "NY", "street": "8 COURT ST", "postcode": "13753"}}},
{"geometry": {"type": "Point", "coordinates": [-75.4243832088, 42.0616949811]}, "type": "Feature", "properties": {"collection_times": [{"days": "Mon-Fri", "time": "5:00pm"}, {"days": "Sat", "time": "2:30pm"}, {"days": "Sun", "time": "Closed"}], "id": "1375400001", "name": "USPS COLLECTION BOX - BLUE BOX", "address": {"city": "DEPOSIT", "state": "NY", "street": "8 DEAN ST", "postcode": "13754"}}},
{"geometry": {"type": "Point", "coordinates": [-75.4243832088, 42.0616949811]}, "type": "Feature", "properties": {"collection_times": [{"days": "Mon-Fri", "time": "5:00pm"}, {"days": "Sat", "time": "2:30pm"}, {"days": "Sun", "time": "Closed"}], "id": "1375400002", "name": "USPS COLLECTION BOX - PO LOBBY", "address": {"city": "DEPOSIT", "state": "NY", "street": "8 DEAN ST", "postcode": "13754"}}},
{"geometry": {"type": "Point", "coordinates": [-75.4145465745, 42.0684714456]}, "type": "Feature", "properties": {"collection_times": [{"days": "Mon-Sat", "time": "9:00am"}, {"days": "Sun", "time": "Closed"}], "id": "1375400005", "name": "USPS COLLECTION BOX - BLUE BOX", "address": {"city": "DEPOSIT", "state": "NY", "street": "85 FAIR ST", "postcode": "13754"}}},
{"geometry": {"type": "Point", "coordinates": [-75.4273039345, 42.0602990895]}, "type": "Feature", "properties": {"collection_times": [{"days": "Mon-Fri", "time": "2:30pm"}, {"days": "Sat", "time": "2:15pm"}, {"days": "Sun", "time": "Closed"}], "id": "1375400009", "name": "USPS COLLECTION BOX - BLUE BOX", "address": {"city": "DEPOSIT", "state": "NY", "street": "105 FRONT ST", "postcode": "13754"}}},
{"geometry": {"type": "Point", "coordinates": [-74.9965793688, 42.0803940746]}, "type": "Feature", "properties": {"collection_times": [{"days": "Mon-Fri", "time": "4:30pm"}, {"days": "Sat", "time": "11:30am"}, {"days": "Sun", "time": "Closed"}], "id": "1375500001", "name": "USPS COLLECTION BOX - BLUE BOX", "address": {"city": "DOWNSVILLE", "state": "NY", "street": "15126 STATE HIGHWAY 30", "postcode": "13755"}}},
{"geometry": {"type": "Point", "coordinates": [-74.9965793688, 42.0803940746]}, "type": "Feature", "properties": {"collection_times": [{"days": "Mon-Fri", "time": "4:45pm"}, {"days": "Sat", "time": "11:45am"}, {"days": "Sun", "time": "Closed"}], "id": "1375500002", "name": "USPS COLLECTION BOX - PO LOBBY", "address": {"city": "DOWNSVILLE", "state": "NY", "street": "15126 STATE HIGHWAY 30", "postcode": "13755"}}},
{"geometry": {"type": "Point", "coordinates": [-75.1222464411, 42.017027867]}, "type": "Feature", "properties": {"collection_times": [{"days": "Mon-Fri", "time": "4:45pm"}, {"days": "Sat", "time": "11:45am"}, {"days": "Sun", "time": "Closed"}], "id": "1375600001", "name": "USPS COLLECTION BOX - BLUE BOX", "address": {"city": "EAST BRANCH", "state": "NY", "street": "3979 O & W RD", "postcode": "13756"}}},
{"geometry": {"type": "Point", "coordinates": [-75.1222464411, 42.017027867]}, "type": "Feature", "properties": {"collection_times": [{"days": "Mon-Fri", "time": "12:00pm"}, {"days": "Sat", "time": "11:45am"}, {"days": "Sun", "time": "Closed"}], "id": "1375600002", "name": "USPS COLLECTION BOX - PO LOBBY", "address": {"city": "EAST BRANCH", "state": "NY", "street": "3979 O & W RD", "postcode": "13756"}}},
{"geometry": {"type": "Point", "coordinates": [-74.8849271062, 42.4234001256]}, "type": "Feature", "properties": {"collection_times": [{"days": "Mon-Fri", "time": "4:30pm"}, {"days": "Sat", "time": "11:30am"}, {"days": "Sun", "time": "Closed"}], "id": "1375700001", "name": "USPS COLLECTION BOX - BLUE BOX", "address": {"city": "EAST MEREDITH", "state": "NY", "street": "51 N COUNTY RT 12", "postcode": "13757"}}},
{"geometry": {"type": "Point", "coordinates": [-74.8849271062, 42.4234001256]}, "type": "Feature", "properties": {"collection_times": [{"days": "Mon-Fri", "time": "12:00pm"}, {"days": "Sat", "time": "11:45am"}, {"days": "Sun", "time": "Closed"}], "id": "1375700002", "name": "USPS COLLECTION BOX - PO LOBBY", "address": {"city": "EAST MEREDITH", "state": "NY", "street": "51 N COUNTY RT 12", "postcode": "13757"}}},
{"geometry": {"type": "Point", "coordinates": [-76.0480131501, 42.1003777392]}, "type": "Feature", "properties": {"collection_times": [{"days": "Mon-Fri", "time": "5:30pm"}, {"days": "Sat", "time": "4:00pm"}, {"days": "Sun", "time": "Closed"}], "id": "1376000002", "name": "USPS COLLECTION BOX - PO LOBBY", "address": {"city": "ENDICOTT", "state": "NY", "street": "200 WASHINGTON AVE", "postcode": "13760"}}},
{"geometry": {"type": "Point", "coordinates": [-76.0491851546, 42.1006721181]}, "type": "Feature", "properties": {"collection_times": [{"days": "Mon-Fri", "time": "5:45pm"}, {"days": "Sat", "time": "4:00pm"}, {"days": "Sun", "time": "Closed"}], "id": "1376000003", "name": "USPS COLLECTION BOX - BLUE BOX", "address": {"city": "ENDICOTT", "state": "NY", "street": "1201 BROAD ST", "postcode": "13760"}}},
{"geometry": {"type": "Point", "coordinates": [-76.0652202075, 42.094997167]}, "type": "Feature", "properties": {"collection_times": [{"days": "Mon-Fri", "time": "5:00pm"}, {"days": "Sat", "time": "2:30pm"}, {"days": "Sun", "time": "Closed"}], "id": "1376000005", "name": "USPS COLLECTION BOX - BLUE BOX", "address": {"city": "ENDICOTT", "state": "NY", "street": "311 EXCHANGE AVE", "postcode": "13760"}}},
{"geometry": {"type": "Point", "coordinates": [-76.0652202075, 42.094997167]}, "type": "Feature", "properties": {"collection_times": [{"days": "Mon-Fri", "time": "5:00pm"}, {"days": "Sat", "time": "2:30pm"}, {"days": "Sun", "time": "Closed"}], "id": "1376000006", "name": "USPS COLLECTION BOX - BLUE BOX", "address": {"city": "ENDICOTT", "state": "NY", "street": "311 EXCHANGE AVE", "postcode": "13760"}}},
{"geometry": {"type": "Point", "coordinates": [-76.0242794444, 42.1200562616]}, "type": "Feature", "properties": {"collection_times": [{"days": "Mon-Sat", "time": "11:30am"}, {"days": "Sun", "time": "Closed"}], "id": "1376000021", "name": "USPS COLLECTION BOX - BLUE BOX", "address": {"city": "ENDICOTT", "state": "NY", "street": "801 LYNCOURT DR", "postcode": "13760"}}},
{"geometry": {"type": "Point", "coordinates": [-76.023627634, 42.1160140908]}, "type": "Feature", "properties": {"collection_times": [{"days": "Mon-Sat", "time": "10:00am"}, {"days": "Sun", "time": "Closed"}], "id": "1376000022", "name": "USPS COLLECTION BOX - BLUE BOX", "address": {"city": "ENDICOTT", "state": "NY", "street": "3220 COUNTRY CLUB RD", "postcode": "13760"}}},
{"geometry": {"type": "Point", "coordinates": [-76.0384205358, 42.1153220598]}, "type": "Feature", "properties": {"collection_times": [{"days": "Mon-Sat", "time": "9:30am"}, {"days": "Sun", "time": "Closed"}], "id": "1376000024", "name": "USPS COLLECTION BOX - BLUE BOX", "address": {"city": "ENDICOTT", "state": "NY", "street": "2202 COUNTRY CLUB RD", "postcode": "13760"}}},
{"geometry": {"type": "Point", "coordinates": [-76.0722046609, 42.1109593072]}, "type": "Feature", "properties": {"collection_times": [{"days": "Mon-Sat", "time": "10:00am"}, {"days": "Sun", "time": "Closed"}], "id": "1376000025", "name": "USPS COLLECTION BOX - BLUE BOX", "address": {"city": "ENDICOTT", "state": "NY", "street": "412 DAY HOLLOW RD", "postcode": "13760"}}},
{"geometry": {"type": "Point", "coordinates": [-76.0189912502, 42.1162650386]}, "type": "Feature", "properties": {"collection_times": [{"days": "Mon-Fri", "time": "4:30pm"}, {"days": "Sat", "time": "9:30am"}, {"days": "Sun", "time": "Closed"}], "id": "1376000028", "name": "USPS COLLECTION BOX - BLUE BOX", "address": {"city": "ENDICOTT", "state": "NY", "street": "3521 COUNTRY CLUB RD", "postcode": "13760"}}},
{"geometry": {"type": "Point", "coordinates": [-76.0399311744, 42.1022763884]}, "type": "Feature", "properties": {"collection_times": [{"days": "Mon-Fri", "time": "4:30pm"}, {"days": "Sat", "time": "2:00pm"}, {"days": "Sun", "time": "Closed"}], "id": "1376000040", "name": "USPS COLLECTION BOX - BLUE BOX", "address": {"city": "ENDICOTT", "state": "NY", "street": "1910 E MAIN ST", "postcode": "13760"}}},
{"geometry": {"type": "Point", "coordinates": [-76.0842945015, 42.1023142431]}, "type": "Feature", "properties": {"collection_times": [{"days": "Mon-Sat", "time": "1:00pm"}, {"days": "Sun", "time": "Closed"}], "id": "1376000041", "name": "USPS COLLECTION BOX - BLUE BOX", "address": {"city": "ENDICOTT", "state": "NY", "street": "401 GLENDALE DR", "postcode": "13760"}}},
{"geometry": {"type": "Point", "coordinates": [-76.0725228769, 42.0958410916]}, "type": "Feature", "properties": {"collection_times": [{"days": "Mon-Sat", "time": "12:00pm"}, {"days": "Sun", "time": "Closed"}], "id": "1376000044", "name": "USPS COLLECTION BOX - BLUE BOX", "address": {"city": "ENDICOTT", "state": "NY", "street": "101 S PAGE AVE", "postcode": "13760"}}},
{"geometry": {"type": "Point", "coordinates": [-76.0134447232, 42.1163879059]}, "type": "Feature", "properties": {"collection_times": [{"days": "Mon-Sat", "time": "10:00am"}, {"days": "Sun", "time": "Closed"}], "id": "1376000048", "name": "USPS COLLECTION BOX - BLUE BOX", "address": {"city": "ENDICOTT", "state": "NY", "street": "3639 COUNTRY CLUB RD", "postcode": "13760"}}},
{"geometry": {"type": "Point", "coordinates": [-76.0219963336, 42.1065681635]}, "type": "Feature", "properties": {"collection_times": [{"days": "Mon-Fri", "time": "4:30pm"}, {"days": "Sat", "time": "2:00pm"}, {"days": "Sun", "time": "Closed"}], "id": "1376000053", "name": "USPS COLLECTION BOX - BLUE BOX", "address": {"city": "ENDICOTT", "state": "NY", "street": "3225 E MAIN ST", "postcode": "13760"}}},
{"geometry": {"type": "Point", "coordinates": [-76.0656523427, 42.0951968405]}, "type": "Feature", "properties": {"collection_times": [{"days": "Mon-Fri", "time": "5:00pm"}, {"days": "Sat", "time": "12:00pm"}, {"days": "Sun", "time": "Closed"}], "id": "1376000058", "name": "USPS COLLECTION BOX - BLUE BOX", "address": {"city": "ENDICOTT", "state": "NY", "street": "117 W MAIN ST", "postcode": "13760"}}},
{"geometry": {"type": "Point", "coordinates": [-76.0536546814, 42.096174686]}, "type": "Feature", "properties": {"collection_times": [{"days": "Mon-Fri", "time": "9:00am"}, {"days": "Sat", "time": "8:30am"}, {"days": "Sun", "time": "Closed"}], "id": "1376000060", "name": "USPS COLLECTION BOX - BLUE BOX", "address": {"city": "ENDICOTT", "state": "NY", "street": "609 E MAIN ST", "postcode": "13760"}}},
{"geometry": {"type": "Point", "coordinates": [-76.0693324365, 42.1031919986]}, "type": "Feature", "properties": {"collection_times": [{"days": "Mon-Sat", "time": "9:30am"}, {"days": "Sun", "time": "Closed"}], "id": "1376000065", "name": "USPS COLLECTION BOX - BLUE BOX", "address": {"city": "ENDICOTT", "state": "NY", "street": "300 JUNE ST", "postcode": "13760"}}},
{"geometry": {"type": "Point", "coordinates": [-76.0353200004, 42.1067952916]}, "type": "Feature", "properties": {"collection_times": [{"days": "Mon-Fri", "time": "4:45pm"}, {"days": "Sat", "time": "11:00am"}, {"days": "Sun", "time": "Closed"}], "id": "1376000069", "name": "USPS COLLECTION BOX - BLUE BOX", "address": {"city": "ENDICOTT", "state": "NY", "street": "2310 NORTH ST", "postcode": "13760"}}},
{"geometry": {"type": "Point", "coordinates": [-76.0304086271, 42.1289111673]}, "type": "Feature", "properties": {"collection_times": [{"days": "Mon-Sat", "time": "1:00pm"}, {"days": "Sun", "time": "Closed"}], "id": "1376000074", "name": "USPS COLLECTION BOX - BLUE BOX", "address": {"city": "ENDICOTT", "state": "NY", "street": "840 HOOPER RD", "postcode": "13760"}}},
{"geometry": {"type": "Point", "coordinates": [-76.0494244201, 42.1146844449]}, "type": "Feature", "properties": {"collection_times": [{"days": "Mon-Sat", "time": "9:30am"}, {"days": "Sun", "time": "Closed"}], "id": "1376000075", "name": "USPS COLLECTION BOX - BLUE BOX", "address": {"city": "ENDICOTT", "state": "NY", "street": "333 ODELL AVE", "postcode": "13760"}}},
{"geometry": {"type": "Point", "coordinates": [-76.0175661522, 42.1195487722]}, "type": "Feature", "properties": {"collection_times": [{"days": "Mon-Sat", "time": "12:00pm"}, {"days": "Sun", "time": "Closed"}], "id": "1376000076", "name": "USPS COLLECTION BOX - BLUE BOX", "address": {"city": "ENDICOTT", "state": "NY", "street": "500 WINSTON DR", "postcode": "13760"}}},
{"geometry": {"type": "Point", "coordinates": [-76.0258717074, 42.1063481332]}, "type": "Feature", "properties": {"collection_times": [{"days": "Mon-Fri", "time": "4:45pm"}, {"days": "Sat", "time": "2:00pm"}, {"days": "Sun", "time": "Closed"}], "id": "1376000079", "name": "USPS COLLECTION BOX - BLUE BOX", "address": {"city": "ENDICOTT", "state": "NY", "street": "3111 E MAIN ST", "postcode": "13760"}}},
{"geometry": {"type": "Point", "coordinates": [-76.0482118872, 42.1026017021]}, "type": "Feature", "properties": {"collection_times": [{"days": "Mon-Fri", "time": "5:00pm"}, {"days": "Sat", "time": "1:30pm"}, {"days": "Sun", "time": "Closed"}], "id": "1376000080", "name": "USPS COLLECTION BOX - BLUE BOX", "address": {"city": "ENDICOTT", "state": "NY", "street": "60 WASHINGTON AVE", "postcode": "13760"}}},
{"geometry": {"type": "Point", "coordinates": [-76.0483881481, 42.1045843413]}, "type": "Feature", "properties": {"collection_times": [{"days": "Mon-Fri", "time": "5:00pm"}, {"days": "Sat", "time": "1:30pm"}, {"days": "Sun", "time": "Closed"}], "id": "1376000081", "name": "USPS COLLECTION BOX - BLUE BOX", "address": {"city": "ENDICOTT", "state": "NY", "street": "2 WASHINGTON AVE", "postcode": "13760"}}},
{"geometry": {"type": "Point", "coordinates": [-76.0225677027, 42.1160590433]}, "type": "Feature", "properties": {"collection_times": [{"days": "Mon-Fri", "time": "4:30pm"}, {"days": "Sat", "time": "10:00am"}, {"days": "Sun", "time": "Closed"}], "id": "1376000113", "name": "USPS COLLECTION BOX - BLUE BOX", "address": {"city": "ENDICOTT", "state": "NY", "street": "3301 COUNTRY CLUB RD", "postcode": "13760"}}},
{"geometry": {"type": "Point", "coordinates": [-76.0902305896, 42.0941955957]}, "type": "Feature", "properties": {"collection_times": [{"days": "Mon-Fri", "time": "3:00pm"}, {"days": "Sat-Sun", "time": "Closed"}], "id": "1376000114", "name": "USPS COLLECTION BOX - BLUE BOX", "address": {"city": "ENDICOTT", "state": "NY", "street": "201 GLENDALE DR", "postcode": "13760"}}},
{"geometry": {"type": "Point", "coordinates": [-76.0525175629, 42.1039492725]}, "type": "Feature", "properties": {"collection_times": [{"days": "Mon-Fri", "time": "4:45pm"}, {"days": "Sat", "time": "2:00pm"}, {"days": "Sun", "time": "Closed"}], "id": "1376000116", "name": "USPS COLLECTION BOX - BLUE BOX", "address": {"city": "ENDICOTT", "state": "NY", "street": "911 NORTH ST", "postcode": "13760"}}},
{"geometry": {"type": "Point", "coordinates": [-76.0491851546, 42.1006721181]}, "type": "Feature", "properties": {"collection_times": [{"days": "Mon-Fri", "time": "5:45pm"}, {"days": "Sat", "time": "4:00pm"}, {"days": "Sun", "time": "Closed"}], "id": "1376000126", "name": "USPS COLLECTION BOX - BLUE BOX", "address": {"city": "ENDICOTT", "state": "NY", "street": "1201 BROAD ST", "postcode": "13760"}}},
{"geometry": {"type": "Point", "coordinates": [-76.0436314701, 42.1094250094]}, "type": "Feature", "properties": {"collection_times": [{"days": "Mon-Sat", "time": "3:00pm"}, {"days": "Sun", "time": "Closed"}], "id": "1376000127", "name": "USPS COLLECTION BOX - BLUE BOX", "address": {"city": "ENDICOTT", "state": "NY", "street": "1701 WATSON BLVD", "postcode": "13760"}}},
{"geometry": {"type": "Point", "coordinates": [-76.0457442348, 42.1013146427]}, "type": "Feature", "properties": {"collection_times": [{"days": "Mon-Fri", "time": "3:00pm"}, {"days": "Sat", "time": "2:00pm"}, {"days": "Sun", "time": "Closed"}], "id": "1376000129", "name": "USPS COLLECTION BOX - BLUE BOX", "address": {"city": "ENDICOTT", "state": "NY", "street": "111 GRANT AVE", "postcode": "13760"}}},
{"geometry": {"type": "Point", "coordinates": [-75.1545621962, 41.9547136571]}, "type": "Feature", "properties": {"collection_times": [{"days": "Mon-Fri", "time": "4:30pm"}, {"days": "Sat", "time": "11:30am"}, {"days": "Sun", "time": "Closed"}], "id": "1377400001", "name": "USPS COLLECTION BOX - BLUE BOX", "address": {"city": "FISHS EDDY", "state": "NY", "street": "121 O & W CIR", "postcode": "13774"}}},
{"geometry": {"type": "Point", "coordinates": [-75.1651835, 42.340310412]}, "type": "Feature", "properties": {"collection_times": [{"days": "Mon-Fri", "time": "4:30pm"}, {"days": "Sat", "time": "11:30am"}, {"days": "Sun", "time": "Closed"}], "id": "1377500001", "name": "USPS COLLECTION BOX - BLUE BOX", "address": {"city": "FRANKLIN", "state": "NY", "street": "450 MAIN ST", "postcode": "13775"}}},
{"geometry": {"type": "Point", "coordinates": [-75.1651835, 42.340310412]}, "type": "Feature", "properties": {"collection_times": [{"days": "Mon-Fri", "time": "4:30pm"}, {"days": "Sat", "time": "11:30am"}, {"days": "Sun", "time": "Closed"}], "id": "1377500002", "name": "USPS COLLECTION BOX - PO LOBBY", "address": {"city": "FRANKLIN", "state": "NY", "street": "450 MAIN ST", "postcode": "13775"}}},
{"geometry": {"type": "Point", "coordinates": [-75.3267713498, 42.4715287486]}, "type": "Feature", "properties": {"collection_times": [{"days": "Mon-Fri", "time": "4:00pm"}, {"days": "Sat", "time": "11:00am"}, {"days": "Sun", "time": "Closed"}], "id": "1377600001", "name": "USPS COLLECTION BOX - BLUE BOX", "address": {"city": "GILBERTSVILLE", "state": "NY", "street": "1 COMMERCIAL ST", "postcode": "13776"}}},
{"geometry": {"type": "Point", "coordinates": [-75.3267538367, 42.4715665806]}, "type": "Feature", "properties": {"collection_times": [{"days": "Mon-Fri", "time": "3:15pm"}, {"days": "Sat", "time": "11:45am"}, {"days": "Sun", "time": "Closed"}], "id": "1377600002", "name": "USPS COLLECTION BOX - PO LOBBY", "address": {"city": "GILBERTSVILLE", "state": "NY", "street": "1 COMMERCIAL ST", "postcode": "13776"}}},
{"geometry": {"type": "Point", "coordinates": [-75.9962622326, 42.2514204536]}, "type": "Feature", "properties": {"collection_times": [{"days": "Mon-Fri", "time": "4:30pm"}, {"days": "Sat", "time": "11:30am"}, {"days": "Sun", "time": "Closed"}], "id": "1377700001", "name": "USPS COLLECTION BOX - BLUE BOX", "address": {"city": "GLEN AUBREY", "state": "NY", "street": "10 OCTAGON ST", "postcode": "13777"}}},
{"geometry": {"type": "Point", "coordinates": [-75.9962622326, 42.2514204536]}, "type": "Feature", "properties": {"collection_times": [{"days": "Mon-Fri", "time": "12:00pm"}, {"days": "Sat", "time": "11:30am"}, {"days": "Sun", "time": "Closed"}], "id": "1377700002", "name": "USPS COLLECTION BOX - PO LOBBY", "address": {"city": "GLEN AUBREY", "state": "NY", "street": "10 OCTAGON ST", "postcode": "13777"}}},
{"geometry": {"type": "Point", "coordinates": [-75.7701751268, 42.3318343074]}, "type": "Feature", "properties": {"collection_times": [{"days": "Mon-Fri", "time": "5:00pm"}, {"days": "Sat", "time": "3:15pm"}, {"days": "Sun", "time": "Closed"}], "id": "1377800001", "name": "USPS COLLECTION BOX - BLUE BOX", "address": {"city": "GREENE", "state": "NY", "street": "11 S CANAL ST", "postcode": "13778"}}},
{"geometry": {"type": "Point", "coordinates": [-75.770602879, 42.329585208]}, "type": "Feature", "properties": {"collection_times": [{"days": "Mon-Fri", "time": "3:00pm"}, {"days": "Sat", "time": "10:00am"}, {"days": "Sun", "time": "Closed"}], "id": "1377800005", "name": "USPS COLLECTION BOX - BLUE BOX", "address": {"city": "GREENE", "state": "NY", "street": "41 GENESEE ST", "postcode": "13778"}}},
{"geometry": {"type": "Point", "coordinates": [-75.7701751268, 42.3318343074]}, "type": "Feature", "properties": {"collection_times": [{"days": "Mon-Fri", "time": "5:00pm"}, {"days": "Sat", "time": "3:15pm"}, {"days": "Sun", "time": "Closed"}], "id": "1377800007", "name": "USPS COLLECTION BOX - PO LOBBY", "address": {"city": "GREENE", "state": "NY", "street": "11 S CANAL ST", "postcode": "13778"}}},
{"geometry": {"type": "Point", "coordinates": [-75.4903833499, 42.4050329547]}, "type": "Feature", "properties": {"collection_times": [{"days": "Mon-Fri", "time": "4:55pm"}, {"days": "Sat", "time": "11:45am"}, {"days": "Sun", "time": "Closed"}], "id": "1378000001", "name": "USPS COLLECTION BOX - BLUE BOX", "address": {"city": "GUILFORD", "state": "NY", "street": "1261 COUNTY ROAD 35", "postcode": "13780"}}},
{"geometry": {"type": "Point", "coordinates": [-75.491220708, 42.405553756]}, "type": "Feature", "properties": {"collection_times": [{"days": "Mon-Fri", "time": "3:30pm"}, {"days": "Sat", "time": "11:45am"}, {"days": "Sun", "time": "Closed"}], "id": "1378000002", "name": "USPS COLLECTION BOX - PO LOBBY", "address": {"city": "GUILFORD", "state": "NY", "street": "1261 COUNTY ROAD 35", "postcode": "13780"}}},
{"geometry": {"type": "Point", "coordinates": [-74.9935970554, 42.1917770246]}, "type": "Feature", "properties": {"collection_times": [{"days": "Mon-Fri", "time": "5:00pm"}, {"days": "Sat", "time": "11:15am"}, {"days": "Sun", "time": "Closed"}], "id": "1378200001", "name": "USPS COLLECTION BOX - BLUE BOX", "address": {"city": "HAMDEN", "state": "NY", "street": "35866 STATE HIGHWAY 10", "postcode": "13782"}}},
{"geometry": {"type": "Point", "coordinates": [-74.9935970554, 42.1917770246]}, "type": "Feature", "properties": {"collection_times": [{"days": "Mon-Fri", "time": "3:30pm"}, {"days": "Sat", "time": "11:15am"}, {"days": "Sun", "time": "Closed"}], "id": "1378200002", "name": "USPS COLLECTION BOX - PO LOBBY", "address": {"city": "HAMDEN", "state": "NY", "street": "35866 STATE HIGHWAY 10", "postcode": "13782"}}},
{"geometry": {"type": "Point", "coordinates": [-74.9926656368, 42.1926188848]}, "type": "Feature", "properties": {"collection_times": [{"days": "Mon-Fri", "time": "5:00pm"}, {"days": "Sat", "time": "11:15am"}, {"days": "Sun", "time": "Closed"}], "id": "1378200004", "name": "USPS COLLECTION BOX - BLUE BOX", "address": {"city": "HAMDEN", "state": "NY", "street": "35866 STATE HIGHWAY 10", "postcode": "13782"}}},
{"geometry": {"type": "Point", "coordinates": [-75.2823628361, 41.9579019756]}, "type": "Feature", "properties": {"collection_times": [{"days": "Mon-Fri", "time": "5:00pm"}, {"days": "Sat", "time": "12:00pm"}, {"days": "Sun", "time": "Closed"}], "id": "1378300001", "name": "USPS COLLECTION BOX - BLUE BOX", "address": {"city": "HANCOCK", "state": "NY", "street": "206 WHEELER ST", "postcode": "13783"}}},
{"geometry": {"type": "Point", "coordinates": [-75.2823617149, 41.9578934449]}, "type": "Feature", "properties": {"collection_times": [{"days": "Mon-Fri", "time": "4:00pm"}, {"days": "Sat", "time": "12:00pm"}, {"days": "Sun", "time": "Closed"}], "id": "1378300008", "name": "USPS COLLECTION BOX - PO LOBBY", "address": {"city": "HANCOCK", "state": "NY", "street": "204 WHEELER ST", "postcode": "13783"}}},
{"geometry": {"type": "Point", "coordinates": [-74.7194666772, 42.4520836041]}, "type": "Feature", "properties": {"collection_times": [{"days": "Mon-Fri", "time": "12:00pm"}, {"days": "Sat", "time": "12:15pm"}, {"days": "Sun", "time": "Closed"}], "id": "1378600001", "name": "USPS COLLECTION BOX - PO LOBBY", "address": {"city": "HARPERSFIELD", "state": "NY", "street": "798 COLONEL HARPER DR", "postcode": "13786"}}},
{"geometry": {"type": "Point", "coordinates": [-74.7194666772, 42.4520836041]}, "type": "Feature", "properties": {"collection_times": [{"days": "Mon-Fri", "time": "4:00pm"}, {"days": "Sat", "time": "12:00pm"}, {"days": "Sun", "time": "Closed"}], "id": "1378600002", "name": "USPS COLLECTION BOX - BLUE BOX", "address": {"city": "HARPERSFIELD", "state": "NY", "street": "798 COLONEL HARPER DR", "postcode": "13786"}}},
{"geometry": {"type": "Point", "coordinates": [-75.633757482, 42.1835279249]}, "type": "Feature", "properties": {"collection_times": [{"days": "Mon-Fri", "time": "4:30pm"}, {"days": "Sat", "time": "11:45am"}, {"days": "Sun", "time": "Closed"}], "id": "1378700001", "name": "USPS COLLECTION BOX - BLUE BOX", "address": {"city": "HARPURSVILLE", "state": "NY", "street": "3619 STATE ROUTE 79", "postcode": "13787"}}},
{"geometry": {"type": "Point", "coordinates": [-75.633757482, 42.1835279249]}, "type": "Feature", "properties": {"collection_times": [{"days": "Mon-Fri", "time": "4:45pm"}, {"days": "Sat", "time": "12:00pm"}, {"days": "Sun", "time": "Closed"}], "id": "1378700002", "name": "USPS COLLECTION BOX - PO LOBBY", "address": {"city": "HARPURSVILLE", "state": "NY", "street": "3619 STATE ROUTE 79", "postcode": "13787"}}},
{"geometry": {"type": "Point", "coordinates": [-74.6795900207, 42.3727372771]}, "type": "Feature", "properties": {"collection_times": [{"days": "Mon-Fri", "time": "4:30pm"}, {"days": "Sat", "time": "11:30am"}, {"days": "Sun", "time": "Closed"}], "id": "1378800001", "name": "USPS COLLECTION BOX - BLUE BOX", "address": {"city": "HOBART", "state": "NY", "street": "698 MAIN ST STE 1", "postcode": "13788"}}},
{"geometry": {"type": "Point", "coordinates": [-74.6795900207, 42.3727372771]}, "type": "Feature", "properties": {"collection_times": [{"days": "Mon-Fri", "time": "4:45pm"}, {"days": "Sat", "time": "11:30am"}, {"days": "Sun", "time": "Closed"}], "id": "1378800003", "name": "USPS COLLECTION BOX - PO LOBBY", "address": {"city": "HOBART", "state": "NY", "street": "698 MAIN ST STE 1", "postcode": "13788"}}},
{"geometry": {"type": "Point", "coordinates": [-75.957985241, 42.115865038]}, "type": "Feature", "properties": {"collection_times": [{"days": "Mon-Fri", "time": "5:15pm"}, {"days": "Sat", "time": "12:15pm"}, {"days": "Sun", "time": "Closed"}], "id": "1379000003", "name": "USPS COLLECTION BOX - BLUE BOX", "address": {"city": "JOHNSON CITY", "state": "NY", "street": "307 MAIN ST", "postcode": "13790"}}},
{"geometry": {"type": "Point", "coordinates": [-75.9585550537, 42.1001451564]}, "type": "Feature", "properties": {"collection_times": [{"days": "Mon-Sat", "time": "9:00am"}, {"days": "Sun", "time": "Closed"}], "id": "1379000008", "name": "USPS COLLECTION BOX - BLUE BOX", "address": {"city": "JOHNSON CITY", "state": "NY", "street": "270 RIVERSIDE DR", "postcode": "13790"}}},
{"geometry": {"type": "Point", "coordinates": [-75.9749666169, 42.1238322666]}, "type": "Feature", "properties": {"collection_times": [{"days": "Mon-Fri", "time": "3:00pm"}, {"days": "Sat", "time": "9:00am"}, {"days": "Sun", "time": "Closed"}], "id": "1379000009", "name": "USPS COLLECTION BOX - BLUE BOX", "address": {"city": "JOHNSON CITY", "state": "NY", "street": "650 HARRY L DR", "postcode": "13790"}}},
{"geometry": {"type": "Point", "coordinates": [-75.950371059, 42.113253028]}, "type": "Feature", "properties": {"collection_times": [{"days": "Mon-Sat", "time": "11:00am"}, {"days": "Sun", "time": "Closed"}], "id": "1379000013", "name": "USPS COLLECTION BOX - BLUE BOX", "address": {"city": "JOHNSON CITY", "state": "NY", "street": "130 MAIN ST", "postcode": "13790"}}},
{"geometry": {"type": "Point", "coordinates": [-75.9549083647, 42.1150464304]}, "type": "Feature", "properties": {"collection_times": [{"days": "Mon-Fri", "time": "3:00pm"}, {"days": "Sat", "time": "9:00am"}, {"days": "Sun", "time": "Closed"}], "id": "1379000015", "name": "USPS COLLECTION BOX - BLUE BOX", "address": {"city": "JOHNSON CITY", "state": "NY", "street": "233 MAIN ST", "postcode": "13790"}}},
{"geometry": {"type": "Point", "coordinates": [-75.963577088, 42.1100614413]}, "type": "Feature", "properties": {"collection_times": [{"days": "Mon-Sat", "time": "9:00am"}, {"days": "Sun", "time": "Closed"}], "id": "1379000017", "name": "USPS COLLECTION BOX - BLUE BOX", "address": {"city": "JOHNSON CITY", "state": "NY", "street": "346 GRAND AVE", "postcode": "13790"}}},
{"geometry": {"type": "Point", "coordinates": [-75.9520527018, 42.1038201498]}, "type": "Feature", "properties": {"collection_times": [{"days": "Mon-Sat", "time": "11:00am"}, {"days": "Sun", "time": "Closed"}], "id": "1379000029", "name": "USPS COLLECTION BOX - BLUE BOX", "address": {"city": "JOHNSON CITY", "state": "NY", "street": "217 BURBANK AVE", "postcode": "13790"}}},
{"geometry": {"type": "Point", "coordinates": [-75.9584193869, 42.1227226511]}, "type": "Feature", "properties": {"collection_times": [{"days": "Mon-Sat", "time": "9:30am"}, {"days": "Sun", "time": "Closed"}], "id": "1379000038", "name": "USPS COLLECTION BOX - BLUE BOX", "address": {"city": "JOHNSON CITY", "state": "NY", "street": "269 HARRY L DR", "postcode": "13790"}}},
{"geometry": {"type": "Point", "coordinates": [-75.9623775676, 42.1307655891]}, "type": "Feature", "properties": {"collection_times": [{"days": "Mon-Sat", "time": "11:00am"}, {"days": "Sun", "time": "Closed"}], "id": "1379000040", "name": "USPS COLLECTION BOX - BLUE BOX", "address": {"city": "JOHNSON CITY", "state": "NY", "street": "520 COLUMBIA DR", "postcode": "13790"}}},
{"geometry": {"type": "Point", "coordinates": [-75.9630352928, 42.1226315633]}, "type": "Feature", "properties": {"collection_times": [{"days": "Mon-Sat", "time": "9:30am"}, {"days": "Sun", "time": "Closed"}], "id": "1379000041", "name": "USPS COLLECTION BOX - BLUE BOX", "address": {"city": "JOHNSON CITY", "state": "NY", "street": "365 HARRY L DR", "postcode": "13790"}}},
{"geometry": {"type": "Point", "coordinates": [-75.9720577208, 42.1395573401]}, "type": "Feature", "properties": {"collection_times": [{"days": "Mon-Sat", "time": "12:00pm"}, {"days": "Sun", "time": "Closed"}], "id": "1379000042", "name": "USPS COLLECTION BOX - BLUE BOX", "address": {"city": "JOHNSON CITY", "state": "NY", "street": "1025 REYNOLDS RD", "postcode": "13790"}}},
{"geometry": {"type": "Point", "coordinates": [-75.9507762891, 42.0986281429]}, "type": "Feature", "properties": {"collection_times": [{"days": "Mon-Sat", "time": "9:00am"}, {"days": "Sun", "time": "Closed"}], "id": "1379000043", "name": "USPS COLLECTION BOX - BLUE BOX", "address": {"city": "JOHNSON CITY", "state": "NY", "street": "47 RIVERSIDE DR", "postcode": "13790"}}},
{"geometry": {"type": "Point", "coordinates": [-75.9592411379, 42.1147541171]}, "type": "Feature", "properties": {"collection_times": [{"days": "Mon-Fri", "time": "3:00pm"}, {"days": "Sat", "time": "9:00am"}, {"days": "Sun", "time": "Closed"}], "id": "1379000045", "name": "USPS COLLECTION BOX - BLUE BOX", "address": {"city": "JOHNSON CITY", "state": "NY", "street": "46 HARRISON ST", "postcode": "13790"}}},
{"geometry": {"type": "Point", "coordinates": [-75.9635415993, 42.115720717]}, "type": "Feature", "properties": {"collection_times": [{"days": "Mon-Sat", "time": "8:30am"}, {"days": "Sun", "time": "Closed"}], "id": "1379000046", "name": "USPS COLLECTION BOX - BLUE BOX", "address": {"city": "JOHNSON CITY", "state": "NY", "street": "435 MAIN ST", "postcode": "13790"}}},
{"geometry": {"type": "Point", "coordinates": [-75.9660786667, 42.1227941932]}, "type": "Feature", "properties": {"collection_times": [{"days": "Mon-Fri", "time": "3:00pm"}, {"days": "Sat", "time": "9:00am"}, {"days": "Sun", "time": "Closed"}], "id": "1379000048", "name": "USPS COLLECTION BOX - BLUE BOX", "address": {"city": "JOHNSON CITY", "state": "NY", "street": "30 BALDWIN ST", "postcode": "13790"}}},
{"geometry": {"type": "Point", "coordinates": [-75.9718327272, 42.1244798416]}, "type": "Feature", "properties": {"collection_times": [{"days": "Mon-Fri", "time": "2:00pm"}, {"days": "Sat", "time": "10:00am"}, {"days": "Sun", "time": "Closed"}], "id": "1379000051", "name": "USPS COLLECTION BOX - BLUE BOX", "address": {"city": "JOHNSON CITY", "state": "NY", "street": "601-635 HARRY L DR", "postcode": "13790"}}},
{"geometry": {"type": "Point", "coordinates": [-75.9829654086, 42.2084180963]}, "type": "Feature", "properties": {"collection_times": [{"days": "Mon-Sat", "time": "9:00am"}, {"days": "Sun", "time": "Closed"}], "id": "1379000060", "name": "USPS COLLECTION BOX - BLUE BOX", "address": {"city": "JOHNSON CITY", "state": "NY", "street": "2534 AIRPORT RD", "postcode": "13790"}}},
{"geometry": {"type": "Point", "coordinates": [-75.957985241, 42.115865038]}, "type": "Feature", "properties": {"collection_times": [{"days": "Mon-Fri", "time": "5:30pm"}, {"days": "Sat", "time": "12:15pm"}, {"days": "Sun", "time": "Closed"}], "id": "1379000061", "name": "USPS COLLECTION BOX - PO LOBBY", "address": {"city": "JOHNSON CITY", "state": "NY", "street": "307 MAIN ST", "postcode": "13790"}}},
{"geometry": {"type": "Point", "coordinates": [-75.9718327272, 42.1244798416]}, "type": "Feature", "properties": {"collection_times": [{"days": "Mon-Fri", "time": "11:00am"}, {"days": "Sat", "time": "10:00am"}, {"days": "Sun", "time": "Closed"}], "id": "1379000062", "name": "USPS COLLECTION BOX - BLUE BOX", "address": {"city": "JOHNSON CITY", "state": "NY", "street": "601-635 HARRY L DR", "postcode": "13790"}}},
{"geometry": {"type": "Point", "coordinates": [-76.0204610429, 42.4004679054]}, "type": "Feature", "properties": {"collection_times": [{"days": "Mon-Fri", "time": "10:00am"}, {"days": "Sat", "time": "10:45am"}, {"days": "Sun", "time": "Closed"}], "id": "1379400001", "name": "USPS COLLECTION BOX - PO LOBBY", "address": {"city": "KILLAWOG", "state": "NY", "street": "614 JENNINGS CREEK RD", "postcode": "13794"}}},
{"geometry": {"type": "Point", "coordinates": [-76.0204610429, 42.4004679054]}, "type": "Feature", "properties": {"collection_times": [{"days": "Mon-Fri", "time": "4:45pm"}, {"days": "Sat", "time": "10:45am"}, {"days": "Sun", "time": "Closed"}], "id": "1379400002", "name": "USPS COLLECTION BOX - BLUE BOX", "address": {"city": "KILLAWOG", "state": "NY", "street": "614 JENNINGS CREEK RD", "postcode": "13794"}}},
{"geometry": {"type": "Point", "coordinates": [-75.8217468082, 42.0954713952]}, "type": "Feature", "properties": {"collection_times": [{"days": "Mon-Fri", "time": "3:30pm"}, {"days": "Sat", "time": "11:30am"}, {"days": "Sun", "time": "Closed"}], "id": "1379500001", "name": "USPS COLLECTION BOX - BLUE BOX", "address": {"city": "KIRKWOOD", "state": "NY", "street": "78 CRESENT DR", "postcode": "13795"}}},
{"geometry": {"type": "Point", "coordinates": [-75.8217468082, 42.0954713952]}, "type": "Feature", "properties": {"collection_times": [{"days": "Mon-Fri", "time": "4:00pm"}, {"days": "Sat", "time": "12:00pm"}, {"days": "Sun", "time": "Closed"}], "id": "1379500002", "name": "USPS COLLECTION BOX - PO LOBBY", "address": {"city": "KIRKWOOD", "state": "NY", "street": "78 CRESENT DR", "postcode": "13795"}}},
{"geometry": {"type": "Point", "coordinates": [-75.821464046, 42.0889532033]}, "type": "Feature", "properties": {"collection_times": [{"days": "Mon-Sat", "time": "11:00am"}, {"days": "Sun", "time": "Closed"}], "id": "1379500005", "name": "USPS COLLECTION BOX - BLUE BOX", "address": {"city": "KIRKWOOD", "state": "NY", "street": "915 US ROUTE 11", "postcode": "13795"}}},
{"geometry": {"type": "Point", "coordinates": [-75.8219674362, 42.0952188552]}, "type": "Feature", "properties": {"collection_times": [{"days": "Mon-Fri", "time": "1:00pm"}, {"days": "Sat", "time": "11:00am"}, {"days": "Sun", "time": "Closed"}], "id": "1379500006", "name": "USPS COLLECTION BOX - BLUE BOX", "address": {"city": "KIRKWOOD", "state": "NY", "street": "70 CRESCENT DR", "postcode": "13795"}}},
{"geometry": {"type": "Point", "coordinates": [-75.0877166363, 42.5335146154]}, "type": "Feature", "properties": {"collection_times": [{"days": "Mon-Fri", "time": "4:00pm"}, {"days": "Sat", "time": "11:00am"}, {"days": "Sun", "time": "Closed"}], "id": "1379600002", "name": "USPS COLLECTION BOX - BLUE BOX", "address": {"city": "LAURENS", "state": "NY", "street": "55 BROOK ST", "postcode": "13796"}}},
{"geometry": {"type": "Point", "coordinates": [-75.0877166363, 42.5335146154]}, "type": "Feature", "properties": {"collection_times": [{"days": "Mon-Fri", "time": "12:00pm"}, {"days": "Sat", "time": "11:00am"}, {"days": "Sun", "time": "Closed"}], "id": "1379600003", "name": "USPS COLLECTION BOX - PO LOBBY", "address": {"city": "LAURENS", "state": "NY", "street": "55 BROOK ST", "postcode": "13796"}}},
{"geometry": {"type": "Point", "coordinates": [-76.002006693, 42.3504517156]}, "type": "Feature", "properties": {"collection_times": [{"days": "Mon-Fri", "time": "4:30pm"}, {"days": "Sat", "time": "11:00am"}, {"days": "Sun", "time": "Closed"}], "id": "1379700001", "name": "USPS COLLECTION BOX - PO LOBBY", "address": {"city": "LISLE", "state": "NY", "street": "8988 MAIN ST", "postcode": "13797"}}},
{"geometry": {"type": "Point", "coordinates": [-76.002006693, 42.3504517156]}, "type": "Feature", "properties": {"collection_times": [{"days": "Mon-Fri", "time": "4:30pm"}, {"days": "Sat", "time": "11:00am"}, {"days": "Sun", "time": "Closed"}], "id": "1379700002", "name": "USPS COLLECTION BOX - BLUE BOX", "address": {"city": "LISLE", "state": "NY", "street": "8988 MAIN ST", "postcode": "13797"}}},
{"geometry": {"type": "Point", "coordinates": [-75.9976498718, 42.3710778398]}, "type": "Feature", "properties": {"collection_times": [{"days": "Mon-Sat", "time": "10:00am"}, {"days": "Sun", "time": "Closed"}], "id": "1379700003", "name": "USPS COLLECTION BOX - BLUE BOX", "address": {"city": "LISLE", "state": "NY", "street": "2950 US ROUTE 11", "postcode": "13797"}}},
{"geometry": {"type": "Point", "coordinates": [-76.002006693, 42.3504517156]}, "type": "Feature", "properties": {"collection_times": [{"days": "Mon-Fri", "time": "4:30pm"}, {"days": "Sat", "time": "11:00am"}, {"days": "Sun", "time": "Closed"}], "id": "1379700004", "name": "USPS COLLECTION BOX - PO LOBBY", "address": {"city": "LISLE", "state": "NY", "street": "8988 MAIN ST", "postcode": "13797"}}}
]}
