{"type": "FeatureCollection", "features": [
{"geometry": {"type": "Point", "coordinates": [-75.7682101664, 42.4969051091]}, "type": "Feature", "properties": {"collection_times": [{"days": "Mon-Fri", "time": "4:45pm"}, {"days": "Sat", "time": "11:45am"}, {"days": "Sun", "time": "Closed"}], "id": "1380100001", "name": "USPS COLLECTION BOX - BLUE BOX", "address": {"city": "MC DONOUGH", "state": "NY", "street": "1600 STATE HIGHWAY 220", "postcode": "13801"}}},
{"geometry": {"type": "Point", "coordinates": [-75.809029933, 42.4035205678]}, "type": "Feature", "properties": {"collection_times": [{"days": "Mon-Fri", "time": "12:00pm"}, {"days": "Sat", "time": "11:45am"}, {"days": "Sun", "time": "Closed"}], "id": "1380100002", "name": "USPS COLLECTION BOX - PO LOBBY", "address": {"city": "MC DONOUGH", "state": "NY", "street": "1600 STATE HIGHWAY 220", "postcode": "13801"}}},
{"geometry": {"type": "Point", "coordinates": [-76.0603039514, 42.1951020221]}, "type": "Feature", "properties": {"collection_times": [{"days": "Mon-Fri", "time": "5:00pm"}, {"days": "Sat", "time": "12:00pm"}, {"days": "Sun", "time": "Closed"}], "id": "1380200001", "name": "USPS COLLECTION BOX - PO LOBBY", "address": {"city": "MAINE", "state": "NY", "street": "2597 MAIN ST", "postcode": "13802"}}},
{"geometry": {"type": "Point", "coordinates": [-76.0603039514, 42.1951020221]}, "type": "Feature", "properties": {"collection_times": [{"days": "Mon-Fri", "time": "4:30pm"}, {"days": "Sat", "time": "11:45am"}, {"days": "Sun", "time": "Closed"}], "id": "1380200002", "name": "USPS COLLECTION BOX - BLUE BOX", "address": {"city": "MAINE", "state": "NY", "street": "2597 MAIN ST", "postcode": "13802"}}},
{"geometry": {"type": "Point", "coordinates": [-76.0344564403, 42.4406180308]}, "type": "Feature", "properties": {"collection_times": [{"days": "Mon-Fri", "time": "4:30pm"}, {"days": "Sat", "time": "12:00pm"}, {"days": "Sun", "time": "Closed"}], "id": "1380300001", "name": "USPS COLLECTION BOX - BLUE BOX", "address": {"city": "MARATHON", "state": "NY", "street": "12 MAIN ST", "postcode": "13803"}}},
{"geometry": {"type": "Point", "coordinates": [-76.0344564403, 42.4406180308]}, "type": "Feature", "properties": {"collection_times": [{"days": "Mon-Fri", "time": "4:45pm"}, {"days": "Sat", "time": "12:00pm"}, {"days": "Sun", "time": "Closed"}], "id": "1380300002", "name": "USPS COLLECTION BOX - PO LOBBY", "address": {"city": "MARATHON", "state": "NY", "street": "12 MAIN ST", "postcode": "13803"}}},
{"geometry": {"type": "Point", "coordinates": [-75.375563679, 42.2397027837]}, "type": "Feature", "properties": {"collection_times": [{"days": "Mon-Fri", "time": "4:00pm"}, {"days": "Sat", "time": "11:30am"}, {"days": "Sun", "time": "Closed"}], "id": "1380400001", "name": "USPS COLLECTION BOX - BLUE BOX", "address": {"city": "MASONVILLE", "state": "NY", "street": "15505 STATE HIGHWAY 8", "postcode": "13804"}}},
{"geometry": {"type": "Point", "coordinates": [-75.377709999, 42.24255118]}, "type": "Feature", "properties": {"collection_times": [{"days": "Mon-Fri", "time": "12:00pm"}, {"days": "Sat", "time": "11:45am"}, {"days": "Sun", "time": "Closed"}], "id": "1380400002", "name": "USPS COLLECTION BOX - PO LOBBY", "address": {"city": "MASONVILLE", "state": "NY", "street": "15505 STATE HIGHWAY 8", "postcode": "13804"}}},
{"geometry": {"type": "Point", "coordinates": [-74.976816308, 42.3794786484]}, "type": "Feature", "properties": {"collection_times": [{"days": "Mon-Fri", "time": "3:30pm"}, {"days": "Sat", "time": "10:45am"}, {"days": "Sun", "time": "Closed"}], "id": "1380600001", "name": "USPS COLLECTION BOX - BLUE BOX", "address": {"city": "MERIDALE", "state": "NY", "street": "30 COUNTY HIGHWAY 10", "postcode": "13806"}}},
{"geometry": {"type": "Point", "coordinates": [-74.976816308, 42.3794786484]}, "type": "Feature", "properties": {"collection_times": [{"days": "Mon-Fri", "time": "12:00pm"}, {"days": "Sat", "time": "10:45am"}, {"days": "Sun", "time": "Closed"}], "id": "1380600002", "name": "USPS COLLECTION BOX - PO LOBBY", "address": {"city": "MERIDALE", "state": "NY", "street": "30 COUNTY HIGHWAY 10", "postcode": "13806"}}},
{"geometry": {"type": "Point", "coordinates": [-74.9468252656, 42.5882657425]}, "type": "Feature", "properties": {"collection_times": [{"days": "Mon-Fri", "time": "4:30pm"}, {"days": "Sat", "time": "11:30am"}, {"days": "Sun", "time": "Closed"}], "id": "1380700001", "name": "USPS COLLECTION BOX - BLUE BOX", "address": {"city": "MILFORD", "state": "NY", "street": "43 S MAIN ST", "postcode": "13807"}}},
{"geometry": {"type": "Point", "coordinates": [-74.9468252656, 42.5882657425]}, "type": "Feature", "properties": {"collection_times": [{"days": "Mon-Fri", "time": "4:30pm"}, {"days": "Sat", "time": "11:30am"}, {"days": "Sun", "time": "Closed"}], "id": "1380700002", "name": "USPS COLLECTION BOX - PO LOBBY", "address": {"city": "MILFORD", "state": "NY", "street": "43 S MAIN ST", "postcode": "13807"}}},
{"geometry": {"type": "Point", "coordinates": [-75.2419246752, 42.5494354807]}, "type": "Feature", "properties": {"collection_times": [{"days": "Mon-Fri", "time": "4:30pm"}, {"days": "Sat", "time": "11:45am"}, {"days": "Sun", "time": "Closed"}], "id": "1380800001", "name": "USPS COLLECTION BOX - BLUE BOX", "address": {"city": "MORRIS", "state": "NY", "street": "127 MAIN ST", "postcode": "13808"}}},
{"geometry": {"type": "Point", "coordinates": [-75.2419246752, 42.5494354807]}, "type": "Feature", "properties": {"collection_times": [{"days": "Mon-Fri", "time": "4:45pm"}, {"days": "Sat", "time": "11:45am"}, {"days": "Sun", "time": "Closed"}], "id": "1380800002", "name": "USPS COLLECTION BOX - PO LOBBY", "address": {"city": "MORRIS", "state": "NY", "street": "127 MAIN ST", "postcode": "13808"}}},
{"geometry": {"type": "Point", "coordinates": [-75.3848919233, 42.4301156819]}, "type": "Feature", "properties": {"collection_times": [{"days": "Mon-Fri", "time": "4:45pm"}, {"days": "Sat", "time": "11:15am"}, {"days": "Sun", "time": "Closed"}], "id": "1380900001", "name": "USPS COLLECTION BOX - BLUE BOX", "address": {"city": "MOUNT UPTON", "state": "NY", "street": "1753 STATE HIGHWAY 8", "postcode": "13809"}}},
{"geometry": {"type": "Point", "coordinates": [-75.384362167, 42.428994377]}, "type": "Feature", "properties": {"collection_times": [{"days": "Mon-Fri", "time": "12:00pm"}, {"days": "Sat", "time": "11:15am"}, {"days": "Sun", "time": "Closed"}], "id": "1380900002", "name": "USPS COLLECTION BOX - PO LOBBY", "address": {"city": "MOUNT UPTON", "state": "NY", "street": "1753 STATE HIGHWAY 8", "postcode": "13809"}}},
{"geometry": {"type": "Point", "coordinates": [-75.0552071358, 42.5694413356]}, "type": "Feature", "properties": {"collection_times": [{"days": "Mon-Fri", "time": "4:00pm"}, {"days": "Sat", "time": "11:30am"}, {"days": "Sun", "time": "Closed"}], "id": "1381000001", "name": "USPS COLLECTION BOX - BLUE BOX", "address": {"city": "MOUNT VISION", "state": "NY", "street": "2363 STATE HIGHWAY 205", "postcode": "13810"}}},
{"geometry": {"type": "Point", "coordinates": [-75.0552071358, 42.5694413356]}, "type": "Feature", "properties": {"collection_times": [{"days": "Mon-Fri", "time": "12:00pm"}, {"days": "Sat", "time": "11:30am"}, {"days": "Sun", "time": "Closed"}], "id": "1381000003", "name": "USPS COLLECTION BOX - PO LOBBY", "address": {"city": "MOUNT VISION", "state": "NY", "street": "2363 STATE HIGHWAY 205", "postcode": "13810"}}},
{"geometry": {"type": "Point", "coordinates": [-76.1843196234, 42.2228877183]}, "type": "Feature", "properties": {"collection_times": [{"days": "Mon-Fri", "time": "4:45pm"}, {"days": "Sat", "time": "11:15am"}, {"days": "Sun", "time": "Closed"}], "id": "1381100001", "name": "USPS COLLECTION BOX - BLUE BOX", "address": {"city": "NEWARK VALLEY", "state": "NY", "street": "9 PARK ST", "postcode": "13811"}}},
{"geometry": {"type": "Point", "coordinates": [-76.1843196234, 42.2228877183]}, "type": "Feature", "properties": {"collection_times": [{"days": "Mon-Fri", "time": "4:45pm"}, {"days": "Sat", "time": "11:15am"}, {"days": "Sun", "time": "Closed"}], "id": "1381100002", "name": "USPS COLLECTION BOX - BLUE BOX", "address": {"city": "NEWARK VALLEY", "state": "NY", "street": "9 PARK ST", "postcode": "13811"}}},
{"geometry": {"type": "Point", "coordinates": [-76.1843196234, 42.2228877183]}, "type": "Feature", "properties": {"collection_times": [{"days": "Mon-Fri", "time": "5:00pm"}, {"days": "Sat", "time": "11:30am"}, {"days": "Sun", "time": "Closed"}], "id": "1381100003", "name": "USPS COLLECTION BOX - PO LOBBY", "address": {"city": "NEWARK VALLEY", "state": "NY", "street": "9 PARK ST", "postcode": "13811"}}},
{"geometry": {"type": "Point", "coordinates": [-76.3757619454, 42.0236660334]}, "type": "Feature", "properties": {"collection_times": [{"days": "Mon-Fri", "time": "4:30pm"}, {"days": "Sat", "time": "11:00am"}, {"days": "Sun", "time": "Closed"}], "id": "1381200002", "name": "USPS COLLECTION BOX - BLUE BOX", "address": {"city": "NICHOLS", "state": "NY", "street": "491 W RIVER RD", "postcode": "13812"}}},
{"geometry": {"type": "Point", "coordinates": [-76.3757619454, 42.0236660334]}, "type": "Feature", "properties": {"collection_times": [{"days": "Mon-Fri", "time": "4:30pm"}, {"days": "Sat", "time": "11:00am"}, {"days": "Sun", "time": "Closed"}], "id": "1381200004", "name": "USPS COLLECTION BOX - PO LOBBY", "address": {"city": "NICHOLS", "state": "NY", "street": "491 W RIVER RD", "postcode": "13812"}}},
{"geometry": {"type": "Point", "coordinates": [-75.5503559603, 42.1697466272]}, "type": "Feature", "properties": {"collection_times": [{"days": "Mon-Fri", "time": "4:30pm"}, {"days": "Sat", "time": "11:30am"}, {"days": "Sun", "time": "Closed"}], "id": "1381300001", "name": "USPS COLLECTION BOX - BLUE BOX", "address": {"city": "NINEVEH", "state": "NY", "street": "3033 STATE ROUTE 7", "postcode": "13813"}}},
{"geometry": {"type": "Point", "coordinates": [-75.5503559603, 42.1697466272]}, "type": "Feature", "properties": {"collection_times": [{"days": "Mon-Fri", "time": "12:00pm"}, {"days": "Sat", "time": "11:30am"}, {"days": "Sun", "time": "Closed"}], "id": "1381300002", "name": "USPS COLLECTION BOX - PO LOBBY", "address": {"city": "NINEVEH", "state": "NY", "street": "3033 STATE ROUTE 7", "postcode": "13813"}}},
{"geometry": {"type": "Point", "coordinates": [-75.522839617, 42.6179971947]}, "type": "Feature", "properties": {"collection_times": [{"days": "Mon-Fri", "time": "4:50pm"}, {"days": "Sat", "time": "11:50am"}, {"days": "Sun", "time": "Closed"}], "id": "1381400001", "name": "USPS COLLECTION BOX - BLUE BOX", "address": {"city": "NORTH NORWICH", "state": "NY", "street": "168 COUNTY ROAD 23", "postcode": "13814"}}},
{"geometry": {"type": "Point", "coordinates": [-75.522839617, 42.6179971947]}, "type": "Feature", "properties": {"collection_times": [{"days": "Mon-Fri", "time": "5:00pm"}, {"days": "Sat", "time": "11:45am"}, {"days": "Sun", "time": "Closed"}], "id": "1381400002", "name": "USPS COLLECTION BOX - PO LOBBY", "address": {"city": "NORTH NORWICH", "state": "NY", "street": "168 COUNTY ROAD 23", "postcode": "13814"}}},
{"geometry": {"type": "Point", "coordinates": [-75.5221829186, 42.5313011875]}, "type": "Feature", "properties": {"collection_times": [{"days": "Mon-Fri", "time": "5:00pm"}, {"days": "Sat", "time": "3:00pm"}, {"days": "Sun", "time": "Closed"}], "id": "1381500001", "name": "USPS COLLECTION BOX - BLUE BOX", "address": {"city": "NORWICH", "state": "NY", "street": "20-22 E MAIN ST", "postcode": "13815"}}},
{"geometry": {"type": "Point", "coordinates": [-75.5221829186, 42.5313011875]}, "type": "Feature", "properties": {"collection_times": [{"days": "Mon-Fri", "time": "5:00pm"}, {"days": "Sat", "time": "3:00pm"}, {"days": "Sun", "time": "Closed"}], "id": "1381500003", "name": "USPS COLLECTION BOX - BLUE BOX", "address": {"city": "NORWICH", "state": "NY", "street": "20-22 E MAIN ST", "postcode": "13815"}}},
{"geometry": {"type": "Point", "coordinates": [-75.5274011903, 42.5308281156]}, "type": "Feature", "properties": {"collection_times": [{"days": "Mon-Sat", "time": "11:00am"}, {"days": "Sun", "time": "Closed"}], "id": "1381500007", "name": "USPS COLLECTION BOX - BLUE BOX", "address": {"city": "NORWICH", "state": "NY", "street": "42 W MAIN ST", "postcode": "13815"}}},
{"geometry": {"type": "Point", "coordinates": [-75.5343333298, 42.5415196987]}, "type": "Feature", "properties": {"collection_times": [{"days": "Mon-Sat", "time": "8:30am"}, {"days": "Sun", "time": "Closed"}], "id": "1381500012", "name": "USPS COLLECTION BOX - BLUE BOX", "address": {"city": "NORWICH", "state": "NY", "street": "95 PLYMOUTH ST", "postcode": "13815"}}},
{"geometry": {"type": "Point", "coordinates": [-75.5308471497, 42.531796959]}, "type": "Feature", "properties": {"collection_times": [{"days": "Mon-Sat", "time": "11:00am"}, {"days": "Sun", "time": "Closed"}], "id": "1381500015", "name": "USPS COLLECTION BOX - BLUE BOX", "address": {"city": "NORWICH", "state": "NY", "street": "24 CANASAWACTA ST", "postcode": "13815"}}},
{"geometry": {"type": "Point", "coordinates": [-75.5235719521, 42.5288797822]}, "type": "Feature", "properties": {"collection_times": [{"days": "Mon-Fri", "time": "2:45pm"}, {"days": "Sat", "time": "1:30pm"}, {"days": "Sun", "time": "Closed"}], "id": "1381500019", "name": "USPS COLLECTION BOX - BLUE BOX", "address": {"city": "NORWICH", "state": "NY", "street": "52 S BROAD ST", "postcode": "13815"}}},
{"geometry": {"type": "Point", "coordinates": [-75.5238274713, 42.5318986934]}, "type": "Feature", "properties": {"collection_times": [{"days": "Mon-Fri", "time": "2:45pm"}, {"days": "Sat", "time": "1:30pm"}, {"days": "Sun", "time": "Closed"}], "id": "1381500023", "name": "USPS COLLECTION BOX - BLUE BOX", "address": {"city": "NORWICH", "state": "NY", "street": "23 N BROAD ST", "postcode": "13815"}}},
{"geometry": {"type": "Point", "coordinates": [-75.5223274793, 42.5399936816]}, "type": "Feature", "properties": {"collection_times": [{"days": "Mon-Sat", "time": "11:00am"}, {"days": "Sun", "time": "Closed"}], "id": "1381500024", "name": "USPS COLLECTION BOX - BLUE BOX", "address": {"city": "NORWICH", "state": "NY", "street": "54 BORDEN AVE", "postcode": "13815"}}},
{"geometry": {"type": "Point", "coordinates": [-75.5255534084, 42.550822488]}, "type": "Feature", "properties": {"collection_times": [{"days": "Mon-Fri", "time": "9:00am"}, {"days": "Sat", "time": "8:30am"}, {"days": "Sun", "time": "Closed"}], "id": "1381500028", "name": "USPS COLLECTION BOX - BLUE BOX", "address": {"city": "NORWICH", "state": "NY", "street": "6142 STATE HIGHWAY 12", "postcode": "13815"}}},
{"geometry": {"type": "Point", "coordinates": [-75.5221829186, 42.5313011875]}, "type": "Feature", "properties": {"collection_times": [{"days": "Mon-Fri", "time": "5:00pm"}, {"days": "Sat", "time": "3:00pm"}, {"days": "Sun", "time": "Closed"}], "id": "1381500032", "name": "USPS COLLECTION BOX - PO LOBBY", "address": {"city": "NORWICH", "state": "NY", "street": "20-22 E MAIN ST", "postcode": "13815"}}},
{"geometry": {"type": "Point", "coordinates": [-75.520519918, 42.5314728282]}, "type": "Feature", "properties": {"collection_times": [{"days": "Mon-Fri", "time": "2:45pm"}, {"days": "Sat", "time": "1:30pm"}, {"days": "Sun", "time": "Closed"}], "id": "1381500034", "name": "USPS COLLECTION BOX - BLUE BOX", "address": {"city": "NORWICH", "state": "NY", "street": "54 E MAIN ST", "postcode": "13815"}}},
{"geometry": {"type": "Point", "coordinates": [-75.5221829186, 42.5313011875]}, "type": "Feature", "properties": {"collection_times": [{"days": "Mon-Fri", "time": "5:00pm"}, {"days": "Sat", "time": "3:00pm"}, {"days": "Sun", "time": "Closed"}], "id": "1381500035", "name": "USPS COLLECTION BOX - PO LOBBY", "address": {"city": "NORWICH", "state": "NY", "street": "20-22 E MAIN ST", "postcode": "13815"}}},
{"geometry": {"type": "Point", "coordinates": [-75.5221829186, 42.5313011875]}, "type": "Feature", "properties": {"collection_times": [{"days": "Mon-Fri", "time": "5:00pm"}, {"days": "Sat", "time": "3:00pm"}, {"days": "Sun", "time": "Closed"}], "id": "1381500036", "name": "USPS COLLECTION BOX - PO LOBBY", "address": {"city": "NORWICH", "state": "NY", "street": "20-22 E MAIN ST", "postcode": "13815"}}},
{"geometry": {"type": "Point", "coordinates": [-75.5252574773, 42.5279093284]}, "type": "Feature", "properties": {"collection_times": [{"days": "Mon-Fri", "time": "2:45pm"}, {"days": "Sat", "time": "1:30pm"}, {"days": "Sun", "time": "Closed"}], "id": "1381500038", "name": "USPS COLLECTION BOX - BLUE BOX", "address": {"city": "NORWICH", "state": "NY", "street": "17 EATON AVE", "postcode": "13815"}}},
{"geometry": {"type": "Point", "coordinates": [-75.5291093727, 42.4974423849]}, "type": "Feature", "properties": {"collection_times": [{"days": "Mon-Sat", "time": "8:30am"}, {"days": "Sun", "time": "Closed"}], "id": "1381500041", "name": "USPS COLLECTION BOX - BLUE BOX", "address": {"city": "NORWICH", "state": "NY", "street": "5396 STATE HIGHWAY 12", "postcode": "13815"}}},
{"geometry": {"type": "Point", "coordinates": [-75.0573936511, 42.4571440288]}, "type": "Feature", "properties": {"collection_times": [{"days": "Mon-Fri", "time": "5:00pm"}, {"days": "Sat", "time": "4:00pm"}, {"days": "Sun", "time": "Closed"}], "id": "1382000002", "name": "USPS COLLECTION BOX - BLUE BOX", "address": {"city": "ONEONTA", "state": "NY", "street": "352 MAIN ST", "postcode": "13820"}}},
{"geometry": {"type": "Point", "coordinates": [-75.0572589918, 42.4572303236]}, "type": "Feature", "properties": {"collection_times": [{"days": "Mon-Fri", "time": "5:00pm"}, {"days": "Sat", "time": "4:00pm"}, {"days": "Sun", "time": "Closed"}], "id": "1382000004", "name": "USPS COLLECTION BOX - BLUE BOX", "address": {"city": "ONEONTA", "state": "NY", "street": "353 MAIN ST", "postcode": "13820"}}},
{"geometry": {"type": "Point", "coordinates": [-75.0165047774, 42.4614556585]}, "type": "Feature", "properties": {"collection_times": [{"days": "Mon-Sat", "time": "11:00am"}, {"days": "Sun", "time": "Closed"}], "id": "1382000007", "name": "USPS COLLECTION BOX - BLUE BOX", "address": {"city": "ONEONTA", "state": "NY", "street": "5626 STATE HIGHWAY 7", "postcode": "13820"}}},
{"geometry": {"type": "Point", "coordinates": [-75.0606028246, 42.4549477021]}, "type": "Feature", "properties": {"collection_times": [{"days": "Mon-Fri", "time": "4:00pm"}, {"days": "Sat", "time": "3:00pm"}, {"days": "Sun", "time": "Closed"}], "id": "1382000013", "name": "USPS COLLECTION BOX - BLUE BOX", "address": {"city": "ONEONTA", "state": "NY", "street": "258 MAIN ST", "postcode": "13820"}}},
{"geometry": {"type": "Point", "coordinates": [-75.0609676479, 42.4547859813]}, "type": "Feature", "properties": {"collection_times": [{"days": "Mon-Fri", "time": "4:00pm"}, {"days": "Sat", "time": "3:00pm"}, {"days": "Sun", "time": "Closed"}], "id": "1382000014", "name": "USPS COLLECTION BOX - BLUE BOX", "address": {"city": "ONEONTA", "state": "NY", "street": "245 MAIN ST", "postcode": "13820"}}},
{"geometry": {"type": "Point", "coordinates": [-75.0619730833, 42.4539204044]}, "type": "Feature", "properties": {"collection_times": [{"days": "Mon-Fri", "time": "4:00pm"}, {"days": "Sat", "time": "3:00pm"}, {"days": "Sun", "time": "Closed"}], "id": "1382000015", "name": "USPS COLLECTION BOX - BLUE BOX", "address": {"city": "ONEONTA", "state": "NY", "street": "189 MAIN ST", "postcode": "13820"}}},
{"geometry": {"type": "Point", "coordinates": [-75.0332448259, 42.4572867364]}, "type": "Feature", "properties": {"collection_times": [{"days": "Mon-Sat", "time": "11:00am"}, {"days": "Sun", "time": "Closed"}], "id": "1382000021", "name": "USPS COLLECTION BOX - BLUE BOX", "address": {"city": "ONEONTA", "state": "NY", "street": "1 FOX CARE DR", "postcode": "13820"}}},
{"geometry": {"type": "Point", "coordinates": [-75.1040302017, 42.4486757459]}, "type": "Feature", "properties": {"collection_times": [{"days": "Mon-Sat", "time": "1:45pm"}, {"days": "Sun", "time": "Closed"}], "id": "1382000031", "name": "USPS COLLECTION BOX - BLUE BOX", "address": {"city": "ONEONTA", "state": "NY", "street": "124 ONEIDA ST", "postcode": "13820"}}},
{"geometry": {"type": "Point", "coordinates": [-75.0248441035, 42.4474542994]}, "type": "Feature", "properties": {"collection_times": [{"days": "Mon-Sat", "time": "9:00am"}, {"days": "Sun", "time": "Closed"}], "id": "1382000038", "name": "USPS COLLECTION BOX - BLUE BOX", "address": {"city": "ONEONTA", "state": "NY", "street": "5006 STATE HIGHWAY 23", "postcode": "13820"}}},
{"geometry": {"type": "Point", "coordinates": [-75.093863882, 42.4439497701]}, "type": "Feature", "properties": {"collection_times": [{"days": "Mon-Sat", "time": "11:00am"}, {"days": "Sun", "time": "Closed"}], "id": "1382000042", "name": "USPS COLLECTION BOX - BLUE BOX", "address": {"city": "ONEONTA", "state": "NY", "street": "297 RIVER ST SERVICE RD", "postcode": "13820"}}},
{"geometry": {"type": "Point", "coordinates": [-75.0573936511, 42.4571440288]}, "type": "Feature", "properties": {"collection_times": [{"days": "Mon-Fri", "time": "5:30pm"}, {"days": "Sat", "time": "4:00pm"}, {"days": "Sun", "time": "Closed"}], "id": "1382000046", "name": "USPS COLLECTION BOX - PO LOBBY", "address": {"city": "ONEONTA", "state": "NY", "street": "352 MAIN ST", "postcode": "13820"}}},
{"geometry": {"type": "Point", "coordinates": [-75.0246864834, 42.4474441865]}, "type": "Feature", "properties": {"collection_times": [{"days": "Mon-Sat", "time": "9:00am"}, {"days": "Sun", "time": "Closed"}], "id": "1382000048", "name": "USPS COLLECTION BOX - BLUE BOX", "address": {"city": "ONEONTA", "state": "NY", "street": "5054 STATE HIGHWAY 23", "postcode": "13820"}}},
{"geometry": {"type": "Point", "coordinates": [-75.0524325192, 42.4574657324]}, "type": "Feature", "properties": {"collection_times": [{"days": "Mon-Sat", "time": "9:00am"}, {"days": "Sun", "time": "Closed"}], "id": "1382000055", "name": "USPS COLLECTION BOX - BLUE BOX", "address": {"city": "ONEONTA", "state": "NY", "street": "1 NORTON AVE", "postcode": "13820"}}},
{"geometry": {"type": "Point", "coordinates": [-75.078471563, 42.4146335299]}, "type": "Feature", "properties": {"collection_times": [{"days": "Mon-Sat", "time": "10:30am"}, {"days": "Sun", "time": "Closed"}], "id": "1382000056", "name": "USPS COLLECTION BOX - BLUE BOX", "address": {"city": "ONEONTA", "state": "NY", "street": "1 705 ST HWY 28", "postcode": "13820"}}},
{"geometry": {"type": "Point", "coordinates": [-75.051837369, 42.4562907917]}, "type": "Feature", "properties": {"collection_times": [{"days": "Mon-Fri", "time": "2:30pm"}, {"days": "Sat", "time": "2:00pm"}, {"days": "Sun", "time": "Closed"}], "id": "1382000058", "name": "USPS COLLECTION BOX - BLUE BOX", "address": {"city": "ONEONTA", "state": "NY", "street": "60 MARKET ST", "postcode": "13820"}}},
{"geometry": {"type": "Point", "coordinates": [-75.0317381735, 42.4747749615]}, "type": "Feature", "properties": {"collection_times": [{"days": "Mon-Sat", "time": "11:00am"}, {"days": "Sun", "time": "Closed"}], "id": "1382000061", "name": "USPS COLLECTION BOX - BLUE BOX", "address": {"city": "ONEONTA", "state": "NY", "street": "122 MOUNTAIN VISTA DR", "postcode": "13820"}}},
{"geometry": {"type": "Point", "coordinates": [-75.0820100422, 42.4517827975]}, "type": "Feature", "properties": {"collection_times": [{"days": "Mon-Fri", "time": "4:45pm"}, {"days": "Sat", "time": "2:30pm"}, {"days": "Sun", "time": "Closed"}], "id": "1382000065", "name": "USPS COLLECTION BOX - BLUE BOX", "address": {"city": "ONEONTA", "state": "NY", "street": "291 CHESTNUT ST", "postcode": "13820"}}},
{"geometry": {"type": "Point", "coordinates": [-75.1726405173, 42.3967783013]}, "type": "Feature", "properties": {"collection_times": [{"days": "Mon-Fri", "time": "4:45pm"}, {"days": "Sat", "time": "11:45am"}, {"days": "Sun", "time": "Closed"}], "id": "1382500001", "name": "USPS COLLECTION BOX - BLUE BOX", "address": {"city": "OTEGO", "state": "NY", "street": "7 RIVER ST", "postcode": "13825"}}},
{"geometry": {"type": "Point", "coordinates": [-75.1726405173, 42.3967783013]}, "type": "Feature", "properties": {"collection_times": [{"days": "Mon-Fri", "time": "4:45pm"}, {"days": "Sat", "time": "11:45am"}, {"days": "Sun", "time": "Closed"}], "id": "1382500002", "name": "USPS COLLECTION BOX - PO LOBBY", "address": {"city": "OTEGO", "state": "NY", "street": "7 RIVER ST", "postcode": "13825"}}},
{"geometry": {"type": "Point", "coordinates": [-76.5158722378, 43.4616322794]}, "type": "Feature", "properties": {"collection_times": [{"days": "Mon-Fri", "time": "5:00pm"}, {"days": "Sat", "time": "3:00pm"}, {"days": "Sun", "time": "Closed"}], "id": "1382700001", "name": "USPS COLLECTION BOX - BLUE BOX", "address": {"city": "OWEGO", "state": "NY", "street": "6 LAKE ST", "postcode": "13827"}}},
{"geometry": {"type": "Point", "coordinates": [-76.5158722378, 43.4616322794]}, "type": "Feature", "properties": {"collection_times": [{"days": "Mon-Fri", "time": "5:00pm"}, {"days": "Sat", "time": "3:00pm"}, {"days": "Sun", "time": "Closed"}], "id": "1382700002", "name": "USPS COLLECTION BOX - BLUE BOX", "address": {"city": "OWEGO", "state": "NY", "street": "6 LAKE ST", "postcode": "13827"}}},
{"geometry": {"type": "Point", "coordinates": [-76.5158722378, 43.4616322794]}, "type": "Feature", "properties": {"collection_times": [{"days": "Mon-Fri", "time": "5:00pm"}, {"days": "Sat", "time": "3:00pm"}, {"days": "Sun", "time": "Closed"}], "id": "1382700003", "name": "USPS COLLECTION BOX - BLUE BOX", "address": {"city": "OWEGO", "state": "NY", "street": "6 LAKE ST", "postcode": "13827"}}},
{"geometry": {"type": "Point", "coordinates": [-76.2635013238, 42.1031381183]}, "type": "Feature", "properties": {"collection_times": [{"days": "Mon-Sat", "time": "2:00pm"}, {"days": "Sun", "time": "Closed"}], "id": "1382700025", "name": "USPS COLLECTION BOX - BLUE BOX", "address": {"city": "OWEGO", "state": "NY", "street": "153 MAIN ST", "postcode": "13827"}}},
{"geometry": {"type": "Point", "coordinates": [-76.5158722378, 43.4616322794]}, "type": "Feature", "properties": {"collection_times": [{"days": "Mon-Fri", "time": "5:00pm"}, {"days": "Sat", "time": "3:30pm"}, {"days": "Sun", "time": "Closed"}], "id": "1382700046", "name": "USPS COLLECTION BOX - PO LOBBY", "address": {"city": "OWEGO", "state": "NY", "street": "6 LAKE ST", "postcode": "13827"}}},
{"geometry": {"type": "Point", "coordinates": [-76.2714582686, 42.0991721073]}, "type": "Feature", "properties": {"collection_times": [{"days": "Mon-Sat", "time": "9:00am"}, {"days": "Sun", "time": "Closed"}], "id": "1382700047", "name": "USPS COLLECTION BOX - BLUE BOX", "address": {"city": "OWEGO", "state": "NY", "street": "42 W MAIN ST", "postcode": "13827"}}},
{"geometry": {"type": "Point", "coordinates": [-75.608685757, 42.4369317656]}, "type": "Feature", "properties": {"collection_times": [{"days": "Mon-Fri", "time": "4:00pm"}, {"days": "Sat", "time": "12:00pm"}, {"days": "Sun", "time": "Closed"}], "id": "1383000001", "name": "USPS COLLECTION BOX - PO LOBBY", "address": {"city": "OXFORD", "state": "NY", "street": "2 S WASHINGTON RD", "postcode": "13830"}}},
{"geometry": {"type": "Point", "coordinates": [-75.608685757, 42.4369317656]}, "type": "Feature", "properties": {"collection_times": [{"days": "Mon-Fri", "time": "4:00pm"}, {"days": "Sat", "time": "12:00pm"}, {"days": "Sun", "time": "Closed"}], "id": "1383000002", "name": "USPS COLLECTION BOX - BLUE BOX", "address": {"city": "OXFORD", "state": "NY", "street": "2 S WASHINGTON RD", "postcode": "13830"}}},
{"geometry": {"type": "Point", "coordinates": [-75.6072340764, 42.4528515785]}, "type": "Feature", "properties": {"collection_times": [{"days": "Mon-Sat", "time": "9:00am"}, {"days": "Sun", "time": "Closed"}], "id": "1383000005", "name": "USPS COLLECTION BOX - BLUE BOX", "address": {"city": "OXFORD", "state": "NY", "street": "4207 STATE HIGHWAY 220", "postcode": "13830"}}},
{"geometry": {"type": "Point", "coordinates": [-75.6026066235, 42.6178347475]}, "type": "Feature", "properties": {"collection_times": [{"days": "Mon-Fri", "time": "4:45pm"}, {"days": "Sat", "time": "11:15am"}, {"days": "Sun", "time": "Closed"}], "id": "1383200001", "name": "USPS COLLECTION BOX - BLUE BOX", "address": {"city": "PLYMOUTH", "state": "NY", "street": "107 COUNTY ROUTE 21", "postcode": "13832"}}},
{"geometry": {"type": "Point", "coordinates": [-75.6595233975, 42.6457465468]}, "type": "Feature", "properties": {"collection_times": [{"days": "Mon-Fri", "time": "12:30pm"}, {"days": "Sat", "time": "11:30am"}, {"days": "Sun", "time": "Closed"}], "id": "1383200002", "name": "USPS COLLECTION BOX - PO LOBBY", "address": {"city": "PLYMOUTH", "state": "NY", "street": "107 C0UNTY RT 21", "postcode": "13832"}}},
{"geometry": {"type": "Point", "coordinates": [-75.8353076645, 42.1643178542]}, "type": "Feature", "properties": {"collection_times": [{"days": "Mon-Fri", "time": "4:00pm"}, {"days": "Sat", "time": "11:30am"}, {"days": "Sun", "time": "Closed"}], "id": "1383300001", "name": "USPS COLLECTION BOX - BLUE BOX", "address": {"city": "PORT CRANE", "state": "NY", "street": "12 CANAL ST", "postcode": "13833"}}},
{"geometry": {"type": "Point", "coordinates": [-75.8353076645, 42.1643178542]}, "type": "Feature", "properties": {"collection_times": [{"days": "Mon-Fri", "time": "4:00pm"}, {"days": "Sat", "time": "11:30am"}, {"days": "Sun", "time": "Closed"}], "id": "1383300002", "name": "USPS COLLECTION BOX - PO LOBBY", "address": {"city": "PORT CRANE", "state": "NY", "street": "12 CANAL ST", "postcode": "13833"}}},
{"geometry": {"type": "Point", "coordinates": [-74.9783193594, 42.4952375546]}, "type": "Feature", "properties": {"collection_times": [{"days": "Mon-Fri", "time": "4:15pm"}, {"days": "Sat", "time": "11:45am"}, {"days": "Sun", "time": "Closed"}], "id": "1383400001", "name": "USPS COLLECTION BOX - BLUE BOX", "address": {"city": "PORTLANDVILLE", "state": "NY", "street": "2846 STATE HIGHWAY 28", "postcode": "13834"}}},
{"geometry": {"type": "Point", "coordinates": [-74.967726753, 42.5297821683]}, "type": "Feature", "properties": {"collection_times": [{"days": "Mon-Fri", "time": "1:00pm"}, {"days": "Sat", "time": "11:45am"}, {"days": "Sun", "time": "Closed"}], "id": "1383400002", "name": "USPS COLLECTION BOX - PO LOBBY", "address": {"city": "PORTLANDVILLE", "state": "NY", "street": "2846 STATE HIGHWAY 28", "postcode": "13834"}}},
{"geometry": {"type": "Point", "coordinates": [-76.200266417, 42.358107152]}, "type": "Feature", "properties": {"collection_times": [{"days": "Mon-Sat", "time": "3:00pm"}, {"days": "Sun", "time": "Closed"}], "id": "1383500001", "name": "USPS COLLECTION BOX - BLUE BOX", "address": {"city": "RICHFORD", "state": "NY", "street": "13334 STATE ROUTE 38", "postcode": "13835"}}},
{"geometry": {"type": "Point", "coordinates": [-75.4099018086, 42.2996255116]}, "type": "Feature", "properties": {"collection_times": [{"days": "Mon-Fri", "time": "5:00pm"}, {"days": "Sat", "time": "3:00pm"}, {"days": "Sun", "time": "Closed"}], "id": "1383800001", "name": "USPS COLLECTION BOX - BLUE BOX", "address": {"city": "SIDNEY", "state": "NY", "street": "6 MANG DR", "postcode": "13838"}}},
{"geometry": {"type": "Point", "coordinates": [-75.3892055581, 42.3074085707]}, "type": "Feature", "properties": {"collection_times": [{"days": "Mon-Fri", "time": "9:00am"}, {"days": "Sat", "time": "2:30pm"}, {"days": "Sun", "time": "Closed"}], "id": "1383800003", "name": "USPS COLLECTION BOX - BLUE BOX", "address": {"city": "SIDNEY", "state": "NY", "street": "61 MAIN ST", "postcode": "13838"}}},
{"geometry": {"type": "Point", "coordinates": [-75.3898751128, 42.3173998421]}, "type": "Feature", "properties": {"collection_times": [{"days": "Mon-Fri", "time": "1:00pm"}, {"days": "Sat", "time": "1:30pm"}, {"days": "Sun", "time": "Closed"}], "id": "1383800016", "name": "USPS COLLECTION BOX - BLUE BOX", "address": {"city": "SIDNEY", "state": "NY", "street": "15 PLEASANT ST", "postcode": "13838"}}},
{"geometry": {"type": "Point", "coordinates": [-75.4099018086, 42.2996255116]}, "type": "Feature", "properties": {"collection_times": [{"days": "Mon-Fri", "time": "4:45pm"}, {"days": "Sat", "time": "3:00pm"}, {"days": "Sun", "time": "Closed"}], "id": "1383800021", "name": "USPS COLLECTION BOX - PO LOBBY", "address": {"city": "SIDNEY", "state": "NY", "street": "6 MANG DR", "postcode": "13838"}}},
{"geometry": {"type": "Point", "coordinates": [-75.3890860792, 42.3064113362]}, "type": "Feature", "properties": {"collection_times": [{"days": "Mon-Sat", "time": "2:30pm"}, {"days": "Sun", "time": "Closed"}], "id": "1383800028", "name": "USPS COLLECTION BOX - BLUE BOX", "address": {"city": "SIDNEY", "state": "NY", "street": "72 MAIN ST", "postcode": "13838"}}},
{"geometry": {"type": "Point", "coordinates": [-75.2564042187, 42.2909476967]}, "type": "Feature", "properties": {"collection_times": [{"days": "Mon-Fri", "time": "4:15pm"}, {"days": "Sat", "time": "11:15am"}, {"days": "Sun", "time": "Closed"}], "id": "1383900002", "name": "USPS COLLECTION BOX - BLUE BOX", "address": {"city": "SIDNEY CENTER", "state": "NY", "street": "10445 COUNTY HIGHWAY 23", "postcode": "13839"}}},
{"geometry": {"type": "Point", "coordinates": [-75.2564369917, 42.2909498633]}, "type": "Feature", "properties": {"collection_times": [{"days": "Mon-Fri", "time": "3:00pm"}, {"days": "Sat", "time": "11:15am"}, {"days": "Sun", "time": "Closed"}], "id": "1383900003", "name": "USPS COLLECTION BOX - PO LOBBY", "address": {"city": "SIDNEY CENTER", "state": "NY", "street": "10445 COUNTY HIGHWAY 23", "postcode": "13839"}}},
{"geometry": {"type": "Point", "coordinates": [-75.8023189765, 42.3921358488]}, "type": "Feature", "properties": {"collection_times": [{"days": "Mon-Fri", "time": "4:30pm"}, {"days": "Sat", "time": "11:30am"}, {"days": "Sun", "time": "Closed"}], "id": "1384100001", "name": "USPS COLLECTION BOX - BLUE BOX", "address": {"city": "SMITHVILLE FLATS", "state": "NY", "street": "5299 STATE ROUTE 41 S", "postcode": "13841"}}},
{"geometry": {"type": "Point", "coordinates": [-75.8084190226, 42.3980750253]}, "type": "Feature", "properties": {"collection_times": [{"days": "Mon-Fri", "time": "12:00pm"}, {"days": "Sat", "time": "11:30am"}, {"days": "Sun", "time": "Closed"}], "id": "1384100002", "name": "USPS COLLECTION BOX - PO LOBBY", "address": {"city": "SMITHVILLE FLATS", "state": "NY", "street": "5299 STATE HIGHWAY 41", "postcode": "13841"}}},
{"geometry": {"type": "Point", "coordinates": [-75.385807936, 42.5298619901]}, "type": "Feature", "properties": {"collection_times": [{"days": "Mon-Fri", "time": "4:30pm"}, {"days": "Sat", "time": "11:30am"}, {"days": "Sun", "time": "Closed"}], "id": "1384300001", "name": "USPS COLLECTION BOX - BLUE BOX", "address": {"city": "SOUTH NEW BERLIN", "state": "NY", "street": "6338 STATE HWY 23", "postcode": "13843"}}},
{"geometry": {"type": "Point", "coordinates": [-75.385807936, 42.5298619901]}, "type": "Feature", "properties": {"collection_times": [{"days": "Mon-Fri", "time": "3:15pm"}, {"days": "Sat", "time": "11:45am"}, {"days": "Sun", "time": "Closed"}], "id": "1384300002", "name": "USPS COLLECTION BOX - PO LOBBY", "address": {"city": "SOUTH NEW BERLIN", "state": "NY", "street": "6338 STATE HWY 23", "postcode": "13843"}}},
{"geometry": {"type": "Point", "coordinates": [-75.5680833502, 42.5827629632]}, "type": "Feature", "properties": {"collection_times": [{"days": "Mon-Fri", "time": "5:00pm"}, {"days": "Sat", "time": "10:45am"}, {"days": "Sun", "time": "Closed"}], "id": "1384400001", "name": "USPS COLLECTION BOX - BLUE BOX", "address": {"city": "SOUTH PLYMOUTH", "state": "NY", "street": "3799 STATE HIGHWAY 23", "postcode": "13844"}}},
{"geometry": {"type": "Point", "coordinates": [-75.5679303358, 42.5826343831]}, "type": "Feature", "properties": {"collection_times": [{"days": "Mon-Fri", "time": "5:00pm"}, {"days": "Sat", "time": "11:00am"}, {"days": "Sun", "time": "Closed"}], "id": "1384400002", "name": "USPS COLLECTION BOX - PO LOBBY", "address": {"city": "SOUTH PLYMOUTH", "state": "NY", "street": "3799 STATE HIGHWAY 23", "postcode": "13844"}}},
{"geometry": {"type": "Point", "coordinates": [-75.2791224183, 42.2037204384]}, "type": "Feature", "properties": {"collection_times": [{"days": "Mon-Fri", "time": "4:15pm"}, {"days": "Sat", "time": "11:00am"}, {"days": "Sun", "time": "Closed"}], "id": "1384700001", "name": "USPS COLLECTION BOX - BLUE BOX", "address": {"city": "TROUT CREEK", "state": "NY", "street": "8650 COUNTY HIGHWAY 27", "postcode": "13847"}}},
{"geometry": {"type": "Point", "coordinates": [-75.2791224183, 42.2037204384]}, "type": "Feature", "properties": {"collection_times": [{"days": "Mon-Fri", "time": "12:00pm"}, {"days": "Sat", "time": "11:15am"}, {"days": "Sun", "time": "Closed"}], "id": "1384700002", "name": "USPS COLLECTION BOX - PO LOBBY", "address": {"city": "TROUT CREEK", "state": "NY", "street": "8650 COUNTY HIGHWAY 27", "postcode": "13847"}}},
{"geometry": {"type": "Point", "coordinates": [-75.7264082728, 42.2161111045]}, "type": "Feature", "properties": {"collection_times": [{"days": "Mon-Fri", "time": "4:30pm"}, {"days": "Sat", "time": "11:30am"}, {"days": "Sun", "time": "Closed"}], "id": "1384800001", "name": "USPS COLLECTION BOX - BLUE BOX", "address": {"city": "TUNNEL", "state": "NY", "street": "688 TUNNEL RD", "postcode": "13848"}}},
{"geometry": {"type": "Point", "coordinates": [-75.7264082728, 42.2161111045]}, "type": "Feature", "properties": {"collection_times": [{"days": "Mon-Fri", "time": "10:00am"}, {"days": "Sat", "time": "12:00pm"}, {"days": "Sun", "time": "Closed"}], "id": "1384800002", "name": "USPS COLLECTION BOX - PO LOBBY", "address": {"city": "TUNNEL", "state": "NY", "street": "688 TUNNEL RD", "postcode": "13848"}}},
{"geometry": {"type": "Point", "coordinates": [-75.3163022973, 42.3216662964]}, "type": "Feature", "properties": {"collection_times": [{"days": "Mon-Fri", "time": "4:45pm"}, {"days": "Sat", "time": "11:45am"}, {"days": "Sun", "time": "Closed"}], "id": "1384900001", "name": "USPS COLLECTION BOX - BLUE BOX", "address": {"city": "UNADILLA", "state": "NY", "street": "4 BRIDGE ST", "postcode": "13849"}}},
{"geometry": {"type": "Point", "coordinates": [-75.3163022973, 42.3216662964]}, "type": "Feature", "properties": {"collection_times": [{"days": "Mon-Fri", "time": "5:00pm"}, {"days": "Sat", "time": "12:00pm"}, {"days": "Sun", "time": "Closed"}], "id": "1384900002", "name": "USPS COLLECTION BOX - PO LOBBY", "address": {"city": "UNADILLA", "state": "NY", "street": "4 BRIDGE ST", "postcode": "13849"}}},
{"geometry": {"type": "Point", "coordinates": [-75.3163022973, 42.3216662964]}, "type": "Feature", "properties": {"collection_times": [{"days": "Mon-Fri", "time": "5:00pm"}, {"days": "Sat", "time": "12:00pm"}, {"days": "Sun", "time": "Closed"}], "id": "1384900003", "name": "USPS COLLECTION BOX - PO LOBBY", "address": {"city": "UNADILLA", "state": "NY", "street": "4 BRIDGE ST", "postcode": "13849"}}},
{"geometry": {"type": "Point", "coordinates": [-76.003380633, 42.093915434]}, "type": "Feature", "properties": {"collection_times": [{"days": "Mon-Fri", "time": "5:30pm"}, {"days": "Sat", "time": "3:00pm"}, {"days": "Sun", "time": "Closed"}], "id": "1385000001", "name": "USPS COLLECTION BOX - BLUE BOX", "address": {"city": "VESTAL", "state": "NY", "street": "117 RANO BLVD", "postcode": "13850"}}},
{"geometry": {"type": "Point", "coordinates": [-76.003380633, 42.093915434]}, "type": "Feature", "properties": {"collection_times": [{"days": "Mon-Fri", "time": "6:00pm"}, {"days": "Sat", "time": "4:00pm"}, {"days": "Sun", "time": "Closed"}], "id": "1385000004", "name": "USPS COLLECTION BOX - PO LOBBY", "address": {"city": "VESTAL", "state": "NY", "street": "117 RANO BLVD", "postcode": "13850"}}},
{"geometry": {"type": "Point", "coordinates": [-75.9896175637, 42.1054999515]}, "type": "Feature", "properties": {"collection_times": [{"days": "Mon-Fri", "time": "5:00pm"}, {"days": "Sat-Sun", "time": "Closed"}], "id": "1385000008", "name": "USPS COLLECTION BOX - BLUE BOX", "address": {"city": "VESTAL", "state": "NY", "street": "408 COMMERCE RD", "postcode": "13850"}}},
{"geometry": {"type": "Point", "coordinates": [-75.9834626282, 42.0964775235]}, "type": "Feature", "properties": {"collection_times": [{"days": "Mon-Fri", "time": "4:45pm"}, {"days": "Sat", "time": "10:00am"}, {"days": "Sun", "time": "Closed"}], "id": "1385000011", "name": "USPS COLLECTION BOX - BLUE BOX", "address": {"city": "VESTAL", "state": "NY", "street": "3701 VESTAL PKWY E", "postcode": "13850"}}},
{"geometry": {"type": "Point", "coordinates": [-75.9748927721, 42.0971667819]}, "type": "Feature", "properties": {"collection_times": [{"days": "Mon-Fri", "time": "4:45pm"}, {"days": "Sat", "time": "10:15am"}, {"days": "Sun", "time": "Closed"}], "id": "1385000012", "name": "USPS COLLECTION BOX - BLUE BOX", "address": {"city": "VESTAL", "state": "NY", "street": "4104 VESTAL RD", "postcode": "13850"}}},
{"geometry": {"type": "Point", "coordinates": [-76.003620249, 42.0941920468]}, "type": "Feature", "properties": {"collection_times": [{"days": "Mon-Sat", "time": "9:00am"}, {"days": "Sun", "time": "Closed"}], "id": "1385000014", "name": "USPS COLLECTION BOX - BLUE BOX", "address": {"city": "VESTAL", "state": "NY", "street": "100 RANO BLVD", "postcode": "13850"}}},
{"geometry": {"type": "Point", "coordinates": [-76.0563247244, 42.0858013993]}, "type": "Feature", "properties": {"collection_times": [{"days": "Mon-Fri", "time": "4:45pm"}, {"days": "Sat", "time": "9:00am"}, {"days": "Sun", "time": "Closed"}], "id": "1385000020", "name": "USPS COLLECTION BOX - BLUE BOX", "address": {"city": "VESTAL", "state": "NY", "street": "146 VESTAL PKWY W", "postcode": "13850"}}},
{"geometry": {"type": "Point", "coordinates": [-76.0533423802, 42.0838884742]}, "type": "Feature", "properties": {"collection_times": [{"days": "Mon-Fri", "time": "5:00pm"}, {"days": "Sat", "time": "9:00am"}, {"days": "Sun", "time": "Closed"}], "id": "1385000027", "name": "USPS COLLECTION BOX - BLUE BOX", "address": {"city": "VESTAL", "state": "NY", "street": "300 MAIN ST", "postcode": "13850"}}},
{"geometry": {"type": "Point", "coordinates": [-76.0524303188, 42.0785793544]}, "type": "Feature", "properties": {"collection_times": [{"days": "Mon-Sat", "time": "12:30pm"}, {"days": "Sun", "time": "Closed"}], "id": "1385000030", "name": "USPS COLLECTION BOX - BLUE BOX", "address": {"city": "VESTAL", "state": "NY", "street": "101 HAZEL DR", "postcode": "13850"}}},
{"geometry": {"type": "Point", "coordinates": [-76.0487986348, 42.0820016547]}, "type": "Feature", "properties": {"collection_times": [{"days": "Mon-Sat", "time": "2:00pm"}, {"days": "Sun", "time": "Closed"}], "id": "1385000032", "name": "USPS COLLECTION BOX - BLUE BOX", "address": {"city": "VESTAL", "state": "NY", "street": "333 CLAYTON AVE", "postcode": "13850"}}},
{"geometry": {"type": "Point", "coordinates": [-76.0467793239, 42.0878300935]}, "type": "Feature", "properties": {"collection_times": [{"days": "Mon-Sat", "time": "9:45am"}, {"days": "Sun", "time": "Closed"}], "id": "1385000034", "name": "USPS COLLECTION BOX - BLUE BOX", "address": {"city": "VESTAL", "state": "NY", "street": "320 VESTAL PKWY E", "postcode": "13850"}}},
{"geometry": {"type": "Point", "coordinates": [-76.0656510682, 42.0831526737]}, "type": "Feature", "properties": {"collection_times": [{"days": "Mon-Fri", "time": "4:45pm"}, {"days": "Sat", "time": "2:30pm"}, {"days": "Sun", "time": "Closed"}], "id": "1385000037", "name": "USPS COLLECTION BOX - BLUE BOX", "address": {"city": "VESTAL", "state": "NY", "street": "605 VESTAL PKWY W", "postcode": "13850"}}},
{"geometry": {"type": "Point", "coordinates": [-76.0123883408, 42.0944262727]}, "type": "Feature", "properties": {"collection_times": [{"days": "Mon-Sat", "time": "10:15am"}, {"days": "Sun", "time": "Closed"}], "id": "1385000039", "name": "USPS COLLECTION BOX - BLUE BOX", "address": {"city": "VESTAL", "state": "NY", "street": "2405 VESTAL PKWY E", "postcode": "13850"}}},
{"geometry": {"type": "Point", "coordinates": [-76.0180492775, 42.0795222834]}, "type": "Feature", "properties": {"collection_times": [{"days": "Mon-Fri", "time": "3:00pm"}, {"days": "Sat", "time": "11:00am"}, {"days": "Sun", "time": "Closed"}], "id": "1385000040", "name": "USPS COLLECTION BOX - EXPRESS", "address": {"city": "VESTAL", "state": "NY", "street": "3600 VESTAL PKWY E", "postcode": "13850"}}},
{"geometry": {"type": "Point", "coordinates": [-75.9555838343, 42.0905343377]}, "type": "Feature", "properties": {"collection_times": [{"days": "Mon-Fri", "time": "4:00pm"}, {"days": "Sat", "time": "11:00am"}, {"days": "Sun", "time": "Closed"}], "id": "1385000046", "name": "USPS COLLECTION BOX - BLUE BOX", "address": {"city": "VESTAL", "state": "NY", "street": "400 PLAZA DR", "postcode": "13850"}}},
{"geometry": {"type": "Point", "coordinates": [-75.9734216725, 42.0975481014]}, "type": "Feature", "properties": {"collection_times": [{"days": "Mon-Fri", "time": "4:45pm"}, {"days": "Sat", "time": "10:15am"}, {"days": "Sun", "time": "Closed"}], "id": "1385000048", "name": "USPS COLLECTION BOX - BLUE BOX", "address": {"city": "VESTAL", "state": "NY", "street": "4100 VESTAL RD", "postcode": "13850"}}},
{"geometry": {"type": "Point", "coordinates": [-75.9865678955, 42.0966147468]}, "type": "Feature", "properties": {"collection_times": [{"days": "Mon-Fri", "time": "3:00pm"}, {"days": "Sat", "time": "11:00am"}, {"days": "Sun", "time": "Closed"}], "id": "1385000049", "name": "USPS COLLECTION BOX - BLUE BOX", "address": {"city": "VESTAL", "state": "NY", "street": "3600 VESTAL PKWY E", "postcode": "13850"}}},
{"geometry": {"type": "Point", "coordinates": [-76.003380633, 42.093915434]}, "type": "Feature", "properties": {"collection_times": [{"days": "Mon-Fri", "time": "6:00pm"}, {"days": "Sat", "time": "4:00pm"}, {"days": "Sun", "time": "Closed"}], "id": "1385000050", "name": "USPS COLLECTION BOX - APC", "address": {"city": "VESTAL", "state": "NY", "street": "117 RANO BLVD", "postcode": "13850"}}},
{"geometry": {"type": "Point", "coordinates": [-75.1287766333, 42.1687328452]}, "type": "Feature", "properties": {"collection_times": [{"days": "Mon-Fri", "time": "5:00pm"}, {"days": "Sat", "time": "12:30pm"}, {"days": "Sun", "time": "Closed"}], "id": "1385600002", "name": "USPS COLLECTION BOX - PO LOBBY", "address": {"city": "WALTON", "state": "NY", "street": "34 GARDINER PL", "postcode": "13856"}}},
{"geometry": {"type": "Point", "coordinates": [-75.1286659438, 42.1690993744]}, "type": "Feature", "properties": {"collection_times": [{"days": "Mon-Fri", "time": "5:00pm"}, {"days": "Sat", "time": "12:30pm"}, {"days": "Sun", "time": "Closed"}], "id": "1385600004", "name": "USPS COLLECTION BOX - BLUE BOX", "address": {"city": "WALTON", "state": "NY", "street": "29 GARDINER PL", "postcode": "13856"}}},
{"geometry": {"type": "Point", "coordinates": [-75.1274522279, 42.1632389957]}, "type": "Feature", "properties": {"collection_times": [{"days": "Mon-Sat", "time": "11:00am"}, {"days": "Sun", "time": "Closed"}], "id": "1385600011", "name": "USPS COLLECTION BOX - BLUE BOX", "address": {"city": "WALTON", "state": "NY", "street": "14 MAPLE ST", "postcode": "13856"}}},
{"geometry": {"type": "Point", "coordinates": [-75.1317335287, 42.1687393496]}, "type": "Feature", "properties": {"collection_times": [{"days": "Mon-Sat", "time": "8:30am"}, {"days": "Sun", "time": "Closed"}], "id": "1385600013", "name": "USPS COLLECTION BOX - BLUE BOX", "address": {"city": "WALTON", "state": "NY", "street": "1 LIBERTY ST", "postcode": "13856"}}},
{"geometry": {"type": "Point", "coordinates": [-75.1298560005, 42.1681364458]}, "type": "Feature", "properties": {"collection_times": [{"days": "Mon-Fri", "time": "2:30pm"}, {"days": "Sat", "time": "8:30am"}, {"days": "Sun", "time": "Closed"}], "id": "1385600015", "name": "USPS COLLECTION BOX - BLUE BOX", "address": {"city": "WALTON", "state": "NY", "street": "133 DELAWARE ST", "postcode": "13856"}}},
{"geometry": {"type": "Point", "coordinates": [-75.1287766333, 42.1687328452]}, "type": "Feature", "properties": {"collection_times": [{"days": "Mon-Fri", "time": "5:00pm"}, {"days": "Sat", "time": "12:30pm"}, {"days": "Sun", "time": "Closed"}], "id": "1385600018", "name": "USPS COLLECTION BOX - BLUE BOX", "address": {"city": "WALTON", "state": "NY", "street": "34 GARDINER PL", "postcode": "13856"}}},
{"geometry": {"type": "Point", "coordinates": [-75.2457914334, 42.3688656469]}, "type": "Feature", "properties": {"collection_times": [{"days": "Mon-Fri", "time": "4:00pm"}, {"days": "Sat", "time": "11:30am"}, {"days": "Sun", "time": "Closed"}], "id": "1385900001", "name": "USPS COLLECTION BOX - BLUE BOX", "address": {"city": "WELLS BRIDGE", "state": "NY", "street": "116 CNTY RT 4", "postcode": "13859"}}},
{"geometry": {"type": "Point", "coordinates": [-75.2457914334, 42.3688656469]}, "type": "Feature", "properties": {"collection_times": [{"days": "Mon-Fri", "time": "12:00pm"}, {"days": "Sat", "time": "11:45am"}, {"days": "Sun", "time": "Closed"}], "id": "1385900002", "name": "USPS COLLECTION BOX - PO LOBBY", "address": {"city": "WELLS BRIDGE", "state": "NY", "street": "116 CNTY RT 4", "postcode": "13859"}}},
{"geometry": {"type": "Point", "coordinates": [-74.9632861724, 42.4454201224]}, "type": "Feature", "properties": {"collection_times": [{"days": "Mon-Fri", "time": "4:30pm"}, {"days": "Sat", "time": "10:30am"}, {"days": "Sun", "time": "Closed"}], "id": "1386000001", "name": "USPS COLLECTION BOX - BLUE BOX", "address": {"city": "WEST DAVENPORT", "state": "NY", "street": "37 CHARLOTTE CREEK RD", "postcode": "13860"}}},
{"geometry": {"type": "Point", "coordinates": [-74.920420923, 42.454102649]}, "type": "Feature", "properties": {"collection_times": [{"days": "Mon-Fri", "time": "12:00pm"}, {"days": "Sat", "time": "10:30am"}, {"days": "Sun", "time": "Closed"}], "id": "1386000002", "name": "USPS COLLECTION BOX - PO LOBBY", "address": {"city": "WEST DAVENPORT", "state": "NY", "street": "37 CHARLOTTE CREEK RD", "postcode": "13860"}}},
{"geometry": {"type": "Point", "coordinates": [-75.1198195654, 42.4761644109]}, "type": "Feature", "properties": {"collection_times": [{"days": "Mon-Fri", "time": "4:30pm"}, {"days": "Sat", "time": "11:30am"}, {"days": "Sun", "time": "Closed"}], "id": "1386100001", "name": "USPS COLLECTION BOX - BLUE BOX", "address": {"city": "WEST ONEONTA", "state": "NY", "street": "3912 STATE HIGHWAY 23", "postcode": "13861"}}},
{"geometry": {"type": "Point", "coordinates": [-75.1198195654, 42.4761644109]}, "type": "Feature", "properties": {"collection_times": [{"days": "Mon-Fri", "time": "4:45pm"}, {"days": "Sat", "time": "11:30am"}, {"days": "Sun", "time": "Closed"}], "id": "1386100002", "name": "USPS COLLECTION BOX - PO LOBBY", "address": {"city": "WEST ONEONTA", "state": "NY", "street": "3912 STATE HIGHWAY 23", "postcode": "13861"}}},
{"geometry": {"type": "Point", "coordinates": [-75.9688565017, 42.327913846]}, "type": "Feature", "properties": {"collection_times": [{"days": "Mon-Fri", "time": "4:30pm"}, {"days": "Sat", "time": "12:00pm"}, {"days": "Sun", "time": "Closed"}], "id": "1386200007", "name": "USPS COLLECTION BOX - BLUE BOX", "address": {"city": "WHITNEY POINT", "state": "NY", "street": "7321 ACADEMY ST", "postcode": "13862"}}},
{"geometry": {"type": "Point", "coordinates": [-75.9691534192, 42.3289751024]}, "type": "Feature", "properties": {"collection_times": [{"days": "Mon-Fri", "time": "4:30pm"}, {"days": "Sat", "time": "12:00pm"}, {"days": "Sun", "time": "Closed"}], "id": "1386200008", "name": "USPS COLLECTION BOX - PO LOBBY", "address": {"city": "WHITNEY POINT", "state": "NY", "street": "2641 MAIN ST", "postcode": "13862"}}},
{"geometry": {"type": "Point", "coordinates": [-75.8994016351, 42.440129119]}, "type": "Feature", "properties": {"collection_times": [{"days": "Mon-Fri", "time": "4:30pm"}, {"days": "Sat", "time": "11:30am"}, {"days": "Sun", "time": "Closed"}], "id": "1386300001", "name": "USPS COLLECTION BOX - BLUE BOX", "address": {"city": "WILLET", "state": "NY", "street": "1300 LOWER CINCINNATUS RD", "postcode": "13863"}}},
{"geometry": {"type": "Point", "coordinates": [-75.8994016351, 42.440129119]}, "type": "Feature", "properties": {"collection_times": [{"days": "Mon-Fri", "time": "3:00pm"}, {"days": "Sat", "time": "11:30am"}, {"days": "Sun", "time": "Closed"}], "id": "1386300002", "name": "USPS COLLECTION BOX - PO LOBBY", "address": {"city": "WILLET", "state": "NY", "street": "1300 LOWER CINCINNATUS RD", "postcode": "13863"}}},
{"geometry": {"type": "Point", "coordinates": [-76.3787127688, 42.2876831141]}, "type": "Feature", "properties": {"collection_times": [{"days": "Mon-Fri", "time": "4:45pm"}, {"days": "Sat", "time": "11:00am"}, {"days": "Sun", "time": "Closed"}], "id": "1386400001", "name": "USPS COLLECTION BOX - BLUE BOX", "address": {"city": "WILLSEYVILLE", "state": "NY", "street": "24 WILLSEYVILLE RD", "postcode": "13864"}}},
{"geometry": {"type": "Point", "coordinates": [-76.3787127688, 42.2876831141]}, "type": "Feature", "properties": {"collection_times": [{"days": "Mon-Fri", "time": "12:00pm"}, {"days": "Sat", "time": "11:00am"}, {"days": "Sun", "time": "Closed"}], "id": "1386400002", "name": "USPS COLLECTION BOX - PO LOBBY", "address": {"city": "WILLSEYVILLE", "state": "NY", "street": "24 WILLSEYVILLE RD", "postcode": "13864"}}},
{"geometry": {"type": "Point", "coordinates": [-75.6488461235, 42.0764204543]}, "type": "Feature", "properties": {"collection_times": [{"days": "Mon-Fri", "time": "4:30pm"}, {"days": "Sat", "time": "12:00pm"}, {"days": "Sun", "time": "Closed"}], "id": "1386500001", "name": "USPS COLLECTION BOX - BLUE BOX", "address": {"city": "WINDSOR", "state": "NY", "street": "652 OLD ROUTE 17", "postcode": "13865"}}},
{"geometry": {"type": "Point", "coordinates": [-75.6488461235, 42.0764204543]}, "type": "Feature", "properties": {"collection_times": [{"days": "Mon-Fri", "time": "4:30pm"}, {"days": "Sat", "time": "12:00pm"}, {"days": "Sun", "time": "Closed"}], "id": "1386500003", "name": "USPS COLLECTION BOX - PO LOBBY", "address": {"city": "WINDSOR", "state": "NY", "street": "652 OLD ROUTE 17", "postcode": "13865"}}}
]}
