{"type": "FeatureCollection", "features": [
{"geometry": {"type": "Point", "coordinates": [-75.8876204758, 42.1486554775]}, "type": "Feature", "properties": {"collection_times": [{"days": "Mon-Sat", "time": "3:00pm"}, {"days": "Sun", "time": "Closed"}], "id": "1390100009", "name": "USPS COLLECTION BOX - BLUE BOX", "address": {"city": "BINGHAMTON", "state": "NY", "street": "1110 CHENANGO ST", "postcode": "13901"}}},
{"geometry": {"type": "Point", "coordinates": [-75.89931364, 42.1216771544]}, "type": "Feature", "properties": {"collection_times": [{"days": "Mon-Sat", "time": "10:00am"}, {"days": "Sun", "time": "Closed"}], "id": "1390100013", "name": "USPS COLLECTION BOX - BLUE BOX", "address": {"city": "BINGHAMTON", "state": "NY", "street": "568 CHENANGO ST", "postcode": "13901"}}},
{"geometry": {"type": "Point", "coordinates": [-75.8961797904, 42.1336197445]}, "type": "Feature", "properties": {"collection_times": [{"days": "Mon-Sat", "time": "10:30am"}, {"days": "Sun", "time": "Closed"}], "id": "1390100015", "name": "USPS COLLECTION BOX - BLUE BOX", "address": {"city": "BINGHAMTON", "state": "NY", "street": "730 CHENANGO ST", "postcode": "13901"}}},
{"geometry": {"type": "Point", "coordinates": [-75.9102948546, 42.1005043124]}, "type": "Feature", "properties": {"collection_times": [{"days": "Mon-Fri", "time": "4:00pm"}, {"days": "Sat", "time": "1:00pm"}, {"days": "Sun", "time": "Closed"}], "id": "1390100023", "name": "USPS COLLECTION BOX - BLUE BOX", "address": {"city": "BINGHAMTON", "state": "NY", "street": "53 CHENANGO ST", "postcode": "13901"}}},
{"geometry": {"type": "Point", "coordinates": [-75.9076187364, 42.0996447391]}, "type": "Feature", "properties": {"collection_times": [{"days": "Mon-Sat", "time": "11:00am"}, {"days": "Sun", "time": "Closed"}], "id": "1390100024", "name": "USPS COLLECTION BOX - BLUE BOX", "address": {"city": "BINGHAMTON", "state": "NY", "street": "164 COURT ST", "postcode": "13901"}}},
{"geometry": {"type": "Point", "coordinates": [-75.9044539817, 42.1005214025]}, "type": "Feature", "properties": {"collection_times": [{"days": "Mon-Sat", "time": "11:00am"}, {"days": "Sun", "time": "Closed"}], "id": "1390100025", "name": "USPS COLLECTION BOX - BLUE BOX", "address": {"city": "BINGHAMTON", "state": "NY", "street": "198 COURT ST", "postcode": "13901"}}},
{"geometry": {"type": "Point", "coordinates": [-75.9143507303, 42.0987573227]}, "type": "Feature", "properties": {"collection_times": [{"days": "Mon-Fri", "time": "4:00pm"}, {"days": "Sat", "time": "1:00pm"}, {"days": "Sun", "time": "Closed"}], "id": "1390100028", "name": "USPS COLLECTION BOX - BLUE BOX", "address": {"city": "BINGHAMTON", "state": "NY", "street": "25 COURT ST", "postcode": "13901"}}},
{"geometry": {"type": "Point", "coordinates": [-75.9102586852, 42.098483269]}, "type": "Feature", "properties": {"collection_times": [{"days": "Mon-Fri", "time": "5:00pm"}, {"days": "Sat", "time": "1:00pm"}, {"days": "Sun", "time": "Closed"}], "id": "1390100031", "name": "USPS COLLECTION BOX - BLUE BOX", "address": {"city": "BINGHAMTON", "state": "NY", "street": "80 EXCHANGE ST", "postcode": "13901"}}},
{"geometry": {"type": "Point", "coordinates": [-75.8962186524, 42.1563267855]}, "type": "Feature", "properties": {"collection_times": [{"days": "Mon-Fri", "time": "4:15pm"}, {"days": "Sat", "time": "1:00pm"}, {"days": "Sun", "time": "Closed"}], "id": "1390100033", "name": "USPS COLLECTION BOX - BLUE BOX", "address": {"city": "BINGHAMTON", "state": "NY", "street": "1250 FRONT ST", "postcode": "13901"}}},
{"geometry": {"type": "Point", "coordinates": [-75.8955313442, 42.1590714089]}, "type": "Feature", "properties": {"collection_times": [{"days": "Mon-Fri", "time": "4:15pm"}, {"days": "Sat", "time": "1:00pm"}, {"days": "Sun", "time": "Closed"}], "id": "1390100034", "name": "USPS COLLECTION BOX - BLUE BOX", "address": {"city": "BINGHAMTON", "state": "NY", "street": "1290 FRONT ST", "postcode": "13901"}}},
{"geometry": {"type": "Point", "coordinates": [-75.9148222662, 42.0976371229]}, "type": "Feature", "properties": {"collection_times": [{"days": "Mon-Fri", "time": "4:30pm"}, {"days": "Sat", "time": "1:00pm"}, {"days": "Sun", "time": "Closed"}], "id": "1390100037", "name": "USPS COLLECTION BOX - BLUE BOX", "address": {"city": "BINGHAMTON", "state": "NY", "street": "2-8 HAWLEY ST", "postcode": "13901"}}},
{"geometry": {"type": "Point", "coordinates": [-75.911510356, 42.097101494]}, "type": "Feature", "properties": {"collection_times": [{"days": "Mon-Fri", "time": "5:00pm"}, {"days": "Sat", "time": "1:00pm"}, {"days": "Sun", "time": "Closed"}], "id": "1390100038", "name": "USPS COLLECTION BOX - BLUE BOX", "address": {"city": "BINGHAMTON", "state": "NY", "street": "44 HAWLEY ST", "postcode": "13901"}}},
{"geometry": {"type": "Point", "coordinates": [-75.9074798099, 42.0980261261]}, "type": "Feature", "properties": {"collection_times": [{"days": "Mon-Sat", "time": "1:00pm"}, {"days": "Sun", "time": "Closed"}], "id": "1390100039", "name": "USPS COLLECTION BOX - BLUE BOX", "address": {"city": "BINGHAMTON", "state": "NY", "street": "117 HAWLEY ST", "postcode": "13901"}}},
{"geometry": {"type": "Point", "coordinates": [-75.9097655358, 42.0972677588]}, "type": "Feature", "properties": {"collection_times": [{"days": "Mon-Fri", "time": "5:00pm"}, {"days": "Sat", "time": "1:00pm"}, {"days": "Sun", "time": "Closed"}], "id": "1390100040", "name": "USPS COLLECTION BOX - BLUE BOX", "address": {"city": "BINGHAMTON", "state": "NY", "street": "80 HAWLEY ST", "postcode": "13901"}}},
{"geometry": {"type": "Point", "coordinates": [-75.91258578, 42.0972013141]}, "type": "Feature", "properties": {"collection_times": [{"days": "Mon-Fri", "time": "4:30pm"}, {"days": "Sat", "time": "1:00pm"}, {"days": "Sun", "time": "Closed"}], "id": "1390100042", "name": "USPS COLLECTION BOX - BLUE BOX", "address": {"city": "BINGHAMTON", "state": "NY", "street": "71 STATE ST", "postcode": "13901"}}},
{"geometry": {"type": "Point", "coordinates": [-75.9061486306, 42.108799395]}, "type": "Feature", "properties": {"collection_times": [{"days": "Mon-Fri", "time": "4:00pm"}, {"days": "Sat", "time": "1:00pm"}, {"days": "Sun", "time": "Closed"}], "id": "1390100044", "name": "USPS COLLECTION BOX - BLUE BOX", "address": {"city": "BINGHAMTON", "state": "NY", "street": "30 W STATE ST", "postcode": "13901"}}},
{"geometry": {"type": "Point", "coordinates": [-75.9061809399, 42.108918976]}, "type": "Feature", "properties": {"collection_times": [{"days": "Mon-Fri", "time": "4:00pm"}, {"days": "Sat", "time": "1:00pm"}, {"days": "Sun", "time": "Closed"}], "id": "1390100047", "name": "USPS COLLECTION BOX - BLUE BOX", "address": {"city": "BINGHAMTON", "state": "NY", "street": "33 W STATE ST", "postcode": "13901"}}},
{"geometry": {"type": "Point", "coordinates": [-75.9131548197, 42.0987624759]}, "type": "Feature", "properties": {"collection_times": [{"days": "Mon-Fri", "time": "4:00pm"}, {"days": "Sat", "time": "1:00pm"}, {"days": "Sun", "time": "Closed"}], "id": "1390100056", "name": "USPS COLLECTION BOX - BLUE BOX", "address": {"city": "BINGHAMTON", "state": "NY", "street": "55 COURT ST", "postcode": "13901"}}},
{"geometry": {"type": "Point", "coordinates": [-75.9111732274, 42.1030535658]}, "type": "Feature", "properties": {"collection_times": [{"days": "Mon-Fri", "time": "4:00pm"}, {"days": "Sat", "time": "1:00pm"}, {"days": "Sun", "time": "Closed"}], "id": "1390100073", "name": "USPS COLLECTION BOX - BLUE BOX", "address": {"city": "BINGHAMTON", "state": "NY", "street": "229 STATE ST", "postcode": "13901"}}},
{"geometry": {"type": "Point", "coordinates": [-75.911368, 42.0986303354]}, "type": "Feature", "properties": {"collection_times": [{"days": "Mon-Fri", "time": "4:30pm"}, {"days": "Sat", "time": "1:00pm"}, {"days": "Sun", "time": "Closed"}], "id": "1390100076", "name": "USPS COLLECTION BOX - BLUE BOX", "address": {"city": "BINGHAMTON", "state": "NY", "street": "84 COURT ST", "postcode": "13901"}}},
{"geometry": {"type": "Point", "coordinates": [-75.8949161666, 42.1325617655]}, "type": "Feature", "properties": {"collection_times": [{"days": "Mon-Fri", "time": "5:00pm"}, {"days": "Sat", "time": "10:00am"}, {"days": "Sun", "time": "Closed"}], "id": "1390100081", "name": "USPS COLLECTION BOX - EXPRESS", "address": {"city": "BINGHAMTON", "state": "NY", "street": "44 HAWLEY ST", "postcode": "13901"}}},
{"geometry": {"type": "Point", "coordinates": [-75.9133994957, 42.0987630399]}, "type": "Feature", "properties": {"collection_times": [{"days": "Mon-Fri", "time": "4:30pm"}, {"days": "Sat", "time": "1:00pm"}, {"days": "Sun", "time": "Closed"}], "id": "1390100106", "name": "USPS COLLECTION BOX - BLUE BOX", "address": {"city": "BINGHAMTON", "state": "NY", "street": "49 COURT ST", "postcode": "13901"}}},
{"geometry": {"type": "Point", "coordinates": [-75.8909351269, 42.1444831813]}, "type": "Feature", "properties": {"collection_times": [{"days": "Mon-Sat", "time": "12:00pm"}, {"days": "Sun", "time": "Closed"}], "id": "1390100107", "name": "USPS COLLECTION BOX - BLUE BOX", "address": {"city": "BINGHAMTON", "state": "NY", "street": "1021 CHENANGO ST", "postcode": "13901"}}},
{"geometry": {"type": "Point", "coordinates": [-75.91258578, 42.0972013141]}, "type": "Feature", "properties": {"collection_times": [{"days": "Mon-Fri", "time": "4:30pm"}, {"days": "Sat", "time": "1:00pm"}, {"days": "Sun", "time": "Closed"}], "id": "1390100110", "name": "USPS COLLECTION BOX - BLUE BOX", "address": {"city": "BINGHAMTON", "state": "NY", "street": "71 STATE ST", "postcode": "13901"}}},
{"geometry": {"type": "Point", "coordinates": [-75.912804052, 42.1006263419]}, "type": "Feature", "properties": {"collection_times": [{"days": "Mon-Fri", "time": "4:30pm"}, {"days": "Sat", "time": "1:00pm"}, {"days": "Sun", "time": "Closed"}], "id": "1390100114", "name": "USPS COLLECTION BOX - BLUE BOX", "address": {"city": "BINGHAMTON", "state": "NY", "street": "15 HENRY ST", "postcode": "13901"}}},
{"geometry": {"type": "Point", "coordinates": [-75.9131548197, 42.0987624759]}, "type": "Feature", "properties": {"collection_times": [{"days": "Mon-Fri", "time": "4:00pm"}, {"days": "Sat", "time": "1:00pm"}, {"days": "Sun", "time": "Closed"}], "id": "1390100116", "name": "USPS COLLECTION BOX - BLUE BOX", "address": {"city": "BINGHAMTON", "state": "NY", "street": "55 COURT ST", "postcode": "13901"}}},
{"geometry": {"type": "Point", "coordinates": [-75.9066514932, 42.1017470262]}, "type": "Feature", "properties": {"collection_times": [{"days": "Mon-Fri", "time": "6:30pm"}, {"days": "Sat", "time": "5:00pm"}, {"days": "Sun", "time": "Closed"}], "id": "1390200001", "name": "USPS COLLECTION BOX - PO LOBBY", "address": {"city": "BINGHAMTON", "state": "NY", "street": "115 HENRY ST", "postcode": "13902"}}},
{"geometry": {"type": "Point", "coordinates": [-75.9066514932, 42.1017470262]}, "type": "Feature", "properties": {"collection_times": [{"days": "Mon-Fri", "time": "6:30pm"}, {"days": "Sat", "time": "5:00pm"}, {"days": "Sun", "time": "Closed"}], "id": "1390200003", "name": "USPS COLLECTION BOX - BLUE BOX", "address": {"city": "BINGHAMTON", "state": "NY", "street": "115 HENRY ST", "postcode": "13902"}}},
{"geometry": {"type": "Point", "coordinates": [-75.9066514932, 42.1017470262]}, "type": "Feature", "properties": {"collection_times": [{"days": "Mon-Fri", "time": "6:30pm"}, {"days": "Sat", "time": "5:00pm"}, {"days": "Sun", "time": "Closed"}], "id": "1390200004", "name": "USPS COLLECTION BOX - BLUE BOX", "address": {"city": "BINGHAMTON", "state": "NY", "street": "115 HENRY ST", "postcode": "13902"}}},
{"geometry": {"type": "Point", "coordinates": [-75.9064999513, 42.1017730565]}, "type": "Feature", "properties": {"collection_times": [{"days": "Mon-Fri", "time": "5:15pm"}, {"days": "Sat", "time": "5:00pm"}, {"days": "Sun", "time": "Closed"}], "id": "1390200005", "name": "USPS COLLECTION BOX - EXPRESS", "address": {"city": "BINGHAMTON", "state": "NY", "street": "115 HENRY ST", "postcode": "13902"}}},
{"geometry": {"type": "Point", "coordinates": [-75.9125075556, 42.0896411275]}, "type": "Feature", "properties": {"collection_times": [{"days": "Mon-Fri", "time": "5:00pm"}, {"days": "Sat", "time": "1:00pm"}, {"days": "Sun", "time": "Closed"}], "id": "1390300001", "name": "USPS COLLECTION BOX - BLUE BOX", "address": {"city": "BINGHAMTON", "state": "NY", "street": "1215 VESTAL AVE", "postcode": "13903"}}},
{"geometry": {"type": "Point", "coordinates": [-75.9140017517, 42.0835228533]}, "type": "Feature", "properties": {"collection_times": [{"days": "Mon-Sat", "time": "3:00pm"}, {"days": "Sun", "time": "Closed"}], "id": "1390300006", "name": "USPS COLLECTION BOX - BLUE BOX", "address": {"city": "BINGHAMTON", "state": "NY", "street": "40 MITCHELL AVE", "postcode": "13903"}}},
{"geometry": {"type": "Point", "coordinates": [-75.9153346564, 42.0866121334]}, "type": "Feature", "properties": {"collection_times": [{"days": "Mon-Sat", "time": "3:00pm"}, {"days": "Sun", "time": "Closed"}], "id": "1390300009", "name": "USPS COLLECTION BOX - BLUE BOX", "address": {"city": "BINGHAMTON", "state": "NY", "street": "27 PARK AVE", "postcode": "13903"}}},
{"geometry": {"type": "Point", "coordinates": [-75.9206177486, 42.0862612377]}, "type": "Feature", "properties": {"collection_times": [{"days": "Mon-Sat", "time": "10:00am"}, {"days": "Sun", "time": "Closed"}], "id": "1390300018", "name": "USPS COLLECTION BOX - BLUE BOX", "address": {"city": "BINGHAMTON", "state": "NY", "street": "1108 VESTAL AVE", "postcode": "13903"}}},
{"geometry": {"type": "Point", "coordinates": [-75.8969011678, 42.0945534343]}, "type": "Feature", "properties": {"collection_times": [{"days": "Mon-Sat", "time": "11:00am"}, {"days": "Sun", "time": "Closed"}], "id": "1390300021", "name": "USPS COLLECTION BOX - BLUE BOX", "address": {"city": "BINGHAMTON", "state": "NY", "street": "201 CONKLIN AVE", "postcode": "13903"}}},
{"geometry": {"type": "Point", "coordinates": [-75.9125075556, 42.0896411275]}, "type": "Feature", "properties": {"collection_times": [{"days": "Mon-Fri", "time": "5:00pm"}, {"days": "Sat", "time": "1:00pm"}, {"days": "Sun", "time": "Closed"}], "id": "1390300024", "name": "USPS COLLECTION BOX - PO LOBBY", "address": {"city": "BINGHAMTON", "state": "NY", "street": "1215 VESTAL AVE", "postcode": "13903"}}},
{"geometry": {"type": "Point", "coordinates": [-75.916544243, 42.0870705507]}, "type": "Feature", "properties": {"collection_times": [{"days": "Mon-Sat", "time": "2:00pm"}, {"days": "Sun", "time": "Closed"}], "id": "1390300028", "name": "USPS COLLECTION BOX - BLUE BOX", "address": {"city": "BINGHAMTON", "state": "NY", "street": "50 PENNSYLVANIA AVE", "postcode": "13903"}}},
{"geometry": {"type": "Point", "coordinates": [-75.8889592219, 42.0977174428]}, "type": "Feature", "properties": {"collection_times": [{"days": "Mon-Sat", "time": "1:00pm"}, {"days": "Sun", "time": "Closed"}], "id": "1390300030", "name": "USPS COLLECTION BOX - BLUE BOX", "address": {"city": "BINGHAMTON", "state": "NY", "street": "83 BELDEN ST", "postcode": "13903"}}},
{"geometry": {"type": "Point", "coordinates": [-75.8891145945, 42.1074943257]}, "type": "Feature", "properties": {"collection_times": [{"days": "Mon-Sat", "time": "2:00pm"}, {"days": "Sun", "time": "Closed"}], "id": "1390400005", "name": "USPS COLLECTION BOX - BLUE BOX", "address": {"city": "BINGHAMTON", "state": "NY", "street": "160 ROBINSON ST", "postcode": "13904"}}},
{"geometry": {"type": "Point", "coordinates": [-75.8618289498, 42.1166416654]}, "type": "Feature", "properties": {"collection_times": [{"days": "Mon-Sat", "time": "2:00pm"}, {"days": "Sun", "time": "Closed"}], "id": "1390400012", "name": "USPS COLLECTION BOX - BLUE BOX", "address": {"city": "BINGHAMTON", "state": "NY", "street": "245 ROBINSON ST", "postcode": "13904"}}},
{"geometry": {"type": "Point", "coordinates": [-75.8363208914, 42.1025913273]}, "type": "Feature", "properties": {"collection_times": [{"days": "Mon-Sat", "time": "9:00am"}, {"days": "Sun", "time": "Closed"}], "id": "1390400018", "name": "USPS COLLECTION BOX - BLUE BOX", "address": {"city": "BINGHAMTON", "state": "NY", "street": "2 INDUSTRIAL PARK", "postcode": "13904"}}},
{"geometry": {"type": "Point", "coordinates": [-75.9309275722, 42.1128441306]}, "type": "Feature", "properties": {"collection_times": [{"days": "Mon-Sat", "time": "10:30am"}, {"days": "Sun", "time": "Closed"}], "id": "1390500001", "name": "USPS COLLECTION BOX - BLUE BOX", "address": {"city": "BINGHAMTON", "state": "NY", "street": "146 MAIN ST", "postcode": "13905"}}},
{"geometry": {"type": "Point", "coordinates": [-75.9347322581, 42.0969009608]}, "type": "Feature", "properties": {"collection_times": [{"days": "Mon-Sat", "time": "2:30pm"}, {"days": "Sun", "time": "Closed"}], "id": "1390500002", "name": "USPS COLLECTION BOX - BLUE BOX", "address": {"city": "BINGHAMTON", "state": "NY", "street": "48 BEETHOVEN ST", "postcode": "13905"}}},
{"geometry": {"type": "Point", "coordinates": [-75.9267449421, 42.1060512737]}, "type": "Feature", "properties": {"collection_times": [{"days": "Mon-Sat", "time": "10:00am"}, {"days": "Sun", "time": "Closed"}], "id": "1390500008", "name": "USPS COLLECTION BOX - BLUE BOX", "address": {"city": "BINGHAMTON", "state": "NY", "street": "178 CLINTON ST", "postcode": "13905"}}},
{"geometry": {"type": "Point", "coordinates": [-75.9484436518, 42.109149546]}, "type": "Feature", "properties": {"collection_times": [{"days": "Mon-Sat", "time": "11:00am"}, {"days": "Sun", "time": "Closed"}], "id": "1390500016", "name": "USPS COLLECTION BOX - BLUE BOX", "address": {"city": "BINGHAMTON", "state": "NY", "street": "41 FLORAL AVE", "postcode": "13905"}}},
{"geometry": {"type": "Point", "coordinates": [-75.9188236556, 42.0947049242]}, "type": "Feature", "properties": {"collection_times": [{"days": "Mon-Sat", "time": "11:30am"}, {"days": "Sun", "time": "Closed"}], "id": "1390500017", "name": "USPS COLLECTION BOX - BLUE BOX", "address": {"city": "BINGHAMTON", "state": "NY", "street": "38 FRONT ST", "postcode": "13905"}}},
{"geometry": {"type": "Point", "coordinates": [-75.9060785766, 42.1292000347]}, "type": "Feature", "properties": {"collection_times": [{"days": "Mon-Fri", "time": "4:00pm"}, {"days": "Sat", "time": "1:00pm"}, {"days": "Sun", "time": "Closed"}], "id": "1390500021", "name": "USPS COLLECTION BOX - BLUE BOX", "address": {"city": "BINGHAMTON", "state": "NY", "street": "840 FRONT ST", "postcode": "13905"}}},
{"geometry": {"type": "Point", "coordinates": [-75.9372836218, 42.1081584049]}, "type": "Feature", "properties": {"collection_times": [{"days": "Mon-Sat", "time": "10:00am"}, {"days": "Sun", "time": "Closed"}], "id": "1390500024", "name": "USPS COLLECTION BOX - BLUE BOX", "address": {"city": "BINGHAMTON", "state": "NY", "street": "10 GLENWOOD AVE", "postcode": "13905"}}},
{"geometry": {"type": "Point", "coordinates": [-75.9415178882, 42.1093824701]}, "type": "Feature", "properties": {"collection_times": [{"days": "Mon-Sat", "time": "11:00am"}, {"days": "Sun", "time": "Closed"}], "id": "1390500031", "name": "USPS COLLECTION BOX - BLUE BOX", "address": {"city": "BINGHAMTON", "state": "NY", "street": "303 MAIN ST", "postcode": "13905"}}},
{"geometry": {"type": "Point", "coordinates": [-75.9181699474, 42.0988432947]}, "type": "Feature", "properties": {"collection_times": [{"days": "Mon-Sat", "time": "2:00pm"}, {"days": "Sun", "time": "Closed"}], "id": "1390500034", "name": "USPS COLLECTION BOX - BLUE BOX", "address": {"city": "BINGHAMTON", "state": "NY", "street": "13 MAIN ST", "postcode": "13905"}}},
{"geometry": {"type": "Point", "coordinates": [-75.9347790536, 42.0925542395]}, "type": "Feature", "properties": {"collection_times": [{"days": "Mon-Sat", "time": "12:00pm"}, {"days": "Sun", "time": "Closed"}], "id": "1390500043", "name": "USPS COLLECTION BOX - BLUE BOX", "address": {"city": "BINGHAMTON", "state": "NY", "street": "161 RIVERSIDE DR", "postcode": "13905"}}},
{"geometry": {"type": "Point", "coordinates": [-75.9220408074, 42.092601968]}, "type": "Feature", "properties": {"collection_times": [{"days": "Mon-Sat", "time": "2:00pm"}, {"days": "Sun", "time": "Closed"}], "id": "1390500044", "name": "USPS COLLECTION BOX - BLUE BOX", "address": {"city": "BINGHAMTON", "state": "NY", "street": "28 RIVERSIDE DR", "postcode": "13905"}}},
{"geometry": {"type": "Point", "coordinates": [-75.9457624474, 42.1007912779]}, "type": "Feature", "properties": {"collection_times": [{"days": "Mon-Sat", "time": "12:30pm"}, {"days": "Sun", "time": "Closed"}], "id": "1390500047", "name": "USPS COLLECTION BOX - BLUE BOX", "address": {"city": "BINGHAMTON", "state": "NY", "street": "66 W END AVE", "postcode": "13905"}}},
{"geometry": {"type": "Point", "coordinates": [-75.9055348879, 42.1340213156]}, "type": "Feature", "properties": {"collection_times": [{"days": "Mon-Fri", "time": "4:00pm"}, {"days": "Sat", "time": "1:00pm"}, {"days": "Sun", "time": "Closed"}], "id": "1390500055", "name": "USPS COLLECTION BOX - BLUE BOX", "address": {"city": "BINGHAMTON", "state": "NY", "street": "897 FRONT ST", "postcode": "13905"}}},
{"geometry": {"type": "Point", "coordinates": [-75.9050851534, 42.1372552491]}, "type": "Feature", "properties": {"collection_times": [{"days": "Mon-Fri", "time": "4:00pm"}, {"days": "Sat", "time": "1:00pm"}, {"days": "Sun", "time": "Closed"}], "id": "1390500057", "name": "USPS COLLECTION BOX - BLUE BOX", "address": {"city": "BINGHAMTON", "state": "NY", "street": "907 FRONT ST", "postcode": "13905"}}},
{"geometry": {"type": "Point", "coordinates": [-75.9391716131, 42.1123822849]}, "type": "Feature", "properties": {"collection_times": [{"days": "Mon-Sat", "time": "10:00am"}, {"days": "Sun", "time": "Closed"}], "id": "1390500063", "name": "USPS COLLECTION BOX - BLUE BOX", "address": {"city": "BINGHAMTON", "state": "NY", "street": "65 GLENWOOD AVE", "postcode": "13905"}}},
{"geometry": {"type": "Point", "coordinates": [-75.9347790536, 42.0925542395]}, "type": "Feature", "properties": {"collection_times": [{"days": "Mon-Sat", "time": "12:00pm"}, {"days": "Sun", "time": "Closed"}], "id": "1390500066", "name": "USPS COLLECTION BOX - BLUE BOX", "address": {"city": "BINGHAMTON", "state": "NY", "street": "161 RIVERSIDE DR", "postcode": "13905"}}}
]}
