{"type": "FeatureCollection", "features": [
{"geometry": {"type": "Point", "coordinates": [-78.4846223419, 42.9983441452]}, "type": "Feature", "properties": {"collection_times": [{"days": "Mon-Fri", "time": "12:00pm"}, {"days": "Sat-Sun", "time": "Closed"}], "id": "1400100002", "name": "USPS COLLECTION BOX - BLUE BOX", "address": {"city": "AKRON", "state": "NY", "street": "13415 MAIN RD", "postcode": "14001"}}},
{"geometry": {"type": "Point", "coordinates": [-78.5023383354, 43.0129536884]}, "type": "Feature", "properties": {"collection_times": [{"days": "Mon-Sat", "time": "12:30pm"}, {"days": "Sun", "time": "Closed"}], "id": "1400100003", "name": "USPS COLLECTION BOX - BLUE BOX", "address": {"city": "AKRON", "state": "NY", "street": "81 BUELL ST", "postcode": "14001"}}},
{"geometry": {"type": "Point", "coordinates": [-78.5471559187, 42.9928161779]}, "type": "Feature", "properties": {"collection_times": [{"days": "Mon-Fri", "time": "11:00am"}, {"days": "Sat-Sun", "time": "Closed"}], "id": "1400100004", "name": "USPS COLLECTION BOX - BLUE BOX", "address": {"city": "AKRON", "state": "NY", "street": "11789 MAIN RD", "postcode": "14001"}}},
{"geometry": {"type": "Point", "coordinates": [-78.5008620026, 43.0201567255]}, "type": "Feature", "properties": {"collection_times": [{"days": "Mon-Sat", "time": "11:00am"}, {"days": "Sun", "time": "Closed"}], "id": "1400100005", "name": "USPS COLLECTION BOX - BLUE BOX", "address": {"city": "AKRON", "state": "NY", "street": "46 MAIN ST", "postcode": "14001"}}},
{"geometry": {"type": "Point", "coordinates": [-78.4979791316, 43.0200751014]}, "type": "Feature", "properties": {"collection_times": [{"days": "Mon-Fri", "time": "5:00pm"}, {"days": "Sat", "time": "3:00pm"}, {"days": "Sun", "time": "Closed"}], "id": "1400100006", "name": "USPS COLLECTION BOX - BLUE BOX", "address": {"city": "AKRON", "state": "NY", "street": "118 MAIN ST", "postcode": "14001"}}},
{"geometry": {"type": "Point", "coordinates": [-78.4979791316, 43.0200751014]}, "type": "Feature", "properties": {"collection_times": [{"days": "Mon-Fri", "time": "5:00pm"}, {"days": "Sat", "time": "3:00pm"}, {"days": "Sun", "time": "Closed"}], "id": "1400100007", "name": "USPS COLLECTION BOX - PO LOBBY", "address": {"city": "AKRON", "state": "NY", "street": "118 MAIN ST", "postcode": "14001"}}},
{"geometry": {"type": "Point", "coordinates": [-78.4920394946, 42.9001419897]}, "type": "Feature", "properties": {"collection_times": [{"days": "Mon-Sat", "time": "10:00am"}, {"days": "Sun", "time": "Closed"}], "id": "1400400001", "name": "USPS COLLECTION BOX - BLUE BOX", "address": {"city": "ALDEN", "state": "NY", "street": "13313 BROADWAY ST", "postcode": "14004"}}},
{"geometry": {"type": "Point", "coordinates": [-78.496076539, 42.9000244526]}, "type": "Feature", "properties": {"collection_times": [{"days": "Mon-Sat", "time": "10:00am"}, {"days": "Sun", "time": "Closed"}], "id": "1400400003", "name": "USPS COLLECTION BOX - BLUE BOX", "address": {"city": "ALDEN", "state": "NY", "street": "13203 BROADWAY ST", "postcode": "14004"}}},
{"geometry": {"type": "Point", "coordinates": [-78.4988580273, 42.8991821698]}, "type": "Feature", "properties": {"collection_times": [{"days": "Mon-Fri", "time": "4:30pm"}, {"days": "Sat", "time": "3:30pm"}, {"days": "Sun", "time": "Closed"}], "id": "1400400007", "name": "USPS COLLECTION BOX - BLUE BOX", "address": {"city": "ALDEN", "state": "NY", "street": "13127 BROADWAY ST", "postcode": "14004"}}},
{"geometry": {"type": "Point", "coordinates": [-78.5111823784, 42.8948334269]}, "type": "Feature", "properties": {"collection_times": [{"days": "Mon-Fri", "time": "12:00pm"}, {"days": "Sat-Sun", "time": "Closed"}], "id": "1400400008", "name": "USPS COLLECTION BOX - BLUE BOX", "address": {"city": "ALDEN", "state": "NY", "street": "12775 BROADWAY ST", "postcode": "14004"}}},
{"geometry": {"type": "Point", "coordinates": [-78.4954617949, 42.9002058694]}, "type": "Feature", "properties": {"collection_times": [{"days": "Mon-Fri", "time": "3:00pm"}, {"days": "Sat", "time": "2:00pm"}, {"days": "Sun", "time": "Closed"}], "id": "1400400009", "name": "USPS COLLECTION BOX - BLUE BOX", "address": {"city": "ALDEN", "state": "NY", "street": "13216 BROADWAY ST", "postcode": "14004"}}},
{"geometry": {"type": "Point", "coordinates": [-78.4988580273, 42.8991821698]}, "type": "Feature", "properties": {"collection_times": [{"days": "Mon-Fri", "time": "4:30pm"}, {"days": "Sat", "time": "3:30pm"}, {"days": "Sun", "time": "Closed"}], "id": "1400400010", "name": "USPS COLLECTION BOX - PO LOBBY", "address": {"city": "ALDEN", "state": "NY", "street": "13127 BROADWAY ST", "postcode": "14004"}}},
{"geometry": {"type": "Point", "coordinates": [-78.2537702658, 42.9043343962]}, "type": "Feature", "properties": {"collection_times": [{"days": "Mon-Fri", "time": "4:45pm"}, {"days": "Sat", "time": "12:00pm"}, {"days": "Sun", "time": "Closed"}], "id": "1400500001", "name": "USPS COLLECTION BOX - BLUE BOX", "address": {"city": "ALEXANDER", "state": "NY", "street": "10506 MAIN ST", "postcode": "14005"}}},
{"geometry": {"type": "Point", "coordinates": [-78.2537702658, 42.9043343962]}, "type": "Feature", "properties": {"collection_times": [{"days": "Mon-Fri", "time": "4:45pm"}, {"days": "Sat", "time": "12:00pm"}, {"days": "Sun", "time": "Closed"}], "id": "1400500002", "name": "USPS COLLECTION BOX - PO LOBBY", "address": {"city": "ALEXANDER", "state": "NY", "street": "10506 MAIN ST", "postcode": "14005"}}},
{"geometry": {"type": "Point", "coordinates": [-79.0283895405, 42.6400802908]}, "type": "Feature", "properties": {"collection_times": [{"days": "Mon-Fri", "time": "4:45pm"}, {"days": "Sat", "time": "12:00pm"}, {"days": "Sun", "time": "Closed"}], "id": "1400600002", "name": "USPS COLLECTION BOX - BLUE BOX", "address": {"city": "ANGOLA", "state": "NY", "street": "53 CENTER ST", "postcode": "14006"}}},
{"geometry": {"type": "Point", "coordinates": [-79.0728498702, 42.6383129501]}, "type": "Feature", "properties": {"collection_times": [{"days": "Mon-Fri", "time": "12:00pm"}, {"days": "Sat-Sun", "time": "Closed"}], "id": "1400600006", "name": "USPS COLLECTION BOX - BLUE BOX", "address": {"city": "ANGOLA", "state": "NY", "street": "9155 LAKE SHORE RD", "postcode": "14006"}}},
{"geometry": {"type": "Point", "coordinates": [-79.0517494976, 42.6326414835]}, "type": "Feature", "properties": {"collection_times": [{"days": "Mon-Fri", "time": "11:00am"}, {"days": "Sat-Sun", "time": "Closed"}], "id": "1400600007", "name": "USPS COLLECTION BOX - BLUE BOX", "address": {"city": "ANGOLA", "state": "NY", "street": "8922 DEANA LN", "postcode": "14006"}}},
{"geometry": {"type": "Point", "coordinates": [-79.0277545383, 42.6399067597]}, "type": "Feature", "properties": {"collection_times": [{"days": "Mon-Fri", "time": "5:00pm"}, {"days": "Sat", "time": "12:00pm"}, {"days": "Sun", "time": "Closed"}], "id": "1400600009", "name": "USPS COLLECTION BOX - BLUE BOX", "address": {"city": "ANGOLA", "state": "NY", "street": "80 N MAIN ST", "postcode": "14006"}}},
{"geometry": {"type": "Point", "coordinates": [-79.0277545383, 42.6399067597]}, "type": "Feature", "properties": {"collection_times": [{"days": "Mon-Fri", "time": "5:00pm"}, {"days": "Sat", "time": "12:00pm"}, {"days": "Sun", "time": "Closed"}], "id": "1400600011", "name": "USPS COLLECTION BOX - PO LOBBY", "address": {"city": "ANGOLA", "state": "NY", "street": "80 N MAIN ST", "postcode": "14006"}}},
{"geometry": {"type": "Point", "coordinates": [-79.0406934967, 42.6503495576]}, "type": "Feature", "properties": {"collection_times": [{"days": "Mon-Fri", "time": "9:45am"}, {"days": "Sat-Sun", "time": "Closed"}], "id": "1400600013", "name": "USPS COLLECTION BOX - BLUE BOX", "address": {"city": "ANGOLA", "state": "NY", "street": "8599 ERIE RD", "postcode": "14006"}}},
{"geometry": {"type": "Point", "coordinates": [-79.0478184585, 42.6387719382]}, "type": "Feature", "properties": {"collection_times": [{"days": "Mon-Fri", "time": "11:00am"}, {"days": "Sat-Sun", "time": "Closed"}], "id": "1400600014", "name": "USPS COLLECTION BOX - BLUE BOX", "address": {"city": "ANGOLA", "state": "NY", "street": "9049 ERIE RD", "postcode": "14006"}}},
{"geometry": {"type": "Point", "coordinates": [-78.6492239534, 43.325856903]}, "type": "Feature", "properties": {"collection_times": [{"days": "Mon-Fri", "time": "4:30pm"}, {"days": "Sat", "time": "11:45am"}, {"days": "Sun", "time": "Closed"}], "id": "1400800001", "name": "USPS COLLECTION BOX - BLUE BOX", "address": {"city": "APPLETON", "state": "NY", "street": "1924 HESS RD", "postcode": "14008"}}},
{"geometry": {"type": "Point", "coordinates": [-78.6492239534, 43.325856903]}, "type": "Feature", "properties": {"collection_times": [{"days": "Mon-Fri", "time": "4:45pm"}, {"days": "Sat", "time": "12:00pm"}, {"days": "Sun", "time": "Closed"}], "id": "1400800002", "name": "USPS COLLECTION BOX - PO LOBBY", "address": {"city": "APPLETON", "state": "NY", "street": "1924 HESS RD", "postcode": "14008"}}},
{"geometry": {"type": "Point", "coordinates": [-78.4606636022, 42.5311092835]}, "type": "Feature", "properties": {"collection_times": [{"days": "Mon-Fri", "time": "9:00am"}, {"days": "Sat-Sun", "time": "Closed"}], "id": "1400900007", "name": "USPS COLLECTION BOX - BLUE BOX", "address": {"city": "ARCADE", "state": "NY", "street": "354 ROUTE 39 W", "postcode": "14009"}}},
{"geometry": {"type": "Point", "coordinates": [-78.4406695016, 42.5335217131]}, "type": "Feature", "properties": {"collection_times": [{"days": "Mon-Sat", "time": "9:00am"}, {"days": "Sun", "time": "Closed"}], "id": "1400900009", "name": "USPS COLLECTION BOX - BLUE BOX", "address": {"city": "ARCADE", "state": "NY", "street": "590 MAIN ST", "postcode": "14009"}}},
{"geometry": {"type": "Point", "coordinates": [-78.4512394417, 42.5298301595]}, "type": "Feature", "properties": {"collection_times": [{"days": "Mon-Fri", "time": "5:00pm"}, {"days": "Sat", "time": "12:00pm"}, {"days": "Sun", "time": "Closed"}], "id": "1400900010", "name": "USPS COLLECTION BOX - BLUE BOX", "address": {"city": "ARCADE", "state": "NY", "street": "23 EDWARD ST", "postcode": "14009"}}},
{"geometry": {"type": "Point", "coordinates": [-78.4475022725, 42.5329089404]}, "type": "Feature", "properties": {"collection_times": [{"days": "Mon-Sat", "time": "8:45am"}, {"days": "Sun", "time": "Closed"}], "id": "1400900011", "name": "USPS COLLECTION BOX - BLUE BOX", "address": {"city": "ARCADE", "state": "NY", "street": "658 MAIN ST", "postcode": "14009"}}},
{"geometry": {"type": "Point", "coordinates": [-78.4512394417, 42.5298301595]}, "type": "Feature", "properties": {"collection_times": [{"days": "Mon-Fri", "time": "5:00pm"}, {"days": "Sat", "time": "12:00pm"}, {"days": "Sun", "time": "Closed"}], "id": "1400900015", "name": "USPS COLLECTION BOX - PO LOBBY", "address": {"city": "ARCADE", "state": "NY", "street": "23 EDWARD ST", "postcode": "14009"}}},
{"geometry": {"type": "Point", "coordinates": [-78.4245197458, 42.5339180044]}, "type": "Feature", "properties": {"collection_times": [{"days": "Mon-Sat", "time": "3:00pm"}, {"days": "Sun", "time": "Closed"}], "id": "1400900017", "name": "USPS COLLECTION BOX - BLUE BOX", "address": {"city": "ARCADE", "state": "NY", "street": "289 MAIN ST", "postcode": "14009"}}},
{"geometry": {"type": "Point", "coordinates": [-78.8312383943, 42.715988737]}, "type": "Feature", "properties": {"collection_times": [{"days": "Mon-Fri", "time": "5:00pm"}, {"days": "Sat", "time": "12:00pm"}, {"days": "Sun", "time": "Closed"}], "id": "1401000001", "name": "USPS COLLECTION BOX - BLUE BOX", "address": {"city": "ATHOL SPRINGS", "state": "NY", "street": "4480 OLD CAMP RD", "postcode": "14010"}}},
{"geometry": {"type": "Point", "coordinates": [-78.8312383943, 42.715988737]}, "type": "Feature", "properties": {"collection_times": [{"days": "Mon-Fri", "time": "5:00pm"}, {"days": "Sat", "time": "12:00pm"}, {"days": "Sun", "time": "Closed"}], "id": "1401000002", "name": "USPS COLLECTION BOX - PO LOBBY", "address": {"city": "ATHOL SPRINGS", "state": "NY", "street": "4480 OLD CAMP RD", "postcode": "14010"}}},
{"geometry": {"type": "Point", "coordinates": [-78.2843402914, 42.8645230952]}, "type": "Feature", "properties": {"collection_times": [{"days": "Mon-Fri", "time": "2:00pm"}, {"days": "Sat", "time": "9:00am"}, {"days": "Sun", "time": "Closed"}], "id": "1401100001", "name": "USPS COLLECTION BOX - BLUE BOX", "address": {"city": "ATTICA", "state": "NY", "street": "18 MARKET ST", "postcode": "14011"}}},
{"geometry": {"type": "Point", "coordinates": [-78.2836263903, 42.8464939642]}, "type": "Feature", "properties": {"collection_times": [{"days": "Mon-Fri", "time": "2:00pm"}, {"days": "Sat", "time": "9:15am"}, {"days": "Sun", "time": "Closed"}], "id": "1401100004", "name": "USPS COLLECTION BOX - BLUE BOX", "address": {"city": "ATTICA", "state": "NY", "street": "35 MAIN ST", "postcode": "14011"}}},
{"geometry": {"type": "Point", "coordinates": [-78.2963753517, 42.8280233184]}, "type": "Feature", "properties": {"collection_times": [{"days": "Mon-Sat", "time": "9:00am"}, {"days": "Sun", "time": "Closed"}], "id": "1401100009", "name": "USPS COLLECTION BOX - BLUE BOX", "address": {"city": "ATTICA", "state": "NY", "street": "150 PROSPECT ST", "postcode": "14011"}}},
{"geometry": {"type": "Point", "coordinates": [-78.2805346512, 42.8639604735]}, "type": "Feature", "properties": {"collection_times": [{"days": "Mon-Fri", "time": "4:30pm"}, {"days": "Sat", "time": "2:00pm"}, {"days": "Sun", "time": "Closed"}], "id": "1401100014", "name": "USPS COLLECTION BOX - BLUE BOX", "address": {"city": "ATTICA", "state": "NY", "street": "76 MAIN ST", "postcode": "14011"}}},
{"geometry": {"type": "Point", "coordinates": [-78.2805346512, 42.8639604735]}, "type": "Feature", "properties": {"collection_times": [{"days": "Mon-Fri", "time": "4:30pm"}, {"days": "Sat", "time": "2:00pm"}, {"days": "Sun", "time": "Closed"}], "id": "1401100016", "name": "USPS COLLECTION BOX - PO LOBBY", "address": {"city": "ATTICA", "state": "NY", "street": "76 MAIN ST", "postcode": "14011"}}},
{"geometry": {"type": "Point", "coordinates": [-78.2735244976, 42.8641031448]}, "type": "Feature", "properties": {"collection_times": [{"days": "Mon-Sat", "time": "11:00am"}, {"days": "Sun", "time": "Closed"}], "id": "1401100018", "name": "USPS COLLECTION BOX - BLUE BOX", "address": {"city": "ATTICA", "state": "NY", "street": "221 MAIN ST", "postcode": "14011"}}},
{"geometry": {"type": "Point", "coordinates": [-78.2805346512, 42.8639604735]}, "type": "Feature", "properties": {"collection_times": [{"days": "Mon-Fri", "time": "4:30pm"}, {"days": "Sat", "time": "2:00pm"}, {"days": "Sun", "time": "Closed"}], "id": "1401100019", "name": "USPS COLLECTION BOX - BLUE BOX", "address": {"city": "ATTICA", "state": "NY", "street": "76 MAIN ST", "postcode": "14011"}}},
{"geometry": {"type": "Point", "coordinates": [-78.5516966381, 43.3300671795]}, "type": "Feature", "properties": {"collection_times": [{"days": "Mon-Fri", "time": "4:30pm"}, {"days": "Sat", "time": "12:00pm"}, {"days": "Sun", "time": "Closed"}], "id": "1401200001", "name": "USPS COLLECTION BOX - BLUE BOX", "address": {"city": "BARKER", "state": "NY", "street": "8720 MAIN ST", "postcode": "14012"}}},
{"geometry": {"type": "Point", "coordinates": [-78.3918192111, 43.0669687777]}, "type": "Feature", "properties": {"collection_times": [{"days": "Mon-Fri", "time": "3:00pm"}, {"days": "Sat", "time": "12:00pm"}, {"days": "Sun", "time": "Closed"}], "id": "1401300001", "name": "USPS COLLECTION BOX - BLUE BOX", "address": {"city": "BASOM", "state": "NY", "street": "7156 ALLEGHANY RD", "postcode": "14013"}}},
{"geometry": {"type": "Point", "coordinates": [-78.1815836671, 42.9986212706]}, "type": "Feature", "properties": {"collection_times": [{"days": "Mon-Fri", "time": "4:30pm"}, {"days": "Sat", "time": "1:30pm"}, {"days": "Sun", "time": "Closed"}], "id": "1402000005", "name": "USPS COLLECTION BOX - BLUE BOX", "address": {"city": "BATAVIA", "state": "NY", "street": "16 BANK ST", "postcode": "14020"}}},
{"geometry": {"type": "Point", "coordinates": [-78.1799808344, 42.994543298]}, "type": "Feature", "properties": {"collection_times": [{"days": "Mon-Fri", "time": "4:30pm"}, {"days": "Sat", "time": "1:30pm"}, {"days": "Sun", "time": "Closed"}], "id": "1402000012", "name": "USPS COLLECTION BOX - BLUE BOX", "address": {"city": "BATAVIA", "state": "NY", "street": "29 LIBERTY ST", "postcode": "14020"}}},
{"geometry": {"type": "Point", "coordinates": [-78.1723429317, 42.9935386447]}, "type": "Feature", "properties": {"collection_times": [{"days": "Mon-Fri", "time": "5:00pm"}, {"days": "Sat", "time": "1:30pm"}, {"days": "Sun", "time": "Closed"}], "id": "1402000016", "name": "USPS COLLECTION BOX - BLUE BOX", "address": {"city": "BATAVIA", "state": "NY", "street": "56 HARVESTER AVE", "postcode": "14020"}}},
{"geometry": {"type": "Point", "coordinates": [-78.1879493692, 42.9994033978]}, "type": "Feature", "properties": {"collection_times": [{"days": "Mon-Fri", "time": "5:00pm"}, {"days": "Sat", "time": "1:30pm"}, {"days": "Sun", "time": "Closed"}], "id": "1402000018", "name": "USPS COLLECTION BOX - BLUE BOX", "address": {"city": "BATAVIA", "state": "NY", "street": "565 E MAIN ST", "postcode": "14020"}}},
{"geometry": {"type": "Point", "coordinates": [-78.2045414285, 43.0053579089]}, "type": "Feature", "properties": {"collection_times": [{"days": "Mon-Fri", "time": "4:30pm"}, {"days": "Sat", "time": "1:30pm"}, {"days": "Sun", "time": "Closed"}], "id": "1402000023", "name": "USPS COLLECTION BOX - BLUE BOX", "address": {"city": "BATAVIA", "state": "NY", "street": "390 W MAIN ST", "postcode": "14020"}}},
{"geometry": {"type": "Point", "coordinates": [-78.1773073472, 43.0051366956]}, "type": "Feature", "properties": {"collection_times": [{"days": "Mon-Fri", "time": "4:30pm"}, {"days": "Sat", "time": "1:30pm"}, {"days": "Sun", "time": "Closed"}], "id": "1402000024", "name": "USPS COLLECTION BOX - BLUE BOX", "address": {"city": "BATAVIA", "state": "NY", "street": "207 SUMMIT ST", "postcode": "14020"}}},
{"geometry": {"type": "Point", "coordinates": [-78.1869366332, 42.9980720646]}, "type": "Feature", "properties": {"collection_times": [{"days": "Mon-Fri", "time": "5:00pm"}, {"days": "Sat", "time": "4:30pm"}, {"days": "Sun", "time": "Closed"}], "id": "1402000041", "name": "USPS COLLECTION BOX - BLUE BOX", "address": {"city": "BATAVIA", "state": "NY", "street": "2 W MAIN ST", "postcode": "14020"}}},
{"geometry": {"type": "Point", "coordinates": [-78.2165982732, 42.997102418]}, "type": "Feature", "properties": {"collection_times": [{"days": "Mon-Fri", "time": "4:30pm"}, {"days": "Sat", "time": "1:30pm"}, {"days": "Sun", "time": "Closed"}], "id": "1402000043", "name": "USPS COLLECTION BOX - BLUE BOX", "address": {"city": "BATAVIA", "state": "NY", "street": "15 BATAVIA CITY CTR", "postcode": "14020"}}},
{"geometry": {"type": "Point", "coordinates": [-78.1996345147, 43.0034770041]}, "type": "Feature", "properties": {"collection_times": [{"days": "Mon-Fri", "time": "4:30pm"}, {"days": "Sat", "time": "1:30pm"}, {"days": "Sun", "time": "Closed"}], "id": "1402000046", "name": "USPS COLLECTION BOX - BLUE BOX", "address": {"city": "BATAVIA", "state": "NY", "street": "353 W MAIN ST", "postcode": "14020"}}},
{"geometry": {"type": "Point", "coordinates": [-78.2074736691, 43.0058516131]}, "type": "Feature", "properties": {"collection_times": [{"days": "Mon-Fri", "time": "4:30pm"}, {"days": "Sat", "time": "1:30pm"}, {"days": "Sun", "time": "Closed"}], "id": "1402000048", "name": "USPS COLLECTION BOX - BLUE BOX", "address": {"city": "BATAVIA", "state": "NY", "street": "4152 W MAIN ST", "postcode": "14020"}}},
{"geometry": {"type": "Point", "coordinates": [-75.6107001075, 42.9370820155]}, "type": "Feature", "properties": {"collection_times": [{"days": "Mon-Sat", "time": "1:30pm"}, {"days": "Sun", "time": "Closed"}], "id": "1402000049", "name": "USPS COLLECTION BOX - BLUE BOX", "address": {"city": "BATAVIA", "state": "NY", "street": "219 N SPRUCE ST", "postcode": "14020"}}},
{"geometry": {"type": "Point", "coordinates": [-78.1845340435, 42.9976615779]}, "type": "Feature", "properties": {"collection_times": [{"days": "Mon-Fri", "time": "5:00pm"}, {"days": "Sat", "time": "1:30pm"}, {"days": "Sun", "time": "Closed"}], "id": "1402000055", "name": "USPS COLLECTION BOX - BLUE BOX", "address": {"city": "BATAVIA", "state": "NY", "street": "59 MAIN ST", "postcode": "14020"}}},
{"geometry": {"type": "Point", "coordinates": [-78.1845340435, 42.9976615779]}, "type": "Feature", "properties": {"collection_times": [{"days": "Mon-Fri", "time": "5:00pm"}, {"days": "Sat", "time": "1:30pm"}, {"days": "Sun", "time": "Closed"}], "id": "1402000058", "name": "USPS COLLECTION BOX - BLUE BOX", "address": {"city": "BATAVIA", "state": "NY", "street": "59 MAIN ST", "postcode": "14020"}}},
{"geometry": {"type": "Point", "coordinates": [-78.2054676842, 42.9968178771]}, "type": "Feature", "properties": {"collection_times": [{"days": "Mon-Sat", "time": "1:30pm"}, {"days": "Sun", "time": "Closed"}], "id": "1402000061", "name": "USPS COLLECTION BOX - BLUE BOX", "address": {"city": "BATAVIA", "state": "NY", "street": "88 DEWEY AVE", "postcode": "14020"}}},
{"geometry": {"type": "Point", "coordinates": [-78.1749816499, 42.9964324835]}, "type": "Feature", "properties": {"collection_times": [{"days": "Mon-Fri", "time": "5:00pm"}, {"days": "Sat", "time": "1:30pm"}, {"days": "Sun", "time": "Closed"}], "id": "1402000066", "name": "USPS COLLECTION BOX - BLUE BOX", "address": {"city": "BATAVIA", "state": "NY", "street": "412 E MAIN ST", "postcode": "14020"}}},
{"geometry": {"type": "Point", "coordinates": [-78.1793535668, 42.9969650319]}, "type": "Feature", "properties": {"collection_times": [{"days": "Mon-Fri", "time": "4:30pm"}, {"days": "Sat", "time": "1:30pm"}, {"days": "Sun", "time": "Closed"}], "id": "1402000067", "name": "USPS COLLECTION BOX - BLUE BOX", "address": {"city": "BATAVIA", "state": "NY", "street": "300 E MAIN ST", "postcode": "14020"}}},
{"geometry": {"type": "Point", "coordinates": [-78.1869366332, 42.9980720646]}, "type": "Feature", "properties": {"collection_times": [{"days": "Mon-Fri", "time": "5:00pm"}, {"days": "Sat", "time": "4:30pm"}, {"days": "Sun", "time": "Closed"}], "id": "1402000070", "name": "USPS COLLECTION BOX - BLUE BOX", "address": {"city": "BATAVIA", "state": "NY", "street": "2 W MAIN ST", "postcode": "14020"}}},
{"geometry": {"type": "Point", "coordinates": [-78.1879493692, 42.9994033978]}, "type": "Feature", "properties": {"collection_times": [{"days": "Mon-Fri", "time": "5:00pm"}, {"days": "Sat", "time": "1:30pm"}, {"days": "Sun", "time": "Closed"}], "id": "1402000071", "name": "USPS COLLECTION BOX - BLUE BOX", "address": {"city": "BATAVIA", "state": "NY", "street": "565 E MAIN ST", "postcode": "14020"}}},
{"geometry": {"type": "Point", "coordinates": [-75.6107001075, 42.9370820155]}, "type": "Feature", "properties": {"collection_times": [{"days": "Mon-Fri", "time": "5:00pm"}, {"days": "Sat", "time": "4:30pm"}, {"days": "Sun", "time": "Closed"}], "id": "1402000072", "name": "USPS COLLECTION BOX - BLUE BOX", "address": {"city": "BATAVIA", "state": "NY", "street": "2 W MAIN ST", "postcode": "14020"}}},
{"geometry": {"type": "Point", "coordinates": [-78.2537466485, 42.5795168818]}, "type": "Feature", "properties": {"collection_times": [{"days": "Mon-Fri", "time": "3:30pm"}, {"days": "Sat", "time": "11:45am"}, {"days": "Sun", "time": "Closed"}], "id": "1402400001", "name": "USPS COLLECTION BOX - BLUE BOX", "address": {"city": "BLISS", "state": "NY", "street": "6664 ROUTE 362", "postcode": "14024"}}},
{"geometry": {"type": "Point", "coordinates": [-78.7391219156, 42.6384261013]}, "type": "Feature", "properties": {"collection_times": [{"days": "Mon-Fri", "time": "4:15pm"}, {"days": "Sat", "time": "12:00pm"}, {"days": "Sun", "time": "Closed"}], "id": "1402500001", "name": "USPS COLLECTION BOX - BLUE BOX", "address": {"city": "BOSTON", "state": "NY", "street": "9025 BOSTON STATE RD", "postcode": "14025"}}},
{"geometry": {"type": "Point", "coordinates": [-78.6861390098, 42.9416017896]}, "type": "Feature", "properties": {"collection_times": [{"days": "Mon-Fri", "time": "5:00pm"}, {"days": "Sat", "time": "12:00pm"}, {"days": "Sun", "time": "Closed"}], "id": "1402600002", "name": "USPS COLLECTION BOX - BLUE BOX", "address": {"city": "BOWMANSVILLE", "state": "NY", "street": "515 HARRIS HILL RD", "postcode": "14026"}}},
{"geometry": {"type": "Point", "coordinates": [-78.6861390098, 42.9416017896]}, "type": "Feature", "properties": {"collection_times": [{"days": "Mon-Fri", "time": "5:00pm"}, {"days": "Sat", "time": "12:00pm"}, {"days": "Sun", "time": "Closed"}], "id": "1402600004", "name": "USPS COLLECTION BOX - BLUE BOX", "address": {"city": "BOWMANSVILLE", "state": "NY", "street": "515 HARRIS HILL RD", "postcode": "14026"}}},
{"geometry": {"type": "Point", "coordinates": [-79.0175970813, 42.5885215888]}, "type": "Feature", "properties": {"collection_times": [{"days": "Mon-Fri", "time": "4:45pm"}, {"days": "Sat", "time": "12:00pm"}, {"days": "Sun", "time": "Closed"}], "id": "1402700001", "name": "USPS COLLECTION BOX - BLUE BOX", "address": {"city": "BRANT", "state": "NY", "street": "10778 BRANT ANGOLA RD", "postcode": "14027"}}},
{"geometry": {"type": "Point", "coordinates": [-78.2490390574, 42.4802932905]}, "type": "Feature", "properties": {"collection_times": [{"days": "Mon-Fri", "time": "4:45pm"}, {"days": "Sat", "time": "11:45am"}, {"days": "Sun", "time": "Closed"}], "id": "1402900001", "name": "USPS COLLECTION BOX - BLUE BOX", "address": {"city": "CENTERVILLE", "state": "NY", "street": "10985B RUSHFORD RD", "postcode": "14029"}}},
{"geometry": {"type": "Point", "coordinates": [-78.4775103926, 42.5672762642]}, "type": "Feature", "properties": {"collection_times": [{"days": "Mon-Fri", "time": "12:00pm"}, {"days": "Sat", "time": "11:45am"}, {"days": "Sun", "time": "Closed"}], "id": "1403000001", "name": "USPS COLLECTION BOX - BLUE BOX", "address": {"city": "CHAFFEE", "state": "NY", "street": "11439 OLEAN RD", "postcode": "14030"}}},
{"geometry": {"type": "Point", "coordinates": [-78.6227975602, 42.9749732084]}, "type": "Feature", "properties": {"collection_times": [{"days": "Mon-Fri", "time": "5:00pm"}, {"days": "Sat", "time": "1:30pm"}, {"days": "Sun", "time": "Closed"}], "id": "1403100005", "name": "USPS COLLECTION BOX - BLUE BOX", "address": {"city": "CLARENCE", "state": "NY", "street": "9845 MAIN ST", "postcode": "14031"}}},
{"geometry": {"type": "Point", "coordinates": [-78.6359630141, 43.011870098]}, "type": "Feature", "properties": {"collection_times": [{"days": "Mon-Fri", "time": "4:30pm"}, {"days": "Sat", "time": "12:00pm"}, {"days": "Sun", "time": "Closed"}], "id": "1403200001", "name": "USPS COLLECTION BOX - BLUE BOX", "address": {"city": "CLARENCE CENTER", "state": "NY", "street": "6045 RAILROAD ST", "postcode": "14032"}}},
{"geometry": {"type": "Point", "coordinates": [-78.6870017787, 42.6477754389]}, "type": "Feature", "properties": {"collection_times": [{"days": "Mon-Fri", "time": "3:00pm"}, {"days": "Sat", "time": "12:00pm"}, {"days": "Sun", "time": "Closed"}], "id": "1403300003", "name": "USPS COLLECTION BOX - BLUE BOX", "address": {"city": "COLDEN", "state": "NY", "street": "8665 STATE RD", "postcode": "14033"}}},
{"geometry": {"type": "Point", "coordinates": [-78.9231109244, 42.4966074786]}, "type": "Feature", "properties": {"collection_times": [{"days": "Mon-Fri", "time": "5:00pm"}, {"days": "Sat", "time": "12:00pm"}, {"days": "Sun", "time": "Closed"}], "id": "1403400001", "name": "USPS COLLECTION BOX - BLUE BOX", "address": {"city": "COLLINS", "state": "NY", "street": "2275 MAIN ST", "postcode": "14034"}}},
{"geometry": {"type": "Point", "coordinates": [-78.8500083851, 42.4935321653]}, "type": "Feature", "properties": {"collection_times": [{"days": "Mon-Fri", "time": "5:00pm"}, {"days": "Sat", "time": "12:00pm"}, {"days": "Sun", "time": "Closed"}], "id": "1403500001", "name": "USPS COLLECTION BOX - BLUE BOX", "address": {"city": "COLLINS CENTER", "state": "NY", "street": "3592 MAIN ST", "postcode": "14035"}}},
{"geometry": {"type": "Point", "coordinates": [-78.4063471301, 42.9599476631]}, "type": "Feature", "properties": {"collection_times": [{"days": "Mon-Fri", "time": "5:00pm"}, {"days": "Sat", "time": "12:00pm"}, {"days": "Sun", "time": "Closed"}], "id": "1403600001", "name": "USPS COLLECTION BOX - BLUE BOX", "address": {"city": "CORFU", "state": "NY", "street": "7 W MAIN ST", "postcode": "14036"}}},
{"geometry": {"type": "Point", "coordinates": [-78.4682295029, 42.8428917976]}, "type": "Feature", "properties": {"collection_times": [{"days": "Mon-Sat", "time": "9:00am"}, {"days": "Sun", "time": "Closed"}], "id": "1403700001", "name": "USPS COLLECTION BOX - BLUE BOX", "address": {"city": "COWLESVILLE", "state": "NY", "street": "244 CLINTON ST", "postcode": "14037"}}},
{"geometry": {"type": "Point", "coordinates": [-78.1730770859, 42.8193115865]}, "type": "Feature", "properties": {"collection_times": [{"days": "Mon-Fri", "time": "4:45pm"}, {"days": "Sat", "time": "11:30am"}, {"days": "Sun", "time": "Closed"}], "id": "1403900002", "name": "USPS COLLECTION BOX - BLUE BOX", "address": {"city": "DALE", "state": "NY", "street": "1302 DALE RD", "postcode": "14039"}}},
{"geometry": {"type": "Point", "coordinates": [-78.3869324076, 42.9012066527]}, "type": "Feature", "properties": {"collection_times": [{"days": "Mon-Fri", "time": "4:45pm"}, {"days": "Sat", "time": "11:45am"}, {"days": "Sun", "time": "Closed"}], "id": "1404000001", "name": "USPS COLLECTION BOX - BLUE BOX", "address": {"city": "DARIEN CENTER", "state": "NY", "street": "1402 BROADWAY", "postcode": "14040"}}},
{"geometry": {"type": "Point", "coordinates": [-78.9727181926, 42.4061841419]}, "type": "Feature", "properties": {"collection_times": [{"days": "Mon-Fri", "time": "5:00pm"}, {"days": "Sat", "time": "12:00pm"}, {"days": "Sun", "time": "Closed"}], "id": "1404100001", "name": "USPS COLLECTION BOX - BLUE BOX", "address": {"city": "DAYTON", "state": "NY", "street": "9593 ROUTE 62", "postcode": "14041"}}},
{"geometry": {"type": "Point", "coordinates": [-78.4801708115, 42.4914047588]}, "type": "Feature", "properties": {"collection_times": [{"days": "Mon-Fri", "time": "4:30pm"}, {"days": "Sat", "time": "12:00pm"}, {"days": "Sun", "time": "Closed"}], "id": "1404200001", "name": "USPS COLLECTION BOX - BLUE BOX", "address": {"city": "DELEVAN", "state": "NY", "street": "40 N MAIN ST", "postcode": "14042"}}},
{"geometry": {"type": "Point", "coordinates": [-78.6838043022, 42.9013150774]}, "type": "Feature", "properties": {"collection_times": [{"days": "Mon-Sat", "time": "9:00am"}, {"days": "Sun", "time": "Closed"}], "id": "1404300002", "name": "USPS COLLECTION BOX - BLUE BOX", "address": {"city": "DEPEW", "state": "NY", "street": "5151 BROADWAY", "postcode": "14043"}}},
{"geometry": {"type": "Point", "coordinates": [-78.683661987, 42.9012983893]}, "type": "Feature", "properties": {"collection_times": [{"days": "Mon-Sat", "time": "9:00am"}, {"days": "Sun", "time": "Closed"}], "id": "1404300003", "name": "USPS COLLECTION BOX - BLUE BOX", "address": {"city": "DEPEW", "state": "NY", "street": "5175 BROADWAY", "postcode": "14043"}}},
{"geometry": {"type": "Point", "coordinates": [-78.7389916422, 42.9205693251]}, "type": "Feature", "properties": {"collection_times": [{"days": "Mon-Fri", "time": "2:00pm"}, {"days": "Sat", "time": "12:00pm"}, {"days": "Sun", "time": "Closed"}], "id": "1404300006", "name": "USPS COLLECTION BOX - BLUE BOX", "address": {"city": "DEPEW", "state": "NY", "street": "620 DICK RD", "postcode": "14043"}}},
{"geometry": {"type": "Point", "coordinates": [-78.7062676612, 42.8677964501]}, "type": "Feature", "properties": {"collection_times": [{"days": "Mon-Sat", "time": "9:30am"}, {"days": "Sun", "time": "Closed"}], "id": "1404300007", "name": "USPS COLLECTION BOX - BLUE BOX", "address": {"city": "DEPEW", "state": "NY", "street": "1235 FRENCH RD", "postcode": "14043"}}},
{"geometry": {"type": "Point", "coordinates": [-78.7343083077, 42.9187416535]}, "type": "Feature", "properties": {"collection_times": [{"days": "Mon-Sat", "time": "9:00am"}, {"days": "Sun", "time": "Closed"}], "id": "1404300009", "name": "USPS COLLECTION BOX - BLUE BOX", "address": {"city": "DEPEW", "state": "NY", "street": "2090 GEORGE URBAN BLVD", "postcode": "14043"}}},
{"geometry": {"type": "Point", "coordinates": [-78.7310480728, 42.9187298239]}, "type": "Feature", "properties": {"collection_times": [{"days": "Mon-Sat", "time": "9:00am"}, {"days": "Sun", "time": "Closed"}], "id": "1404300010", "name": "USPS COLLECTION BOX - BLUE BOX", "address": {"city": "DEPEW", "state": "NY", "street": "2191 GEORGE URBAN BLVD", "postcode": "14043"}}},
{"geometry": {"type": "Point", "coordinates": [-78.686271401, 42.9047191811]}, "type": "Feature", "properties": {"collection_times": [{"days": "Mon-Fri", "time": "8:30am"}, {"days": "Sat-Sun", "time": "Closed"}], "id": "1404300015", "name": "USPS COLLECTION BOX - BLUE BOX", "address": {"city": "DEPEW", "state": "NY", "street": "85 MANITOU ST", "postcode": "14043"}}},
{"geometry": {"type": "Point", "coordinates": [-78.6968767495, 42.8687809791]}, "type": "Feature", "properties": {"collection_times": [{"days": "Mon-Sat", "time": "10:00am"}, {"days": "Sun", "time": "Closed"}], "id": "1404300020", "name": "USPS COLLECTION BOX - BLUE BOX", "address": {"city": "DEPEW", "state": "NY", "street": "4777 TRANSIT RD", "postcode": "14043"}}},
{"geometry": {"type": "Point", "coordinates": [-78.6968767495, 42.8687809791]}, "type": "Feature", "properties": {"collection_times": [{"days": "Mon-Sat", "time": "10:00am"}, {"days": "Sun", "time": "Closed"}], "id": "1404300021", "name": "USPS COLLECTION BOX - BLUE BOX", "address": {"city": "DEPEW", "state": "NY", "street": "4777 TRANSIT RD", "postcode": "14043"}}},
{"geometry": {"type": "Point", "coordinates": [-78.6969066941, 42.9185180742]}, "type": "Feature", "properties": {"collection_times": [{"days": "Mon-Fri", "time": "2:00pm"}, {"days": "Sat", "time": "12:00pm"}, {"days": "Sun", "time": "Closed"}], "id": "1404300023", "name": "USPS COLLECTION BOX - BLUE BOX", "address": {"city": "DEPEW", "state": "NY", "street": "5990 TRANSIT RD", "postcode": "14043"}}},
{"geometry": {"type": "Point", "coordinates": [-78.6969244385, 42.9309628025]}, "type": "Feature", "properties": {"collection_times": [{"days": "Mon-Sat", "time": "9:00am"}, {"days": "Sun", "time": "Closed"}], "id": "1404300025", "name": "USPS COLLECTION BOX - BLUE BOX", "address": {"city": "DEPEW", "state": "NY", "street": "6363 TRANSIT RD", "postcode": "14043"}}},
{"geometry": {"type": "Point", "coordinates": [-78.696992923, 42.8814485853]}, "type": "Feature", "properties": {"collection_times": [{"days": "Mon-Sat", "time": "9:00am"}, {"days": "Sun", "time": "Closed"}], "id": "1404300026", "name": "USPS COLLECTION BOX - BLUE BOX", "address": {"city": "DEPEW", "state": "NY", "street": "4960 TRANSIT RD", "postcode": "14043"}}},
{"geometry": {"type": "Point", "coordinates": [-78.7244208544, 42.9088788407]}, "type": "Feature", "properties": {"collection_times": [{"days": "Mon-Fri", "time": "10:00am"}, {"days": "Sat-Sun", "time": "Closed"}], "id": "1404300027", "name": "USPS COLLECTION BOX - BLUE BOX", "address": {"city": "DEPEW", "state": "NY", "street": "2929 WALDEN AVE", "postcode": "14043"}}},
{"geometry": {"type": "Point", "coordinates": [-78.6903929391, 42.9039866884]}, "type": "Feature", "properties": {"collection_times": [{"days": "Mon-Fri", "time": "5:00pm"}, {"days": "Sat", "time": "12:00pm"}, {"days": "Sun", "time": "Closed"}], "id": "1404300032", "name": "USPS COLLECTION BOX - BLUE BOX", "address": {"city": "DEPEW", "state": "NY", "street": "165 WARSAW ST", "postcode": "14043"}}},
{"geometry": {"type": "Point", "coordinates": [-78.690452149, 42.904426951]}, "type": "Feature", "properties": {"collection_times": [{"days": "Mon-Fri", "time": "5:00pm"}, {"days": "Sat", "time": "12:00pm"}, {"days": "Sun", "time": "Closed"}], "id": "1404300033", "name": "USPS COLLECTION BOX - BLUE BOX", "address": {"city": "DEPEW", "state": "NY", "street": "165 WARSAW ST", "postcode": "14043"}}},
{"geometry": {"type": "Point", "coordinates": [-78.6902844898, 42.8924941599]}, "type": "Feature", "properties": {"collection_times": [{"days": "Mon-Fri", "time": "3:30pm"}, {"days": "Sat", "time": "12:00pm"}, {"days": "Sun", "time": "Closed"}], "id": "1404300034", "name": "USPS COLLECTION BOX - BLUE BOX", "address": {"city": "DEPEW", "state": "NY", "street": "1763 COMO PARK BLVD", "postcode": "14043"}}},
{"geometry": {"type": "Point", "coordinates": [-78.691603489, 42.9127405026]}, "type": "Feature", "properties": {"collection_times": [{"days": "Mon-Fri", "time": "9:00am"}, {"days": "Sat-Sun", "time": "Closed"}], "id": "1404300035", "name": "USPS COLLECTION BOX - BLUE BOX", "address": {"city": "DEPEW", "state": "NY", "street": "3332 WALDEN AVE", "postcode": "14043"}}},
{"geometry": {"type": "Point", "coordinates": [-78.696992923, 42.8814485853]}, "type": "Feature", "properties": {"collection_times": [{"days": "Mon-Sat", "time": "9:00am"}, {"days": "Sun", "time": "Closed"}], "id": "1404300036", "name": "USPS COLLECTION BOX - BLUE BOX", "address": {"city": "DEPEW", "state": "NY", "street": "4960 TRANSIT RD", "postcode": "14043"}}},
{"geometry": {"type": "Point", "coordinates": [-78.7390188503, 42.9208236612]}, "type": "Feature", "properties": {"collection_times": [{"days": "Mon-Fri", "time": "2:00pm"}, {"days": "Sat", "time": "12:00pm"}, {"days": "Sun", "time": "Closed"}], "id": "1404300037", "name": "USPS COLLECTION BOX - BLUE BOX", "address": {"city": "DEPEW", "state": "NY", "street": "651 DICK RD", "postcode": "14043"}}},
{"geometry": {"type": "Point", "coordinates": [-78.7390188503, 42.9208236612]}, "type": "Feature", "properties": {"collection_times": [{"days": "Mon-Fri", "time": "2:00pm"}, {"days": "Sat", "time": "12:00pm"}, {"days": "Sun", "time": "Closed"}], "id": "1404300038", "name": "USPS COLLECTION BOX - BLUE BOX", "address": {"city": "DEPEW", "state": "NY", "street": "651 DICK RD", "postcode": "14043"}}},
{"geometry": {"type": "Point", "coordinates": [-78.6798070223, 42.9145941993]}, "type": "Feature", "properties": {"collection_times": [{"days": "Mon-Sat", "time": "9:00am"}, {"days": "Sun", "time": "Closed"}], "id": "1404300039", "name": "USPS COLLECTION BOX - BLUE BOX", "address": {"city": "DEPEW", "state": "NY", "street": "3470 WALDEN AVE", "postcode": "14043"}}},
{"geometry": {"type": "Point", "coordinates": [-79.0115844254, 42.6860772842]}, "type": "Feature", "properties": {"collection_times": [{"days": "Mon-Fri", "time": "4:15pm"}, {"days": "Sat", "time": "11:30am"}, {"days": "Sun", "time": "Closed"}], "id": "1404700001", "name": "USPS COLLECTION BOX - BLUE BOX", "address": {"city": "DERBY", "state": "NY", "street": "7350 ERIE RD", "postcode": "14047"}}},
{"geometry": {"type": "Point", "coordinates": [-78.9801626694, 42.7012877706]}, "type": "Feature", "properties": {"collection_times": [{"days": "Mon-Fri", "time": "10:00am"}, {"days": "Sat-Sun", "time": "Closed"}], "id": "1404700003", "name": "USPS COLLECTION BOX - BLUE BOX", "address": {"city": "DERBY", "state": "NY", "street": "6840 ERIE RD", "postcode": "14047"}}},
{"geometry": {"type": "Point", "coordinates": [-78.9875632607, 42.697815786]}, "type": "Feature", "properties": {"collection_times": [{"days": "Mon-Fri", "time": "10:00am"}, {"days": "Sat-Sun", "time": "Closed"}], "id": "1404700004", "name": "USPS COLLECTION BOX - BLUE BOX", "address": {"city": "DERBY", "state": "NY", "street": "6914 ERIE RD", "postcode": "14047"}}},
{"geometry": {"type": "Point", "coordinates": [-79.3343131634, 42.4829169225]}, "type": "Feature", "properties": {"collection_times": [{"days": "Mon-Fri", "time": "5:15pm"}, {"days": "Sat", "time": "3:45pm"}, {"days": "Sun", "time": "Closed"}], "id": "1404800001", "name": "USPS COLLECTION BOX - BLUE BOX", "address": {"city": "DUNKIRK", "state": "NY", "street": "410 CENTRAL AVE", "postcode": "14048"}}},
{"geometry": {"type": "Point", "coordinates": [-79.3299080597, 42.4810007916]}, "type": "Feature", "properties": {"collection_times": [{"days": "Mon-Fri", "time": "3:45pm"}, {"days": "Sat", "time": "3:00pm"}, {"days": "Sun", "time": "Closed"}], "id": "1404800006", "name": "USPS COLLECTION BOX - BLUE BOX", "address": {"city": "DUNKIRK", "state": "NY", "street": "3972 VINEYARD DR", "postcode": "14048"}}},
{"geometry": {"type": "Point", "coordinates": [-79.3231454144, 42.4901225252]}, "type": "Feature", "properties": {"collection_times": [{"days": "Mon-Sat", "time": "2:30pm"}, {"days": "Sun", "time": "Closed"}], "id": "1404800025", "name": "USPS COLLECTION BOX - BLUE BOX", "address": {"city": "DUNKIRK", "state": "NY", "street": "234 LAKE SHORE DR E", "postcode": "14048"}}},
{"geometry": {"type": "Point", "coordinates": [-79.3300197327, 42.4838489715]}, "type": "Feature", "properties": {"collection_times": [{"days": "Mon-Fri", "time": "4:15pm"}, {"days": "Sat", "time": "3:00pm"}, {"days": "Sun", "time": "Closed"}], "id": "1404800031", "name": "USPS COLLECTION BOX - BLUE BOX", "address": {"city": "DUNKIRK", "state": "NY", "street": "128 E 4TH ST", "postcode": "14048"}}},
{"geometry": {"type": "Point", "coordinates": [-79.3347590576, 42.4844871145]}, "type": "Feature", "properties": {"collection_times": [{"days": "Mon-Fri", "time": "4:30pm"}, {"days": "Sat", "time": "3:00pm"}, {"days": "Sun", "time": "Closed"}], "id": "1404800037", "name": "USPS COLLECTION BOX - BLUE BOX", "address": {"city": "DUNKIRK", "state": "NY", "street": "318 CENTRAL AVE", "postcode": "14048"}}},
{"geometry": {"type": "Point", "coordinates": [-79.3343131634, 42.4829169225]}, "type": "Feature", "properties": {"collection_times": [{"days": "Mon-Fri", "time": "5:15pm"}, {"days": "Sat", "time": "3:45pm"}, {"days": "Sun", "time": "Closed"}], "id": "1404800038", "name": "USPS COLLECTION BOX - BLUE BOX", "address": {"city": "DUNKIRK", "state": "NY", "street": "410 CENTRAL AVE", "postcode": "14048"}}},
{"geometry": {"type": "Point", "coordinates": [-79.3185476985, 42.4585529248]}, "type": "Feature", "properties": {"collection_times": [{"days": "Mon-Fri", "time": "3:30pm"}, {"days": "Sat", "time": "3:00pm"}, {"days": "Sun", "time": "Closed"}], "id": "1404800041", "name": "USPS COLLECTION BOX - BLUE BOX", "address": {"city": "DUNKIRK", "state": "NY", "street": "3955 VINEYARD DR", "postcode": "14048"}}},
{"geometry": {"type": "Point", "coordinates": [-79.3186675154, 42.4695816122]}, "type": "Feature", "properties": {"collection_times": [{"days": "Mon-Sat", "time": "2:00pm"}, {"days": "Sun", "time": "Closed"}], "id": "1404800043", "name": "USPS COLLECTION BOX - BLUE BOX", "address": {"city": "DUNKIRK", "state": "NY", "street": "10807 BENNETT RD", "postcode": "14048"}}},
{"geometry": {"type": "Point", "coordinates": [-79.3356000604, 42.4842237236]}, "type": "Feature", "properties": {"collection_times": [{"days": "Mon-Fri", "time": "4:30pm"}, {"days": "Sat", "time": "3:00pm"}, {"days": "Sun", "time": "Closed"}], "id": "1404800044", "name": "USPS COLLECTION BOX - BLUE BOX", "address": {"city": "DUNKIRK", "state": "NY", "street": "325 LARK ST", "postcode": "14048"}}},
{"geometry": {"type": "Point", "coordinates": [-79.3343120584, 42.4857353827]}, "type": "Feature", "properties": {"collection_times": [{"days": "Mon-Fri", "time": "4:45pm"}, {"days": "Sat", "time": "3:00pm"}, {"days": "Sun", "time": "Closed"}], "id": "1404800045", "name": "USPS COLLECTION BOX - BLUE BOX", "address": {"city": "DUNKIRK", "state": "NY", "street": "326 LYNX ST", "postcode": "14048"}}},
{"geometry": {"type": "Point", "coordinates": [-78.6970087201, 43.0369824019]}, "type": "Feature", "properties": {"collection_times": [{"days": "Mon-Sat", "time": "1:00pm"}, {"days": "Sun", "time": "Closed"}], "id": "1405100002", "name": "USPS COLLECTION BOX - BLUE BOX", "address": {"city": "EAST AMHERST", "state": "NY", "street": "9830 TRANSIT RD", "postcode": "14051"}}},
{"geometry": {"type": "Point", "coordinates": [-78.7033061266, 43.0301703817]}, "type": "Feature", "properties": {"collection_times": [{"days": "Mon-Sat", "time": "11:00am"}, {"days": "Sun", "time": "Closed"}], "id": "1405100003", "name": "USPS COLLECTION BOX - BLUE BOX", "address": {"city": "EAST AMHERST", "state": "NY", "street": "5589 TRANSIT RD", "postcode": "14051"}}},
{"geometry": {"type": "Point", "coordinates": [-78.7033061266, 43.0301703817]}, "type": "Feature", "properties": {"collection_times": [{"days": "Mon-Sat", "time": "10:00am"}, {"days": "Sun", "time": "Closed"}], "id": "1405100004", "name": "USPS COLLECTION BOX - BLUE BOX", "address": {"city": "EAST AMHERST", "state": "NY", "street": "9350 TRANSIT RD", "postcode": "14051"}}},
{"geometry": {"type": "Point", "coordinates": [-78.7033061266, 43.0301703817]}, "type": "Feature", "properties": {"collection_times": [{"days": "Mon-Sat", "time": "10:00am"}, {"days": "Sun", "time": "Closed"}], "id": "1405100005", "name": "USPS COLLECTION BOX - BLUE BOX", "address": {"city": "EAST AMHERST", "state": "NY", "street": "9660 TRANSIT RD", "postcode": "14051"}}},
{"geometry": {"type": "Point", "coordinates": [-78.69693, 43.031]}, "type": "Feature", "properties": {"collection_times": [{"days": "Mon-Fri", "time": "5:00pm"}, {"days": "Sat", "time": "1:00pm"}, {"days": "Sun", "time": "Closed"}], "id": "1405100007", "name": "USPS COLLECTION BOX - APC", "address": {"city": "EAST AMHERST", "state": "NY", "street": "9630 TRANSIT RD STE 1000", "postcode": "14051"}}},
{"geometry": {"type": "Point", "coordinates": [-78.6123014689, 42.7656064325]}, "type": "Feature", "properties": {"collection_times": [{"days": "Mon-Fri", "time": "2:30pm"}, {"days": "Sat", "time": "2:00pm"}, {"days": "Sun", "time": "Closed"}], "id": "1405200002", "name": "USPS COLLECTION BOX - BLUE BOX", "address": {"city": "EAST AURORA", "state": "NY", "street": "597 OAKWOOD AVE", "postcode": "14052"}}},
{"geometry": {"type": "Point", "coordinates": [-78.6332717825, 42.7648481558]}, "type": "Feature", "properties": {"collection_times": [{"days": "Mon-Fri", "time": "2:30pm"}, {"days": "Sat", "time": "1:30pm"}, {"days": "Sun", "time": "Closed"}], "id": "1405200013", "name": "USPS COLLECTION BOX - BLUE BOX", "address": {"city": "EAST AURORA", "state": "NY", "street": "123 GREY ST", "postcode": "14052"}}},
{"geometry": {"type": "Point", "coordinates": [-78.6276160557, 42.7678150169]}, "type": "Feature", "properties": {"collection_times": [{"days": "Mon-Fri", "time": "2:30pm"}, {"days": "Sat", "time": "1:30pm"}, {"days": "Sun", "time": "Closed"}], "id": "1405200014", "name": "USPS COLLECTION BOX - BLUE BOX", "address": {"city": "EAST AURORA", "state": "NY", "street": "190 MAIN ST", "postcode": "14052"}}},
{"geometry": {"type": "Point", "coordinates": [-78.6397168912, 42.7624094229]}, "type": "Feature", "properties": {"collection_times": [{"days": "Mon-Fri", "time": "5:15pm"}, {"days": "Sat", "time": "3:00pm"}, {"days": "Sun", "time": "Closed"}], "id": "1405200017", "name": "USPS COLLECTION BOX - BLUE BOX", "address": {"city": "EAST AURORA", "state": "NY", "street": "408 QUAKER RD", "postcode": "14052"}}},
{"geometry": {"type": "Point", "coordinates": [-78.6134856108, 42.7679238491]}, "type": "Feature", "properties": {"collection_times": [{"days": "Mon-Fri", "time": "2:30pm"}, {"days": "Sat", "time": "1:30pm"}, {"days": "Sun", "time": "Closed"}], "id": "1405200018", "name": "USPS COLLECTION BOX - BLUE BOX", "address": {"city": "EAST AURORA", "state": "NY", "street": "571 MAIN ST", "postcode": "14052"}}},
{"geometry": {"type": "Point", "coordinates": [-78.6089891838, 42.7678303953]}, "type": "Feature", "properties": {"collection_times": [{"days": "Mon-Fri", "time": "2:30pm"}, {"days": "Sat", "time": "2:00pm"}, {"days": "Sun", "time": "Closed"}], "id": "1405200019", "name": "USPS COLLECTION BOX - BLUE BOX", "address": {"city": "EAST AURORA", "state": "NY", "street": "690 MAIN ST", "postcode": "14052"}}},
{"geometry": {"type": "Point", "coordinates": [-78.6114899591, 42.7689506575]}, "type": "Feature", "properties": {"collection_times": [{"days": "Mon-Fri", "time": "2:30pm"}, {"days": "Sat", "time": "2:00pm"}, {"days": "Sun", "time": "Closed"}], "id": "1405200020", "name": "USPS COLLECTION BOX - BLUE BOX", "address": {"city": "EAST AURORA", "state": "NY", "street": "42 RILEY ST", "postcode": "14052"}}},
{"geometry": {"type": "Point", "coordinates": [-78.6397168912, 42.7624094229]}, "type": "Feature", "properties": {"collection_times": [{"days": "Mon-Fri", "time": "5:15pm"}, {"days": "Sat", "time": "3:00pm"}, {"days": "Sun", "time": "Closed"}], "id": "1405200021", "name": "USPS COLLECTION BOX - BLUE BOX", "address": {"city": "EAST AURORA", "state": "NY", "street": "408 QUAKER RD", "postcode": "14052"}}},
{"geometry": {"type": "Point", "coordinates": [-78.6105293964, 42.7678658841]}, "type": "Feature", "properties": {"collection_times": [{"days": "Mon-Fri", "time": "2:30pm"}, {"days": "Sat", "time": "1:30pm"}, {"days": "Sun", "time": "Closed"}], "id": "1405200022", "name": "USPS COLLECTION BOX - BLUE BOX", "address": {"city": "EAST AURORA", "state": "NY", "street": "649 MAIN ST", "postcode": "14052"}}},
{"geometry": {"type": "Point", "coordinates": [-78.6178081429, 42.76732054]}, "type": "Feature", "properties": {"collection_times": [{"days": "Mon-Fri", "time": "2:30pm"}, {"days": "Sat", "time": "1:30pm"}, {"days": "Sun", "time": "Closed"}], "id": "1405200023", "name": "USPS COLLECTION BOX - BLUE BOX", "address": {"city": "EAST AURORA", "state": "NY", "street": "21 S GROVE GRV", "postcode": "14052"}}},
{"geometry": {"type": "Point", "coordinates": [-78.1331675765, 42.9049892263]}, "type": "Feature", "properties": {"collection_times": [{"days": "Mon-Fri", "time": "9:00am"}, {"days": "Sat-Sun", "time": "Closed"}], "id": "1405400004", "name": "USPS COLLECTION BOX - BLUE BOX", "address": {"city": "EAST BETHANY", "state": "NY", "street": "10510 BETHANY CENTER RD", "postcode": "14054"}}},
{"geometry": {"type": "Point", "coordinates": [-78.6404866492, 42.5496608223]}, "type": "Feature", "properties": {"collection_times": [{"days": "Mon-Fri", "time": "4:45pm"}, {"days": "Sat", "time": "12:00pm"}, {"days": "Sun", "time": "Closed"}], "id": "1405500001", "name": "USPS COLLECTION BOX - BLUE BOX", "address": {"city": "EAST CONCORD", "state": "NY", "street": "12085 VAUGHN ST", "postcode": "14055"}}},
{"geometry": {"type": "Point", "coordinates": [-78.3096071225, 42.9955537624]}, "type": "Feature", "properties": {"collection_times": [{"days": "Mon-Fri", "time": "4:45pm"}, {"days": "Sat", "time": "11:45am"}, {"days": "Sun", "time": "Closed"}], "id": "1405600001", "name": "USPS COLLECTION BOX - BLUE BOX", "address": {"city": "EAST PEMBROKE", "state": "NY", "street": "8643 READ RD", "postcode": "14056"}}},
{"geometry": {"type": "Point", "coordinates": [-78.8910610172, 42.6627233083]}, "type": "Feature", "properties": {"collection_times": [{"days": "Mon-Fri", "time": "5:00pm"}, {"days": "Sat", "time": "3:30pm"}, {"days": "Sun", "time": "Closed"}], "id": "1405700002", "name": "USPS COLLECTION BOX - BLUE BOX", "address": {"city": "EDEN", "state": "NY", "street": "8230 N MAIN ST", "postcode": "14057"}}},
{"geometry": {"type": "Point", "coordinates": [-78.8951788973, 42.6559792593]}, "type": "Feature", "properties": {"collection_times": [{"days": "Mon-Sat", "time": "1:30pm"}, {"days": "Sun", "time": "Closed"}], "id": "1405700003", "name": "USPS COLLECTION BOX - BLUE BOX", "address": {"city": "EDEN", "state": "NY", "street": "8463 N MAIN ST", "postcode": "14057"}}},
{"geometry": {"type": "Point", "coordinates": [-78.8970219474, 42.6522470237]}, "type": "Feature", "properties": {"collection_times": [{"days": "Mon-Sat", "time": "1:30pm"}, {"days": "Sun", "time": "Closed"}], "id": "1405700004", "name": "USPS COLLECTION BOX - BLUE BOX", "address": {"city": "EDEN", "state": "NY", "street": "8584 S MAIN ST", "postcode": "14057"}}},
{"geometry": {"type": "Point", "coordinates": [-78.8902500809, 42.6523729011]}, "type": "Feature", "properties": {"collection_times": [{"days": "Mon-Sat", "time": "10:30am"}, {"days": "Sun", "time": "Closed"}], "id": "1405700006", "name": "USPS COLLECTION BOX - BLUE BOX", "address": {"city": "EDEN", "state": "NY", "street": "2901 E CHURCH ST", "postcode": "14057"}}},
{"geometry": {"type": "Point", "coordinates": [-78.1864279608, 43.0816197245]}, "type": "Feature", "properties": {"collection_times": [{"days": "Mon-Fri", "time": "4:45pm"}, {"days": "Sat", "time": "12:00pm"}, {"days": "Sun", "time": "Closed"}], "id": "1405800001", "name": "USPS COLLECTION BOX - BLUE BOX", "address": {"city": "ELBA", "state": "NY", "street": "7 N MAIN ST", "postcode": "14058"}}},
{"geometry": {"type": "Point", "coordinates": [-78.6369268691, 42.8334173899]}, "type": "Feature", "properties": {"collection_times": [{"days": "Mon-Fri", "time": "4:30pm"}, {"days": "Sat", "time": "12:00pm"}, {"days": "Sun", "time": "Closed"}], "id": "1405900003", "name": "USPS COLLECTION BOX - BLUE BOX", "address": {"city": "ELMA", "state": "NY", "street": "2300 BOWEN RD", "postcode": "14059"}}},
{"geometry": {"type": "Point", "coordinates": [-78.6369268691, 42.8334173899]}, "type": "Feature", "properties": {"collection_times": [{"days": "Mon-Fri", "time": "4:30pm"}, {"days": "Sat", "time": "12:00pm"}, {"days": "Sun", "time": "Closed"}], "id": "1405900004", "name": "USPS COLLECTION BOX - BLUE BOX", "address": {"city": "ELMA", "state": "NY", "street": "2300 BOWEN RD", "postcode": "14059"}}},
{"geometry": {"type": "Point", "coordinates": [-78.3604997219, 42.4278577574]}, "type": "Feature", "properties": {"collection_times": [{"days": "Mon-Fri", "time": "4:45pm"}, {"days": "Sat", "time": "11:45am"}, {"days": "Sun", "time": "Closed"}], "id": "1406000001", "name": "USPS COLLECTION BOX - BLUE BOX", "address": {"city": "FARMERSVL STA", "state": "NY", "street": "994 ELTON RD", "postcode": "14060"}}},
{"geometry": {"type": "Point", "coordinates": [-79.1775044461, 42.4682844084]}, "type": "Feature", "properties": {"collection_times": [{"days": "Mon-Fri", "time": "4:30pm"}, {"days": "Sat", "time": "12:00pm"}, {"days": "Sun", "time": "Closed"}], "id": "1406200001", "name": "USPS COLLECTION BOX - BLUE BOX", "address": {"city": "FORESTVILLE", "state": "NY", "street": "17 MAIN ST", "postcode": "14062"}}},
{"geometry": {"type": "Point", "coordinates": [-79.3329415894, 42.440002154]}, "type": "Feature", "properties": {"collection_times": [{"days": "Mon-Fri", "time": "3:30pm"}, {"days": "Sat", "time": "3:00pm"}, {"days": "Sun", "time": "Closed"}], "id": "1406300003", "name": "USPS COLLECTION BOX - BLUE BOX", "address": {"city": "FREDONIA", "state": "NY", "street": "1 PARK PL", "postcode": "14063"}}},
{"geometry": {"type": "Point", "coordinates": [-79.331720435, 42.439762162]}, "type": "Feature", "properties": {"collection_times": [{"days": "Mon-Fri", "time": "3:30pm"}, {"days": "Sat", "time": "3:00pm"}, {"days": "Sun", "time": "Closed"}], "id": "1406300005", "name": "USPS COLLECTION BOX - BLUE BOX", "address": {"city": "FREDONIA", "state": "NY", "street": "16 W MAIN ST", "postcode": "14063"}}},
{"geometry": {"type": "Point", "coordinates": [-79.3300716723, 42.4407191825]}, "type": "Feature", "properties": {"collection_times": [{"days": "Mon-Fri", "time": "3:30pm"}, {"days": "Sat", "time": "3:00pm"}, {"days": "Sun", "time": "Closed"}], "id": "1406300007", "name": "USPS COLLECTION BOX - BLUE BOX", "address": {"city": "FREDONIA", "state": "NY", "street": "35 E MAIN ST", "postcode": "14063"}}},
{"geometry": {"type": "Point", "coordinates": [-79.3315036282, 42.440028782]}, "type": "Feature", "properties": {"collection_times": [{"days": "Mon-Sat", "time": "10:00am"}, {"days": "Sun", "time": "Closed"}], "id": "1406300018", "name": "USPS COLLECTION BOX - BLUE BOX", "address": {"city": "FREDONIA", "state": "NY", "street": "280 CENTRAL AVE", "postcode": "14063"}}},
{"geometry": {"type": "Point", "coordinates": [-79.3315036282, 42.440028782]}, "type": "Feature", "properties": {"collection_times": [{"days": "Mon-Sat", "time": "10:00am"}, {"days": "Sun", "time": "Closed"}], "id": "1406300019", "name": "USPS COLLECTION BOX - BLUE BOX", "address": {"city": "FREDONIA", "state": "NY", "street": "280 CENTRAL AVE", "postcode": "14063"}}},
{"geometry": {"type": "Point", "coordinates": [-79.3058578809, 42.4513713769]}, "type": "Feature", "properties": {"collection_times": [{"days": "Mon-Sat", "time": "12:30pm"}, {"days": "Sun", "time": "Closed"}], "id": "1406300036", "name": "USPS COLLECTION BOX - BLUE BOX", "address": {"city": "FREDONIA", "state": "NY", "street": "3742 E MAIN RD", "postcode": "14063"}}},
{"geometry": {"type": "Point", "coordinates": [-79.3094834616, 42.4532874325]}, "type": "Feature", "properties": {"collection_times": [{"days": "Mon-Sat", "time": "11:00am"}, {"days": "Sun", "time": "Closed"}], "id": "1406300040", "name": "USPS COLLECTION BOX - BLUE BOX", "address": {"city": "FREDONIA", "state": "NY", "street": "10401 BENNETT RD", "postcode": "14063"}}},
{"geometry": {"type": "Point", "coordinates": [-79.3317472786, 42.4410441976]}, "type": "Feature", "properties": {"collection_times": [{"days": "Mon-Fri", "time": "5:00pm"}, {"days": "Sat", "time": "3:00pm"}, {"days": "Sun", "time": "Closed"}], "id": "1406300049", "name": "USPS COLLECTION BOX - BLUE BOX", "address": {"city": "FREDONIA", "state": "NY", "street": "21 DAY ST", "postcode": "14063"}}},
{"geometry": {"type": "Point", "coordinates": [-79.3319858811, 42.4412353744]}, "type": "Feature", "properties": {"collection_times": [{"days": "Mon-Fri", "time": "5:00pm"}, {"days": "Sat", "time": "3:00pm"}, {"days": "Sun", "time": "Closed"}], "id": "1406300050", "name": "USPS COLLECTION BOX - BLUE BOX", "address": {"city": "FREDONIA", "state": "NY", "street": "21 DAY ST", "postcode": "14063"}}},
{"geometry": {"type": "Point", "coordinates": [-78.3850795179, 42.4972111076]}, "type": "Feature", "properties": {"collection_times": [{"days": "Mon-Fri", "time": "4:30pm"}, {"days": "Sat", "time": "11:30am"}, {"days": "Sun", "time": "Closed"}], "id": "1406500001", "name": "USPS COLLECTION BOX - BLUE BOX", "address": {"city": "FREEDOM", "state": "NY", "street": "11481 ROUTE 98", "postcode": "14065"}}},
{"geometry": {"type": "Point", "coordinates": [-78.1341506382, 42.6408160913]}, "type": "Feature", "properties": {"collection_times": [{"days": "Mon-Fri", "time": "1:00pm"}, {"days": "Sat", "time": "12:00pm"}, {"days": "Sun", "time": "Closed"}], "id": "1406600001", "name": "USPS COLLECTION BOX - BLUE BOX", "address": {"city": "GAINESVILLE", "state": "NY", "street": "2 S MAIN ST", "postcode": "14066"}}},
{"geometry": {"type": "Point", "coordinates": [-78.5735855879, 43.195272507]}, "type": "Feature", "properties": {"collection_times": [{"days": "Mon-Fri", "time": "4:45pm"}, {"days": "Sat", "time": "12:00pm"}, {"days": "Sun", "time": "Closed"}], "id": "1406700003", "name": "USPS COLLECTION BOX - BLUE BOX", "address": {"city": "GASPORT", "state": "NY", "street": "8391 ROCHESTER RD", "postcode": "14067"}}},
{"geometry": {"type": "Point", "coordinates": [-78.7753072995, 43.0088050513]}, "type": "Feature", "properties": {"collection_times": [{"days": "Mon-Fri", "time": "3:30pm"}, {"days": "Sat", "time": "3:00pm"}, {"days": "Sun", "time": "Closed"}], "id": "1406800003", "name": "USPS COLLECTION BOX - BLUE BOX", "address": {"city": "GETZVILLE", "state": "NY", "street": "2351 N FOREST RD", "postcode": "14068"}}},
{"geometry": {"type": "Point", "coordinates": [-78.7695373536, 43.0133884007]}, "type": "Feature", "properties": {"collection_times": [{"days": "Mon-Sat", "time": "3:00pm"}, {"days": "Sun", "time": "Closed"}], "id": "1406800007", "name": "USPS COLLECTION BOX - BLUE BOX", "address": {"city": "GETZVILLE", "state": "NY", "street": "2325 MILLERSPORT HWY", "postcode": "14068"}}},
{"geometry": {"type": "Point", "coordinates": [-78.7645944231, 43.0193404838]}, "type": "Feature", "properties": {"collection_times": [{"days": "Mon-Fri", "time": "5:00pm"}, {"days": "Sat", "time": "1:00pm"}, {"days": "Sun", "time": "Closed"}], "id": "1406800009", "name": "USPS COLLECTION BOX - BLUE BOX", "address": {"city": "GETZVILLE", "state": "NY", "street": "2655 MILLERSPORT HWY", "postcode": "14068"}}},
{"geometry": {"type": "Point", "coordinates": [-78.7571581249, 43.0242003898]}, "type": "Feature", "properties": {"collection_times": [{"days": "Mon-Fri", "time": "10:00am"}, {"days": "Sat-Sun", "time": "Closed"}], "id": "1406800010", "name": "USPS COLLECTION BOX - BLUE BOX", "address": {"city": "GETZVILLE", "state": "NY", "street": "1555 N FRENCH RD", "postcode": "14068"}}},
{"geometry": {"type": "Point", "coordinates": [-78.7572363348, 43.0243133143]}, "type": "Feature", "properties": {"collection_times": [{"days": "Mon-Fri", "time": "5:00pm"}, {"days": "Sat", "time": "1:00pm"}, {"days": "Sun", "time": "Closed"}], "id": "1406800011", "name": "USPS COLLECTION BOX - APC", "address": {"city": "GETZVILLE", "state": "NY", "street": "2655 MILLERSPORT HWY", "postcode": "14068"}}},
{"geometry": {"type": "Point", "coordinates": [-78.6546348384, 42.6165630666]}, "type": "Feature", "properties": {"collection_times": [{"days": "Mon-Fri", "time": "4:45pm"}, {"days": "Sat", "time": "11:45am"}, {"days": "Sun", "time": "Closed"}], "id": "1406900003", "name": "USPS COLLECTION BOX - BLUE BOX", "address": {"city": "GLENWOOD", "state": "NY", "street": "9645 STATE RD", "postcode": "14069"}}},
{"geometry": {"type": "Point", "coordinates": [-78.937394503, 42.4628103254]}, "type": "Feature", "properties": {"collection_times": [{"days": "Mon-Fri", "time": "4:30pm"}, {"days": "Sat", "time": "3:30pm"}, {"days": "Sun", "time": "Closed"}], "id": "1407000001", "name": "USPS COLLECTION BOX - BLUE BOX", "address": {"city": "GOWANDA", "state": "NY", "street": "63 W MAIN ST", "postcode": "14070"}}},
{"geometry": {"type": "Point", "coordinates": [-78.9356006052, 42.4722148648]}, "type": "Feature", "properties": {"collection_times": [{"days": "Mon-Sat", "time": "1:15pm"}, {"days": "Sun", "time": "Closed"}], "id": "1407000009", "name": "USPS COLLECTION BOX - BLUE BOX", "address": {"city": "GOWANDA", "state": "NY", "street": "290 BUFFALO ST", "postcode": "14070"}}},
{"geometry": {"type": "Point", "coordinates": [-78.9371857702, 42.4627843159]}, "type": "Feature", "properties": {"collection_times": [{"days": "Mon-Fri", "time": "4:30pm"}, {"days": "Sat", "time": "3:30pm"}, {"days": "Sun", "time": "Closed"}], "id": "1407000012", "name": "USPS COLLECTION BOX - BLUE BOX", "address": {"city": "GOWANDA", "state": "NY", "street": "62 W MAIN ST", "postcode": "14070"}}},
{"geometry": {"type": "Point", "coordinates": [-78.9369852761, 42.4628472649]}, "type": "Feature", "properties": {"collection_times": [{"days": "Mon-Sat", "time": "3:15pm"}, {"days": "Sun", "time": "Closed"}], "id": "1407000017", "name": "USPS COLLECTION BOX - BLUE BOX", "address": {"city": "GOWANDA", "state": "NY", "street": "53 W MAIN ST", "postcode": "14070"}}},
{"geometry": {"type": "Point", "coordinates": [-78.965823432, 43.027899764]}, "type": "Feature", "properties": {"collection_times": [{"days": "Mon-Fri", "time": "5:00pm"}, {"days": "Sat", "time": "3:00pm"}, {"days": "Sun", "time": "Closed"}], "id": "1407200001", "name": "USPS COLLECTION BOX - BLUE BOX", "address": {"city": "GRAND ISLAND", "state": "NY", "street": "2391 BASELINE RD", "postcode": "14072"}}},
{"geometry": {"type": "Point", "coordinates": [-78.9676036971, 43.0268937161]}, "type": "Feature", "properties": {"collection_times": [{"days": "Mon-Sat", "time": "10:00am"}, {"days": "Sun", "time": "Closed"}], "id": "1407200019", "name": "USPS COLLECTION BOX - BLUE BOX", "address": {"city": "GRAND ISLAND", "state": "NY", "street": "2391 GRAND ISLAND BLVD", "postcode": "14072"}}},
{"geometry": {"type": "Point", "coordinates": [-78.9618252992, 43.0206059422]}, "type": "Feature", "properties": {"collection_times": [{"days": "Mon-Sat", "time": "2:00pm"}, {"days": "Sun", "time": "Closed"}], "id": "1407200021", "name": "USPS COLLECTION BOX - BLUE BOX", "address": {"city": "GRAND ISLAND", "state": "NY", "street": "2160 GRAND ISLAND BLVD", "postcode": "14072"}}},
{"geometry": {"type": "Point", "coordinates": [-78.9574155514, 42.9961213653]}, "type": "Feature", "properties": {"collection_times": [{"days": "Mon-Sat", "time": "2:00pm"}, {"days": "Sun", "time": "Closed"}], "id": "1407200022", "name": "USPS COLLECTION BOX - BLUE BOX", "address": {"city": "GRAND ISLAND", "state": "NY", "street": "1787 LOVE RD", "postcode": "14072"}}},
{"geometry": {"type": "Point", "coordinates": [-78.9657258382, 43.0219240662]}, "type": "Feature", "properties": {"collection_times": [{"days": "Mon-Sat", "time": "2:00pm"}, {"days": "Sun", "time": "Closed"}], "id": "1407200024", "name": "USPS COLLECTION BOX - BLUE BOX", "address": {"city": "GRAND ISLAND", "state": "NY", "street": "2255 BASELINE RD", "postcode": "14072"}}},
{"geometry": {"type": "Point", "coordinates": [-78.9658382193, 43.0274898882]}, "type": "Feature", "properties": {"collection_times": [{"days": "Mon-Fri", "time": "5:00pm"}, {"days": "Sat", "time": "3:00pm"}, {"days": "Sun", "time": "Closed"}], "id": "1407200030", "name": "USPS COLLECTION BOX - APC", "address": {"city": "GRAND ISLAND", "state": "NY", "street": "2391 BASELINE RD", "postcode": "14072"}}},
{"geometry": {"type": "Point", "coordinates": [-78.9033495949, 42.7460012536]}, "type": "Feature", "properties": {"collection_times": [{"days": "Mon-Sat", "time": "9:00am"}, {"days": "Sun", "time": "Closed"}], "id": "1407500004", "name": "USPS COLLECTION BOX - BLUE BOX", "address": {"city": "HAMBURG", "state": "NY", "street": "5017 LAKE SHORE RD", "postcode": "14075"}}},
{"geometry": {"type": "Point", "coordinates": [-78.829364811, 42.715981779]}, "type": "Feature", "properties": {"collection_times": [{"days": "Mon-Fri", "time": "3:45pm"}, {"days": "Sat", "time": "12:00pm"}, {"days": "Sun", "time": "Closed"}], "id": "1407500008", "name": "USPS COLLECTION BOX - BLUE BOX", "address": {"city": "HAMBURG", "state": "NY", "street": "1 BUFFALO ST", "postcode": "14075"}}},
{"geometry": {"type": "Point", "coordinates": [-78.8258338428, 42.7234232987]}, "type": "Feature", "properties": {"collection_times": [{"days": "Mon-Sat", "time": "9:00am"}, {"days": "Sun", "time": "Closed"}], "id": "1407500009", "name": "USPS COLLECTION BOX - BLUE BOX", "address": {"city": "HAMBURG", "state": "NY", "street": "305 BUFFALO ST", "postcode": "14075"}}},
{"geometry": {"type": "Point", "coordinates": [-78.8282711957, 42.719470334]}, "type": "Feature", "properties": {"collection_times": [{"days": "Mon-Fri", "time": "4:00pm"}, {"days": "Sat", "time": "12:00pm"}, {"days": "Sun", "time": "Closed"}], "id": "1407500012", "name": "USPS COLLECTION BOX - BLUE BOX", "address": {"city": "HAMBURG", "state": "NY", "street": "141 BUFFALO ST", "postcode": "14075"}}},
{"geometry": {"type": "Point", "coordinates": [-78.8444902886, 42.7290731108]}, "type": "Feature", "properties": {"collection_times": [{"days": "Mon-Sat", "time": "9:00am"}, {"days": "Sun", "time": "Closed"}], "id": "1407500013", "name": "USPS COLLECTION BOX - BLUE BOX", "address": {"city": "HAMBURG", "state": "NY", "street": "8 BYRD DR", "postcode": "14075"}}},
{"geometry": {"type": "Point", "coordinates": [-78.844308925, 42.7372277529]}, "type": "Feature", "properties": {"collection_times": [{"days": "Mon-Sat", "time": "9:00am"}, {"days": "Sun", "time": "Closed"}], "id": "1407500014", "name": "USPS COLLECTION BOX - BLUE BOX", "address": {"city": "HAMBURG", "state": "NY", "street": "513 SUNSET DR", "postcode": "14075"}}},
{"geometry": {"type": "Point", "coordinates": [-78.850058917, 42.7720301486]}, "type": "Feature", "properties": {"collection_times": [{"days": "Mon-Sat", "time": "9:00am"}, {"days": "Sun", "time": "Closed"}], "id": "1407500023", "name": "USPS COLLECTION BOX - BLUE BOX", "address": {"city": "HAMBURG", "state": "NY", "street": "3641 BIG TREE RD", "postcode": "14075"}}},
{"geometry": {"type": "Point", "coordinates": [-78.8200160506, 42.7218511463]}, "type": "Feature", "properties": {"collection_times": [{"days": "Mon-Sat", "time": "9:00am"}, {"days": "Sun", "time": "Closed"}], "id": "1407500026", "name": "USPS COLLECTION BOX - BLUE BOX", "address": {"city": "HAMBURG", "state": "NY", "street": "155 E PROSPECT AVE", "postcode": "14075"}}},
{"geometry": {"type": "Point", "coordinates": [-78.8390285671, 42.7229027968]}, "type": "Feature", "properties": {"collection_times": [{"days": "Mon-Fri", "time": "5:15pm"}, {"days": "Sat", "time": "12:00pm"}, {"days": "Sun", "time": "Closed"}], "id": "1407500032", "name": "USPS COLLECTION BOX - BLUE BOX", "address": {"city": "HAMBURG", "state": "NY", "street": "206 LAKE ST", "postcode": "14075"}}},
{"geometry": {"type": "Point", "coordinates": [-78.8792941244, 42.7623142577]}, "type": "Feature", "properties": {"collection_times": [{"days": "Mon-Fri", "time": "3:00pm"}, {"days": "Sat", "time": "12:00pm"}, {"days": "Sun", "time": "Closed"}], "id": "1407500034", "name": "USPS COLLECTION BOX - BLUE BOX", "address": {"city": "HAMBURG", "state": "NY", "street": "4481 LAKE SHORE RD", "postcode": "14075"}}},
{"geometry": {"type": "Point", "coordinates": [-78.8992056897, 42.7487362547]}, "type": "Feature", "properties": {"collection_times": [{"days": "Mon-Sat", "time": "9:00am"}, {"days": "Sun", "time": "Closed"}], "id": "1407500035", "name": "USPS COLLECTION BOX - BLUE BOX", "address": {"city": "HAMBURG", "state": "NY", "street": "4931 LAKE SHORE RD", "postcode": "14075"}}},
{"geometry": {"type": "Point", "coordinates": [-78.8298984898, 42.7158606421]}, "type": "Feature", "properties": {"collection_times": [{"days": "Mon-Fri", "time": "5:00pm"}, {"days": "Sat", "time": "12:00pm"}, {"days": "Sun", "time": "Closed"}], "id": "1407500036", "name": "USPS COLLECTION BOX - BLUE BOX", "address": {"city": "HAMBURG", "state": "NY", "street": "11 MAIN ST", "postcode": "14075"}}},
{"geometry": {"type": "Point", "coordinates": [-78.8115732725, 42.7691872493]}, "type": "Feature", "properties": {"collection_times": [{"days": "Mon-Sat", "time": "9:00am"}, {"days": "Sun", "time": "Closed"}], "id": "1407500039", "name": "USPS COLLECTION BOX - BLUE BOX", "address": {"city": "HAMBURG", "state": "NY", "street": "4250 MCKINLEY PKWY", "postcode": "14075"}}},
{"geometry": {"type": "Point", "coordinates": [-78.8254635767, 42.7332525048]}, "type": "Feature", "properties": {"collection_times": [{"days": "Mon-Fri", "time": "3:00pm"}, {"days": "Sat", "time": "12:00pm"}, {"days": "Sun", "time": "Closed"}], "id": "1407500046", "name": "USPS COLLECTION BOX - BLUE BOX", "address": {"city": "HAMBURG", "state": "NY", "street": "5999 S PARK AVE", "postcode": "14075"}}},
{"geometry": {"type": "Point", "coordinates": [-78.8256765093, 42.727479665]}, "type": "Feature", "properties": {"collection_times": [{"days": "Mon-Fri", "time": "4:00pm"}, {"days": "Sat", "time": "12:00pm"}, {"days": "Sun", "time": "Closed"}], "id": "1407500049", "name": "USPS COLLECTION BOX - BLUE BOX", "address": {"city": "HAMBURG", "state": "NY", "street": "6150 S PARK AVE", "postcode": "14075"}}},
{"geometry": {"type": "Point", "coordinates": [-78.8671438434, 42.742928971]}, "type": "Feature", "properties": {"collection_times": [{"days": "Mon-Fri", "time": "3:00pm"}, {"days": "Sat", "time": "12:00pm"}, {"days": "Sun", "time": "Closed"}], "id": "1407500051", "name": "USPS COLLECTION BOX - BLUE BOX", "address": {"city": "HAMBURG", "state": "NY", "street": "5340 SOUTHWESTERN BLVD", "postcode": "14075"}}},
{"geometry": {"type": "Point", "coordinates": [-78.839556809, 42.7348316679]}, "type": "Feature", "properties": {"collection_times": [{"days": "Mon-Fri", "time": "5:00pm"}, {"days": "Sat", "time": "4:00pm"}, {"days": "Sun", "time": "Closed"}], "id": "1407500055", "name": "USPS COLLECTION BOX - BLUE BOX", "address": {"city": "HAMBURG", "state": "NY", "street": "5501 CAMP RD", "postcode": "14075"}}},
{"geometry": {"type": "Point", "coordinates": [-78.8282711957, 42.719470334]}, "type": "Feature", "properties": {"collection_times": [{"days": "Mon-Fri", "time": "4:00pm"}, {"days": "Sat", "time": "12:00pm"}, {"days": "Sun", "time": "Closed"}], "id": "1407500056", "name": "USPS COLLECTION BOX - BLUE BOX", "address": {"city": "HAMBURG", "state": "NY", "street": "141 BUFFALO ST", "postcode": "14075"}}},
{"geometry": {"type": "Point", "coordinates": [-78.8256138124, 42.7291417224]}, "type": "Feature", "properties": {"collection_times": [{"days": "Mon-Fri", "time": "4:00pm"}, {"days": "Sat", "time": "12:00pm"}, {"days": "Sun", "time": "Closed"}], "id": "1407500057", "name": "USPS COLLECTION BOX - BLUE BOX", "address": {"city": "HAMBURG", "state": "NY", "street": "6100 S PARK AVE", "postcode": "14075"}}},
{"geometry": {"type": "Point", "coordinates": [-78.8249489895, 42.7514428648]}, "type": "Feature", "properties": {"collection_times": [{"days": "Mon-Sat", "time": "9:00am"}, {"days": "Sun", "time": "Closed"}], "id": "1407500059", "name": "USPS COLLECTION BOX - BLUE BOX", "address": {"city": "HAMBURG", "state": "NY", "street": "4150 SOWLES RD", "postcode": "14075"}}},
{"geometry": {"type": "Point", "coordinates": [-78.82463918, 42.7518378549]}, "type": "Feature", "properties": {"collection_times": [{"days": "Mon-Sat", "time": "9:00am"}, {"days": "Sun", "time": "Closed"}], "id": "1407500061", "name": "USPS COLLECTION BOX - BLUE BOX", "address": {"city": "HAMBURG", "state": "NY", "street": "5286 SOUTH PARK", "postcode": "14075"}}},
{"geometry": {"type": "Point", "coordinates": [-78.8295932864, 42.7144990563]}, "type": "Feature", "properties": {"collection_times": [{"days": "Mon-Fri", "time": "4:30pm"}, {"days": "Sat", "time": "12:00pm"}, {"days": "Sun", "time": "Closed"}], "id": "1407500064", "name": "USPS COLLECTION BOX - BLUE BOX", "address": {"city": "HAMBURG", "state": "NY", "street": "17 LONG AVE", "postcode": "14075"}}},
{"geometry": {"type": "Point", "coordinates": [-78.8310767169, 42.760518526]}, "type": "Feature", "properties": {"collection_times": [{"days": "Mon-Sat", "time": "9:00am"}, {"days": "Sun", "time": "Closed"}], "id": "1407500067", "name": "USPS COLLECTION BOX - BLUE BOX", "address": {"city": "HAMBURG", "state": "NY", "street": "4591 SOUTHWESTERN BLVD", "postcode": "14075"}}},
{"geometry": {"type": "Point", "coordinates": [-78.8678739427, 42.7425264718]}, "type": "Feature", "properties": {"collection_times": [{"days": "Mon-Sat", "time": "9:00am"}, {"days": "Sun", "time": "Closed"}], "id": "1407500069", "name": "USPS COLLECTION BOX - BLUE BOX", "address": {"city": "HAMBURG", "state": "NY", "street": "5360 SOUTHWESTERN BLVD", "postcode": "14075"}}},
{"geometry": {"type": "Point", "coordinates": [-78.839556809, 42.7348316679]}, "type": "Feature", "properties": {"collection_times": [{"days": "Mon-Fri", "time": "5:00pm"}, {"days": "Sat", "time": "12:00pm"}, {"days": "Sun", "time": "Closed"}], "id": "1407500070", "name": "USPS COLLECTION BOX - BLUE BOX", "address": {"city": "HAMBURG", "state": "NY", "street": "43 MAIN ST", "postcode": "14075"}}},
{"geometry": {"type": "Point", "coordinates": [-78.8510131244, 42.7515836369]}, "type": "Feature", "properties": {"collection_times": [{"days": "Mon-Sat", "time": "9:00am"}, {"days": "Sun", "time": "Closed"}], "id": "1407500072", "name": "USPS COLLECTION BOX - BLUE BOX", "address": {"city": "HAMBURG", "state": "NY", "street": "4981 SOUTHWESTERN BLVD", "postcode": "14075"}}},
{"geometry": {"type": "Point", "coordinates": [-78.8375191115, 42.7272194141]}, "type": "Feature", "properties": {"collection_times": [{"days": "Mon-Fri", "time": "5:15pm"}, {"days": "Sat", "time": "12:00pm"}, {"days": "Sun", "time": "Closed"}], "id": "1407500076", "name": "USPS COLLECTION BOX - BLUE BOX", "address": {"city": "HAMBURG", "state": "NY", "street": "5893 CAMP RD", "postcode": "14075"}}},
{"geometry": {"type": "Point", "coordinates": [-78.8430073023, 42.7372497966]}, "type": "Feature", "properties": {"collection_times": [{"days": "Mon-Fri", "time": "5:00pm"}, {"days": "Sat", "time": "4:00pm"}, {"days": "Sun", "time": "Closed"}], "id": "1407500078", "name": "USPS COLLECTION BOX - BLUE BOX", "address": {"city": "HAMBURG", "state": "NY", "street": "5501 CAMP RD", "postcode": "14075"}}},
{"geometry": {"type": "Point", "coordinates": [-78.8348285789, 42.7162870408]}, "type": "Feature", "properties": {"collection_times": [{"days": "Mon-Sat", "time": "9:00am"}, {"days": "Sun", "time": "Closed"}], "id": "1407500079", "name": "USPS COLLECTION BOX - BLUE BOX", "address": {"city": "HAMBURG", "state": "NY", "street": "141 MAIN ST", "postcode": "14075"}}},
{"geometry": {"type": "Point", "coordinates": [-78.7658980728, 42.6840355802]}, "type": "Feature", "properties": {"collection_times": [{"days": "Mon-Sat", "time": "9:00am"}, {"days": "Sun", "time": "Closed"}], "id": "1407500080", "name": "USPS COLLECTION BOX - BLUE BOX", "address": {"city": "HAMBURG", "state": "NY", "street": "7375 BOSTON STATE RD", "postcode": "14075"}}},
{"geometry": {"type": "Point", "coordinates": [-78.8430073023, 42.7372497966]}, "type": "Feature", "properties": {"collection_times": [{"days": "Mon-Fri", "time": "5:00pm"}, {"days": "Sat", "time": "4:00pm"}, {"days": "Sun", "time": "Closed"}], "id": "1407500081", "name": "USPS COLLECTION BOX - APC", "address": {"city": "HAMBURG", "state": "NY", "street": "5501 CAMP RD", "postcode": "14075"}}},
{"geometry": {"type": "Point", "coordinates": [-78.8763024211, 42.7441380932]}, "type": "Feature", "properties": {"collection_times": [{"days": "Mon-Sat", "time": "9:00am"}, {"days": "Sun", "time": "Closed"}], "id": "1407500082", "name": "USPS COLLECTION BOX - BLUE BOX", "address": {"city": "HAMBURG", "state": "NY", "street": "5260 ROGERS RD", "postcode": "14075"}}},
{"geometry": {"type": "Point", "coordinates": [-78.8297278809, 42.7674206467]}, "type": "Feature", "properties": {"collection_times": [{"days": "Mon-Fri", "time": "3:00pm"}, {"days": "Sat", "time": "12:00pm"}, {"days": "Sun", "time": "Closed"}], "id": "1407500083", "name": "USPS COLLECTION BOX - BLUE BOX", "address": {"city": "HAMBURG", "state": "NY", "street": "4551 BAY VIEW RD", "postcode": "14075"}}},
{"geometry": {"type": "Point", "coordinates": [-78.8430073023, 42.7372497966]}, "type": "Feature", "properties": {"collection_times": [{"days": "Mon-Fri", "time": "5:00pm"}, {"days": "Sat", "time": "4:00pm"}, {"days": "Sun", "time": "Closed"}], "id": "1407500086", "name": "USPS COLLECTION BOX - PO LOBBY", "address": {"city": "HAMBURG", "state": "NY", "street": "5501 CAMP RD", "postcode": "14075"}}},
{"geometry": {"type": "Point", "coordinates": [-78.8430073023, 42.7372497966]}, "type": "Feature", "properties": {"collection_times": [{"days": "Mon-Fri", "time": "5:00pm"}, {"days": "Sat", "time": "4:00pm"}, {"days": "Sun", "time": "Closed"}], "id": "1407500087", "name": "USPS COLLECTION BOX - BLUE BOX", "address": {"city": "HAMBURG", "state": "NY", "street": "5501 CAMP RD", "postcode": "14075"}}},
{"geometry": {"type": "Point", "coordinates": [-78.839556809, 42.7348316679]}, "type": "Feature", "properties": {"collection_times": [{"days": "Mon-Fri", "time": "5:00pm"}, {"days": "Sat", "time": "12:00pm"}, {"days": "Sun", "time": "Closed"}], "id": "1407500088", "name": "USPS COLLECTION BOX - BLUE BOX", "address": {"city": "HAMBURG", "state": "NY", "street": "43 MAIN ST", "postcode": "14075"}}},
{"geometry": {"type": "Point", "coordinates": [-78.839556809, 42.7348316679]}, "type": "Feature", "properties": {"collection_times": [{"days": "Mon-Sat", "time": "9:00am"}, {"days": "Sun", "time": "Closed"}], "id": "1407500089", "name": "USPS COLLECTION BOX - BLUE BOX", "address": {"city": "HAMBURG", "state": "NY", "street": "3611 BIG TREE RD", "postcode": "14075"}}},
{"geometry": {"type": "Point", "coordinates": [-78.5516653583, 42.6513325965]}, "type": "Feature", "properties": {"collection_times": [{"days": "Mon-Fri", "time": "5:00pm"}, {"days": "Sat", "time": "12:00pm"}, {"days": "Sun", "time": "Closed"}], "id": "1408000003", "name": "USPS COLLECTION BOX - BLUE BOX", "address": {"city": "HOLLAND", "state": "NY", "street": "11765 PARTRIDGE RD", "postcode": "14080"}}},
{"geometry": {"type": "Point", "coordinates": [-78.5516653583, 42.6513325965]}, "type": "Feature", "properties": {"collection_times": [{"days": "Mon-Fri", "time": "5:00pm"}, {"days": "Sat", "time": "12:00pm"}, {"days": "Sun", "time": "Closed"}], "id": "1408000004", "name": "USPS COLLECTION BOX - PO LOBBY", "address": {"city": "HOLLAND", "state": "NY", "street": "11765 PARTRIDGE RD", "postcode": "14080"}}},
{"geometry": {"type": "Point", "coordinates": [-79.1113447422, 42.565216757]}, "type": "Feature", "properties": {"collection_times": [{"days": "Mon-Fri", "time": "4:30pm"}, {"days": "Sat", "time": "12:00pm"}, {"days": "Sun", "time": "Closed"}], "id": "1408100001", "name": "USPS COLLECTION BOX - BLUE BOX", "address": {"city": "IRVING", "state": "NY", "street": "12746 ERIE ST", "postcode": "14081"}}},
{"geometry": {"type": "Point", "coordinates": [-78.3871505778, 42.6501374415]}, "type": "Feature", "properties": {"collection_times": [{"days": "Mon-Fri", "time": "4:30pm"}, {"days": "Sat", "time": "11:45am"}, {"days": "Sun", "time": "Closed"}], "id": "1408200001", "name": "USPS COLLECTION BOX - BLUE BOX", "address": {"city": "JAVA CENTER", "state": "NY", "street": "1423 ROUTE 78", "postcode": "14082"}}},
{"geometry": {"type": "Point", "coordinates": [-78.4263729179, 42.6819112085]}, "type": "Feature", "properties": {"collection_times": [{"days": "Mon-Fri", "time": "12:00pm"}, {"days": "Sat", "time": "11:30am"}, {"days": "Sun", "time": "Closed"}], "id": "1408300001", "name": "USPS COLLECTION BOX - BLUE BOX", "address": {"city": "JAVA VILLAGE", "state": "NY", "street": "4530 MAIN ST", "postcode": "14083"}}},
{"geometry": {"type": "Point", "coordinates": [-78.9175966994, 42.7088157526]}, "type": "Feature", "properties": {"collection_times": [{"days": "Mon-Fri", "time": "4:30pm"}, {"days": "Sat", "time": "11:30am"}, {"days": "Sun", "time": "Closed"}], "id": "1408500003", "name": "USPS COLLECTION BOX - BLUE BOX", "address": {"city": "LAKEVIEW", "state": "NY", "street": "6550 SOUTHWESTERN BLVD", "postcode": "14085"}}},
{"geometry": {"type": "Point", "coordinates": [-78.6617157339, 42.9011106834]}, "type": "Feature", "properties": {"collection_times": [{"days": "Mon-Fri", "time": "2:00pm"}, {"days": "Sat-Sun", "time": "Closed"}], "id": "1408600009", "name": "USPS COLLECTION BOX - BLUE BOX", "address": {"city": "LANCASTER", "state": "NY", "street": "21 CENTRAL AVE", "postcode": "14086"}}},
{"geometry": {"type": "Point", "coordinates": [-78.6292567554, 42.9071312071]}, "type": "Feature", "properties": {"collection_times": [{"days": "Mon-Fri", "time": "2:00pm"}, {"days": "Sat", "time": "12:00pm"}, {"days": "Sun", "time": "Closed"}], "id": "1408600013", "name": "USPS COLLECTION BOX - BLUE BOX", "address": {"city": "LANCASTER", "state": "NY", "street": "1821 COMO PARK BLVD", "postcode": "14086"}}},
{"geometry": {"type": "Point", "coordinates": [-78.6580583217, 42.9179798279]}, "type": "Feature", "properties": {"collection_times": [{"days": "Mon-Sat", "time": "9:00am"}, {"days": "Sun", "time": "Closed"}], "id": "1408600020", "name": "USPS COLLECTION BOX - BLUE BOX", "address": {"city": "LANCASTER", "state": "NY", "street": "3825 WALDEN AVE", "postcode": "14086"}}},
{"geometry": {"type": "Point", "coordinates": [-78.6763052065, 42.880650179]}, "type": "Feature", "properties": {"collection_times": [{"days": "Mon-Fri", "time": "2:00pm"}, {"days": "Sat", "time": "12:00pm"}, {"days": "Sun", "time": "Closed"}], "id": "1408600021", "name": "USPS COLLECTION BOX - BLUE BOX", "address": {"city": "LANCASTER", "state": "NY", "street": "4935 WILLIAM ST", "postcode": "14086"}}},
{"geometry": {"type": "Point", "coordinates": [-78.6709821484, 42.9001881251]}, "type": "Feature", "properties": {"collection_times": [{"days": "Mon-Fri", "time": "5:00pm"}, {"days": "Sat", "time": "12:00pm"}, {"days": "Sun", "time": "Closed"}], "id": "1408600022", "name": "USPS COLLECTION BOX - BLUE BOX", "address": {"city": "LANCASTER", "state": "NY", "street": "5406 BROADWAY ST", "postcode": "14086"}}},
{"geometry": {"type": "Point", "coordinates": [-78.6767206823, 42.8807864151]}, "type": "Feature", "properties": {"collection_times": [{"days": "Mon-Fri", "time": "2:00pm"}, {"days": "Sat", "time": "12:00pm"}, {"days": "Sun", "time": "Closed"}], "id": "1408600023", "name": "USPS COLLECTION BOX - BLUE BOX", "address": {"city": "LANCASTER", "state": "NY", "street": "470 AURORA ST", "postcode": "14086"}}},
{"geometry": {"type": "Point", "coordinates": [-78.8810283843, 42.5438236923]}, "type": "Feature", "properties": {"collection_times": [{"days": "Mon-Fri", "time": "4:45pm"}, {"days": "Sat", "time": "11:45am"}, {"days": "Sun", "time": "Closed"}], "id": "1409100001", "name": "USPS COLLECTION BOX - BLUE BOX", "address": {"city": "LAWTONS", "state": "NY", "street": "12525 GOWANDA STATE RD", "postcode": "14091"}}},
{"geometry": {"type": "Point", "coordinates": [-79.0356919462, 43.1734197061]}, "type": "Feature", "properties": {"collection_times": [{"days": "Mon-Fri", "time": "5:00pm"}, {"days": "Sat", "time": "3:30pm"}, {"days": "Sun", "time": "Closed"}], "id": "1409200001", "name": "USPS COLLECTION BOX - BLUE BOX", "address": {"city": "LEWISTON", "state": "NY", "street": "150 S 8TH ST", "postcode": "14092"}}},
{"geometry": {"type": "Point", "coordinates": [-79.0356919462, 43.1734197061]}, "type": "Feature", "properties": {"collection_times": [{"days": "Mon-Fri", "time": "5:00pm"}, {"days": "Sat", "time": "3:30pm"}, {"days": "Sun", "time": "Closed"}], "id": "1409200002", "name": "USPS COLLECTION BOX - BLUE BOX", "address": {"city": "LEWISTON", "state": "NY", "street": "150 S 8TH ST", "postcode": "14092"}}},
{"geometry": {"type": "Point", "coordinates": [-79.0378709566, 43.1725384016]}, "type": "Feature", "properties": {"collection_times": [{"days": "Mon-Sat", "time": "10:00am"}, {"days": "Sun", "time": "Closed"}], "id": "1409200010", "name": "USPS COLLECTION BOX - BLUE BOX", "address": {"city": "LEWISTON", "state": "NY", "street": "721 CENTER ST", "postcode": "14092"}}},
{"geometry": {"type": "Point", "coordinates": [-79.0312144465, 43.1726744419]}, "type": "Feature", "properties": {"collection_times": [{"days": "Mon-Sat", "time": "2:30pm"}, {"days": "Sun", "time": "Closed"}], "id": "1409200011", "name": "USPS COLLECTION BOX - BLUE BOX", "address": {"city": "LEWISTON", "state": "NY", "street": "906 CENTER ST", "postcode": "14092"}}},
{"geometry": {"type": "Point", "coordinates": [-79.0295452914, 43.1536820357]}, "type": "Feature", "properties": {"collection_times": [{"days": "Mon-Sat", "time": "9:00am"}, {"days": "Sun", "time": "Closed"}], "id": "1409200013", "name": "USPS COLLECTION BOX - BLUE BOX", "address": {"city": "LEWISTON", "state": "NY", "street": "5320 MILITARY RD", "postcode": "14092"}}},
{"geometry": {"type": "Point", "coordinates": [-79.0444139026, 43.1740478573]}, "type": "Feature", "properties": {"collection_times": [{"days": "Mon-Sat", "time": "10:00am"}, {"days": "Sun", "time": "Closed"}], "id": "1409200018", "name": "USPS COLLECTION BOX - BLUE BOX", "address": {"city": "LEWISTON", "state": "NY", "street": "145 N 4TH ST", "postcode": "14092"}}},
{"geometry": {"type": "Point", "coordinates": [-78.6423452198, 43.1806639495]}, "type": "Feature", "properties": {"collection_times": [{"days": "Mon-Sat", "time": "2:00pm"}, {"days": "Sun", "time": "Closed"}], "id": "1409400009", "name": "USPS COLLECTION BOX - BLUE BOX", "address": {"city": "LOCKPORT", "state": "NY", "street": "7134 CHESTNUT RIDGE RD", "postcode": "14094"}}},
{"geometry": {"type": "Point", "coordinates": [-78.6968118854, 43.1500276256]}, "type": "Feature", "properties": {"collection_times": [{"days": "Mon-Fri", "time": "4:00pm"}, {"days": "Sat", "time": "2:00pm"}, {"days": "Sun", "time": "Closed"}], "id": "1409400015", "name": "USPS COLLECTION BOX - BLUE BOX", "address": {"city": "LOCKPORT", "state": "NY", "street": "5679 S TRANSIT RD", "postcode": "14094"}}},
{"geometry": {"type": "Point", "coordinates": [-78.6877379719, 43.1603424015]}, "type": "Feature", "properties": {"collection_times": [{"days": "Mon-Fri", "time": "4:00pm"}, {"days": "Sat", "time": "2:00pm"}, {"days": "Sun", "time": "Closed"}], "id": "1409400016", "name": "USPS COLLECTION BOX - BLUE BOX", "address": {"city": "LOCKPORT", "state": "NY", "street": "859 DAVISON RD", "postcode": "14094"}}},
{"geometry": {"type": "Point", "coordinates": [-78.6734057506, 43.1752683484]}, "type": "Feature", "properties": {"collection_times": [{"days": "Mon-Sat", "time": "2:00pm"}, {"days": "Sun", "time": "Closed"}], "id": "1409400021", "name": "USPS COLLECTION BOX - BLUE BOX", "address": {"city": "LOCKPORT", "state": "NY", "street": "54 LEVAN AVE", "postcode": "14094"}}},
{"geometry": {"type": "Point", "coordinates": [-78.6968688394, 43.1598558986]}, "type": "Feature", "properties": {"collection_times": [{"days": "Mon-Fri", "time": "4:00pm"}, {"days": "Sat", "time": "2:00pm"}, {"days": "Sun", "time": "Closed"}], "id": "1409400026", "name": "USPS COLLECTION BOX - BLUE BOX", "address": {"city": "LOCKPORT", "state": "NY", "street": "280 S TRANSIT ST", "postcode": "14094"}}},
{"geometry": {"type": "Point", "coordinates": [-78.6965435257, 43.1542368435]}, "type": "Feature", "properties": {"collection_times": [{"days": "Mon-Fri", "time": "4:00pm"}, {"days": "Sat", "time": "2:00pm"}, {"days": "Sun", "time": "Closed"}], "id": "1409400027", "name": "USPS COLLECTION BOX - BLUE BOX", "address": {"city": "LOCKPORT", "state": "NY", "street": "6 LINCOLN AVE", "postcode": "14094"}}},
{"geometry": {"type": "Point", "coordinates": [-78.6989768723, 43.1688487526]}, "type": "Feature", "properties": {"collection_times": [{"days": "Mon-Fri", "time": "3:00pm"}, {"days": "Sat", "time": "2:00pm"}, {"days": "Sun", "time": "Closed"}], "id": "1409400032", "name": "USPS COLLECTION BOX - BLUE BOX", "address": {"city": "LOCKPORT", "state": "NY", "street": "59 PARK AVE", "postcode": "14094"}}},
{"geometry": {"type": "Point", "coordinates": [-78.676880983, 43.2215911143]}, "type": "Feature", "properties": {"collection_times": [{"days": "Mon-Sat", "time": "9:30am"}, {"days": "Sun", "time": "Closed"}], "id": "1409400033", "name": "USPS COLLECTION BOX - BLUE BOX", "address": {"city": "LOCKPORT", "state": "NY", "street": "3949 LOCKPORT OLCOTT RD", "postcode": "14094"}}},
{"geometry": {"type": "Point", "coordinates": [-78.6902033878, 43.1706566344]}, "type": "Feature", "properties": {"collection_times": [{"days": "Mon-Fri", "time": "4:00pm"}, {"days": "Sat", "time": "2:00pm"}, {"days": "Sun", "time": "Closed"}], "id": "1409400038", "name": "USPS COLLECTION BOX - BLUE BOX", "address": {"city": "LOCKPORT", "state": "NY", "street": "12 MARKET ST", "postcode": "14094"}}},
{"geometry": {"type": "Point", "coordinates": [-78.6877379719, 43.1603424015]}, "type": "Feature", "properties": {"collection_times": [{"days": "Mon-Fri", "time": "4:00pm"}, {"days": "Sat", "time": "2:00pm"}, {"days": "Sun", "time": "Closed"}], "id": "1409400046", "name": "USPS COLLECTION BOX - BLUE BOX", "address": {"city": "LOCKPORT", "state": "NY", "street": "859 DAVISON RD", "postcode": "14094"}}},
{"geometry": {"type": "Point", "coordinates": [-78.6877813486, 43.1321036813]}, "type": "Feature", "properties": {"collection_times": [{"days": "Mon-Sat", "time": "2:00pm"}, {"days": "Sun", "time": "Closed"}], "id": "1409400048", "name": "USPS COLLECTION BOX - BLUE BOX", "address": {"city": "LOCKPORT", "state": "NY", "street": "6310 ROBINSON RD", "postcode": "14094"}}},
{"geometry": {"type": "Point", "coordinates": [-78.6968735712, 43.1414206661]}, "type": "Feature", "properties": {"collection_times": [{"days": "Mon-Fri", "time": "4:00pm"}, {"days": "Sat", "time": "2:00pm"}, {"days": "Sun", "time": "Closed"}], "id": "1409400050", "name": "USPS COLLECTION BOX - BLUE BOX", "address": {"city": "LOCKPORT", "state": "NY", "street": "5827 S TRANSIT RD", "postcode": "14094"}}},
{"geometry": {"type": "Point", "coordinates": [-78.683862377, 43.172182732]}, "type": "Feature", "properties": {"collection_times": [{"days": "Mon-Fri", "time": "5:00pm"}, {"days": "Sat", "time": "2:00pm"}, {"days": "Sun", "time": "Closed"}], "id": "1409400051", "name": "USPS COLLECTION BOX - BLUE BOX", "address": {"city": "LOCKPORT", "state": "NY", "street": "138 EAST AVE", "postcode": "14094"}}},
{"geometry": {"type": "Point", "coordinates": [-78.6968735712, 43.1414206661]}, "type": "Feature", "properties": {"collection_times": [{"days": "Mon-Fri", "time": "4:00pm"}, {"days": "Sat", "time": "2:00pm"}, {"days": "Sun", "time": "Closed"}], "id": "1409400058", "name": "USPS COLLECTION BOX - BLUE BOX", "address": {"city": "LOCKPORT", "state": "NY", "street": "5827 S TRANSIT RD", "postcode": "14094"}}},
{"geometry": {"type": "Point", "coordinates": [-78.683862377, 43.172182732]}, "type": "Feature", "properties": {"collection_times": [{"days": "Mon-Fri", "time": "5:00pm"}, {"days": "Sat", "time": "2:00pm"}, {"days": "Sun", "time": "Closed"}], "id": "1409400060", "name": "USPS COLLECTION BOX - APC", "address": {"city": "LOCKPORT", "state": "NY", "street": "138 EAST AVE", "postcode": "14094"}}},
{"geometry": {"type": "Point", "coordinates": [-78.3887778236, 43.3208152102]}, "type": "Feature", "properties": {"collection_times": [{"days": "Mon-Fri", "time": "4:30pm"}, {"days": "Sat", "time": "12:00pm"}, {"days": "Sun", "time": "Closed"}], "id": "1409800001", "name": "USPS COLLECTION BOX - BLUE BOX", "address": {"city": "LYNDONVILLE", "state": "NY", "street": "18 S MAIN ST", "postcode": "14098"}}}
]}
