{"type": "FeatureCollection", "features": [
{"geometry": {"type": "Point", "coordinates": [-78.4928231281, 42.4212349098]}, "type": "Feature", "properties": {"collection_times": [{"days": "Mon-Fri", "time": "5:00pm"}, {"days": "Sat", "time": "12:00pm"}, {"days": "Sun", "time": "Closed"}], "id": "1410100001", "name": "USPS COLLECTION BOX - BLUE BOX", "address": {"city": "MACHIAS", "state": "NY", "street": "9742 ROUTE 16", "postcode": "14101"}}},
{"geometry": {"type": "Point", "coordinates": [-78.5551578832, 42.8392299503]}, "type": "Feature", "properties": {"collection_times": [{"days": "Mon-Fri", "time": "4:45pm"}, {"days": "Sat", "time": "11:45am"}, {"days": "Sun", "time": "Closed"}], "id": "1410200001", "name": "USPS COLLECTION BOX - BLUE BOX", "address": {"city": "MARILLA", "state": "NY", "street": "1693 TWO ROD RD", "postcode": "14102"}}},
{"geometry": {"type": "Point", "coordinates": [-78.388477352, 43.2203725304]}, "type": "Feature", "properties": {"collection_times": [{"days": "Mon-Fri", "time": "4:30pm"}, {"days": "Sat", "time": "2:00pm"}, {"days": "Sun", "time": "Closed"}], "id": "1410300001", "name": "USPS COLLECTION BOX - BLUE BOX", "address": {"city": "MEDINA", "state": "NY", "street": "128 W CENTER ST", "postcode": "14103"}}},
{"geometry": {"type": "Point", "coordinates": [-78.3869537009, 43.2213673988]}, "type": "Feature", "properties": {"collection_times": [{"days": "Mon-Sat", "time": "2:00pm"}, {"days": "Sun", "time": "Closed"}], "id": "1410300011", "name": "USPS COLLECTION BOX - BLUE BOX", "address": {"city": "MEDINA", "state": "NY", "street": "426 MAIN ST", "postcode": "14103"}}},
{"geometry": {"type": "Point", "coordinates": [-78.3867929811, 43.2184848284]}, "type": "Feature", "properties": {"collection_times": [{"days": "Mon-Sat", "time": "2:00pm"}, {"days": "Sun", "time": "Closed"}], "id": "1410300012", "name": "USPS COLLECTION BOX - BLUE BOX", "address": {"city": "MEDINA", "state": "NY", "street": "543 MAIN ST", "postcode": "14103"}}},
{"geometry": {"type": "Point", "coordinates": [-78.3848563285, 43.2196126215]}, "type": "Feature", "properties": {"collection_times": [{"days": "Mon-Sat", "time": "2:00pm"}, {"days": "Sun", "time": "Closed"}], "id": "1410300018", "name": "USPS COLLECTION BOX - BLUE BOX", "address": {"city": "MEDINA", "state": "NY", "street": "412 PROCTOR PL", "postcode": "14103"}}},
{"geometry": {"type": "Point", "coordinates": [-78.3848563285, 43.2196126215]}, "type": "Feature", "properties": {"collection_times": [{"days": "Mon-Sat", "time": "10:00am"}, {"days": "Sun", "time": "Closed"}], "id": "1410300022", "name": "USPS COLLECTION BOX - BLUE BOX", "address": {"city": "MEDINA", "state": "NY", "street": "11200 MAPLE RIDGE RD", "postcode": "14103"}}},
{"geometry": {"type": "Point", "coordinates": [-78.3848563285, 43.2196126215]}, "type": "Feature", "properties": {"collection_times": [{"days": "Mon-Sat", "time": "2:00pm"}, {"days": "Sun", "time": "Closed"}], "id": "1410300025", "name": "USPS COLLECTION BOX - BLUE BOX", "address": {"city": "MEDINA", "state": "NY", "street": "412 PROCTOR PL", "postcode": "14103"}}},
{"geometry": {"type": "Point", "coordinates": [-78.4836830725, 43.2052720592]}, "type": "Feature", "properties": {"collection_times": [{"days": "Mon-Sat", "time": "9:30am"}, {"days": "Sun", "time": "Closed"}], "id": "1410500002", "name": "USPS COLLECTION BOX - BLUE BOX", "address": {"city": "MIDDLEPORT", "state": "NY", "street": "79 TELEGRAPH RD", "postcode": "14105"}}},
{"geometry": {"type": "Point", "coordinates": [-78.4765466194, 43.2110792308]}, "type": "Feature", "properties": {"collection_times": [{"days": "Mon-Fri", "time": "4:30pm"}, {"days": "Sat", "time": "12:00pm"}, {"days": "Sun", "time": "Closed"}], "id": "1410500006", "name": "USPS COLLECTION BOX - BLUE BOX", "address": {"city": "MIDDLEPORT", "state": "NY", "street": "42 MAIN ST", "postcode": "14105"}}},
{"geometry": {"type": "Point", "coordinates": [-78.9829142983, 43.1789415878]}, "type": "Feature", "properties": {"collection_times": [{"days": "Mon-Fri", "time": "4:45pm"}, {"days": "Sat", "time": "11:45am"}, {"days": "Sun", "time": "Closed"}], "id": "1410700001", "name": "USPS COLLECTION BOX - BLUE BOX", "address": {"city": "MODEL CITY", "state": "NY", "street": "4746 MODEL CITY RD", "postcode": "14107"}}},
{"geometry": {"type": "Point", "coordinates": [-78.7007395899, 43.2758826672]}, "type": "Feature", "properties": {"collection_times": [{"days": "Mon-Fri", "time": "12:00pm"}, {"days": "Sat-Sun", "time": "Closed"}], "id": "1410800002", "name": "USPS COLLECTION BOX - BLUE BOX", "address": {"city": "NEWFANE", "state": "NY", "street": "2897 LOCKPORT OLCOTT RD", "postcode": "14108"}}},
{"geometry": {"type": "Point", "coordinates": [-78.7082477217, 43.2826931746]}, "type": "Feature", "properties": {"collection_times": [{"days": "Mon-Sat", "time": "2:45pm"}, {"days": "Sun", "time": "Closed"}], "id": "1410800005", "name": "USPS COLLECTION BOX - BLUE BOX", "address": {"city": "NEWFANE", "state": "NY", "street": "2733 MAIN ST", "postcode": "14108"}}},
{"geometry": {"type": "Point", "coordinates": [-78.7096175882, 43.2904876912]}, "type": "Feature", "properties": {"collection_times": [{"days": "Mon-Fri", "time": "5:00pm"}, {"days": "Sat", "time": "3:30pm"}, {"days": "Sun", "time": "Closed"}], "id": "1410800006", "name": "USPS COLLECTION BOX - BLUE BOX", "address": {"city": "NEWFANE", "state": "NY", "street": "6000 EDWARD AVE", "postcode": "14108"}}},
{"geometry": {"type": "Point", "coordinates": [-78.6968439973, 43.2664842708]}, "type": "Feature", "properties": {"collection_times": [{"days": "Mon-Fri", "time": "10:30am"}, {"days": "Sat-Sun", "time": "Closed"}], "id": "1410800009", "name": "USPS COLLECTION BOX - BLUE BOX", "address": {"city": "NEWFANE", "state": "NY", "street": "3051 BIXLER RD", "postcode": "14108"}}},
{"geometry": {"type": "Point", "coordinates": [-79.0384885408, 43.1365100463]}, "type": "Feature", "properties": {"collection_times": [{"days": "Mon-Fri", "time": "3:45pm"}, {"days": "Sat", "time": "10:45am"}, {"days": "Sun", "time": "Closed"}], "id": "1410900001", "name": "USPS COLLECTION BOX - BLUE BOX", "address": {"city": "NIAGARA UNIVERSI", "state": "NY", "street": "11 VINCENTIAN DR", "postcode": "14109"}}},
{"geometry": {"type": "Point", "coordinates": [-78.7784870063, 42.6869418619]}, "type": "Feature", "properties": {"collection_times": [{"days": "Mon-Fri", "time": "4:30pm"}, {"days": "Sat", "time": "12:00pm"}, {"days": "Sun", "time": "Closed"}], "id": "1411000003", "name": "USPS COLLECTION BOX - BLUE BOX", "address": {"city": "NORTH BOSTON", "state": "NY", "street": "7170 BOSTON STATE RD", "postcode": "14110"}}},
{"geometry": {"type": "Point", "coordinates": [-78.7784870063, 42.6869418619]}, "type": "Feature", "properties": {"collection_times": [{"days": "Mon-Fri", "time": "5:00pm"}, {"days": "Sat", "time": "12:00pm"}, {"days": "Sun", "time": "Closed"}], "id": "1411000005", "name": "USPS COLLECTION BOX - PO LOBBY", "address": {"city": "NORTH BOSTON", "state": "NY", "street": "7170 BOSTON STATE RD", "postcode": "14110"}}},
{"geometry": {"type": "Point", "coordinates": [-78.9408692231, 42.5930973006]}, "type": "Feature", "properties": {"collection_times": [{"days": "Mon-Fri", "time": "4:30pm"}, {"days": "Sat", "time": "12:00pm"}, {"days": "Sun", "time": "Closed"}], "id": "1411100001", "name": "USPS COLLECTION BOX - BLUE BOX", "address": {"city": "NORTH COLLINS", "state": "NY", "street": "10607 MAIN ST", "postcode": "14111"}}},
{"geometry": {"type": "Point", "coordinates": [-78.9432672926, 42.6940020889]}, "type": "Feature", "properties": {"collection_times": [{"days": "Mon-Fri", "time": "4:30pm"}, {"days": "Sat", "time": "11:30am"}, {"days": "Sun", "time": "Closed"}], "id": "1411200001", "name": "USPS COLLECTION BOX - BLUE BOX", "address": {"city": "NORTH EVANS", "state": "NY", "street": "6971 VERSAILLES RD", "postcode": "14112"}}},
{"geometry": {"type": "Point", "coordinates": [-78.3354477268, 42.6840467222]}, "type": "Feature", "properties": {"collection_times": [{"days": "Mon-Fri", "time": "4:30pm"}, {"days": "Sat", "time": "12:00pm"}, {"days": "Sun", "time": "Closed"}], "id": "1411300001", "name": "USPS COLLECTION BOX - BLUE BOX", "address": {"city": "NORTH JAVA", "state": "NY", "street": "2143 WETHERSFIELD RD", "postcode": "14113"}}},
{"geometry": {"type": "Point", "coordinates": [-78.8730634795, 43.025302597]}, "type": "Feature", "properties": {"collection_times": [{"days": "Mon-Fri", "time": "5:15pm"}, {"days": "Sat", "time": "4:30pm"}, {"days": "Sun", "time": "Closed"}], "id": "1412000001", "name": "USPS COLLECTION BOX - BLUE BOX", "address": {"city": "NORTH TONAWANDA", "state": "NY", "street": "141 GOUNDRY ST", "postcode": "14120"}}},
{"geometry": {"type": "Point", "coordinates": [-78.8766724739, 43.0247037592]}, "type": "Feature", "properties": {"collection_times": [{"days": "Mon-Fri", "time": "3:00pm"}, {"days": "Sat", "time": "9:00am"}, {"days": "Sun", "time": "Closed"}], "id": "1412000006", "name": "USPS COLLECTION BOX - BLUE BOX", "address": {"city": "NORTH TONAWANDA", "state": "NY", "street": "107 MAIN ST", "postcode": "14120"}}},
{"geometry": {"type": "Point", "coordinates": [-78.8654262964, 43.038447637]}, "type": "Feature", "properties": {"collection_times": [{"days": "Mon-Fri", "time": "9:00am"}, {"days": "Sat-Sun", "time": "Closed"}], "id": "1412000009", "name": "USPS COLLECTION BOX - BLUE BOX", "address": {"city": "NORTH TONAWANDA", "state": "NY", "street": "500 WHEATFIELD ST", "postcode": "14120"}}},
{"geometry": {"type": "Point", "coordinates": [-78.8617579407, 43.0347899279]}, "type": "Feature", "properties": {"collection_times": [{"days": "Mon-Sat", "time": "9:00am"}, {"days": "Sun", "time": "Closed"}], "id": "1412000016", "name": "USPS COLLECTION BOX - BLUE BOX", "address": {"city": "NORTH TONAWANDA", "state": "NY", "street": "419 DIVISION ST", "postcode": "14120"}}},
{"geometry": {"type": "Point", "coordinates": [-78.879651378, 43.044070241]}, "type": "Feature", "properties": {"collection_times": [{"days": "Mon-Sat", "time": "9:00am"}, {"days": "Sun", "time": "Closed"}], "id": "1412000018", "name": "USPS COLLECTION BOX - BLUE BOX", "address": {"city": "NORTH TONAWANDA", "state": "NY", "street": "789 GILMORE AVE", "postcode": "14120"}}},
{"geometry": {"type": "Point", "coordinates": [-78.8693785623, 43.0293021813]}, "type": "Feature", "properties": {"collection_times": [{"days": "Mon-Fri", "time": "4:00pm"}, {"days": "Sat-Sun", "time": "Closed"}], "id": "1412000020", "name": "USPS COLLECTION BOX - BLUE BOX", "address": {"city": "NORTH TONAWANDA", "state": "NY", "street": "216 PAYNE AVE", "postcode": "14120"}}},
{"geometry": {"type": "Point", "coordinates": [-78.8872530723, 43.0514992233]}, "type": "Feature", "properties": {"collection_times": [{"days": "Mon-Sat", "time": "9:00am"}, {"days": "Sun", "time": "Closed"}], "id": "1412000025", "name": "USPS COLLECTION BOX - BLUE BOX", "address": {"city": "NORTH TONAWANDA", "state": "NY", "street": "1115 OLIVER ST", "postcode": "14120"}}},
{"geometry": {"type": "Point", "coordinates": [-78.8363184081, 43.0558122917]}, "type": "Feature", "properties": {"collection_times": [{"days": "Mon-Sat", "time": "9:00am"}, {"days": "Sun", "time": "Closed"}], "id": "1412000027", "name": "USPS COLLECTION BOX - BLUE BOX", "address": {"city": "NORTH TONAWANDA", "state": "NY", "street": "1781 LINDEN AVE", "postcode": "14120"}}},
{"geometry": {"type": "Point", "coordinates": [-78.8934683387, 43.085987209]}, "type": "Feature", "properties": {"collection_times": [{"days": "Mon-Sat", "time": "9:00am"}, {"days": "Sun", "time": "Closed"}], "id": "1412000030", "name": "USPS COLLECTION BOX - BLUE BOX", "address": {"city": "NORTH TONAWANDA", "state": "NY", "street": "2800 CHURCH RD", "postcode": "14120"}}},
{"geometry": {"type": "Point", "coordinates": [-78.8635245064, 43.0382352489]}, "type": "Feature", "properties": {"collection_times": [{"days": "Mon-Sat", "time": "9:00am"}, {"days": "Sun", "time": "Closed"}], "id": "1412000032", "name": "USPS COLLECTION BOX - BLUE BOX", "address": {"city": "NORTH TONAWANDA", "state": "NY", "street": "535 DIVISION ST", "postcode": "14120"}}},
{"geometry": {"type": "Point", "coordinates": [-78.8816766037, 43.0567432804]}, "type": "Feature", "properties": {"collection_times": [{"days": "Mon-Sat", "time": "9:00am"}, {"days": "Sun", "time": "Closed"}], "id": "1412000034", "name": "USPS COLLECTION BOX - BLUE BOX", "address": {"city": "NORTH TONAWANDA", "state": "NY", "street": "1266 PAYNE AVE", "postcode": "14120"}}},
{"geometry": {"type": "Point", "coordinates": [-78.8775894805, 43.0652191814]}, "type": "Feature", "properties": {"collection_times": [{"days": "Mon-Sat", "time": "9:00am"}, {"days": "Sun", "time": "Closed"}], "id": "1412000035", "name": "USPS COLLECTION BOX - BLUE BOX", "address": {"city": "NORTH TONAWANDA", "state": "NY", "street": "944 RUIE RD", "postcode": "14120"}}},
{"geometry": {"type": "Point", "coordinates": [-78.8836095587, 43.045597441]}, "type": "Feature", "properties": {"collection_times": [{"days": "Mon-Sat", "time": "9:00am"}, {"days": "Sun", "time": "Closed"}], "id": "1412000037", "name": "USPS COLLECTION BOX - BLUE BOX", "address": {"city": "NORTH TONAWANDA", "state": "NY", "street": "881 OLIVER ST", "postcode": "14120"}}},
{"geometry": {"type": "Point", "coordinates": [-78.8779436806, 43.0506034944]}, "type": "Feature", "properties": {"collection_times": [{"days": "Mon-Sat", "time": "9:00am"}, {"days": "Sun", "time": "Closed"}], "id": "1412000038", "name": "USPS COLLECTION BOX - BLUE BOX", "address": {"city": "NORTH TONAWANDA", "state": "NY", "street": "1012 PAYNE AVE", "postcode": "14120"}}},
{"geometry": {"type": "Point", "coordinates": [-78.8778386787, 43.0507161982]}, "type": "Feature", "properties": {"collection_times": [{"days": "Mon-Fri", "time": "3:00pm"}, {"days": "Sat", "time": "9:00am"}, {"days": "Sun", "time": "Closed"}], "id": "1412000040", "name": "USPS COLLECTION BOX - BLUE BOX", "address": {"city": "NORTH TONAWANDA", "state": "NY", "street": "1013 PAYNE AVE", "postcode": "14120"}}},
{"geometry": {"type": "Point", "coordinates": [-78.884954583, 43.0477705367]}, "type": "Feature", "properties": {"collection_times": [{"days": "Mon-Fri", "time": "3:00pm"}, {"days": "Sat", "time": "9:00am"}, {"days": "Sun", "time": "Closed"}], "id": "1412000041", "name": "USPS COLLECTION BOX - BLUE BOX", "address": {"city": "NORTH TONAWANDA", "state": "NY", "street": "965 OLIVER ST", "postcode": "14120"}}},
{"geometry": {"type": "Point", "coordinates": [-78.8573715288, 43.0248826466]}, "type": "Feature", "properties": {"collection_times": [{"days": "Mon-Sat", "time": "9:00am"}, {"days": "Sun", "time": "Closed"}], "id": "1412000043", "name": "USPS COLLECTION BOX - BLUE BOX", "address": {"city": "NORTH TONAWANDA", "state": "NY", "street": "33 SPRUCE ST", "postcode": "14120"}}},
{"geometry": {"type": "Point", "coordinates": [-78.8740879219, 43.0413281421]}, "type": "Feature", "properties": {"collection_times": [{"days": "Mon-Sat", "time": "9:00am"}, {"days": "Sun", "time": "Closed"}], "id": "1412000045", "name": "USPS COLLECTION BOX - BLUE BOX", "address": {"city": "NORTH TONAWANDA", "state": "NY", "street": "664 PAYNE AVE", "postcode": "14120"}}},
{"geometry": {"type": "Point", "coordinates": [-78.8794609216, 43.0388995274]}, "type": "Feature", "properties": {"collection_times": [{"days": "Mon-Sat", "time": "9:00am"}, {"days": "Sun", "time": "Closed"}], "id": "1412000048", "name": "USPS COLLECTION BOX - BLUE BOX", "address": {"city": "NORTH TONAWANDA", "state": "NY", "street": "615 OLIVER ST", "postcode": "14120"}}},
{"geometry": {"type": "Point", "coordinates": [-78.8460750961, 43.0228568081]}, "type": "Feature", "properties": {"collection_times": [{"days": "Mon-Sat", "time": "9:00am"}, {"days": "Sun", "time": "Closed"}], "id": "1412000051", "name": "USPS COLLECTION BOX - BLUE BOX", "address": {"city": "NORTH TONAWANDA", "state": "NY", "street": "115 S MEADOW DR", "postcode": "14120"}}},
{"geometry": {"type": "Point", "coordinates": [-78.8445605342, 43.0646518489]}, "type": "Feature", "properties": {"collection_times": [{"days": "Mon-Sat", "time": "9:00am"}, {"days": "Sun", "time": "Closed"}], "id": "1412000054", "name": "USPS COLLECTION BOX - BLUE BOX", "address": {"city": "NORTH TONAWANDA", "state": "NY", "street": "1060 NIAGARA FALLS BLVD", "postcode": "14120"}}},
{"geometry": {"type": "Point", "coordinates": [-78.8531235232, 43.0647199727]}, "type": "Feature", "properties": {"collection_times": [{"days": "Mon-Sat", "time": "9:00am"}, {"days": "Sun", "time": "Closed"}], "id": "1412000058", "name": "USPS COLLECTION BOX - BLUE BOX", "address": {"city": "NORTH TONAWANDA", "state": "NY", "street": "1527 ABINGTON PL", "postcode": "14120"}}},
{"geometry": {"type": "Point", "coordinates": [-78.856529262, 43.0307702334]}, "type": "Feature", "properties": {"collection_times": [{"days": "Mon-Sat", "time": "9:00am"}, {"days": "Sun", "time": "Closed"}], "id": "1412000059", "name": "USPS COLLECTION BOX - BLUE BOX", "address": {"city": "NORTH TONAWANDA", "state": "NY", "street": "624 WRIGHT AVE", "postcode": "14120"}}},
{"geometry": {"type": "Point", "coordinates": [-78.865698377, 43.055717655]}, "type": "Feature", "properties": {"collection_times": [{"days": "Mon-Sat", "time": "9:00am"}, {"days": "Sun", "time": "Closed"}], "id": "1412000060", "name": "USPS COLLECTION BOX - BLUE BOX", "address": {"city": "NORTH TONAWANDA", "state": "NY", "street": "1199 NASH RD", "postcode": "14120"}}},
{"geometry": {"type": "Point", "coordinates": [-78.8676041239, 43.0521392041]}, "type": "Feature", "properties": {"collection_times": [{"days": "Mon-Sat", "time": "9:00am"}, {"days": "Sun", "time": "Closed"}], "id": "1412000061", "name": "USPS COLLECTION BOX - BLUE BOX", "address": {"city": "NORTH TONAWANDA", "state": "NY", "street": "505 MEADOW MDW", "postcode": "14120"}}},
{"geometry": {"type": "Point", "coordinates": [-78.8364072102, 43.0745337804]}, "type": "Feature", "properties": {"collection_times": [{"days": "Mon-Fri", "time": "3:00pm"}, {"days": "Sat", "time": "9:00am"}, {"days": "Sun", "time": "Closed"}], "id": "1412000063", "name": "USPS COLLECTION BOX - BLUE BOX", "address": {"city": "NORTH TONAWANDA", "state": "NY", "street": "908 NIAGARA FALLS BLVD", "postcode": "14120"}}},
{"geometry": {"type": "Point", "coordinates": [-78.8490458636, 43.0497910306]}, "type": "Feature", "properties": {"collection_times": [{"days": "Mon-Fri", "time": "3:00pm"}, {"days": "Sat", "time": "9:00am"}, {"days": "Sun", "time": "Closed"}], "id": "1412000065", "name": "USPS COLLECTION BOX - BLUE BOX", "address": {"city": "NORTH TONAWANDA", "state": "NY", "street": "1174 ERIE AVE", "postcode": "14120"}}},
{"geometry": {"type": "Point", "coordinates": [-78.8625990245, 43.0261803526]}, "type": "Feature", "properties": {"collection_times": [{"days": "Mon-Fri", "time": "4:00pm"}, {"days": "Sat", "time": "9:00am"}, {"days": "Sun", "time": "Closed"}], "id": "1412000066", "name": "USPS COLLECTION BOX - BLUE BOX", "address": {"city": "NORTH TONAWANDA", "state": "NY", "street": "445 TREMONT ST", "postcode": "14120"}}},
{"geometry": {"type": "Point", "coordinates": [-78.8730634795, 43.025302597]}, "type": "Feature", "properties": {"collection_times": [{"days": "Mon-Fri", "time": "5:15pm"}, {"days": "Sat", "time": "4:30pm"}, {"days": "Sun", "time": "Closed"}], "id": "1412000067", "name": "USPS COLLECTION BOX - BLUE BOX", "address": {"city": "NORTH TONAWANDA", "state": "NY", "street": "141 GOUNDRY ST", "postcode": "14120"}}},
{"geometry": {"type": "Point", "coordinates": [-78.8628754026, 43.0264844465]}, "type": "Feature", "properties": {"collection_times": [{"days": "Mon-Sat", "time": "9:00am"}, {"days": "Sun", "time": "Closed"}], "id": "1412000068", "name": "USPS COLLECTION BOX - BLUE BOX", "address": {"city": "NORTH TONAWANDA", "state": "NY", "street": "12 WHITING ST", "postcode": "14120"}}},
{"geometry": {"type": "Point", "coordinates": [-78.8730634795, 43.025302597]}, "type": "Feature", "properties": {"collection_times": [{"days": "Mon-Fri", "time": "5:15pm"}, {"days": "Sat", "time": "4:30pm"}, {"days": "Sun", "time": "Closed"}], "id": "1412000070", "name": "USPS COLLECTION BOX - BLUE BOX", "address": {"city": "NORTH TONAWANDA", "state": "NY", "street": "141 GOUNDRY ST", "postcode": "14120"}}},
{"geometry": {"type": "Point", "coordinates": [-78.8730634795, 43.025302597]}, "type": "Feature", "properties": {"collection_times": [{"days": "Mon-Fri", "time": "5:15pm"}, {"days": "Sat", "time": "4:30pm"}, {"days": "Sun", "time": "Closed"}], "id": "1412000071", "name": "USPS COLLECTION BOX - BLUE BOX", "address": {"city": "NORTH TONAWANDA", "state": "NY", "street": "141 GOUNDRY ST", "postcode": "14120"}}},
{"geometry": {"type": "Point", "coordinates": [-78.8777385333, 43.0503363746]}, "type": "Feature", "properties": {"collection_times": [{"days": "Mon-Fri", "time": "3:00pm"}, {"days": "Sat", "time": "9:00am"}, {"days": "Sun", "time": "Closed"}], "id": "1412000072", "name": "USPS COLLECTION BOX - BLUE BOX", "address": {"city": "NORTH TONAWANDA", "state": "NY", "street": "953 PAYNE AVE", "postcode": "14120"}}},
{"geometry": {"type": "Point", "coordinates": [-78.8657252588, 43.0605170695]}, "type": "Feature", "properties": {"collection_times": [{"days": "Mon-Fri", "time": "3:00pm"}, {"days": "Sat", "time": "9:00am"}, {"days": "Sun", "time": "Closed"}], "id": "1412000073", "name": "USPS COLLECTION BOX - BLUE BOX", "address": {"city": "NORTH TONAWANDA", "state": "NY", "street": "1381 NASH RD", "postcode": "14120"}}},
{"geometry": {"type": "Point", "coordinates": [-78.8364072102, 43.0745337804]}, "type": "Feature", "properties": {"collection_times": [{"days": "Mon-Sat", "time": "9:00am"}, {"days": "Sun", "time": "Closed"}], "id": "1412000075", "name": "USPS COLLECTION BOX - BLUE BOX", "address": {"city": "NORTH TONAWANDA", "state": "NY", "street": "6955 WARD RD", "postcode": "14120"}}},
{"geometry": {"type": "Point", "coordinates": [-78.877935099, 43.0222293844]}, "type": "Feature", "properties": {"collection_times": [{"days": "Mon-Fri", "time": "3:00pm"}, {"days": "Sat", "time": "9:00am"}, {"days": "Sun", "time": "Closed"}], "id": "1412000078", "name": "USPS COLLECTION BOX - BLUE BOX", "address": {"city": "NORTH TONAWANDA", "state": "NY", "street": "14 WEBSTER ST", "postcode": "14120"}}},
{"geometry": {"type": "Point", "coordinates": [-78.8621595276, 43.0514131136]}, "type": "Feature", "properties": {"collection_times": [{"days": "Mon-Fri", "time": "5:15pm"}, {"days": "Sat", "time": "4:30pm"}, {"days": "Sun", "time": "Closed"}], "id": "1412000079", "name": "USPS COLLECTION BOX - EXPRESS", "address": {"city": "NORTH TONAWANDA", "state": "NY", "street": "141 GOUNDRY ST", "postcode": "14120"}}},
{"geometry": {"type": "Point", "coordinates": [-78.8746533763, 43.052285891]}, "type": "Feature", "properties": {"collection_times": [{"days": "Mon-Fri", "time": "3:00pm"}, {"days": "Sat", "time": "9:00am"}, {"days": "Sun", "time": "Closed"}], "id": "1412000081", "name": "USPS COLLECTION BOX - BLUE BOX", "address": {"city": "NORTH TONAWANDA", "state": "NY", "street": "301 MEADOW DR", "postcode": "14120"}}},
{"geometry": {"type": "Point", "coordinates": [-78.2716305803, 43.0668374692]}, "type": "Feature", "properties": {"collection_times": [{"days": "Mon-Fri", "time": "5:00pm"}, {"days": "Sat", "time": "12:00pm"}, {"days": "Sun", "time": "Closed"}], "id": "1412500004", "name": "USPS COLLECTION BOX - BLUE BOX", "address": {"city": "OAKFIELD", "state": "NY", "street": "28 MAIN ST", "postcode": "14125"}}},
{"geometry": {"type": "Point", "coordinates": [-78.7139504368, 43.3346341162]}, "type": "Feature", "properties": {"collection_times": [{"days": "Mon-Fri", "time": "4:45pm"}, {"days": "Sat", "time": "12:00pm"}, {"days": "Sun", "time": "Closed"}], "id": "1412600001", "name": "USPS COLLECTION BOX - BLUE BOX", "address": {"city": "OLCOTT", "state": "NY", "street": "1617 LOCKPORT OLCOTT RD", "postcode": "14126"}}},
{"geometry": {"type": "Point", "coordinates": [-78.7455026484, 42.7649688176]}, "type": "Feature", "properties": {"collection_times": [{"days": "Mon-Fri", "time": "5:15pm"}, {"days": "Sat", "time": "3:15pm"}, {"days": "Sun", "time": "Closed"}], "id": "1412700001", "name": "USPS COLLECTION BOX - BLUE BOX", "address": {"city": "ORCHARD PARK", "state": "NY", "street": "60 SCHOOL ST", "postcode": "14127"}}},
{"geometry": {"type": "Point", "coordinates": [-78.745531348, 42.764996298]}, "type": "Feature", "properties": {"collection_times": [{"days": "Mon-Fri", "time": "5:15pm"}, {"days": "Sat", "time": "3:15pm"}, {"days": "Sun", "time": "Closed"}], "id": "1412700002", "name": "USPS COLLECTION BOX - BLUE BOX", "address": {"city": "ORCHARD PARK", "state": "NY", "street": "60 SCHOOL ST", "postcode": "14127"}}},
{"geometry": {"type": "Point", "coordinates": [-78.7479076039, 42.7509720471]}, "type": "Feature", "properties": {"collection_times": [{"days": "Mon-Sat", "time": "2:30pm"}, {"days": "Sun", "time": "Closed"}], "id": "1412700004", "name": "USPS COLLECTION BOX - BLUE BOX", "address": {"city": "ORCHARD PARK", "state": "NY", "street": "4906 S BUFFALO ST", "postcode": "14127"}}},
{"geometry": {"type": "Point", "coordinates": [-78.7451505329, 42.772577313]}, "type": "Feature", "properties": {"collection_times": [{"days": "Mon-Fri", "time": "5:00pm"}, {"days": "Sat", "time": "3:00pm"}, {"days": "Sun", "time": "Closed"}], "id": "1412700012", "name": "USPS COLLECTION BOX - BLUE BOX", "address": {"city": "ORCHARD PARK", "state": "NY", "street": "4060 N BUFFALO ST", "postcode": "14127"}}},
{"geometry": {"type": "Point", "coordinates": [-78.7430160686, 42.7675784251]}, "type": "Feature", "properties": {"collection_times": [{"days": "Mon-Fri", "time": "5:00pm"}, {"days": "Sat", "time": "3:00pm"}, {"days": "Sun", "time": "Closed"}], "id": "1412700024", "name": "USPS COLLECTION BOX - BLUE BOX", "address": {"city": "ORCHARD PARK", "state": "NY", "street": "6529 E QUAKER ST", "postcode": "14127"}}},
{"geometry": {"type": "Point", "coordinates": [-78.7527470891, 42.8012324247]}, "type": "Feature", "properties": {"collection_times": [{"days": "Mon-Fri", "time": "5:00pm"}, {"days": "Sat", "time": "3:00pm"}, {"days": "Sun", "time": "Closed"}], "id": "1412700032", "name": "USPS COLLECTION BOX - BLUE BOX", "address": {"city": "ORCHARD PARK", "state": "NY", "street": "3049 ORCHARD PARK RD", "postcode": "14127"}}},
{"geometry": {"type": "Point", "coordinates": [-78.74203487, 42.8016088456]}, "type": "Feature", "properties": {"collection_times": [{"days": "Mon-Fri", "time": "5:00pm"}, {"days": "Sat", "time": "3:00pm"}, {"days": "Sun", "time": "Closed"}], "id": "1412700035", "name": "USPS COLLECTION BOX - BLUE BOX", "address": {"city": "ORCHARD PARK", "state": "NY", "street": "3085 SOUTHWESTERN BLVD", "postcode": "14127"}}},
{"geometry": {"type": "Point", "coordinates": [-78.7553001141, 42.7937812319]}, "type": "Feature", "properties": {"collection_times": [{"days": "Mon-Fri", "time": "5:00pm"}, {"days": "Sat", "time": "3:15pm"}, {"days": "Sun", "time": "Closed"}], "id": "1412700041", "name": "USPS COLLECTION BOX - BLUE BOX", "address": {"city": "ORCHARD PARK", "state": "NY", "street": "3364 SOUTHWESTERN BLVD", "postcode": "14127"}}},
{"geometry": {"type": "Point", "coordinates": [-78.744438604, 42.7695155367]}, "type": "Feature", "properties": {"collection_times": [{"days": "Mon-Fri", "time": "5:00pm"}, {"days": "Sat", "time": "3:00pm"}, {"days": "Sun", "time": "Closed"}], "id": "1412700044", "name": "USPS COLLECTION BOX - BLUE BOX", "address": {"city": "ORCHARD PARK", "state": "NY", "street": "4190 N BUFFALO RD", "postcode": "14127"}}},
{"geometry": {"type": "Point", "coordinates": [-78.7469614161, 42.7988836653]}, "type": "Feature", "properties": {"collection_times": [{"days": "Mon-Fri", "time": "5:00pm"}, {"days": "Sat", "time": "3:00pm"}, {"days": "Sun", "time": "Closed"}], "id": "1412700046", "name": "USPS COLLECTION BOX - BLUE BOX", "address": {"city": "ORCHARD PARK", "state": "NY", "street": "3201 SOUTHWESTERN BLVD", "postcode": "14127"}}},
{"geometry": {"type": "Point", "coordinates": [-78.7469614161, 42.7988836653]}, "type": "Feature", "properties": {"collection_times": [{"days": "Mon-Fri", "time": "5:00pm"}, {"days": "Sat", "time": "3:00pm"}, {"days": "Sun", "time": "Closed"}], "id": "1412700047", "name": "USPS COLLECTION BOX - BLUE BOX", "address": {"city": "ORCHARD PARK", "state": "NY", "street": "3201 SOUTHWESTERN BLVD", "postcode": "14127"}}},
{"geometry": {"type": "Point", "coordinates": [-78.7455026484, 42.7649688176]}, "type": "Feature", "properties": {"collection_times": [{"days": "Mon-Fri", "time": "5:15pm"}, {"days": "Sat", "time": "3:15pm"}, {"days": "Sun", "time": "Closed"}], "id": "1412700048", "name": "USPS COLLECTION BOX - APC", "address": {"city": "ORCHARD PARK", "state": "NY", "street": "60 SCHOOL ST", "postcode": "14127"}}},
{"geometry": {"type": "Point", "coordinates": [-78.7455026484, 42.7649688176]}, "type": "Feature", "properties": {"collection_times": [{"days": "Mon-Fri", "time": "5:15pm"}, {"days": "Sat", "time": "3:15pm"}, {"days": "Sun", "time": "Closed"}], "id": "1412700049", "name": "USPS COLLECTION BOX - PO LOBBY", "address": {"city": "ORCHARD PARK", "state": "NY", "street": "60 SCHOOL ST", "postcode": "14127"}}},
{"geometry": {"type": "Point", "coordinates": [-79.0018652346, 42.4564377411]}, "type": "Feature", "properties": {"collection_times": [{"days": "Mon-Fri", "time": "4:45pm"}, {"days": "Sat", "time": "11:45am"}, {"days": "Sun", "time": "Closed"}], "id": "1412900003", "name": "USPS COLLECTION BOX - BLUE BOX", "address": {"city": "PERRYSBURG", "state": "NY", "street": "11980 MAIN ST", "postcode": "14129"}}},
{"geometry": {"type": "Point", "coordinates": [-78.1540234931, 42.5555544945]}, "type": "Feature", "properties": {"collection_times": [{"days": "Mon-Fri", "time": "4:45pm"}, {"days": "Sat", "time": "11:45am"}, {"days": "Sun", "time": "Closed"}], "id": "1413000001", "name": "USPS COLLECTION BOX - BLUE BOX", "address": {"city": "PIKE", "state": "NY", "street": "59 E MAIN ST", "postcode": "14130"}}},
{"geometry": {"type": "Point", "coordinates": [-78.8412865585, 43.2423140687]}, "type": "Feature", "properties": {"collection_times": [{"days": "Mon-Fri", "time": "10:30am"}, {"days": "Sat-Sun", "time": "Closed"}], "id": "1413100002", "name": "USPS COLLECTION BOX - BLUE BOX", "address": {"city": "RANSOMVILLE", "state": "NY", "street": "3635 NEW RD", "postcode": "14131"}}},
{"geometry": {"type": "Point", "coordinates": [-78.907943651, 43.2381711836]}, "type": "Feature", "properties": {"collection_times": [{"days": "Mon-Fri", "time": "4:30pm"}, {"days": "Sat", "time": "12:00pm"}, {"days": "Sun", "time": "Closed"}], "id": "1413100004", "name": "USPS COLLECTION BOX - BLUE BOX", "address": {"city": "RANSOMVILLE", "state": "NY", "street": "2567 YOUNGSTOWN LOCKPORT RD", "postcode": "14131"}}},
{"geometry": {"type": "Point", "coordinates": [-78.8870567011, 43.1368367001]}, "type": "Feature", "properties": {"collection_times": [{"days": "Mon-Fri", "time": "5:00pm"}, {"days": "Sat", "time": "12:00pm"}, {"days": "Sun", "time": "Closed"}], "id": "1413200001", "name": "USPS COLLECTION BOX - BLUE BOX", "address": {"city": "SANBORN", "state": "NY", "street": "2901 NIAGARA ST", "postcode": "14132"}}},
{"geometry": {"type": "Point", "coordinates": [-78.883920047, 43.143241868]}, "type": "Feature", "properties": {"collection_times": [{"days": "Mon-Fri", "time": "9:00am"}, {"days": "Sat-Sun", "time": "Closed"}], "id": "1413200003", "name": "USPS COLLECTION BOX - BLUE BOX", "address": {"city": "SANBORN", "state": "NY", "street": "2956 SAUNDERS SETTLEMENT RD", "postcode": "14132"}}},
{"geometry": {"type": "Point", "coordinates": [-78.5173599901, 42.5297252427]}, "type": "Feature", "properties": {"collection_times": [{"days": "Mon-Fri", "time": "4:30pm"}, {"days": "Sat", "time": "12:00pm"}, {"days": "Sun", "time": "Closed"}], "id": "1413400001", "name": "USPS COLLECTION BOX - BLUE BOX", "address": {"city": "SARDINIA", "state": "NY", "street": "12310 SAVAGE RD", "postcode": "14134"}}},
{"geometry": {"type": "Point", "coordinates": [-79.2367602734, 42.486878629]}, "type": "Feature", "properties": {"collection_times": [{"days": "Mon-Fri", "time": "4:45pm"}, {"days": "Sat", "time": "12:00pm"}, {"days": "Sun", "time": "Closed"}], "id": "1413500001", "name": "USPS COLLECTION BOX - BLUE BOX", "address": {"city": "SHERIDAN", "state": "NY", "street": "2707 MAIN RD", "postcode": "14135"}}},
{"geometry": {"type": "Point", "coordinates": [-79.1671660055, 42.5430516306]}, "type": "Feature", "properties": {"collection_times": [{"days": "Mon-Fri", "time": "4:30pm"}, {"days": "Sat", "time": "2:00pm"}, {"days": "Sun", "time": "Closed"}], "id": "1413600001", "name": "USPS COLLECTION BOX - BLUE BOX", "address": {"city": "SILVER CREEK", "state": "NY", "street": "37 MAIN ST", "postcode": "14136"}}},
{"geometry": {"type": "Point", "coordinates": [-79.1673629913, 42.5444882794]}, "type": "Feature", "properties": {"collection_times": [{"days": "Mon-Sat", "time": "12:00pm"}, {"days": "Sun", "time": "Closed"}], "id": "1413600015", "name": "USPS COLLECTION BOX - BLUE BOX", "address": {"city": "SILVER CREEK", "state": "NY", "street": "214 CENTRAL AVE", "postcode": "14136"}}},
{"geometry": {"type": "Point", "coordinates": [-79.1726838013, 42.545643106]}, "type": "Feature", "properties": {"collection_times": [{"days": "Mon-Sat", "time": "9:00am"}, {"days": "Sun", "time": "Closed"}], "id": "1413600016", "name": "USPS COLLECTION BOX - BLUE BOX", "address": {"city": "SILVER CREEK", "state": "NY", "street": "140 CENTRAL AVE", "postcode": "14136"}}},
{"geometry": {"type": "Point", "coordinates": [-79.049850782, 42.3613053641]}, "type": "Feature", "properties": {"collection_times": [{"days": "Mon-Fri", "time": "4:25pm"}, {"days": "Sat", "time": "12:00pm"}, {"days": "Sun", "time": "Closed"}], "id": "1413800003", "name": "USPS COLLECTION BOX - BLUE BOX", "address": {"city": "SOUTH DAYTON", "state": "NY", "street": "5 PARK ST", "postcode": "14138"}}},
{"geometry": {"type": "Point", "coordinates": [-78.5762011102, 42.7072617134]}, "type": "Feature", "properties": {"collection_times": [{"days": "Mon-Fri", "time": "3:00pm"}, {"days": "Sat", "time": "12:00pm"}, {"days": "Sun", "time": "Closed"}], "id": "1413900001", "name": "USPS COLLECTION BOX - BLUE BOX", "address": {"city": "SOUTH WALES", "state": "NY", "street": "6483 OLEAN RD", "postcode": "14139"}}},
{"geometry": {"type": "Point", "coordinates": [-78.6749975081, 42.8178107157]}, "type": "Feature", "properties": {"collection_times": [{"days": "Mon-Fri", "time": "5:00pm"}, {"days": "Sat", "time": "12:00pm"}, {"days": "Sun", "time": "Closed"}], "id": "1414000001", "name": "USPS COLLECTION BOX - BLUE BOX", "address": {"city": "SPRINGBROOK", "state": "NY", "street": "6150 SENECA ST", "postcode": "14140"}}},
{"geometry": {"type": "Point", "coordinates": [-78.6658154785, 42.509786838]}, "type": "Feature", "properties": {"collection_times": [{"days": "Mon-Fri", "time": "5:00pm"}, {"days": "Sat", "time": "12:00pm"}, {"days": "Sun", "time": "Closed"}], "id": "1414100002", "name": "USPS COLLECTION BOX - BLUE BOX", "address": {"city": "SPRINGVILLE", "state": "NY", "street": "75 FRANKLIN ST", "postcode": "14141"}}},
{"geometry": {"type": "Point", "coordinates": [-78.668311027, 42.5086985022]}, "type": "Feature", "properties": {"collection_times": [{"days": "Mon-Sat", "time": "9:00am"}, {"days": "Sun", "time": "Closed"}], "id": "1414100008", "name": "USPS COLLECTION BOX - BLUE BOX", "address": {"city": "SPRINGVILLE", "state": "NY", "street": "25 E MAIN ST", "postcode": "14141"}}},
{"geometry": {"type": "Point", "coordinates": [-78.689561236, 42.5016577413]}, "type": "Feature", "properties": {"collection_times": [{"days": "Mon-Fri", "time": "11:00am"}, {"days": "Sat-Sun", "time": "Closed"}], "id": "1414100011", "name": "USPS COLLECTION BOX - BLUE BOX", "address": {"city": "SPRINGVILLE", "state": "NY", "street": "250 S CASCADE DR", "postcode": "14141"}}},
{"geometry": {"type": "Point", "coordinates": [-78.6688102357, 42.5087126977]}, "type": "Feature", "properties": {"collection_times": [{"days": "Mon-Sat", "time": "9:00am"}, {"days": "Sun", "time": "Closed"}], "id": "1414100013", "name": "USPS COLLECTION BOX - BLUE BOX", "address": {"city": "SPRINGVILLE", "state": "NY", "street": "40 W MAIN ST", "postcode": "14141"}}},
{"geometry": {"type": "Point", "coordinates": [-78.6857262343, 42.5156435204]}, "type": "Feature", "properties": {"collection_times": [{"days": "Mon-Fri", "time": "5:00pm"}, {"days": "Sat", "time": "12:00pm"}, {"days": "Sun", "time": "Closed"}], "id": "1414100016", "name": "USPS COLLECTION BOX - BLUE BOX", "address": {"city": "SPRINGVILLE", "state": "NY", "street": "75 FRANKLIN ST", "postcode": "14141"}}},
{"geometry": {"type": "Point", "coordinates": [-78.6896255817, 42.5017427035]}, "type": "Feature", "properties": {"collection_times": [{"days": "Mon-Fri", "time": "11:00am"}, {"days": "Sat-Sun", "time": "Closed"}], "id": "1414100018", "name": "USPS COLLECTION BOX - BLUE BOX", "address": {"city": "SPRINGVILLE", "state": "NY", "street": "317 S CASCADE DR", "postcode": "14141"}}},
{"geometry": {"type": "Point", "coordinates": [-78.0742362303, 42.9739938056]}, "type": "Feature", "properties": {"collection_times": [{"days": "Mon-Fri", "time": "4:45pm"}, {"days": "Sat", "time": "11:45am"}, {"days": "Sun", "time": "Closed"}], "id": "1414300001", "name": "USPS COLLECTION BOX - BLUE BOX", "address": {"city": "STAFFORD", "state": "NY", "street": "8899 ROUTE 237", "postcode": "14143"}}},
{"geometry": {"type": "Point", "coordinates": [-78.4480038471, 42.703005427]}, "type": "Feature", "properties": {"collection_times": [{"days": "Mon-Fri", "time": "4:45pm"}, {"days": "Sat", "time": "11:45am"}, {"days": "Sun", "time": "Closed"}], "id": "1414500001", "name": "USPS COLLECTION BOX - BLUE BOX", "address": {"city": "STRYKERSVILLE", "state": "NY", "street": "3778 MAIN ST", "postcode": "14145"}}},
{"geometry": {"type": "Point", "coordinates": [-78.8793580041, 43.0172087918]}, "type": "Feature", "properties": {"collection_times": [{"days": "Mon-Fri", "time": "5:00pm"}, {"days": "Sat", "time": "1:00pm"}, {"days": "Sun", "time": "Closed"}], "id": "1415000001", "name": "USPS COLLECTION BOX - BLUE BOX", "address": {"city": "TONAWANDA", "state": "NY", "street": "96 SEYMOUR ST", "postcode": "14150"}}},
{"geometry": {"type": "Point", "coordinates": [-78.8383874033, 42.9910535691]}, "type": "Feature", "properties": {"collection_times": [{"days": "Mon-Fri", "time": "3:00pm"}, {"days": "Sat", "time": "9:00am"}, {"days": "Sun", "time": "Closed"}], "id": "1415000008", "name": "USPS COLLECTION BOX - BLUE BOX", "address": {"city": "TONAWANDA", "state": "NY", "street": "935 BRIGHTON RD", "postcode": "14150"}}},
{"geometry": {"type": "Point", "coordinates": [-78.8249371599, 43.0151528091]}, "type": "Feature", "properties": {"collection_times": [{"days": "Mon-Sat", "time": "9:30am"}, {"days": "Sun", "time": "Closed"}], "id": "1415000013", "name": "USPS COLLECTION BOX - BLUE BOX", "address": {"city": "TONAWANDA", "state": "NY", "street": "231 CALVERT BLVD", "postcode": "14150"}}},
{"geometry": {"type": "Point", "coordinates": [-78.8527650866, 42.9908926867]}, "type": "Feature", "properties": {"collection_times": [{"days": "Mon-Sat", "time": "9:00am"}, {"days": "Sun", "time": "Closed"}], "id": "1415000014", "name": "USPS COLLECTION BOX - BLUE BOX", "address": {"city": "TONAWANDA", "state": "NY", "street": "1949 COLVIN BLVD", "postcode": "14150"}}},
{"geometry": {"type": "Point", "coordinates": [-78.8749381806, 42.9983885265]}, "type": "Feature", "properties": {"collection_times": [{"days": "Mon-Sat", "time": "9:00am"}, {"days": "Sun", "time": "Closed"}], "id": "1415000018", "name": "USPS COLLECTION BOX - BLUE BOX", "address": {"city": "TONAWANDA", "state": "NY", "street": "4200 DELAWARE AVE", "postcode": "14150"}}},
{"geometry": {"type": "Point", "coordinates": [-78.8734692344, 43.0081307647]}, "type": "Feature", "properties": {"collection_times": [{"days": "Mon-Sat", "time": "9:30am"}, {"days": "Sun", "time": "Closed"}], "id": "1415000022", "name": "USPS COLLECTION BOX - BLUE BOX", "address": {"city": "TONAWANDA", "state": "NY", "street": "402 DELAWARE ST", "postcode": "14150"}}},
{"geometry": {"type": "Point", "coordinates": [-78.8458816856, 42.9943734513]}, "type": "Feature", "properties": {"collection_times": [{"days": "Mon-Sat", "time": "9:00am"}, {"days": "Sun", "time": "Closed"}], "id": "1415000024", "name": "USPS COLLECTION BOX - BLUE BOX", "address": {"city": "TONAWANDA", "state": "NY", "street": "2999 EGGERT RD", "postcode": "14150"}}},
{"geometry": {"type": "Point", "coordinates": [-78.8346291427, 43.0156378223]}, "type": "Feature", "properties": {"collection_times": [{"days": "Mon-Sat", "time": "8:30am"}, {"days": "Sun", "time": "Closed"}], "id": "1415000028", "name": "USPS COLLECTION BOX - BLUE BOX", "address": {"city": "TONAWANDA", "state": "NY", "street": "1000 ELLICOTT CREEK RD", "postcode": "14150"}}},
{"geometry": {"type": "Point", "coordinates": [-78.8818012914, 43.0087628006]}, "type": "Feature", "properties": {"collection_times": [{"days": "Mon-Sat", "time": "9:00am"}, {"days": "Sun", "time": "Closed"}], "id": "1415000029", "name": "USPS COLLECTION BOX - BLUE BOX", "address": {"city": "TONAWANDA", "state": "NY", "street": "291 ENSMINGER RD", "postcode": "14150"}}},
{"geometry": {"type": "Point", "coordinates": [-78.8630068037, 43.0017105957]}, "type": "Feature", "properties": {"collection_times": [{"days": "Mon-Fri", "time": "3:00pm"}, {"days": "Sat", "time": "9:00am"}, {"days": "Sun", "time": "Closed"}], "id": "1415000030", "name": "USPS COLLECTION BOX - BLUE BOX", "address": {"city": "TONAWANDA", "state": "NY", "street": "750 ENSMINGER RD", "postcode": "14150"}}},
{"geometry": {"type": "Point", "coordinates": [-78.9092076077, 42.9854510754]}, "type": "Feature", "properties": {"collection_times": [{"days": "Mon-Fri", "time": "3:00pm"}, {"days": "Sat", "time": "9:00am"}, {"days": "Sun", "time": "Closed"}], "id": "1415000031", "name": "USPS COLLECTION BOX - BLUE BOX", "address": {"city": "TONAWANDA", "state": "NY", "street": "170 COOPER AVE", "postcode": "14150"}}},
{"geometry": {"type": "Point", "coordinates": [-78.8222435623, 43.0175837898]}, "type": "Feature", "properties": {"collection_times": [{"days": "Mon-Fri", "time": "3:00pm"}, {"days": "Sat", "time": "9:00am"}, {"days": "Sun", "time": "Closed"}], "id": "1415000033", "name": "USPS COLLECTION BOX - BLUE BOX", "address": {"city": "TONAWANDA", "state": "NY", "street": "2330 NIAGARA FALLS BLVD", "postcode": "14150"}}},
{"geometry": {"type": "Point", "coordinates": [-78.91220704, 42.981605962]}, "type": "Feature", "properties": {"collection_times": [{"days": "Mon-Sat", "time": "9:00am"}, {"days": "Sun", "time": "Closed"}], "id": "1415000043", "name": "USPS COLLECTION BOX - BLUE BOX", "address": {"city": "TONAWANDA", "state": "NY", "street": "265 GRAND ISLAND BLVD", "postcode": "14150"}}},
{"geometry": {"type": "Point", "coordinates": [-78.8224044448, 43.0066840059]}, "type": "Feature", "properties": {"collection_times": [{"days": "Mon-Sat", "time": "9:30am"}, {"days": "Sun", "time": "Closed"}], "id": "1415000044", "name": "USPS COLLECTION BOX - BLUE BOX", "address": {"city": "TONAWANDA", "state": "NY", "street": "1930 NIAGARA FALLS BLVD", "postcode": "14150"}}},
{"geometry": {"type": "Point", "coordinates": [-78.8491475981, 43.0056193428]}, "type": "Feature", "properties": {"collection_times": [{"days": "Mon-Sat", "time": "9:30am"}, {"days": "Sun", "time": "Closed"}], "id": "1415000045", "name": "USPS COLLECTION BOX - BLUE BOX", "address": {"city": "TONAWANDA", "state": "NY", "street": "7 GREENFIELD DR", "postcode": "14150"}}},
{"geometry": {"type": "Point", "coordinates": [-78.8907128893, 43.0047738618]}, "type": "Feature", "properties": {"collection_times": [{"days": "Mon-Sat", "time": "9:30am"}, {"days": "Sun", "time": "Closed"}], "id": "1415000047", "name": "USPS COLLECTION BOX - BLUE BOX", "address": {"city": "TONAWANDA", "state": "NY", "street": "380 HINDS ST", "postcode": "14150"}}},
{"geometry": {"type": "Point", "coordinates": [-78.8428471586, 42.9808055956]}, "type": "Feature", "properties": {"collection_times": [{"days": "Mon-Sat", "time": "9:00am"}, {"days": "Sun", "time": "Closed"}], "id": "1415000051", "name": "USPS COLLECTION BOX - BLUE BOX", "address": {"city": "TONAWANDA", "state": "NY", "street": "2465 SHERIDAN DR", "postcode": "14150"}}},
{"geometry": {"type": "Point", "coordinates": [-78.8630068037, 43.0017105957]}, "type": "Feature", "properties": {"collection_times": [{"days": "Mon-Sat", "time": "9:00am"}, {"days": "Sun", "time": "Closed"}], "id": "1415000052", "name": "USPS COLLECTION BOX - BLUE BOX", "address": {"city": "TONAWANDA", "state": "NY", "street": "50 FIRE TOWER DR", "postcode": "14150"}}},
{"geometry": {"type": "Point", "coordinates": [-78.8864593068, 43.0188128841]}, "type": "Feature", "properties": {"collection_times": [{"days": "Mon-Sat", "time": "9:30am"}, {"days": "Sun", "time": "Closed"}], "id": "1415000060", "name": "USPS COLLECTION BOX - BLUE BOX", "address": {"city": "TONAWANDA", "state": "NY", "street": "200 NIAGARA ST", "postcode": "14150"}}},
{"geometry": {"type": "Point", "coordinates": [-78.8227652473, 42.9878796902]}, "type": "Feature", "properties": {"collection_times": [{"days": "Mon-Sat", "time": "9:30am"}, {"days": "Sun", "time": "Closed"}], "id": "1415000062", "name": "USPS COLLECTION BOX - BLUE BOX", "address": {"city": "TONAWANDA", "state": "NY", "street": "1234 NIAGARA FALLS BLVD", "postcode": "14150"}}},
{"geometry": {"type": "Point", "coordinates": [-78.8222435623, 43.0175837898]}, "type": "Feature", "properties": {"collection_times": [{"days": "Mon-Fri", "time": "3:00pm"}, {"days": "Sat", "time": "9:00am"}, {"days": "Sun", "time": "Closed"}], "id": "1415000065", "name": "USPS COLLECTION BOX - BLUE BOX", "address": {"city": "TONAWANDA", "state": "NY", "street": "2330 NIAGARA FALLS BLVD", "postcode": "14150"}}},
{"geometry": {"type": "Point", "coordinates": [-78.8373960837, 42.9852227643]}, "type": "Feature", "properties": {"collection_times": [{"days": "Mon-Sat", "time": "9:30am"}, {"days": "Sun", "time": "Closed"}], "id": "1415000068", "name": "USPS COLLECTION BOX - BLUE BOX", "address": {"city": "TONAWANDA", "state": "NY", "street": "1675 PARKER BLVD", "postcode": "14150"}}},
{"geometry": {"type": "Point", "coordinates": [-78.8358937258, 43.0105534647]}, "type": "Feature", "properties": {"collection_times": [{"days": "Mon-Sat", "time": "9:30am"}, {"days": "Sun", "time": "Closed"}], "id": "1415000069", "name": "USPS COLLECTION BOX - BLUE BOX", "address": {"city": "TONAWANDA", "state": "NY", "street": "2609 PARKER BLVD", "postcode": "14150"}}},
{"geometry": {"type": "Point", "coordinates": [-78.8588348491, 43.0074671247]}, "type": "Feature", "properties": {"collection_times": [{"days": "Mon-Sat", "time": "9:30am"}, {"days": "Sun", "time": "Closed"}], "id": "1415000071", "name": "USPS COLLECTION BOX - BLUE BOX", "address": {"city": "TONAWANDA", "state": "NY", "street": "33 PENARROW DR", "postcode": "14150"}}},
{"geometry": {"type": "Point", "coordinates": [-78.8469366478, 43.0148156658]}, "type": "Feature", "properties": {"collection_times": [{"days": "Mon-Sat", "time": "9:00am"}, {"days": "Sun", "time": "Closed"}], "id": "1415000074", "name": "USPS COLLECTION BOX - BLUE BOX", "address": {"city": "TONAWANDA", "state": "NY", "street": "2960 COLVIN BLVD", "postcode": "14150"}}},
{"geometry": {"type": "Point", "coordinates": [-78.8993180708, 42.9754396937]}, "type": "Feature", "properties": {"collection_times": [{"days": "Mon-Sat", "time": "9:30am"}, {"days": "Sun", "time": "Closed"}], "id": "1415000075", "name": "USPS COLLECTION BOX - BLUE BOX", "address": {"city": "TONAWANDA", "state": "NY", "street": "273 DUNLOP AVE", "postcode": "14150"}}},
{"geometry": {"type": "Point", "coordinates": [-78.9060207163, 42.9778718573]}, "type": "Feature", "properties": {"collection_times": [{"days": "Mon-Sat", "time": "9:00am"}, {"days": "Sun", "time": "Closed"}], "id": "1415000081", "name": "USPS COLLECTION BOX - BLUE BOX", "address": {"city": "TONAWANDA", "state": "NY", "street": "723 SHERIDAN DR", "postcode": "14150"}}},
{"geometry": {"type": "Point", "coordinates": [-78.8434812246, 42.9808103274]}, "type": "Feature", "properties": {"collection_times": [{"days": "Mon-Sat", "time": "9:00am"}, {"days": "Sun", "time": "Closed"}], "id": "1415000082", "name": "USPS COLLECTION BOX - BLUE BOX", "address": {"city": "TONAWANDA", "state": "NY", "street": "2440 SHERIDAN DR", "postcode": "14150"}}},
{"geometry": {"type": "Point", "coordinates": [-78.865609655, 43.0112253853]}, "type": "Feature", "properties": {"collection_times": [{"days": "Mon-Sat", "time": "9:00am"}, {"days": "Sun", "time": "Closed"}], "id": "1415000093", "name": "USPS COLLECTION BOX - BLUE BOX", "address": {"city": "TONAWANDA", "state": "NY", "street": "412 YOUNG ST", "postcode": "14150"}}},
{"geometry": {"type": "Point", "coordinates": [-78.8561584093, 43.0021768262]}, "type": "Feature", "properties": {"collection_times": [{"days": "Mon-Sat", "time": "9:00am"}, {"days": "Sun", "time": "Closed"}], "id": "1415000095", "name": "USPS COLLECTION BOX - BLUE BOX", "address": {"city": "TONAWANDA", "state": "NY", "street": "890 YOUNG ST", "postcode": "14150"}}},
{"geometry": {"type": "Point", "coordinates": [-78.898331483, 43.0134091276]}, "type": "Feature", "properties": {"collection_times": [{"days": "Mon-Sat", "time": "9:30am"}, {"days": "Sun", "time": "Closed"}], "id": "1415000100", "name": "USPS COLLECTION BOX - BLUE BOX", "address": {"city": "TONAWANDA", "state": "NY", "street": "533 NIAGARA ST", "postcode": "14150"}}},
{"geometry": {"type": "Point", "coordinates": [-78.8793580041, 43.0172087918]}, "type": "Feature", "properties": {"collection_times": [{"days": "Mon-Fri", "time": "5:00pm"}, {"days": "Sat", "time": "1:00pm"}, {"days": "Sun", "time": "Closed"}], "id": "1415000102", "name": "USPS COLLECTION BOX - BLUE BOX", "address": {"city": "TONAWANDA", "state": "NY", "street": "96 SEYMOUR ST", "postcode": "14150"}}},
{"geometry": {"type": "Point", "coordinates": [-78.8383874033, 42.9910535691]}, "type": "Feature", "properties": {"collection_times": [{"days": "Mon-Fri", "time": "3:00pm"}, {"days": "Sat", "time": "9:00am"}, {"days": "Sun", "time": "Closed"}], "id": "1415000103", "name": "USPS COLLECTION BOX - BLUE BOX", "address": {"city": "TONAWANDA", "state": "NY", "street": "935 BRIGHTON RD", "postcode": "14150"}}},
{"geometry": {"type": "Point", "coordinates": [-78.8597764844, 43.0147683474]}, "type": "Feature", "properties": {"collection_times": [{"days": "Mon-Fri", "time": "3:00pm"}, {"days": "Sat", "time": "9:00am"}, {"days": "Sun", "time": "Closed"}], "id": "1415000104", "name": "USPS COLLECTION BOX - BLUE BOX", "address": {"city": "TONAWANDA", "state": "NY", "street": "425 FILLMORE AVE", "postcode": "14150"}}},
{"geometry": {"type": "Point", "coordinates": [-78.8597764844, 43.0147683474]}, "type": "Feature", "properties": {"collection_times": [{"days": "Mon-Fri", "time": "3:00pm"}, {"days": "Sat", "time": "9:00am"}, {"days": "Sun", "time": "Closed"}], "id": "1415000106", "name": "USPS COLLECTION BOX - BLUE BOX", "address": {"city": "TONAWANDA", "state": "NY", "street": "425 FILLMORE AVE", "postcode": "14150"}}},
{"geometry": {"type": "Point", "coordinates": [-78.8847404674, 43.0193109099]}, "type": "Feature", "properties": {"collection_times": [{"days": "Mon-Sat", "time": "9:00am"}, {"days": "Sun", "time": "Closed"}], "id": "1415000112", "name": "USPS COLLECTION BOX - BLUE BOX", "address": {"city": "TONAWANDA", "state": "NY", "street": "150 NIAGARA ST", "postcode": "14150"}}},
{"geometry": {"type": "Point", "coordinates": [-78.8793580041, 43.0172087918]}, "type": "Feature", "properties": {"collection_times": [{"days": "Mon-Fri", "time": "5:00pm"}, {"days": "Sat", "time": "1:00pm"}, {"days": "Sun", "time": "Closed"}], "id": "1415000114", "name": "USPS COLLECTION BOX - BLUE BOX", "address": {"city": "TONAWANDA", "state": "NY", "street": "96 SEYMOUR ST", "postcode": "14150"}}},
{"geometry": {"type": "Point", "coordinates": [-78.8630068037, 43.0017105957]}, "type": "Feature", "properties": {"collection_times": [{"days": "Mon-Fri", "time": "5:00pm"}, {"days": "Sat", "time": "1:00pm"}, {"days": "Sun", "time": "Closed"}], "id": "1415000117", "name": "USPS COLLECTION BOX - EXPRESS", "address": {"city": "TONAWANDA", "state": "NY", "street": "96 SEYMOUR ST", "postcode": "14150"}}},
{"geometry": {"type": "Point", "coordinates": [-78.836841276, 42.9807606431]}, "type": "Feature", "properties": {"collection_times": [{"days": "Mon-Sat", "time": "9:30am"}, {"days": "Sun", "time": "Closed"}], "id": "1415000123", "name": "USPS COLLECTION BOX - BLUE BOX", "address": {"city": "TONAWANDA", "state": "NY", "street": "2601 SHERIDAN DR", "postcode": "14150"}}},
{"geometry": {"type": "Point", "coordinates": [-78.8508120214, 42.9974025098]}, "type": "Feature", "properties": {"collection_times": [{"days": "Mon-Sat", "time": "8:30am"}, {"days": "Sun", "time": "Closed"}], "id": "1415000124", "name": "USPS COLLECTION BOX - BLUE BOX", "address": {"city": "TONAWANDA", "state": "NY", "street": "3163 EGGERT RD", "postcode": "14150"}}},
{"geometry": {"type": "Point", "coordinates": [-78.9092076077, 42.9854510754]}, "type": "Feature", "properties": {"collection_times": [{"days": "Mon-Fri", "time": "3:00pm"}, {"days": "Sat", "time": "9:00am"}, {"days": "Sun", "time": "Closed"}], "id": "1415000125", "name": "USPS COLLECTION BOX - BLUE BOX", "address": {"city": "TONAWANDA", "state": "NY", "street": "170 COOPER AVE", "postcode": "14150"}}},
{"geometry": {"type": "Point", "coordinates": [-78.9092076077, 42.9854510754]}, "type": "Feature", "properties": {"collection_times": [{"days": "Mon-Fri", "time": "3:00pm"}, {"days": "Sat", "time": "9:00am"}, {"days": "Sun", "time": "Closed"}], "id": "1415000126", "name": "USPS COLLECTION BOX - BLUE BOX", "address": {"city": "TONAWANDA", "state": "NY", "street": "170 COOPER AVE", "postcode": "14150"}}},
{"geometry": {"type": "Point", "coordinates": [-78.8793580041, 43.0172087918]}, "type": "Feature", "properties": {"collection_times": [{"days": "Mon-Fri", "time": "5:00pm"}, {"days": "Sat", "time": "1:00pm"}, {"days": "Sun", "time": "Closed"}], "id": "1415000127", "name": "USPS COLLECTION BOX - BLUE BOX", "address": {"city": "TONAWANDA", "state": "NY", "street": "96 SEYMOUR ST", "postcode": "14150"}}},
{"geometry": {"type": "Point", "coordinates": [-78.3117444756, 42.7603313943]}, "type": "Feature", "properties": {"collection_times": [{"days": "Mon-Fri", "time": "3:00pm"}, {"days": "Sat", "time": "12:00pm"}, {"days": "Sun", "time": "Closed"}], "id": "1416700001", "name": "USPS COLLECTION BOX - BLUE BOX", "address": {"city": "VARYSBURG", "state": "NY", "street": "2489 MAIN ST", "postcode": "14167"}}},
{"geometry": {"type": "Point", "coordinates": [-78.9928555311, 42.5193847693]}, "type": "Feature", "properties": {"collection_times": [{"days": "Mon-Fri", "time": "5:00pm"}, {"days": "Sat", "time": "12:00pm"}, {"days": "Sun", "time": "Closed"}], "id": "1416800001", "name": "USPS COLLECTION BOX - BLUE BOX", "address": {"city": "VERSAILLES", "state": "NY", "street": "11980 DIVISION ST", "postcode": "14168"}}},
{"geometry": {"type": "Point", "coordinates": [-78.5219732791, 42.7679170084]}, "type": "Feature", "properties": {"collection_times": [{"days": "Mon-Fri", "time": "4:30pm"}, {"days": "Sat", "time": "11:30am"}, {"days": "Sun", "time": "Closed"}], "id": "1416900001", "name": "USPS COLLECTION BOX - BLUE BOX", "address": {"city": "WALES CENTER", "state": "NY", "street": "12273 BIG TREE RD", "postcode": "14169"}}},
{"geometry": {"type": "Point", "coordinates": [-78.6830234877, 42.7334902795]}, "type": "Feature", "properties": {"collection_times": [{"days": "Mon-Fri", "time": "4:15pm"}, {"days": "Sat", "time": "11:45am"}, {"days": "Sun", "time": "Closed"}], "id": "1417000001", "name": "USPS COLLECTION BOX - BLUE BOX", "address": {"city": "WEST FALLS", "state": "NY", "street": "17 ELLICOTT RD", "postcode": "14170"}}},
{"geometry": {"type": "Point", "coordinates": [-78.6122069936, 42.4072927456]}, "type": "Feature", "properties": {"collection_times": [{"days": "Mon-Fri", "time": "3:00pm"}, {"days": "Sat", "time": "12:00pm"}, {"days": "Sun", "time": "Closed"}], "id": "1417100001", "name": "USPS COLLECTION BOX - BLUE BOX", "address": {"city": "WEST VALLEY", "state": "NY", "street": "9386 ROUTE 240", "postcode": "14171"}}},
{"geometry": {"type": "Point", "coordinates": [-78.8281583572, 43.307760075]}, "type": "Feature", "properties": {"collection_times": [{"days": "Mon-Fri", "time": "4:45pm"}, {"days": "Sat", "time": "11:45am"}, {"days": "Sun", "time": "Closed"}], "id": "1417200002", "name": "USPS COLLECTION BOX - BLUE BOX", "address": {"city": "WILSON", "state": "NY", "street": "367 MCCHESNEY ST", "postcode": "14172"}}},
{"geometry": {"type": "Point", "coordinates": [-78.4758395647, 42.5302562138]}, "type": "Feature", "properties": {"collection_times": [{"days": "Mon-Fri", "time": "5:00pm"}, {"days": "Sat", "time": "12:00pm"}, {"days": "Sun", "time": "Closed"}], "id": "1417300001", "name": "USPS COLLECTION BOX - BLUE BOX", "address": {"city": "YORKSHIRE", "state": "NY", "street": "3230 MAIN ST", "postcode": "14173"}}},
{"geometry": {"type": "Point", "coordinates": [-79.048437146, 43.250420871]}, "type": "Feature", "properties": {"collection_times": [{"days": "Mon-Fri", "time": "4:45pm"}, {"days": "Sat", "time": "12:00pm"}, {"days": "Sun", "time": "Closed"}], "id": "1417400001", "name": "USPS COLLECTION BOX - BLUE BOX", "address": {"city": "YOUNGSTOWN", "state": "NY", "street": "135 LOCKPORT ST", "postcode": "14174"}}}
]}
