{"type": "FeatureCollection", "features": [
{"geometry": {"type": "Point", "coordinates": [-79.0368193061, 43.0951019078]}, "type": "Feature", "properties": {"collection_times": [{"days": "Mon-Fri", "time": "4:30pm"}, {"days": "Sat", "time": "12:00pm"}, {"days": "Sun", "time": "Closed"}], "id": "1430100000", "name": "USPS COLLECTION BOX - BLUE BOX", "address": {"city": "NIAGARA FALLS", "state": "NY", "street": "2020 PINE AVE", "postcode": "14301"}}},
{"geometry": {"type": "Point", "coordinates": [-79.0368193061, 43.0951019078]}, "type": "Feature", "properties": {"collection_times": [{"days": "Mon-Fri", "time": "4:30pm"}, {"days": "Sat", "time": "12:00pm"}, {"days": "Sun", "time": "Closed"}], "id": "1430100001", "name": "USPS COLLECTION BOX - BLUE BOX", "address": {"city": "NIAGARA FALLS", "state": "NY", "street": "2020 PINE AVE", "postcode": "14301"}}},
{"geometry": {"type": "Point", "coordinates": [-79.042124877, 43.0913803189]}, "type": "Feature", "properties": {"collection_times": [{"days": "Mon-Sat", "time": "10:00am"}, {"days": "Sun", "time": "Closed"}], "id": "1430100003", "name": "USPS COLLECTION BOX - BLUE BOX", "address": {"city": "NIAGARA FALLS", "state": "NY", "street": "1605 FERRY AVE", "postcode": "14301"}}},
{"geometry": {"type": "Point", "coordinates": [-79.0555999626, 43.0958329764]}, "type": "Feature", "properties": {"collection_times": [{"days": "Mon-Fri", "time": "4:00pm"}, {"days": "Sat", "time": "12:00pm"}, {"days": "Sun", "time": "Closed"}], "id": "1430100007", "name": "USPS COLLECTION BOX - BLUE BOX", "address": {"city": "NIAGARA FALLS", "state": "NY", "street": "745 MAIN ST", "postcode": "14301"}}},
{"geometry": {"type": "Point", "coordinates": [-79.0551149494, 43.0966385715]}, "type": "Feature", "properties": {"collection_times": [{"days": "Mon-Fri", "time": "5:00pm"}, {"days": "Sat", "time": "12:00pm"}, {"days": "Sun", "time": "Closed"}], "id": "1430100008", "name": "USPS COLLECTION BOX - BLUE BOX", "address": {"city": "NIAGARA FALLS", "state": "NY", "street": "800 MAIN ST", "postcode": "14301"}}},
{"geometry": {"type": "Point", "coordinates": [-79.0257598227, 43.0951385795]}, "type": "Feature", "properties": {"collection_times": [{"days": "Mon-Sat", "time": "10:00am"}, {"days": "Sun", "time": "Closed"}], "id": "1430100018", "name": "USPS COLLECTION BOX - BLUE BOX", "address": {"city": "NIAGARA FALLS", "state": "NY", "street": "2930 PINE AVE", "postcode": "14301"}}},
{"geometry": {"type": "Point", "coordinates": [-79.0508081239, 43.0989535243]}, "type": "Feature", "properties": {"collection_times": [{"days": "Mon-Sat", "time": "9:00am"}, {"days": "Sun", "time": "Closed"}], "id": "1430100020", "name": "USPS COLLECTION BOX - BLUE BOX", "address": {"city": "NIAGARA FALLS", "state": "NY", "street": "1001 PORTAGE RD", "postcode": "14301"}}},
{"geometry": {"type": "Point", "coordinates": [-79.0455247011, 43.0949090855]}, "type": "Feature", "properties": {"collection_times": [{"days": "Mon-Sat", "time": "9:00am"}, {"days": "Sun", "time": "Closed"}], "id": "1430100023", "name": "USPS COLLECTION BOX - BLUE BOX", "address": {"city": "NIAGARA FALLS", "state": "NY", "street": "1402 PINE AVE", "postcode": "14301"}}},
{"geometry": {"type": "Point", "coordinates": [-79.0591015779, 43.0887992244]}, "type": "Feature", "properties": {"collection_times": [{"days": "Mon-Sat", "time": "9:00am"}, {"days": "Sun", "time": "Closed"}], "id": "1430100028", "name": "USPS COLLECTION BOX - BLUE BOX", "address": {"city": "NIAGARA FALLS", "state": "NY", "street": "418 3RD ST", "postcode": "14301"}}},
{"geometry": {"type": "Point", "coordinates": [-79.0332598153, 43.0972137716]}, "type": "Feature", "properties": {"collection_times": [{"days": "Mon-Fri", "time": "2:30pm"}, {"days": "Sat-Sun", "time": "Closed"}], "id": "1430100030", "name": "USPS COLLECTION BOX - BLUE BOX", "address": {"city": "NIAGARA FALLS", "state": "NY", "street": "775 3RD ST", "postcode": "14301"}}},
{"geometry": {"type": "Point", "coordinates": [-79.0505735699, 43.0954958331]}, "type": "Feature", "properties": {"collection_times": [{"days": "Mon-Sat", "time": "10:00am"}, {"days": "Sun", "time": "Closed"}], "id": "1430100032", "name": "USPS COLLECTION BOX - BLUE BOX", "address": {"city": "NIAGARA FALLS", "state": "NY", "street": "720 10TH ST", "postcode": "14301"}}},
{"geometry": {"type": "Point", "coordinates": [-79.0332598153, 43.0972137716]}, "type": "Feature", "properties": {"collection_times": [{"days": "Mon-Sat", "time": "2:30pm"}, {"days": "Sun", "time": "Closed"}], "id": "1430100038", "name": "USPS COLLECTION BOX - BLUE BOX", "address": {"city": "NIAGARA FALLS", "state": "NY", "street": "1001 11TH ST", "postcode": "14301"}}},
{"geometry": {"type": "Point", "coordinates": [-79.0572099697, 43.0934292038]}, "type": "Feature", "properties": {"collection_times": [{"days": "Mon-Fri", "time": "5:00pm"}, {"days": "Sat", "time": "4:00pm"}, {"days": "Sun", "time": "Closed"}], "id": "1430200002", "name": "USPS COLLECTION BOX - BLUE BOX", "address": {"city": "NIAGARA FALLS", "state": "NY", "street": "615 MAIN ST", "postcode": "14302"}}},
{"geometry": {"type": "Point", "coordinates": [-79.0572099697, 43.0934292038]}, "type": "Feature", "properties": {"collection_times": [{"days": "Mon-Fri", "time": "5:00pm"}, {"days": "Sat", "time": "4:00pm"}, {"days": "Sun", "time": "Closed"}], "id": "1430200022", "name": "USPS COLLECTION BOX - BLUE BOX", "address": {"city": "NIAGARA FALLS", "state": "NY", "street": "615 MAIN ST", "postcode": "14302"}}},
{"geometry": {"type": "Point", "coordinates": [-79.0572099697, 43.0934292038]}, "type": "Feature", "properties": {"collection_times": [{"days": "Mon-Fri", "time": "5:00pm"}, {"days": "Sat", "time": "4:00pm"}, {"days": "Sun", "time": "Closed"}], "id": "1430200023", "name": "USPS COLLECTION BOX - BLUE BOX", "address": {"city": "NIAGARA FALLS", "state": "NY", "street": "615 MAIN ST", "postcode": "14302"}}},
{"geometry": {"type": "Point", "coordinates": [-79.0575196649, 43.0931338564]}, "type": "Feature", "properties": {"collection_times": [{"days": "Mon-Fri", "time": "5:00pm"}, {"days": "Sat", "time": "4:00pm"}, {"days": "Sun", "time": "Closed"}], "id": "1430200026", "name": "USPS COLLECTION BOX - BLUE BOX", "address": {"city": "NIAGARA FALLS", "state": "NY", "street": "615 MAIN ST", "postcode": "14302"}}},
{"geometry": {"type": "Point", "coordinates": [-79.060458375, 43.0829978717]}, "type": "Feature", "properties": {"collection_times": [{"days": "Mon-Sat", "time": "9:00am"}, {"days": "Sun", "time": "Closed"}], "id": "1430300002", "name": "USPS COLLECTION BOX - BLUE BOX", "address": {"city": "NIAGARA FALLS", "state": "NY", "street": "151 BUFFALO AVE", "postcode": "14303"}}},
{"geometry": {"type": "Point", "coordinates": [-79.0205867431, 43.0867774256]}, "type": "Feature", "properties": {"collection_times": [{"days": "Mon-Sat", "time": "11:00am"}, {"days": "Sun", "time": "Closed"}], "id": "1430300005", "name": "USPS COLLECTION BOX - BLUE BOX", "address": {"city": "NIAGARA FALLS", "state": "NY", "street": "300 HYDE PARK BLVD", "postcode": "14303"}}},
{"geometry": {"type": "Point", "coordinates": [-79.0589974207, 43.0852466767]}, "type": "Feature", "properties": {"collection_times": [{"days": "Mon-Fri", "time": "4:00pm"}, {"days": "Sat", "time": "12:00pm"}, {"days": "Sun", "time": "Closed"}], "id": "1430300020", "name": "USPS COLLECTION BOX - BLUE BOX", "address": {"city": "NIAGARA FALLS", "state": "NY", "street": "256 3RD ST", "postcode": "14303"}}},
{"geometry": {"type": "Point", "coordinates": [-79.0331376277, 43.084436652]}, "type": "Feature", "properties": {"collection_times": [{"days": "Mon-Fri", "time": "4:00pm"}, {"days": "Sat", "time": "12:00pm"}, {"days": "Sun", "time": "Closed"}], "id": "1430300025", "name": "USPS COLLECTION BOX - BLUE BOX", "address": {"city": "NIAGARA FALLS", "state": "NY", "street": "301 10TH ST", "postcode": "14303"}}},
{"geometry": {"type": "Point", "coordinates": [-79.0293762341, 43.0883652796]}, "type": "Feature", "properties": {"collection_times": [{"days": "Mon-Sat", "time": "12:00pm"}, {"days": "Sun", "time": "Closed"}], "id": "1430300029", "name": "USPS COLLECTION BOX - BLUE BOX", "address": {"city": "NIAGARA FALLS", "state": "NY", "street": "2620 NIAGARA ST", "postcode": "14303"}}},
{"geometry": {"type": "Point", "coordinates": [-79.0591633648, 43.086422636]}, "type": "Feature", "properties": {"collection_times": [{"days": "Mon-Fri", "time": "4:00pm"}, {"days": "Sat", "time": "12:00pm"}, {"days": "Sun", "time": "Closed"}], "id": "1430300039", "name": "USPS COLLECTION BOX - BLUE BOX", "address": {"city": "NIAGARA FALLS", "state": "NY", "street": "304 3RD ST", "postcode": "14303"}}},
{"geometry": {"type": "Point", "coordinates": [-78.9538350915, 43.0979412135]}, "type": "Feature", "properties": {"collection_times": [{"days": "Mon-Sat", "time": "9:30am"}, {"days": "Sun", "time": "Closed"}], "id": "1430400046", "name": "USPS COLLECTION BOX - BLUE BOX", "address": {"city": "NIAGARA FALLS", "state": "NY", "street": "6802 BUFFALO AVE", "postcode": "14304"}}},
{"geometry": {"type": "Point", "coordinates": [-78.9632049526, 43.0773244005]}, "type": "Feature", "properties": {"collection_times": [{"days": "Mon-Sat", "time": "9:00am"}, {"days": "Sun", "time": "Closed"}], "id": "1430400052", "name": "USPS COLLECTION BOX - BLUE BOX", "address": {"city": "NIAGARA FALLS", "state": "NY", "street": "8676 BUFFALO AVE", "postcode": "14304"}}},
{"geometry": {"type": "Point", "coordinates": [-78.9632735329, 43.0735999794]}, "type": "Feature", "properties": {"collection_times": [{"days": "Mon-Sat", "time": "10:00am"}, {"days": "Sun", "time": "Closed"}], "id": "1430400059", "name": "USPS COLLECTION BOX - BLUE BOX", "address": {"city": "NIAGARA FALLS", "state": "NY", "street": "8600 HENNEPIN AVE", "postcode": "14304"}}},
{"geometry": {"type": "Point", "coordinates": [-78.9403561002, 43.0712132345]}, "type": "Feature", "properties": {"collection_times": [{"days": "Mon-Sat", "time": "10:00am"}, {"days": "Sun", "time": "Closed"}], "id": "1430400060", "name": "USPS COLLECTION BOX - BLUE BOX", "address": {"city": "NIAGARA FALLS", "state": "NY", "street": "2065 RIVER RD", "postcode": "14304"}}},
{"geometry": {"type": "Point", "coordinates": [-78.9668378196, 43.0894580106]}, "type": "Feature", "properties": {"collection_times": [{"days": "Mon-Sat", "time": "10:00am"}, {"days": "Sun", "time": "Closed"}], "id": "1430400063", "name": "USPS COLLECTION BOX - BLUE BOX", "address": {"city": "NIAGARA FALLS", "state": "NY", "street": "1263 N MILITARY RD", "postcode": "14304"}}},
{"geometry": {"type": "Point", "coordinates": [-78.9723586891, 43.0945825888]}, "type": "Feature", "properties": {"collection_times": [{"days": "Mon-Sat", "time": "10:00am"}, {"days": "Sun", "time": "Closed"}], "id": "1430400064", "name": "USPS COLLECTION BOX - BLUE BOX", "address": {"city": "NIAGARA FALLS", "state": "NY", "street": "1575 MILITARY RD", "postcode": "14304"}}},
{"geometry": {"type": "Point", "coordinates": [-78.9795995809, 43.1019630698]}, "type": "Feature", "properties": {"collection_times": [{"days": "Mon-Sat", "time": "9:30am"}, {"days": "Sun", "time": "Closed"}], "id": "1430400066", "name": "USPS COLLECTION BOX - BLUE BOX", "address": {"city": "NIAGARA FALLS", "state": "NY", "street": "2429 MILITARY RD", "postcode": "14304"}}},
{"geometry": {"type": "Point", "coordinates": [-78.9817423919, 43.0881789498]}, "type": "Feature", "properties": {"collection_times": [{"days": "Mon-Sat", "time": "10:00am"}, {"days": "Sun", "time": "Closed"}], "id": "1430400069", "name": "USPS COLLECTION BOX - BLUE BOX", "address": {"city": "NIAGARA FALLS", "state": "NY", "street": "7200 NIAGARA FALLS BLVD", "postcode": "14304"}}},
{"geometry": {"type": "Point", "coordinates": [-78.9817423919, 43.0881789498]}, "type": "Feature", "properties": {"collection_times": [{"days": "Mon-Sat", "time": "10:00am"}, {"days": "Sun", "time": "Closed"}], "id": "1430400070", "name": "USPS COLLECTION BOX - BLUE BOX", "address": {"city": "NIAGARA FALLS", "state": "NY", "street": "7200 NIAGARA FALLS BLVD", "postcode": "14304"}}},
{"geometry": {"type": "Point", "coordinates": [-78.9776013138, 43.1121730596]}, "type": "Feature", "properties": {"collection_times": [{"days": "Mon-Sat", "time": "9:00am"}, {"days": "Sun", "time": "Closed"}], "id": "1430400077", "name": "USPS COLLECTION BOX - BLUE BOX", "address": {"city": "NIAGARA FALLS", "state": "NY", "street": "7535 PACKARD RD", "postcode": "14304"}}},
{"geometry": {"type": "Point", "coordinates": [-78.9653363455, 43.102957015]}, "type": "Feature", "properties": {"collection_times": [{"days": "Mon-Sat", "time": "9:30am"}, {"days": "Sun", "time": "Closed"}], "id": "1430400079", "name": "USPS COLLECTION BOX - BLUE BOX", "address": {"city": "NIAGARA FALLS", "state": "NY", "street": "8521 PORTER RD", "postcode": "14304"}}},
{"geometry": {"type": "Point", "coordinates": [-78.9817549321, 43.0833243683]}, "type": "Feature", "properties": {"collection_times": [{"days": "Mon-Sat", "time": "10:00am"}, {"days": "Sun", "time": "Closed"}], "id": "1430400086", "name": "USPS COLLECTION BOX - BLUE BOX", "address": {"city": "NIAGARA FALLS", "state": "NY", "street": "501 72ND ST", "postcode": "14304"}}},
{"geometry": {"type": "Point", "coordinates": [-78.9580164946, 43.0849414732]}, "type": "Feature", "properties": {"collection_times": [{"days": "Mon-Sat", "time": "10:00am"}, {"days": "Sun", "time": "Closed"}], "id": "1430400087", "name": "USPS COLLECTION BOX - BLUE BOX", "address": {"city": "NIAGARA FALLS", "state": "NY", "street": "935 91ST ST", "postcode": "14304"}}},
{"geometry": {"type": "Point", "coordinates": [-78.9775471471, 43.0998633176]}, "type": "Feature", "properties": {"collection_times": [{"days": "Mon-Sat", "time": "10:00am"}, {"days": "Sun", "time": "Closed"}], "id": "1430400092", "name": "USPS COLLECTION BOX - BLUE BOX", "address": {"city": "NIAGARA FALLS", "state": "NY", "street": "1900 MILITARY RD", "postcode": "14304"}}},
{"geometry": {"type": "Point", "coordinates": [-78.9692239722, 43.0898093059]}, "type": "Feature", "properties": {"collection_times": [{"days": "Mon-Sat", "time": "10:00am"}, {"days": "Sun", "time": "Closed"}], "id": "1430400094", "name": "USPS COLLECTION BOX - BLUE BOX", "address": {"city": "NIAGARA FALLS", "state": "NY", "street": "8297 NIAGARA FALLS BLVD", "postcode": "14304"}}},
{"geometry": {"type": "Point", "coordinates": [-78.9313206596, 43.0995143447]}, "type": "Feature", "properties": {"collection_times": [{"days": "Mon-Sat", "time": "10:00am"}, {"days": "Sun", "time": "Closed"}], "id": "1430400095", "name": "USPS COLLECTION BOX - BLUE BOX", "address": {"city": "NIAGARA FALLS", "state": "NY", "street": "2221 NIAGARA FALLS BLVD", "postcode": "14304"}}},
{"geometry": {"type": "Point", "coordinates": [-78.9538350915, 43.0979412135]}, "type": "Feature", "properties": {"collection_times": [{"days": "Mon-Sat", "time": "10:00am"}, {"days": "Sun", "time": "Closed"}], "id": "1430400101", "name": "USPS COLLECTION BOX - BLUE BOX", "address": {"city": "NIAGARA FALLS", "state": "NY", "street": "6880 PLAZA DR", "postcode": "14304"}}},
{"geometry": {"type": "Point", "coordinates": [-78.9473580343, 43.0976168786]}, "type": "Feature", "properties": {"collection_times": [{"days": "Mon-Fri", "time": "5:00pm"}, {"days": "Sat", "time": "4:00pm"}, {"days": "Sun", "time": "Closed"}], "id": "1430400105", "name": "USPS COLLECTION BOX - BLUE BOX", "address": {"city": "NIAGARA FALLS", "state": "NY", "street": "9860 NIAGARA FALLS BLVD", "postcode": "14304"}}},
{"geometry": {"type": "Point", "coordinates": [-78.9473580343, 43.0976168786]}, "type": "Feature", "properties": {"collection_times": [{"days": "Mon-Fri", "time": "5:00pm"}, {"days": "Sat", "time": "4:00pm"}, {"days": "Sun", "time": "Closed"}], "id": "1430400106", "name": "USPS COLLECTION BOX - BLUE BOX", "address": {"city": "NIAGARA FALLS", "state": "NY", "street": "9860 NIAGARA FALLS BLVD", "postcode": "14304"}}},
{"geometry": {"type": "Point", "coordinates": [-78.9473580343, 43.0976168786]}, "type": "Feature", "properties": {"collection_times": [{"days": "Mon-Fri", "time": "5:00pm"}, {"days": "Sat", "time": "4:00pm"}, {"days": "Sun", "time": "Closed"}], "id": "1430400107", "name": "USPS COLLECTION BOX - BLUE BOX", "address": {"city": "NIAGARA FALLS", "state": "NY", "street": "9860 NIAGARA FALLS BLVD", "postcode": "14304"}}},
{"geometry": {"type": "Point", "coordinates": [-78.9473580343, 43.0976168786]}, "type": "Feature", "properties": {"collection_times": [{"days": "Mon-Fri", "time": "5:00pm"}, {"days": "Sat", "time": "4:00pm"}, {"days": "Sun", "time": "Closed"}], "id": "1430400108", "name": "USPS COLLECTION BOX - BLUE BOX", "address": {"city": "NIAGARA FALLS", "state": "NY", "street": "9860 NIAGARA FALLS BLVD", "postcode": "14304"}}},
{"geometry": {"type": "Point", "coordinates": [-78.9405974238, 43.0848350069]}, "type": "Feature", "properties": {"collection_times": [{"days": "Mon-Sat", "time": "10:00am"}, {"days": "Sun", "time": "Closed"}], "id": "1430400109", "name": "USPS COLLECTION BOX - BLUE BOX", "address": {"city": "NIAGARA FALLS", "state": "NY", "street": "6934 WILLIAMS RD", "postcode": "14304"}}},
{"geometry": {"type": "Point", "coordinates": [-78.9473580343, 43.0976168786]}, "type": "Feature", "properties": {"collection_times": [{"days": "Mon-Fri", "time": "5:00pm"}, {"days": "Sat", "time": "4:00pm"}, {"days": "Sun", "time": "Closed"}], "id": "1430400114", "name": "USPS COLLECTION BOX - APC", "address": {"city": "NIAGARA FALLS", "state": "NY", "street": "9860 NIAGARA FALLS BLVD", "postcode": "14304"}}},
{"geometry": {"type": "Point", "coordinates": [-79.0244580521, 43.1203952998]}, "type": "Feature", "properties": {"collection_times": [{"days": "Mon-Fri", "time": "4:00pm"}, {"days": "Sat", "time": "12:00pm"}, {"days": "Sun", "time": "Closed"}], "id": "1430500002", "name": "USPS COLLECTION BOX - BLUE BOX", "address": {"city": "NIAGARA FALLS", "state": "NY", "street": "1001 SOUTH AVE", "postcode": "14305"}}},
{"geometry": {"type": "Point", "coordinates": [-79.0244580521, 43.1203952998]}, "type": "Feature", "properties": {"collection_times": [{"days": "Mon-Fri", "time": "4:00pm"}, {"days": "Sat", "time": "12:00pm"}, {"days": "Sun", "time": "Closed"}], "id": "1430500003", "name": "USPS COLLECTION BOX - BLUE BOX", "address": {"city": "NIAGARA FALLS", "state": "NY", "street": "1001 SOUTH AVE", "postcode": "14305"}}},
{"geometry": {"type": "Point", "coordinates": [-79.0309175238, 43.1099539576]}, "type": "Feature", "properties": {"collection_times": [{"days": "Mon-Sat", "time": "10:00am"}, {"days": "Sun", "time": "Closed"}], "id": "1430500009", "name": "USPS COLLECTION BOX - BLUE BOX", "address": {"city": "NIAGARA FALLS", "state": "NY", "street": "2310 HYDE PARK BLVD", "postcode": "14305"}}},
{"geometry": {"type": "Point", "coordinates": [-79.0244580521, 43.1203952998]}, "type": "Feature", "properties": {"collection_times": [{"days": "Mon-Sat", "time": "11:00am"}, {"days": "Sun", "time": "Closed"}], "id": "1430500011", "name": "USPS COLLECTION BOX - BLUE BOX", "address": {"city": "NIAGARA FALLS", "state": "NY", "street": "4708 HYDE PARK BLVD", "postcode": "14305"}}},
{"geometry": {"type": "Point", "coordinates": [-79.0525830104, 43.1036573092]}, "type": "Feature", "properties": {"collection_times": [{"days": "Mon-Sat", "time": "2:00pm"}, {"days": "Sun", "time": "Closed"}], "id": "1430500015", "name": "USPS COLLECTION BOX - BLUE BOX", "address": {"city": "NIAGARA FALLS", "state": "NY", "street": "1602 MAIN ST", "postcode": "14305"}}},
{"geometry": {"type": "Point", "coordinates": [-79.05034171, 43.1221609112]}, "type": "Feature", "properties": {"collection_times": [{"days": "Mon-Sat", "time": "11:00am"}, {"days": "Sun", "time": "Closed"}], "id": "1430500021", "name": "USPS COLLECTION BOX - BLUE BOX", "address": {"city": "NIAGARA FALLS", "state": "NY", "street": "3790 MCKOON AVE", "postcode": "14305"}}},
{"geometry": {"type": "Point", "coordinates": [-79.0018013548, 43.1247232003]}, "type": "Feature", "properties": {"collection_times": [{"days": "Mon-Sat", "time": "12:00pm"}, {"days": "Sun", "time": "Closed"}], "id": "1430500023", "name": "USPS COLLECTION BOX - BLUE BOX", "address": {"city": "NIAGARA FALLS", "state": "NY", "street": "4235 MILITARY RD", "postcode": "14305"}}},
{"geometry": {"type": "Point", "coordinates": [-79.0031830508, 43.1261285555]}, "type": "Feature", "properties": {"collection_times": [{"days": "Mon-Sat", "time": "12:00pm"}, {"days": "Sun", "time": "Closed"}], "id": "1430500024", "name": "USPS COLLECTION BOX - BLUE BOX", "address": {"city": "NIAGARA FALLS", "state": "NY", "street": "4407 MILITARY RD", "postcode": "14305"}}},
{"geometry": {"type": "Point", "coordinates": [-79.0549351396, 43.1077063356]}, "type": "Feature", "properties": {"collection_times": [{"days": "Mon-Sat", "time": "10:30am"}, {"days": "Sun", "time": "Closed"}], "id": "1430500025", "name": "USPS COLLECTION BOX - BLUE BOX", "address": {"city": "NIAGARA FALLS", "state": "NY", "street": "800 NIAGARA AVE", "postcode": "14305"}}},
{"geometry": {"type": "Point", "coordinates": [-79.0244580521, 43.1203952998]}, "type": "Feature", "properties": {"collection_times": [{"days": "Mon-Sat", "time": "9:30am"}, {"days": "Sun", "time": "Closed"}], "id": "1430500029", "name": "USPS COLLECTION BOX - BLUE BOX", "address": {"city": "NIAGARA FALLS", "state": "NY", "street": "2903 NORTH AVE", "postcode": "14305"}}},
{"geometry": {"type": "Point", "coordinates": [-79.055960812, 43.1103316838]}, "type": "Feature", "properties": {"collection_times": [{"days": "Mon-Fri", "time": "1:00pm"}, {"days": "Sat", "time": "12:00pm"}, {"days": "Sun", "time": "Closed"}], "id": "1430500032", "name": "USPS COLLECTION BOX - BLUE BOX", "address": {"city": "NIAGARA FALLS", "state": "NY", "street": "2315 WHIRLPOOL ST", "postcode": "14305"}}},
{"geometry": {"type": "Point", "coordinates": [-79.0287575145, 43.1277595857]}, "type": "Feature", "properties": {"collection_times": [{"days": "Mon-Sat", "time": "11:00am"}, {"days": "Sun", "time": "Closed"}], "id": "1430500034", "name": "USPS COLLECTION BOX - BLUE BOX", "address": {"city": "NIAGARA FALLS", "state": "NY", "street": "4600 WITMER RD", "postcode": "14305"}}},
{"geometry": {"type": "Point", "coordinates": [-78.9845514471, 43.1217930109]}, "type": "Feature", "properties": {"collection_times": [{"days": "Mon-Sat", "time": "9:00am"}, {"days": "Sun", "time": "Closed"}], "id": "1430500038", "name": "USPS COLLECTION BOX - BLUE BOX", "address": {"city": "NIAGARA FALLS", "state": "NY", "street": "7105 LOCKPORT RD", "postcode": "14305"}}},
{"geometry": {"type": "Point", "coordinates": [-79.0287575145, 43.1277595857]}, "type": "Feature", "properties": {"collection_times": [{"days": "Mon-Sat", "time": "11:00am"}, {"days": "Sun", "time": "Closed"}], "id": "1430500039", "name": "USPS COLLECTION BOX - BLUE BOX", "address": {"city": "NIAGARA FALLS", "state": "NY", "street": "4600 WITMER RD", "postcode": "14305"}}},
{"geometry": {"type": "Point", "coordinates": [-79.0294821606, 43.127157162]}, "type": "Feature", "properties": {"collection_times": [{"days": "Mon-Sat", "time": "11:00am"}, {"days": "Sun", "time": "Closed"}], "id": "1430500040", "name": "USPS COLLECTION BOX - BLUE BOX", "address": {"city": "NIAGARA FALLS", "state": "NY", "street": "4500 WITMER RD", "postcode": "14305"}}},
{"geometry": {"type": "Point", "coordinates": [-79.0533913782, 43.1063435668]}, "type": "Feature", "properties": {"collection_times": [{"days": "Mon-Fri", "time": "4:00pm"}, {"days": "Sat", "time": "12:00pm"}, {"days": "Sun", "time": "Closed"}], "id": "1430500041", "name": "USPS COLLECTION BOX - BLUE BOX", "address": {"city": "NIAGARA FALLS", "state": "NY", "street": "1925 MAIN ST", "postcode": "14305"}}}
]}
