{"type": "FeatureCollection", "features": [
{"geometry": {"type": "Point", "coordinates": [-77.8575488511, 43.1918721522]}, "type": "Feature", "properties": {"collection_times": [{"days": "Mon-Fri", "time": "5:00pm"}, {"days": "Sat", "time": "11:45am"}, {"days": "Sun", "time": "Closed"}], "id": "1441000001", "name": "USPS COLLECTION BOX - BLUE BOX", "address": {"city": "ADAMS BASIN", "state": "NY", "street": "4303 CANAL RD", "postcode": "14410"}}},
{"geometry": {"type": "Point", "coordinates": [-77.8575488511, 43.1918721522]}, "type": "Feature", "properties": {"collection_times": [{"days": "Mon-Fri", "time": "5:00pm"}, {"days": "Sat", "time": "12:00pm"}, {"days": "Sun", "time": "Closed"}], "id": "1441000002", "name": "USPS COLLECTION BOX - PO LOBBY", "address": {"city": "ADAMS BASIN", "state": "NY", "street": "4303 CANAL RD", "postcode": "14410"}}},
{"geometry": {"type": "Point", "coordinates": [-78.1937634893, 43.2459942386]}, "type": "Feature", "properties": {"collection_times": [{"days": "Mon-Fri", "time": "5:00pm"}, {"days": "Sat", "time": "2:00pm"}, {"days": "Sun", "time": "Closed"}], "id": "1441100001", "name": "USPS COLLECTION BOX - BLUE BOX", "address": {"city": "ALBION", "state": "NY", "street": "8 S MAIN ST", "postcode": "14411"}}},
{"geometry": {"type": "Point", "coordinates": [-78.2049273407, 43.2407453363]}, "type": "Feature", "properties": {"collection_times": [{"days": "Mon-Sat", "time": "10:00am"}, {"days": "Sun", "time": "Closed"}], "id": "1441100002", "name": "USPS COLLECTION BOX - BLUE BOX", "address": {"city": "ALBION", "state": "NY", "street": "408 WEST AVE", "postcode": "14411"}}},
{"geometry": {"type": "Point", "coordinates": [-78.1937102562, 43.2480691486]}, "type": "Feature", "properties": {"collection_times": [{"days": "Mon-Sat", "time": "11:00am"}, {"days": "Sun", "time": "Closed"}], "id": "1441100003", "name": "USPS COLLECTION BOX - BLUE BOX", "address": {"city": "ALBION", "state": "NY", "street": "101 N MAIN ST", "postcode": "14411"}}},
{"geometry": {"type": "Point", "coordinates": [-78.2016187565, 43.2418242896]}, "type": "Feature", "properties": {"collection_times": [{"days": "Mon-Sat", "time": "11:00am"}, {"days": "Sun", "time": "Closed"}], "id": "1441100004", "name": "USPS COLLECTION BOX - BLUE BOX", "address": {"city": "ALBION", "state": "NY", "street": "215 OAK ORCHARD EST", "postcode": "14411"}}},
{"geometry": {"type": "Point", "coordinates": [-78.1938332839, 43.2437087619]}, "type": "Feature", "properties": {"collection_times": [{"days": "Mon-Sat", "time": "10:45am"}, {"days": "Sun", "time": "Closed"}], "id": "1441100005", "name": "USPS COLLECTION BOX - BLUE BOX", "address": {"city": "ALBION", "state": "NY", "street": "131 S MAIN ST", "postcode": "14411"}}},
{"geometry": {"type": "Point", "coordinates": [-78.1937634893, 43.2459942386]}, "type": "Feature", "properties": {"collection_times": [{"days": "Mon-Fri", "time": "5:00pm"}, {"days": "Sat", "time": "2:00pm"}, {"days": "Sun", "time": "Closed"}], "id": "1441100007", "name": "USPS COLLECTION BOX - BLUE BOX", "address": {"city": "ALBION", "state": "NY", "street": "8 S MAIN ST", "postcode": "14411"}}},
{"geometry": {"type": "Point", "coordinates": [-78.1938332839, 43.2437087619]}, "type": "Feature", "properties": {"collection_times": [{"days": "Mon-Sat", "time": "10:45am"}, {"days": "Sun", "time": "Closed"}], "id": "1441100009", "name": "USPS COLLECTION BOX - BLUE BOX", "address": {"city": "ALBION", "state": "NY", "street": "131 S MAIN ST", "postcode": "14411"}}},
{"geometry": {"type": "Point", "coordinates": [-78.2070300132, 43.2407085556]}, "type": "Feature", "properties": {"collection_times": [{"days": "Mon-Sat", "time": "10:00am"}, {"days": "Sun", "time": "Closed"}], "id": "1441100012", "name": "USPS COLLECTION BOX - BLUE BOX", "address": {"city": "ALBION", "state": "NY", "street": "458 WEST AVE", "postcode": "14411"}}},
{"geometry": {"type": "Point", "coordinates": [-78.1937634893, 43.2459942386]}, "type": "Feature", "properties": {"collection_times": [{"days": "Mon-Fri", "time": "5:00pm"}, {"days": "Sat", "time": "2:00pm"}, {"days": "Sun", "time": "Closed"}], "id": "1441100013", "name": "USPS COLLECTION BOX - PO LOBBY", "address": {"city": "ALBION", "state": "NY", "street": "8 S MAIN ST", "postcode": "14411"}}},
{"geometry": {"type": "Point", "coordinates": [-76.9802851452, 43.2111493633]}, "type": "Feature", "properties": {"collection_times": [{"days": "Mon-Fri", "time": "4:30pm"}, {"days": "Sat", "time": "11:45am"}, {"days": "Sun", "time": "Closed"}], "id": "1441300001", "name": "USPS COLLECTION BOX - BLUE BOX", "address": {"city": "ALTON", "state": "NY", "street": "8483 RIDGE RD", "postcode": "14413"}}},
{"geometry": {"type": "Point", "coordinates": [-76.9802851452, 43.2111493633]}, "type": "Feature", "properties": {"collection_times": [{"days": "Mon-Fri", "time": "4:45pm"}, {"days": "Sat", "time": "12:00pm"}, {"days": "Sun", "time": "Closed"}], "id": "1441300002", "name": "USPS COLLECTION BOX - PO LOBBY", "address": {"city": "ALTON", "state": "NY", "street": "8483 RIDGE RD", "postcode": "14413"}}},
{"geometry": {"type": "Point", "coordinates": [-77.7457343428, 42.9131202325]}, "type": "Feature", "properties": {"collection_times": [{"days": "Mon-Fri", "time": "5:00pm"}, {"days": "Sat", "time": "11:45am"}, {"days": "Sun", "time": "Closed"}], "id": "1441400001", "name": "USPS COLLECTION BOX - BLUE BOX", "address": {"city": "AVON", "state": "NY", "street": "80 PROSPECT ST", "postcode": "14414"}}},
{"geometry": {"type": "Point", "coordinates": [-77.7336505242, 42.9101084669]}, "type": "Feature", "properties": {"collection_times": [{"days": "Mon-Sat", "time": "10:00am"}, {"days": "Sun", "time": "Closed"}], "id": "1441400002", "name": "USPS COLLECTION BOX - BLUE BOX", "address": {"city": "AVON", "state": "NY", "street": "275 E MAIN ST", "postcode": "14414"}}},
{"geometry": {"type": "Point", "coordinates": [-77.746477241, 42.9110796282]}, "type": "Feature", "properties": {"collection_times": [{"days": "Mon-Sat", "time": "2:45pm"}, {"days": "Sun", "time": "Closed"}], "id": "1441400003", "name": "USPS COLLECTION BOX - BLUE BOX", "address": {"city": "AVON", "state": "NY", "street": "68 GENESEE ST", "postcode": "14414"}}},
{"geometry": {"type": "Point", "coordinates": [-77.7469870963, 42.9096470649]}, "type": "Feature", "properties": {"collection_times": [{"days": "Mon-Sat", "time": "9:45am"}, {"days": "Sun", "time": "Closed"}], "id": "1441400004", "name": "USPS COLLECTION BOX - BLUE BOX", "address": {"city": "AVON", "state": "NY", "street": "143 GENESEE ST", "postcode": "14414"}}},
{"geometry": {"type": "Point", "coordinates": [-77.7332801508, 42.9101107849]}, "type": "Feature", "properties": {"collection_times": [{"days": "Mon-Sat", "time": "10:45am"}, {"days": "Sun", "time": "Closed"}], "id": "1441400005", "name": "USPS COLLECTION BOX - BLUE BOX", "address": {"city": "AVON", "state": "NY", "street": "270 E MAIN ST", "postcode": "14414"}}},
{"geometry": {"type": "Point", "coordinates": [-77.7457343428, 42.9131202325]}, "type": "Feature", "properties": {"collection_times": [{"days": "Mon-Fri", "time": "5:00pm"}, {"days": "Sat", "time": "3:30pm"}, {"days": "Sun", "time": "Closed"}], "id": "1441400006", "name": "USPS COLLECTION BOX - PO LOBBY", "address": {"city": "AVON", "state": "NY", "street": "80 PROSPECT ST", "postcode": "14414"}}},
{"geometry": {"type": "Point", "coordinates": [-77.7460020989, 42.9125866927]}, "type": "Feature", "properties": {"collection_times": [{"days": "Mon-Fri", "time": "4:45pm"}, {"days": "Sat", "time": "11:45am"}, {"days": "Sun", "time": "Closed"}], "id": "1441400007", "name": "USPS COLLECTION BOX - BLUE BOX", "address": {"city": "AVON", "state": "NY", "street": "25 PROSPECT ST", "postcode": "14414"}}},
{"geometry": {"type": "Point", "coordinates": [-77.7538323127, 42.9040375988]}, "type": "Feature", "properties": {"collection_times": [{"days": "Mon-Sat", "time": "1:30pm"}, {"days": "Sun", "time": "Closed"}], "id": "1441400008", "name": "USPS COLLECTION BOX - BLUE BOX", "address": {"city": "AVON", "state": "NY", "street": "164 SACKETT RD", "postcode": "14414"}}},
{"geometry": {"type": "Point", "coordinates": [-77.023182907, 42.754253319]}, "type": "Feature", "properties": {"collection_times": [{"days": "Mon-Fri", "time": "4:45pm"}, {"days": "Sat", "time": "11:45am"}, {"days": "Sun", "time": "Closed"}], "id": "1441500001", "name": "USPS COLLECTION BOX - BLUE BOX", "address": {"city": "BELLONA", "state": "NY", "street": "134 PRE EMPTION RD", "postcode": "14415"}}},
{"geometry": {"type": "Point", "coordinates": [-77.023182907, 42.754253319]}, "type": "Feature", "properties": {"collection_times": [{"days": "Mon-Fri", "time": "5:00pm"}, {"days": "Sat", "time": "12:00pm"}, {"days": "Sun", "time": "Closed"}], "id": "1441500002", "name": "USPS COLLECTION BOX - PO LOBBY", "address": {"city": "BELLONA", "state": "NY", "street": "134 PRE EMPTION RD", "postcode": "14415"}}},
{"geometry": {"type": "Point", "coordinates": [-77.9418866836, 43.0851047216]}, "type": "Feature", "properties": {"collection_times": [{"days": "Mon-Fri", "time": "4:15pm"}, {"days": "Sat", "time": "11:30am"}, {"days": "Sun", "time": "Closed"}], "id": "1441600002", "name": "USPS COLLECTION BOX - BLUE BOX", "address": {"city": "BERGEN", "state": "NY", "street": "15 ROCHESTER ST", "postcode": "14416"}}},
{"geometry": {"type": "Point", "coordinates": [-77.9418866836, 43.0851047216]}, "type": "Feature", "properties": {"collection_times": [{"days": "Mon-Fri", "time": "4:30pm"}, {"days": "Sat", "time": "12:00pm"}, {"days": "Sun", "time": "Closed"}], "id": "1441600003", "name": "USPS COLLECTION BOX - PO LOBBY", "address": {"city": "BERGEN", "state": "NY", "street": "15 ROCHESTER ST", "postcode": "14416"}}},
{"geometry": {"type": "Point", "coordinates": [-77.1878073132, 42.5914204164]}, "type": "Feature", "properties": {"collection_times": [{"days": "Mon-Fri", "time": "12:00pm"}, {"days": "Sat-Sun", "time": "Closed"}], "id": "1441800001", "name": "USPS COLLECTION BOX - BLUE BOX", "address": {"city": "KEUKA PARK", "state": "NY", "street": "1 W LAKE RD", "postcode": "14418"}}},
{"geometry": {"type": "Point", "coordinates": [-77.9382739269, 43.2162629309]}, "type": "Feature", "properties": {"collection_times": [{"days": "Mon-Sat", "time": "3:00pm"}, {"days": "Sun", "time": "Closed"}], "id": "1442000001", "name": "USPS COLLECTION BOX - BLUE BOX", "address": {"city": "BROCKPORT", "state": "NY", "street": "14 MAIN ST", "postcode": "14420"}}},
{"geometry": {"type": "Point", "coordinates": [-77.9346491706, 43.2152937932]}, "type": "Feature", "properties": {"collection_times": [{"days": "Mon-Sat", "time": "9:00am"}, {"days": "Sun", "time": "Closed"}], "id": "1442000002", "name": "USPS COLLECTION BOX - BLUE BOX", "address": {"city": "BROCKPORT", "state": "NY", "street": "6515 BROCKPORT SPENCERPORT RD", "postcode": "14420"}}},
{"geometry": {"type": "Point", "coordinates": [-77.9493925052, 43.1984189711]}, "type": "Feature", "properties": {"collection_times": [{"days": "Mon-Sat", "time": "9:30am"}, {"days": "Sun", "time": "Closed"}], "id": "1442000004", "name": "USPS COLLECTION BOX - BLUE BOX", "address": {"city": "BROCKPORT", "state": "NY", "street": "6660 4TH SECTION RD", "postcode": "14420"}}},
{"geometry": {"type": "Point", "coordinates": [-77.9387530253, 43.2146481919]}, "type": "Feature", "properties": {"collection_times": [{"days": "Mon-Sat", "time": "2:00pm"}, {"days": "Sun", "time": "Closed"}], "id": "1442000005", "name": "USPS COLLECTION BOX - BLUE BOX", "address": {"city": "BROCKPORT", "state": "NY", "street": "92 MAIN ST", "postcode": "14420"}}},
{"geometry": {"type": "Point", "coordinates": [-77.9376274412, 43.2159241968]}, "type": "Feature", "properties": {"collection_times": [{"days": "Mon-Sat", "time": "3:00pm"}, {"days": "Sun", "time": "Closed"}], "id": "1442000010", "name": "USPS COLLECTION BOX - BLUE BOX", "address": {"city": "BROCKPORT", "state": "NY", "street": "11 WATER ST", "postcode": "14420"}}},
{"geometry": {"type": "Point", "coordinates": [-77.9442111979, 43.2200637781]}, "type": "Feature", "properties": {"collection_times": [{"days": "Mon-Sat", "time": "10:00am"}, {"days": "Sun", "time": "Closed"}], "id": "1442000014", "name": "USPS COLLECTION BOX - BLUE BOX", "address": {"city": "BROCKPORT", "state": "NY", "street": "156 WEST AVE", "postcode": "14420"}}},
{"geometry": {"type": "Point", "coordinates": [-77.9418843176, 43.2151533154]}, "type": "Feature", "properties": {"collection_times": [{"days": "Mon-Sat", "time": "2:00pm"}, {"days": "Sun", "time": "Closed"}], "id": "1442000015", "name": "USPS COLLECTION BOX - BLUE BOX", "address": {"city": "BROCKPORT", "state": "NY", "street": "34 UTICA ST", "postcode": "14420"}}},
{"geometry": {"type": "Point", "coordinates": [-77.9346491706, 43.2152937932]}, "type": "Feature", "properties": {"collection_times": [{"days": "Mon-Sat", "time": "9:30am"}, {"days": "Sun", "time": "Closed"}], "id": "1442000017", "name": "USPS COLLECTION BOX - BLUE BOX", "address": {"city": "BROCKPORT", "state": "NY", "street": "1 MORTIMER HALL", "postcode": "14420"}}},
{"geometry": {"type": "Point", "coordinates": [-77.9430956676, 43.2091462498]}, "type": "Feature", "properties": {"collection_times": [{"days": "Mon-Sat", "time": "1:30pm"}, {"days": "Sun", "time": "Closed"}], "id": "1442000019", "name": "USPS COLLECTION BOX - BLUE BOX", "address": {"city": "BROCKPORT", "state": "NY", "street": "55 ADAMS ST", "postcode": "14420"}}},
{"geometry": {"type": "Point", "coordinates": [-77.9386678522, 43.2149309191]}, "type": "Feature", "properties": {"collection_times": [{"days": "Mon-Sat", "time": "2:00pm"}, {"days": "Sun", "time": "Closed"}], "id": "1442000020", "name": "USPS COLLECTION BOX - BLUE BOX", "address": {"city": "BROCKPORT", "state": "NY", "street": "73 N MAIN ST", "postcode": "14420"}}},
{"geometry": {"type": "Point", "coordinates": [-77.9382739269, 43.2162629309]}, "type": "Feature", "properties": {"collection_times": [{"days": "Mon-Fri", "time": "5:00pm"}, {"days": "Sat", "time": "2:00pm"}, {"days": "Sun", "time": "Closed"}], "id": "1442000022", "name": "USPS COLLECTION BOX - PO LOBBY", "address": {"city": "BROCKPORT", "state": "NY", "street": "14 MAIN ST", "postcode": "14420"}}},
{"geometry": {"type": "Point", "coordinates": [-77.9453311809, 43.2201114558]}, "type": "Feature", "properties": {"collection_times": [{"days": "Mon-Sat", "time": "2:45pm"}, {"days": "Sun", "time": "Closed"}], "id": "1442000024", "name": "USPS COLLECTION BOX - BLUE BOX", "address": {"city": "BROCKPORT", "state": "NY", "street": "170 WEST AVE", "postcode": "14420"}}},
{"geometry": {"type": "Point", "coordinates": [-78.0649841501, 43.0480530101]}, "type": "Feature", "properties": {"collection_times": [{"days": "Mon-Fri", "time": "4:15pm"}, {"days": "Sat", "time": "11:45am"}, {"days": "Sun", "time": "Closed"}], "id": "1442200001", "name": "USPS COLLECTION BOX - BLUE BOX", "address": {"city": "BYRON", "state": "NY", "street": "6332 E MAIN ST", "postcode": "14422"}}},
{"geometry": {"type": "Point", "coordinates": [-78.0649841501, 43.0480530101]}, "type": "Feature", "properties": {"collection_times": [{"days": "Mon-Fri", "time": "4:30pm"}, {"days": "Sat", "time": "12:00pm"}, {"days": "Sun", "time": "Closed"}], "id": "1442200002", "name": "USPS COLLECTION BOX - PO LOBBY", "address": {"city": "BYRON", "state": "NY", "street": "6332 E MAIN ST", "postcode": "14422"}}},
{"geometry": {"type": "Point", "coordinates": [-77.8538532433, 42.973124643]}, "type": "Feature", "properties": {"collection_times": [{"days": "Mon-Sat", "time": "10:00am"}, {"days": "Sun", "time": "Closed"}], "id": "1442300001", "name": "USPS COLLECTION BOX - BLUE BOX", "address": {"city": "CALEDONIA", "state": "NY", "street": "3136 MAIN ST", "postcode": "14423"}}},
{"geometry": {"type": "Point", "coordinates": [-77.8538532433, 42.973124643]}, "type": "Feature", "properties": {"collection_times": [{"days": "Mon-Sat", "time": "2:00pm"}, {"days": "Sun", "time": "Closed"}], "id": "1442300003", "name": "USPS COLLECTION BOX - BLUE BOX", "address": {"city": "CALEDONIA", "state": "NY", "street": "229 NORTH ST", "postcode": "14423"}}},
{"geometry": {"type": "Point", "coordinates": [-77.2904992851, 42.8990963325]}, "type": "Feature", "properties": {"collection_times": [{"days": "Mon-Sat", "time": "3:15pm"}, {"days": "Sun", "time": "Closed"}], "id": "1442400003", "name": "USPS COLLECTION BOX - BLUE BOX", "address": {"city": "CANANDAIGUA", "state": "NY", "street": "133 CAMELOT SQ", "postcode": "14424"}}},
{"geometry": {"type": "Point", "coordinates": [-77.2909490538, 42.8723424019]}, "type": "Feature", "properties": {"collection_times": [{"days": "Mon-Fri", "time": "3:45pm"}, {"days": "Sat", "time": "1:00pm"}, {"days": "Sun", "time": "Closed"}], "id": "1442400018", "name": "USPS COLLECTION BOX - EXPRESS", "address": {"city": "CANANDAIGUA", "state": "NY", "street": "493 S MAIN ST", "postcode": "14424"}}},
{"geometry": {"type": "Point", "coordinates": [-77.2800317893, 42.8860316551]}, "type": "Feature", "properties": {"collection_times": [{"days": "Mon-Fri", "time": "3:45pm"}, {"days": "Sat", "time": "1:00pm"}, {"days": "Sun", "time": "Closed"}], "id": "1442400024", "name": "USPS COLLECTION BOX - BLUE BOX", "address": {"city": "CANANDAIGUA", "state": "NY", "street": "123 S MAIN ST", "postcode": "14424"}}},
{"geometry": {"type": "Point", "coordinates": [-77.2901117826, 42.8748538759]}, "type": "Feature", "properties": {"collection_times": [{"days": "Mon-Sat", "time": "10:00am"}, {"days": "Sun", "time": "Closed"}], "id": "1442400029", "name": "USPS COLLECTION BOX - BLUE BOX", "address": {"city": "CANANDAIGUA", "state": "NY", "street": "350 PARRISH ST", "postcode": "14424"}}},
{"geometry": {"type": "Point", "coordinates": [-77.259458533, 42.810408876]}, "type": "Feature", "properties": {"collection_times": [{"days": "Mon-Sat", "time": "9:00am"}, {"days": "Sun", "time": "Closed"}], "id": "1442400031", "name": "USPS COLLECTION BOX - BLUE BOX", "address": {"city": "CANANDAIGUA", "state": "NY", "street": "4502 STATE ROUTE 364", "postcode": "14424"}}},
{"geometry": {"type": "Point", "coordinates": [-77.2897344187, 42.8846972774]}, "type": "Feature", "properties": {"collection_times": [{"days": "Mon-Sat", "time": "2:45pm"}, {"days": "Sun", "time": "Closed"}], "id": "1442400032", "name": "USPS COLLECTION BOX - BLUE BOX", "address": {"city": "CANANDAIGUA", "state": "NY", "street": "201 WEST AVE", "postcode": "14424"}}},
{"geometry": {"type": "Point", "coordinates": [-77.2861074665, 42.8910852558]}, "type": "Feature", "properties": {"collection_times": [{"days": "Mon-Sat", "time": "12:00pm"}, {"days": "Sun", "time": "Closed"}], "id": "1442400033", "name": "USPS COLLECTION BOX - BLUE BOX", "address": {"city": "CANANDAIGUA", "state": "NY", "street": "40 WILCOX LN", "postcode": "14424"}}},
{"geometry": {"type": "Point", "coordinates": [-77.278738359, 42.8839081774]}, "type": "Feature", "properties": {"collection_times": [{"days": "Mon-Fri", "time": "4:25pm"}, {"days": "Sat", "time": "1:25pm"}, {"days": "Sun", "time": "Closed"}], "id": "1442400034", "name": "USPS COLLECTION BOX - BLUE BOX", "address": {"city": "CANANDAIGUA", "state": "NY", "street": "254 S MAIN ST", "postcode": "14424"}}},
{"geometry": {"type": "Point", "coordinates": [-77.2523257073, 42.8768873823]}, "type": "Feature", "properties": {"collection_times": [{"days": "Mon-Fri", "time": "5:00pm"}, {"days": "Sat", "time": "1:45pm"}, {"days": "Sun", "time": "Closed"}], "id": "1442400036", "name": "USPS COLLECTION BOX - BLUE BOX", "address": {"city": "CANANDAIGUA", "state": "NY", "street": "405 EASTERN BLVD", "postcode": "14424"}}},
{"geometry": {"type": "Point", "coordinates": [-77.2523257073, 42.8768873823]}, "type": "Feature", "properties": {"collection_times": [{"days": "Mon-Fri", "time": "5:00pm"}, {"days": "Sat", "time": "1:45pm"}, {"days": "Sun", "time": "Closed"}], "id": "1442400037", "name": "USPS COLLECTION BOX - BLUE BOX", "address": {"city": "CANANDAIGUA", "state": "NY", "street": "405 EASTERN BLVD", "postcode": "14424"}}},
{"geometry": {"type": "Point", "coordinates": [-77.2523257073, 42.8768873823]}, "type": "Feature", "properties": {"collection_times": [{"days": "Mon-Fri", "time": "5:00pm"}, {"days": "Sat", "time": "1:45pm"}, {"days": "Sun", "time": "Closed"}], "id": "1442400038", "name": "USPS COLLECTION BOX - BLUE BOX", "address": {"city": "CANANDAIGUA", "state": "NY", "street": "405 EASTERN BLVD", "postcode": "14424"}}},
{"geometry": {"type": "Point", "coordinates": [-77.2817624582, 42.8884235981]}, "type": "Feature", "properties": {"collection_times": [{"days": "Mon-Sat", "time": "9:00am"}, {"days": "Sun", "time": "Closed"}], "id": "1442400039", "name": "USPS COLLECTION BOX - BLUE BOX", "address": {"city": "CANANDAIGUA", "state": "NY", "street": "27 N MAIN ST", "postcode": "14424"}}},
{"geometry": {"type": "Point", "coordinates": [-77.2909490538, 42.8723424019]}, "type": "Feature", "properties": {"collection_times": [{"days": "Mon-Fri", "time": "4:00pm"}, {"days": "Sat", "time": "1:10pm"}, {"days": "Sun", "time": "Closed"}], "id": "1442400043", "name": "USPS COLLECTION BOX - EXPRESS", "address": {"city": "CANANDAIGUA", "state": "NY", "street": "11 NORTH ST", "postcode": "14424"}}},
{"geometry": {"type": "Point", "coordinates": [-77.2523257073, 42.8768873823]}, "type": "Feature", "properties": {"collection_times": [{"days": "Mon-Fri", "time": "5:00pm"}, {"days": "Sat", "time": "3:00pm"}, {"days": "Sun", "time": "Closed"}], "id": "1442400050", "name": "USPS COLLECTION BOX - PO LOBBY", "address": {"city": "CANANDAIGUA", "state": "NY", "street": "405 EASTERN BLVD", "postcode": "14424"}}},
{"geometry": {"type": "Point", "coordinates": [-77.2909490538, 42.8723424019]}, "type": "Feature", "properties": {"collection_times": [{"days": "Mon-Fri", "time": "4:20pm"}, {"days": "Sat", "time": "1:20pm"}, {"days": "Sun", "time": "Closed"}], "id": "1442400051", "name": "USPS COLLECTION BOX - EXPRESS", "address": {"city": "CANANDAIGUA", "state": "NY", "street": "40 S MAIN ST", "postcode": "14424"}}},
{"geometry": {"type": "Point", "coordinates": [-77.2867060437, 42.8847434128]}, "type": "Feature", "properties": {"collection_times": [{"days": "Mon-Sat", "time": "12:30pm"}, {"days": "Sun", "time": "Closed"}], "id": "1442400054", "name": "USPS COLLECTION BOX - BLUE BOX", "address": {"city": "CANANDAIGUA", "state": "NY", "street": "137 CHAPIN ST", "postcode": "14424"}}},
{"geometry": {"type": "Point", "coordinates": [-77.2544787374, 42.8772434833]}, "type": "Feature", "properties": {"collection_times": [{"days": "Mon-Sat", "time": "9:00am"}, {"days": "Sun", "time": "Closed"}], "id": "1442400056", "name": "USPS COLLECTION BOX - BLUE BOX", "address": {"city": "CANANDAIGUA", "state": "NY", "street": "345 EASTERN BLVD", "postcode": "14424"}}},
{"geometry": {"type": "Point", "coordinates": [-77.2831500691, 42.8901341568]}, "type": "Feature", "properties": {"collection_times": [{"days": "Mon-Sat", "time": "9:00am"}, {"days": "Sun", "time": "Closed"}], "id": "1442400062", "name": "USPS COLLECTION BOX - BLUE BOX", "address": {"city": "CANANDAIGUA", "state": "NY", "street": "70 N MAIN ST", "postcode": "14424"}}},
{"geometry": {"type": "Point", "coordinates": [-77.2909490538, 42.8723424019]}, "type": "Feature", "properties": {"collection_times": [{"days": "Mon-Fri", "time": "3:50pm"}, {"days": "Sat", "time": "1:05pm"}, {"days": "Sun", "time": "Closed"}], "id": "1442400063", "name": "USPS COLLECTION BOX - BLUE BOX", "address": {"city": "CANANDAIGUA", "state": "NY", "street": "137 N MAIN ST", "postcode": "14424"}}},
{"geometry": {"type": "Point", "coordinates": [-77.2865037578, 42.8948955666]}, "type": "Feature", "properties": {"collection_times": [{"days": "Mon-Fri", "time": "4:05pm"}, {"days": "Sat", "time": "1:10pm"}, {"days": "Sun", "time": "Closed"}], "id": "1442400064", "name": "USPS COLLECTION BOX - BLUE BOX", "address": {"city": "CANANDAIGUA", "state": "NY", "street": "228 N MAIN ST", "postcode": "14424"}}},
{"geometry": {"type": "Point", "coordinates": [-77.2802813936, 42.8861534999]}, "type": "Feature", "properties": {"collection_times": [{"days": "Mon-Fri", "time": "4:20pm"}, {"days": "Sat", "time": "1:20pm"}, {"days": "Sun", "time": "Closed"}], "id": "1442400066", "name": "USPS COLLECTION BOX - BLUE BOX", "address": {"city": "CANANDAIGUA", "state": "NY", "street": "110 S MAIN ST", "postcode": "14424"}}},
{"geometry": {"type": "Point", "coordinates": [-77.2523257073, 42.8768873823]}, "type": "Feature", "properties": {"collection_times": [{"days": "Mon-Fri", "time": "5:00pm"}, {"days": "Sat", "time": "3:00pm"}, {"days": "Sun", "time": "Closed"}], "id": "1442400068", "name": "USPS COLLECTION BOX - APC", "address": {"city": "CANANDAIGUA", "state": "NY", "street": "405 EASTERN BLVD", "postcode": "14424"}}},
{"geometry": {"type": "Point", "coordinates": [-77.2858803384, 42.8764899081]}, "type": "Feature", "properties": {"collection_times": [{"days": "Mon-Fri", "time": "4:25pm"}, {"days": "Sat", "time": "1:25pm"}, {"days": "Sun", "time": "Closed"}], "id": "1442400069", "name": "USPS COLLECTION BOX - BLUE BOX", "address": {"city": "CANANDAIGUA", "state": "NY", "street": "190 PARRISH ST", "postcode": "14424"}}},
{"geometry": {"type": "Point", "coordinates": [-77.3628176236, 42.9743490055]}, "type": "Feature", "properties": {"collection_times": [{"days": "Mon-Sat", "time": "12:00pm"}, {"days": "Sun", "time": "Closed"}], "id": "1442500002", "name": "USPS COLLECTION BOX - BLUE BOX", "address": {"city": "FARMINGTON", "state": "NY", "street": "6179 ROUTE 96", "postcode": "14425"}}},
{"geometry": {"type": "Point", "coordinates": [-77.3425164509, 42.9560323361]}, "type": "Feature", "properties": {"collection_times": [{"days": "Mon-Fri", "time": "5:00pm"}, {"days": "Sat", "time": "11:45am"}, {"days": "Sun", "time": "Closed"}], "id": "1442500003", "name": "USPS COLLECTION BOX - BLUE BOX", "address": {"city": "FARMINGTON", "state": "NY", "street": "1560 ROCHESTER RD", "postcode": "14425"}}},
{"geometry": {"type": "Point", "coordinates": [-77.3425164509, 42.9560323361]}, "type": "Feature", "properties": {"collection_times": [{"days": "Mon-Fri", "time": "5:00pm"}, {"days": "Sat", "time": "12:00pm"}, {"days": "Sun", "time": "Closed"}], "id": "1442500004", "name": "USPS COLLECTION BOX - PO LOBBY", "address": {"city": "FARMINGTON", "state": "NY", "street": "1560 ROCHESTER RD", "postcode": "14425"}}},
{"geometry": {"type": "Point", "coordinates": [-78.0495040095, 42.6328654241]}, "type": "Feature", "properties": {"collection_times": [{"days": "Mon-Fri", "time": "4:15pm"}, {"days": "Sat", "time": "11:45am"}, {"days": "Sun", "time": "Closed"}], "id": "1442700002", "name": "USPS COLLECTION BOX - BLUE BOX", "address": {"city": "CASTILE", "state": "NY", "street": "30 N MAIN ST", "postcode": "14427"}}},
{"geometry": {"type": "Point", "coordinates": [-78.0495040095, 42.6328654241]}, "type": "Feature", "properties": {"collection_times": [{"days": "Mon-Fri", "time": "4:30pm"}, {"days": "Sat", "time": "12:00pm"}, {"days": "Sun", "time": "Closed"}], "id": "1442700004", "name": "USPS COLLECTION BOX - PO LOBBY", "address": {"city": "CASTILE", "state": "NY", "street": "30 N MAIN ST", "postcode": "14427"}}},
{"geometry": {"type": "Point", "coordinates": [-77.8846823369, 43.1030159033]}, "type": "Feature", "properties": {"collection_times": [{"days": "Mon-Fri", "time": "4:45pm"}, {"days": "Sat", "time": "11:45am"}, {"days": "Sun", "time": "Closed"}], "id": "1442800001", "name": "USPS COLLECTION BOX - BLUE BOX", "address": {"city": "CHURCHVILLE", "state": "NY", "street": "42 S MAIN ST", "postcode": "14428"}}},
{"geometry": {"type": "Point", "coordinates": [-77.8846823369, 43.1030159033]}, "type": "Feature", "properties": {"collection_times": [{"days": "Mon-Fri", "time": "4:45pm"}, {"days": "Sat", "time": "12:00pm"}, {"days": "Sun", "time": "Closed"}], "id": "1442800002", "name": "USPS COLLECTION BOX - PO LOBBY", "address": {"city": "CHURCHVILLE", "state": "NY", "street": "42 S MAIN ST", "postcode": "14428"}}},
{"geometry": {"type": "Point", "coordinates": [-78.0648726417, 43.1935841982]}, "type": "Feature", "properties": {"collection_times": [{"days": "Mon-Fri", "time": "4:45pm"}, {"days": "Sat", "time": "11:45am"}, {"days": "Sun", "time": "Closed"}], "id": "1442900001", "name": "USPS COLLECTION BOX - BLUE BOX", "address": {"city": "CLARENDON", "state": "NY", "street": "4540 HOLLEY BYRON RD", "postcode": "14429"}}},
{"geometry": {"type": "Point", "coordinates": [-78.0648726417, 43.1935841982]}, "type": "Feature", "properties": {"collection_times": [{"days": "Mon-Fri", "time": "5:00pm"}, {"days": "Sat", "time": "12:00pm"}, {"days": "Sun", "time": "Closed"}], "id": "1442900002", "name": "USPS COLLECTION BOX - PO LOBBY", "address": {"city": "CLARENDON", "state": "NY", "street": "4540 HOLLEY BYRON RD", "postcode": "14429"}}},
{"geometry": {"type": "Point", "coordinates": [-77.92773421, 43.2330877047]}, "type": "Feature", "properties": {"collection_times": [{"days": "Mon-Fri", "time": "4:45pm"}, {"days": "Sat", "time": "11:45am"}, {"days": "Sun", "time": "Closed"}], "id": "1443000001", "name": "USPS COLLECTION BOX - BLUE BOX", "address": {"city": "CLARKSON", "state": "NY", "street": "3720 LAKE RD", "postcode": "14430"}}},
{"geometry": {"type": "Point", "coordinates": [-77.92773421, 43.2330877047]}, "type": "Feature", "properties": {"collection_times": [{"days": "Mon-Fri", "time": "5:00pm"}, {"days": "Sat", "time": "12:00pm"}, {"days": "Sun", "time": "Closed"}], "id": "1443000002", "name": "USPS COLLECTION BOX - PO LOBBY", "address": {"city": "CLARKSON", "state": "NY", "street": "3720 LAKE RD", "postcode": "14430"}}},
{"geometry": {"type": "Point", "coordinates": [-77.1392508077, 42.9605306411]}, "type": "Feature", "properties": {"collection_times": [{"days": "Mon-Sat", "time": "9:30am"}, {"days": "Sun", "time": "Closed"}], "id": "1443200002", "name": "USPS COLLECTION BOX - BLUE BOX", "address": {"city": "CLIFTON SPRINGS", "state": "NY", "street": "2 COULTER RD", "postcode": "14432"}}},
{"geometry": {"type": "Point", "coordinates": [-77.1361816132, 42.9628837672]}, "type": "Feature", "properties": {"collection_times": [{"days": "Mon-Fri", "time": "5:00pm"}, {"days": "Sat", "time": "11:45am"}, {"days": "Sun", "time": "Closed"}], "id": "1443200009", "name": "USPS COLLECTION BOX - BLUE BOX", "address": {"city": "CLIFTON SPRINGS", "state": "NY", "street": "3 SPRING ST", "postcode": "14432"}}},
{"geometry": {"type": "Point", "coordinates": [-77.1362705899, 42.9634313683]}, "type": "Feature", "properties": {"collection_times": [{"days": "Mon-Sat", "time": "12:00pm"}, {"days": "Sun", "time": "Closed"}], "id": "1443200010", "name": "USPS COLLECTION BOX - BLUE BOX", "address": {"city": "CLIFTON SPRINGS", "state": "NY", "street": "2 RAILROAD AVE", "postcode": "14432"}}},
{"geometry": {"type": "Point", "coordinates": [-77.1361816132, 42.9628837672]}, "type": "Feature", "properties": {"collection_times": [{"days": "Mon-Fri", "time": "5:00pm"}, {"days": "Sat", "time": "12:00pm"}, {"days": "Sun", "time": "Closed"}], "id": "1443200012", "name": "USPS COLLECTION BOX - PO LOBBY", "address": {"city": "CLIFTON SPRINGS", "state": "NY", "street": "3 SPRING ST", "postcode": "14432"}}},
{"geometry": {"type": "Point", "coordinates": [-77.1376352577, 42.961422132]}, "type": "Feature", "properties": {"collection_times": [{"days": "Mon-Sat", "time": "12:00pm"}, {"days": "Sun", "time": "Closed"}], "id": "1443200013", "name": "USPS COLLECTION BOX - BLUE BOX", "address": {"city": "CLIFTON SPRINGS", "state": "NY", "street": "3 E MAIN ST", "postcode": "14432"}}},
{"geometry": {"type": "Point", "coordinates": [-76.8701725492, 43.0836815116]}, "type": "Feature", "properties": {"collection_times": [{"days": "Mon-Fri", "time": "4:30pm"}, {"days": "Sat", "time": "11:45am"}, {"days": "Sun", "time": "Closed"}], "id": "1443300001", "name": "USPS COLLECTION BOX - BLUE BOX", "address": {"city": "CLYDE", "state": "NY", "street": "20 S PARK ST", "postcode": "14433"}}},
{"geometry": {"type": "Point", "coordinates": [-76.8701725492, 43.0836815116]}, "type": "Feature", "properties": {"collection_times": [{"days": "Mon-Fri", "time": "4:30pm"}, {"days": "Sat", "time": "11:45am"}, {"days": "Sun", "time": "Closed"}], "id": "1443300010", "name": "USPS COLLECTION BOX - BLUE BOX", "address": {"city": "CLYDE", "state": "NY", "street": "20 S PARK ST", "postcode": "14433"}}},
{"geometry": {"type": "Point", "coordinates": [-76.8701725492, 43.0836815116]}, "type": "Feature", "properties": {"collection_times": [{"days": "Mon-Fri", "time": "4:30pm"}, {"days": "Sat", "time": "12:00pm"}, {"days": "Sun", "time": "Closed"}], "id": "1443300011", "name": "USPS COLLECTION BOX - PO LOBBY", "address": {"city": "CLYDE", "state": "NY", "street": "20 S PARK ST", "postcode": "14433"}}},
{"geometry": {"type": "Point", "coordinates": [-77.6754760439, 42.721946966]}, "type": "Feature", "properties": {"collection_times": [{"days": "Mon-Fri", "time": "4:30pm"}, {"days": "Sat", "time": "12:00pm"}, {"days": "Sun", "time": "Closed"}], "id": "1443500001", "name": "USPS COLLECTION BOX - BLUE BOX", "address": {"city": "CONESUS", "state": "NY", "street": "6154 S LIVONIA RD", "postcode": "14435"}}},
{"geometry": {"type": "Point", "coordinates": [-77.6754760439, 42.721946966]}, "type": "Feature", "properties": {"collection_times": [{"days": "Mon-Fri", "time": "4:30pm"}, {"days": "Sat", "time": "12:00pm"}, {"days": "Sun", "time": "Closed"}], "id": "1443500002", "name": "USPS COLLECTION BOX - PO LOBBY", "address": {"city": "CONESUS", "state": "NY", "street": "6154 S LIVONIA RD", "postcode": "14435"}}},
{"geometry": {"type": "Point", "coordinates": [-77.6923201966, 42.5586690548]}, "type": "Feature", "properties": {"collection_times": [{"days": "Mon-Sat", "time": "12:00pm"}, {"days": "Sun", "time": "Closed"}], "id": "1443700004", "name": "USPS COLLECTION BOX - BLUE BOX", "address": {"city": "DANSVILLE", "state": "NY", "street": "8 LIBERTY ST", "postcode": "14437"}}},
{"geometry": {"type": "Point", "coordinates": [-77.6960768104, 42.5610380755]}, "type": "Feature", "properties": {"collection_times": [{"days": "Mon-Sat", "time": "3:00pm"}, {"days": "Sun", "time": "Closed"}], "id": "1443700005", "name": "USPS COLLECTION BOX - BLUE BOX", "address": {"city": "DANSVILLE", "state": "NY", "street": "189 MAIN ST", "postcode": "14437"}}},
{"geometry": {"type": "Point", "coordinates": [-77.6969952505, 42.5620274753]}, "type": "Feature", "properties": {"collection_times": [{"days": "Mon-Sat", "time": "3:00pm"}, {"days": "Sun", "time": "Closed"}], "id": "1443700009", "name": "USPS COLLECTION BOX - BLUE BOX", "address": {"city": "DANSVILLE", "state": "NY", "street": "200 MAIN ST", "postcode": "14437"}}},
{"geometry": {"type": "Point", "coordinates": [-77.6943868312, 42.5595068691]}, "type": "Feature", "properties": {"collection_times": [{"days": "Mon-Fri", "time": "5:00pm"}, {"days": "Sat", "time": "3:45pm"}, {"days": "Sun", "time": "Closed"}], "id": "1443700015", "name": "USPS COLLECTION BOX - BLUE BOX", "address": {"city": "DANSVILLE", "state": "NY", "street": "116 MAIN ST", "postcode": "14437"}}},
{"geometry": {"type": "Point", "coordinates": [-77.6943868312, 42.5595068691]}, "type": "Feature", "properties": {"collection_times": [{"days": "Mon-Fri", "time": "5:00pm"}, {"days": "Sat", "time": "3:45pm"}, {"days": "Sun", "time": "Closed"}], "id": "1443700016", "name": "USPS COLLECTION BOX - BLUE BOX", "address": {"city": "DANSVILLE", "state": "NY", "street": "116 MAIN ST", "postcode": "14437"}}},
{"geometry": {"type": "Point", "coordinates": [-77.7320864306, 42.570935112]}, "type": "Feature", "properties": {"collection_times": [{"days": "Mon-Fri", "time": "11:00am"}, {"days": "Sat-Sun", "time": "Closed"}], "id": "1443700018", "name": "USPS COLLECTION BOX - BLUE BOX", "address": {"city": "DANSVILLE", "state": "NY", "street": "5840 ROUTE 36", "postcode": "14437"}}},
{"geometry": {"type": "Point", "coordinates": [-77.6943868312, 42.5595068691]}, "type": "Feature", "properties": {"collection_times": [{"days": "Mon-Fri", "time": "5:00pm"}, {"days": "Sat", "time": "3:45pm"}, {"days": "Sun", "time": "Closed"}], "id": "1443700020", "name": "USPS COLLECTION BOX - PO LOBBY", "address": {"city": "DANSVILLE", "state": "NY", "street": "116 MAIN ST", "postcode": "14437"}}},
{"geometry": {"type": "Point", "coordinates": [-77.7021068161, 42.5621658815]}, "type": "Feature", "properties": {"collection_times": [{"days": "Mon-Fri", "time": "11:15am"}, {"days": "Sat-Sun", "time": "Closed"}], "id": "1443700023", "name": "USPS COLLECTION BOX - BLUE BOX", "address": {"city": "DANSVILLE", "state": "NY", "street": "35 FRANKLIN PLZ", "postcode": "14437"}}},
{"geometry": {"type": "Point", "coordinates": [-76.9560216947, 42.6839077375]}, "type": "Feature", "properties": {"collection_times": [{"days": "Mon-Fri", "time": "4:45pm"}, {"days": "Sat", "time": "11:45am"}, {"days": "Sun", "time": "Closed"}], "id": "1444100001", "name": "USPS COLLECTION BOX - BLUE BOX", "address": {"city": "DRESDEN", "state": "NY", "street": "60 MAIN ST", "postcode": "14441"}}},
{"geometry": {"type": "Point", "coordinates": [-76.9560216947, 42.6839077375]}, "type": "Feature", "properties": {"collection_times": [{"days": "Mon-Fri", "time": "5:00pm"}, {"days": "Sat", "time": "12:00pm"}, {"days": "Sun", "time": "Closed"}], "id": "1444100002", "name": "USPS COLLECTION BOX - PO LOBBY", "address": {"city": "DRESDEN", "state": "NY", "street": "60 MAIN ST", "postcode": "14441"}}},
{"geometry": {"type": "Point", "coordinates": [-77.4859284677, 43.1131120015]}, "type": "Feature", "properties": {"collection_times": [{"days": "Mon-Sat", "time": "10:00am"}, {"days": "Sun", "time": "Closed"}], "id": "1444500001", "name": "USPS COLLECTION BOX - BLUE BOX", "address": {"city": "EAST ROCHESTER", "state": "NY", "street": "120 W COMMERCIAL ST", "postcode": "14445"}}},
{"geometry": {"type": "Point", "coordinates": [-77.4826951362, 43.1123115948]}, "type": "Feature", "properties": {"collection_times": [{"days": "Mon-Sat", "time": "10:00am"}, {"days": "Sun", "time": "Closed"}], "id": "1444500002", "name": "USPS COLLECTION BOX - BLUE BOX", "address": {"city": "EAST ROCHESTER", "state": "NY", "street": "161 E COMMERCIAL ST", "postcode": "14445"}}},
{"geometry": {"type": "Point", "coordinates": [-77.4846997378, 43.1036012094]}, "type": "Feature", "properties": {"collection_times": [{"days": "Mon-Sat", "time": "10:00am"}, {"days": "Sun", "time": "Closed"}], "id": "1444500003", "name": "USPS COLLECTION BOX - BLUE BOX", "address": {"city": "EAST ROCHESTER", "state": "NY", "street": "805 FAIRPORT RD", "postcode": "14445"}}},
{"geometry": {"type": "Point", "coordinates": [-77.4846997378, 43.1036012094]}, "type": "Feature", "properties": {"collection_times": [{"days": "Mon-Sat", "time": "10:00am"}, {"days": "Sun", "time": "Closed"}], "id": "1444500009", "name": "USPS COLLECTION BOX - BLUE BOX", "address": {"city": "EAST ROCHESTER", "state": "NY", "street": "805 FAIRPORT RD", "postcode": "14445"}}},
{"geometry": {"type": "Point", "coordinates": [-77.4769412238, 43.1113900698]}, "type": "Feature", "properties": {"collection_times": [{"days": "Mon-Sat", "time": "10:00am"}, {"days": "Sun", "time": "Closed"}], "id": "1444500016", "name": "USPS COLLECTION BOX - BLUE BOX", "address": {"city": "EAST ROCHESTER", "state": "NY", "street": "333 W COMMERCIAL ST", "postcode": "14445"}}},
{"geometry": {"type": "Point", "coordinates": [-77.4882751536, 43.1138104038]}, "type": "Feature", "properties": {"collection_times": [{"days": "Mon-Fri", "time": "5:00pm"}, {"days": "Sat", "time": "12:00pm"}, {"days": "Sun", "time": "Closed"}], "id": "1444500020", "name": "USPS COLLECTION BOX - PO LOBBY", "address": {"city": "EAST ROCHESTER", "state": "NY", "street": "206 W COMMERCIAL ST", "postcode": "14445"}}},
{"geometry": {"type": "Point", "coordinates": [-77.4882751536, 43.1138104038]}, "type": "Feature", "properties": {"collection_times": [{"days": "Mon-Fri", "time": "5:00pm"}, {"days": "Sat", "time": "12:00pm"}, {"days": "Sun", "time": "Closed"}], "id": "1444500021", "name": "USPS COLLECTION BOX - BLUE BOX", "address": {"city": "EAST ROCHESTER", "state": "NY", "street": "206 W COMMERCIAL ST", "postcode": "14445"}}},
{"geometry": {"type": "Point", "coordinates": [-77.4927727636, 43.1150572426]}, "type": "Feature", "properties": {"collection_times": [{"days": "Mon-Sat", "time": "10:00am"}, {"days": "Sun", "time": "Closed"}], "id": "1444500022", "name": "USPS COLLECTION BOX - BLUE BOX", "address": {"city": "EAST ROCHESTER", "state": "NY", "street": "349 W COMMERCIAL ST", "postcode": "14445"}}},
{"geometry": {"type": "Point", "coordinates": [-77.1452340228, 43.2358880719]}, "type": "Feature", "properties": {"collection_times": [{"days": "Mon-Fri", "time": "4:50pm"}, {"days": "Sat", "time": "12:00pm"}, {"days": "Sun", "time": "Closed"}], "id": "1444900001", "name": "USPS COLLECTION BOX - BLUE BOX", "address": {"city": "E WILLIAMSON", "state": "NY", "street": "4995 RIDGE RD", "postcode": "14449"}}},
{"geometry": {"type": "Point", "coordinates": [-77.1452340228, 43.2358880719]}, "type": "Feature", "properties": {"collection_times": [{"days": "Mon-Fri", "time": "4:50pm"}, {"days": "Sat", "time": "12:00pm"}, {"days": "Sun", "time": "Closed"}], "id": "1444900002", "name": "USPS COLLECTION BOX - PO LOBBY", "address": {"city": "E WILLIAMSON", "state": "NY", "street": "4995 RIDGE RD", "postcode": "14449"}}},
{"geometry": {"type": "Point", "coordinates": [-77.4344209522, 43.0690446009]}, "type": "Feature", "properties": {"collection_times": [{"days": "Mon-Fri", "time": "2:30pm"}, {"days": "Sat", "time": "12:00pm"}, {"days": "Sun", "time": "Closed"}], "id": "1445000005", "name": "USPS COLLECTION BOX - BLUE BOX", "address": {"city": "FAIRPORT", "state": "NY", "street": "200 CROSS KEYS OFFICE PARK", "postcode": "14450"}}},
{"geometry": {"type": "Point", "coordinates": [-77.4443648998, 43.0745077752]}, "type": "Feature", "properties": {"collection_times": [{"days": "Mon-Sat", "time": "12:00pm"}, {"days": "Sun", "time": "Closed"}], "id": "1445000007", "name": "USPS COLLECTION BOX - BLUE BOX", "address": {"city": "FAIRPORT", "state": "NY", "street": "25 DUNBRIDGE HTS", "postcode": "14450"}}},
{"geometry": {"type": "Point", "coordinates": [-77.447772969, 43.0931777296]}, "type": "Feature", "properties": {"collection_times": [{"days": "Mon-Sat", "time": "12:00pm"}, {"days": "Sun", "time": "Closed"}], "id": "1445000014", "name": "USPS COLLECTION BOX - BLUE BOX", "address": {"city": "FAIRPORT", "state": "NY", "street": "80 POTTER PL", "postcode": "14450"}}},
{"geometry": {"type": "Point", "coordinates": [-77.4420136028, 43.0999998376]}, "type": "Feature", "properties": {"collection_times": [{"days": "Mon-Fri", "time": "2:30pm"}, {"days": "Sat", "time": "12:00pm"}, {"days": "Sun", "time": "Closed"}], "id": "1445000017", "name": "USPS COLLECTION BOX - BLUE BOX", "address": {"city": "FAIRPORT", "state": "NY", "street": "58 S MAIN ST", "postcode": "14450"}}},
{"geometry": {"type": "Point", "coordinates": [-77.439966315, 43.100377722]}, "type": "Feature", "properties": {"collection_times": [{"days": "Mon-Fri", "time": "2:30pm"}, {"days": "Sat", "time": "12:00pm"}, {"days": "Sun", "time": "Closed"}], "id": "1445000018", "name": "USPS COLLECTION BOX - BLUE BOX", "address": {"city": "FAIRPORT", "state": "NY", "street": "500 PACKETTS LNDG", "postcode": "14450"}}},
{"geometry": {"type": "Point", "coordinates": [-77.4423810776, 43.0681375412]}, "type": "Feature", "properties": {"collection_times": [{"days": "Mon-Fri", "time": "2:30pm"}, {"days": "Sat", "time": "12:00pm"}, {"days": "Sun", "time": "Closed"}], "id": "1445000021", "name": "USPS COLLECTION BOX - BLUE BOX", "address": {"city": "FAIRPORT", "state": "NY", "street": "100 PERINTON HILLS OFFICE PARK", "postcode": "14450"}}},
{"geometry": {"type": "Point", "coordinates": [-77.439977305, 43.0690590662]}, "type": "Feature", "properties": {"collection_times": [{"days": "Mon-Fri", "time": "2:30pm"}, {"days": "Sat", "time": "12:00pm"}, {"days": "Sun", "time": "Closed"}], "id": "1445000022", "name": "USPS COLLECTION BOX - BLUE BOX", "address": {"city": "FAIRPORT", "state": "NY", "street": "6720 PITTSFORD PALMYRA RD", "postcode": "14450"}}},
{"geometry": {"type": "Point", "coordinates": [-77.4162459223, 43.0916172994]}, "type": "Feature", "properties": {"collection_times": [{"days": "Mon-Fri", "time": "2:30pm"}, {"days": "Sat", "time": "12:00pm"}, {"days": "Sun", "time": "Closed"}], "id": "1445000026", "name": "USPS COLLECTION BOX - BLUE BOX", "address": {"city": "FAIRPORT", "state": "NY", "street": "114 VILLAGE LNDG", "postcode": "14450"}}},
{"geometry": {"type": "Point", "coordinates": [-77.4475617217, 43.0703292547]}, "type": "Feature", "properties": {"collection_times": [{"days": "Mon-Fri", "time": "2:30pm"}, {"days": "Sat", "time": "12:00pm"}, {"days": "Sun", "time": "Closed"}], "id": "1445000027", "name": "USPS COLLECTION BOX - BLUE BOX", "address": {"city": "FAIRPORT", "state": "NY", "street": "6600 PITTSFORD PALMYRA RD", "postcode": "14450"}}},
{"geometry": {"type": "Point", "coordinates": [-77.4437024428, 43.1014910692]}, "type": "Feature", "properties": {"collection_times": [{"days": "Mon-Fri", "time": "2:30pm"}, {"days": "Sat", "time": "12:00pm"}, {"days": "Sun", "time": "Closed"}], "id": "1445000028", "name": "USPS COLLECTION BOX - BLUE BOX", "address": {"city": "FAIRPORT", "state": "NY", "street": "56 WEST AVE", "postcode": "14450"}}},
{"geometry": {"type": "Point", "coordinates": [-77.4162459223, 43.0916172994]}, "type": "Feature", "properties": {"collection_times": [{"days": "Mon-Sat", "time": "12:00pm"}, {"days": "Sun", "time": "Closed"}], "id": "1445000029", "name": "USPS COLLECTION BOX - BLUE BOX", "address": {"city": "FAIRPORT", "state": "NY", "street": "ALPINE KNOLL", "postcode": "14450"}}},
{"geometry": {"type": "Point", "coordinates": [-77.4162459223, 43.0916172994]}, "type": "Feature", "properties": {"collection_times": [{"days": "Mon-Fri", "time": "3:00pm"}, {"days": "Sat", "time": "12:00pm"}, {"days": "Sun", "time": "Closed"}], "id": "1445000030", "name": "USPS COLLECTION BOX - BLUE BOX", "address": {"city": "FAIRPORT", "state": "NY", "street": "100 WILLOWBROOK OFFICE PARK", "postcode": "14450"}}},
{"geometry": {"type": "Point", "coordinates": [-77.4582469233, 43.0424152814]}, "type": "Feature", "properties": {"collection_times": [{"days": "Mon-Fri", "time": "3:00pm"}, {"days": "Sat", "time": "12:00pm"}, {"days": "Sun", "time": "Closed"}], "id": "1445000031", "name": "USPS COLLECTION BOX - BLUE BOX", "address": {"city": "FAIRPORT", "state": "NY", "street": "345 WOODCLIFF DR", "postcode": "14450"}}},
{"geometry": {"type": "Point", "coordinates": [-77.4430068629, 43.079068082]}, "type": "Feature", "properties": {"collection_times": [{"days": "Mon-Fri", "time": "5:00pm"}, {"days": "Sat", "time": "12:00pm"}, {"days": "Sun", "time": "Closed"}], "id": "1445000040", "name": "USPS COLLECTION BOX - BLUE BOX", "address": {"city": "FAIRPORT", "state": "NY", "street": "770 AYRAULT RD", "postcode": "14450"}}},
{"geometry": {"type": "Point", "coordinates": [-77.4377580996, 43.0887801609]}, "type": "Feature", "properties": {"collection_times": [{"days": "Mon-Fri", "time": "5:00pm"}, {"days": "Sat", "time": "12:00pm"}, {"days": "Sun", "time": "Closed"}], "id": "1445000041", "name": "USPS COLLECTION BOX - BLUE BOX", "address": {"city": "FAIRPORT", "state": "NY", "street": "6740 PITTSFORD PALMYRA RD", "postcode": "14450"}}},
{"geometry": {"type": "Point", "coordinates": [-77.4377580996, 43.0887801609]}, "type": "Feature", "properties": {"collection_times": [{"days": "Mon-Fri", "time": "5:00pm"}, {"days": "Sat", "time": "2:00pm"}, {"days": "Sun", "time": "Closed"}], "id": "1445000043", "name": "USPS COLLECTION BOX - PO LOBBY", "address": {"city": "FAIRPORT", "state": "NY", "street": "6740 PITTSFORD PALMYRA RD", "postcode": "14450"}}},
{"geometry": {"type": "Point", "coordinates": [-77.4321508485, 43.095155141]}, "type": "Feature", "properties": {"collection_times": [{"days": "Mon-Fri", "time": "2:30pm"}, {"days": "Sat-Sun", "time": "Closed"}], "id": "1445000046", "name": "USPS COLLECTION BOX - BLUE BOX", "address": {"city": "FAIRPORT", "state": "NY", "street": "1000 TURK HILL RD", "postcode": "14450"}}},
{"geometry": {"type": "Point", "coordinates": [-77.4321189086, 43.0819355745]}, "type": "Feature", "properties": {"collection_times": [{"days": "Mon-Fri", "time": "2:30pm"}, {"days": "Sat-Sun", "time": "Closed"}], "id": "1445000047", "name": "USPS COLLECTION BOX - BLUE BOX", "address": {"city": "FAIRPORT", "state": "NY", "street": "1350 TURK HILL RD", "postcode": "14450"}}},
{"geometry": {"type": "Point", "coordinates": [-77.4377580996, 43.0887801609]}, "type": "Feature", "properties": {"collection_times": [{"days": "Mon-Fri", "time": "5:00pm"}, {"days": "Sat", "time": "2:00pm"}, {"days": "Sun", "time": "Closed"}], "id": "1445000048", "name": "USPS COLLECTION BOX - APC", "address": {"city": "FAIRPORT", "state": "NY", "street": "6740 PITTSFORD PALMYRA RD", "postcode": "14450"}}},
{"geometry": {"type": "Point", "coordinates": [-77.4377580996, 43.0887801609]}, "type": "Feature", "properties": {"collection_times": [{"days": "Mon-Fri", "time": "5:00pm"}, {"days": "Sat", "time": "12:00pm"}, {"days": "Sun", "time": "Closed"}], "id": "1445000051", "name": "USPS COLLECTION BOX - BLUE BOX", "address": {"city": "FAIRPORT", "state": "NY", "street": "6740 PITTSFORD PALMYRA RD", "postcode": "14450"}}},
{"geometry": {"type": "Point", "coordinates": [-78.0914981529, 43.2444625095]}, "type": "Feature", "properties": {"collection_times": [{"days": "Mon-Fri", "time": "12:00pm"}, {"days": "Sat", "time": "11:45am"}, {"days": "Sun", "time": "Closed"}], "id": "1445200001", "name": "USPS COLLECTION BOX - BLUE BOX", "address": {"city": "FANCHER", "state": "NY", "street": "15865 MILLION DOLLAR HWY", "postcode": "14452"}}},
{"geometry": {"type": "Point", "coordinates": [-78.0914981529, 43.2444625095]}, "type": "Feature", "properties": {"collection_times": [{"days": "Mon-Fri", "time": "11:45am"}, {"days": "Sat", "time": "12:00pm"}, {"days": "Sun", "time": "Closed"}], "id": "1445200002", "name": "USPS COLLECTION BOX - PO LOBBY", "address": {"city": "FANCHER", "state": "NY", "street": "15865 MILLION DOLLAR HWY", "postcode": "14452"}}},
{"geometry": {"type": "Point", "coordinates": [-77.4689527839, 43.0093439017]}, "type": "Feature", "properties": {"collection_times": [{"days": "Mon-Fri", "time": "4:45pm"}, {"days": "Sat", "time": "11:45am"}, {"days": "Sun", "time": "Closed"}], "id": "1445300001", "name": "USPS COLLECTION BOX - BLUE BOX", "address": {"city": "FISHERS", "state": "NY", "street": "7839 MAIN ST", "postcode": "14453"}}},
{"geometry": {"type": "Point", "coordinates": [-77.4689527839, 43.0093439017]}, "type": "Feature", "properties": {"collection_times": [{"days": "Mon-Fri", "time": "5:00pm"}, {"days": "Sat", "time": "12:00pm"}, {"days": "Sun", "time": "Closed"}], "id": "1445300002", "name": "USPS COLLECTION BOX - PO LOBBY", "address": {"city": "FISHERS", "state": "NY", "street": "7839 MAIN ST", "postcode": "14453"}}},
{"geometry": {"type": "Point", "coordinates": [-77.8152307036, 42.7931495504]}, "type": "Feature", "properties": {"collection_times": [{"days": "Mon-Fri", "time": "5:00pm"}, {"days": "Sat", "time": "3:00pm"}, {"days": "Sun", "time": "Closed"}], "id": "1445400001", "name": "USPS COLLECTION BOX - BLUE BOX", "address": {"city": "GENESEO", "state": "NY", "street": "13 SOUTH ST", "postcode": "14454"}}},
{"geometry": {"type": "Point", "coordinates": [-77.8169815953, 42.7953921563]}, "type": "Feature", "properties": {"collection_times": [{"days": "Mon-Sat", "time": "1:00pm"}, {"days": "Sun", "time": "Closed"}], "id": "1445400005", "name": "USPS COLLECTION BOX - BLUE BOX", "address": {"city": "GENESEO", "state": "NY", "street": "119 MAIN ST", "postcode": "14454"}}},
{"geometry": {"type": "Point", "coordinates": [-77.8152307036, 42.7931495504]}, "type": "Feature", "properties": {"collection_times": [{"days": "Mon-Fri", "time": "5:00pm"}, {"days": "Sat", "time": "3:00pm"}, {"days": "Sun", "time": "Closed"}], "id": "1445400014", "name": "USPS COLLECTION BOX - PO LOBBY", "address": {"city": "GENESEO", "state": "NY", "street": "13 SOUTH ST", "postcode": "14454"}}},
{"geometry": {"type": "Point", "coordinates": [-77.8280242545, 42.8105873098]}, "type": "Feature", "properties": {"collection_times": [{"days": "Mon-Sat", "time": "10:00am"}, {"days": "Sun", "time": "Closed"}], "id": "1445400016", "name": "USPS COLLECTION BOX - BLUE BOX", "address": {"city": "GENESEO", "state": "NY", "street": "4281 GENESEE VALLEY PLZ", "postcode": "14454"}}},
{"geometry": {"type": "Point", "coordinates": [-77.8167130636, 42.7965490901]}, "type": "Feature", "properties": {"collection_times": [{"days": "Mon-Sat", "time": "1:00pm"}, {"days": "Sun", "time": "Closed"}], "id": "1445400017", "name": "USPS COLLECTION BOX - BLUE BOX", "address": {"city": "GENESEO", "state": "NY", "street": "66 MAIN ST", "postcode": "14454"}}},
{"geometry": {"type": "Point", "coordinates": [-77.8152307036, 42.7931495504]}, "type": "Feature", "properties": {"collection_times": [{"days": "Mon-Fri", "time": "5:00pm"}, {"days": "Sat", "time": "3:00pm"}, {"days": "Sun", "time": "Closed"}], "id": "1445400018", "name": "USPS COLLECTION BOX - BLUE BOX", "address": {"city": "GENESEO", "state": "NY", "street": "13 SOUTH ST", "postcode": "14454"}}},
{"geometry": {"type": "Point", "coordinates": [-77.8194521616, 42.7957130013]}, "type": "Feature", "properties": {"collection_times": [{"days": "Mon-Sat", "time": "9:00am"}, {"days": "Sun", "time": "Closed"}], "id": "1445400021", "name": "USPS COLLECTION BOX - BLUE BOX", "address": {"city": "GENESEO", "state": "NY", "street": "1 COLLEGE CIR", "postcode": "14454"}}},
{"geometry": {"type": "Point", "coordinates": [-76.9833421885, 42.8679235344]}, "type": "Feature", "properties": {"collection_times": [{"days": "Mon-Fri", "time": "5:00pm"}, {"days": "Sat", "time": "4:00pm"}, {"days": "Sun", "time": "Closed"}], "id": "1445600001", "name": "USPS COLLECTION BOX - BLUE BOX", "address": {"city": "GENEVA", "state": "NY", "street": "1 LINDEN ST", "postcode": "14456"}}},
{"geometry": {"type": "Point", "coordinates": [-76.9462198732, 42.878019819]}, "type": "Feature", "properties": {"collection_times": [{"days": "Mon-Fri", "time": "10:00am"}, {"days": "Sat", "time": "12:00pm"}, {"days": "Sun", "time": "Closed"}], "id": "1445600003", "name": "USPS COLLECTION BOX - BLUE BOX", "address": {"city": "GENEVA", "state": "NY", "street": "3030 SESSLER DR", "postcode": "14456"}}},
{"geometry": {"type": "Point", "coordinates": [-76.9958152513, 42.8585846412]}, "type": "Feature", "properties": {"collection_times": [{"days": "Mon-Sat", "time": "12:00pm"}, {"days": "Sun", "time": "Closed"}], "id": "1445600012", "name": "USPS COLLECTION BOX - BLUE BOX", "address": {"city": "GENEVA", "state": "NY", "street": "300 HAMILTON ST", "postcode": "14456"}}},
{"geometry": {"type": "Point", "coordinates": [-76.9832072746, 42.8566434056]}, "type": "Feature", "properties": {"collection_times": [{"days": "Mon-Fri", "time": "3:00pm"}, {"days": "Sat", "time": "12:00pm"}, {"days": "Sun", "time": "Closed"}], "id": "1445600016", "name": "USPS COLLECTION BOX - BLUE BOX", "address": {"city": "GENEVA", "state": "NY", "street": "51 SAINT CLAIR ST", "postcode": "14456"}}},
{"geometry": {"type": "Point", "coordinates": [-76.987620581, 42.875727123]}, "type": "Feature", "properties": {"collection_times": [{"days": "Mon-Fri", "time": "3:30pm"}, {"days": "Sat", "time": "12:00pm"}, {"days": "Sun", "time": "Closed"}], "id": "1445600024", "name": "USPS COLLECTION BOX - BLUE BOX", "address": {"city": "GENEVA", "state": "NY", "street": "196 NORTH ST", "postcode": "14456"}}},
{"geometry": {"type": "Point", "coordinates": [-76.9825519154, 42.8666784465]}, "type": "Feature", "properties": {"collection_times": [{"days": "Mon-Fri", "time": "3:30pm"}, {"days": "Sat", "time": "12:00pm"}, {"days": "Sun", "time": "Closed"}], "id": "1445600030", "name": "USPS COLLECTION BOX - BLUE BOX", "address": {"city": "GENEVA", "state": "NY", "street": "17 SENECA ST", "postcode": "14456"}}},
{"geometry": {"type": "Point", "coordinates": [-77.0111668692, 42.8694165123]}, "type": "Feature", "properties": {"collection_times": [{"days": "Mon-Fri", "time": "3:30pm"}, {"days": "Sat", "time": "12:00pm"}, {"days": "Sun", "time": "Closed"}], "id": "1445600035", "name": "USPS COLLECTION BOX - BLUE BOX", "address": {"city": "GENEVA", "state": "NY", "street": "789 PRE EMPTION RD", "postcode": "14456"}}},
{"geometry": {"type": "Point", "coordinates": [-77.0078768464, 42.85966899]}, "type": "Feature", "properties": {"collection_times": [{"days": "Mon-Fri", "time": "3:30pm"}, {"days": "Sat", "time": "12:00pm"}, {"days": "Sun", "time": "Closed"}], "id": "1445600041", "name": "USPS COLLECTION BOX - BLUE BOX", "address": {"city": "GENEVA", "state": "NY", "street": "603 W WASHINGTON ST", "postcode": "14456"}}},
{"geometry": {"type": "Point", "coordinates": [-76.9889885515, 42.8631918204]}, "type": "Feature", "properties": {"collection_times": [{"days": "Mon-Sat", "time": "11:30am"}, {"days": "Sun", "time": "Closed"}], "id": "1445600048", "name": "USPS COLLECTION BOX - BLUE BOX", "address": {"city": "GENEVA", "state": "NY", "street": "361 HAMILTON ST", "postcode": "14456"}}},
{"geometry": {"type": "Point", "coordinates": [-76.9889885515, 42.8631918204]}, "type": "Feature", "properties": {"collection_times": [{"days": "Mon-Fri", "time": "11:30am"}, {"days": "Sat", "time": "12:00pm"}, {"days": "Sun", "time": "Closed"}], "id": "1445600050", "name": "USPS COLLECTION BOX - BLUE BOX", "address": {"city": "GENEVA", "state": "NY", "street": "361 HAMILTON ST", "postcode": "14456"}}},
{"geometry": {"type": "Point", "coordinates": [-76.9980676052, 42.8635305926]}, "type": "Feature", "properties": {"collection_times": [{"days": "Mon-Fri", "time": "10:00am"}, {"days": "Sat", "time": "12:00pm"}, {"days": "Sun", "time": "Closed"}], "id": "1445600054", "name": "USPS COLLECTION BOX - BLUE BOX", "address": {"city": "GENEVA", "state": "NY", "street": "314 WILLIAM ST", "postcode": "14456"}}},
{"geometry": {"type": "Point", "coordinates": [-76.9833421885, 42.8679235344]}, "type": "Feature", "properties": {"collection_times": [{"days": "Mon-Fri", "time": "5:00pm"}, {"days": "Sat", "time": "4:00pm"}, {"days": "Sun", "time": "Closed"}], "id": "1445600066", "name": "USPS COLLECTION BOX - BLUE BOX", "address": {"city": "GENEVA", "state": "NY", "street": "1 LINDEN ST", "postcode": "14456"}}},
{"geometry": {"type": "Point", "coordinates": [-76.983080698, 42.8679560421]}, "type": "Feature", "properties": {"collection_times": [{"days": "Mon-Fri", "time": "5:00pm"}, {"days": "Sat", "time": "4:00pm"}, {"days": "Sun", "time": "Closed"}], "id": "1445600067", "name": "USPS COLLECTION BOX - BLUE BOX", "address": {"city": "GENEVA", "state": "NY", "street": "67 CASTLE ST", "postcode": "14456"}}},
{"geometry": {"type": "Point", "coordinates": [-76.983080698, 42.8679560421]}, "type": "Feature", "properties": {"collection_times": [{"days": "Mon-Fri", "time": "5:00pm"}, {"days": "Sat", "time": "4:00pm"}, {"days": "Sun", "time": "Closed"}], "id": "1445600068", "name": "USPS COLLECTION BOX - BLUE BOX", "address": {"city": "GENEVA", "state": "NY", "street": "67 CASTLE ST", "postcode": "14456"}}},
{"geometry": {"type": "Point", "coordinates": [-76.9889885515, 42.8631918204]}, "type": "Feature", "properties": {"collection_times": [{"days": "Mon-Fri", "time": "5:00pm"}, {"days": "Sat", "time": "4:00pm"}, {"days": "Sun", "time": "Closed"}], "id": "1445600069", "name": "USPS COLLECTION BOX - EXPRESS", "address": {"city": "GENEVA", "state": "NY", "street": "67 CASTLE ST", "postcode": "14456"}}},
{"geometry": {"type": "Point", "coordinates": [-76.983080698, 42.8679560421]}, "type": "Feature", "properties": {"collection_times": [{"days": "Mon-Fri", "time": "5:00pm"}, {"days": "Sat", "time": "4:00pm"}, {"days": "Sun", "time": "Closed"}], "id": "1445600070", "name": "USPS COLLECTION BOX - PO LOBBY", "address": {"city": "GENEVA", "state": "NY", "street": "67 CASTLE ST", "postcode": "14456"}}},
{"geometry": {"type": "Point", "coordinates": [-77.1313685818, 42.7990250963]}, "type": "Feature", "properties": {"collection_times": [{"days": "Mon-Fri", "time": "4:45pm"}, {"days": "Sat", "time": "11:45am"}, {"days": "Sun", "time": "Closed"}], "id": "1446100001", "name": "USPS COLLECTION BOX - BLUE BOX", "address": {"city": "GORHAM", "state": "NY", "street": "2621 MAIN ST", "postcode": "14461"}}},
{"geometry": {"type": "Point", "coordinates": [-77.1313685818, 42.7990250963]}, "type": "Feature", "properties": {"collection_times": [{"days": "Mon-Fri", "time": "5:00pm"}, {"days": "Sat", "time": "12:00pm"}, {"days": "Sun", "time": "Closed"}], "id": "1446100002", "name": "USPS COLLECTION BOX - PO LOBBY", "address": {"city": "GORHAM", "state": "NY", "street": "2621 MAIN ST", "postcode": "14461"}}},
{"geometry": {"type": "Point", "coordinates": [-77.7692769643, 42.6641785515]}, "type": "Feature", "properties": {"collection_times": [{"days": "Mon-Fri", "time": "12:30pm"}, {"days": "Sat", "time": "12:00pm"}, {"days": "Sun", "time": "Closed"}], "id": "1446200001", "name": "USPS COLLECTION BOX - PO LOBBY", "address": {"city": "GROVELAND", "state": "NY", "street": "7426 ROUTE 63", "postcode": "14462"}}},
{"geometry": {"type": "Point", "coordinates": [-77.7692769643, 42.6641785515]}, "type": "Feature", "properties": {"collection_times": [{"days": "Mon-Fri", "time": "12:30pm"}, {"days": "Sat", "time": "11:45am"}, {"days": "Sun", "time": "Closed"}], "id": "1446200002", "name": "USPS COLLECTION BOX - BLUE BOX", "address": {"city": "GROVELAND", "state": "NY", "street": "7426 ROUTE 63", "postcode": "14462"}}},
{"geometry": {"type": "Point", "coordinates": [-77.0687957891, 42.7939102702]}, "type": "Feature", "properties": {"collection_times": [{"days": "Mon-Fri", "time": "4:45pm"}, {"days": "Sat", "time": "12:00pm"}, {"days": "Sun", "time": "Closed"}], "id": "1446300001", "name": "USPS COLLECTION BOX - BLUE BOX", "address": {"city": "HALL", "state": "NY", "street": "4858 STATE ROUTE 14A", "postcode": "14463"}}},
{"geometry": {"type": "Point", "coordinates": [-77.0687957891, 42.7939102702]}, "type": "Feature", "properties": {"collection_times": [{"days": "Mon-Fri", "time": "5:00pm"}, {"days": "Sat", "time": "12:00pm"}, {"days": "Sun", "time": "Closed"}], "id": "1446300002", "name": "USPS COLLECTION BOX - PO LOBBY", "address": {"city": "HALL", "state": "NY", "street": "4858 STATE ROUTE 14A", "postcode": "14463"}}},
{"geometry": {"type": "Point", "coordinates": [-77.9193414446, 43.3031975122]}, "type": "Feature", "properties": {"collection_times": [{"days": "Mon-Fri", "time": "5:00pm"}, {"days": "Sat", "time": "11:45am"}, {"days": "Sun", "time": "Closed"}], "id": "1446400001", "name": "USPS COLLECTION BOX - BLUE BOX", "address": {"city": "HAMLIN", "state": "NY", "street": "133 RAILROAD AVE", "postcode": "14464"}}},
{"geometry": {"type": "Point", "coordinates": [-77.9431186876, 43.3097782449]}, "type": "Feature", "properties": {"collection_times": [{"days": "Mon-Fri", "time": "9:30am"}, {"days": "Sat-Sun", "time": "Closed"}], "id": "1446400002", "name": "USPS COLLECTION BOX - BLUE BOX", "address": {"city": "HAMLIN", "state": "NY", "street": "100 DRAKE RD", "postcode": "14464"}}},
{"geometry": {"type": "Point", "coordinates": [-77.9193414446, 43.3031975122]}, "type": "Feature", "properties": {"collection_times": [{"days": "Mon-Fri", "time": "5:00pm"}, {"days": "Sat", "time": "12:00pm"}, {"days": "Sun", "time": "Closed"}], "id": "1446400009", "name": "USPS COLLECTION BOX - PO LOBBY", "address": {"city": "HAMLIN", "state": "NY", "street": "133 RAILROAD AVE", "postcode": "14464"}}},
{"geometry": {"type": "Point", "coordinates": [-77.6075801141, 42.7960132097]}, "type": "Feature", "properties": {"collection_times": [{"days": "Mon-Fri", "time": "3:45pm"}, {"days": "Sat", "time": "11:45am"}, {"days": "Sun", "time": "Closed"}], "id": "1446600001", "name": "USPS COLLECTION BOX - BLUE BOX", "address": {"city": "HEMLOCK", "state": "NY", "street": "4625 MAIN ST", "postcode": "14466"}}},
{"geometry": {"type": "Point", "coordinates": [-77.6075801141, 42.7960132097]}, "type": "Feature", "properties": {"collection_times": [{"days": "Mon-Fri", "time": "3:45pm"}, {"days": "Sat", "time": "12:00pm"}, {"days": "Sun", "time": "Closed"}], "id": "1446600002", "name": "USPS COLLECTION BOX - PO LOBBY", "address": {"city": "HEMLOCK", "state": "NY", "street": "4625 MAIN ST", "postcode": "14466"}}},
{"geometry": {"type": "Point", "coordinates": [-77.6178759576, 43.0490103256]}, "type": "Feature", "properties": {"collection_times": [{"days": "Mon-Fri", "time": "4:30pm"}, {"days": "Sat", "time": "12:00pm"}, {"days": "Sun", "time": "Closed"}], "id": "1446700000", "name": "USPS COLLECTION BOX - BLUE BOX", "address": {"city": "HENRIETTA", "state": "NY", "street": "25 GOODBURLET RD", "postcode": "14467"}}},
{"geometry": {"type": "Point", "coordinates": [-77.6178759576, 43.0490103256]}, "type": "Feature", "properties": {"collection_times": [{"days": "Mon-Fri", "time": "4:30pm"}, {"days": "Sat", "time": "12:00pm"}, {"days": "Sun", "time": "Closed"}], "id": "1446700002", "name": "USPS COLLECTION BOX - BLUE BOX", "address": {"city": "HENRIETTA", "state": "NY", "street": "25 GOODBURLET RD", "postcode": "14467"}}},
{"geometry": {"type": "Point", "coordinates": [-77.6178759576, 43.0490103256]}, "type": "Feature", "properties": {"collection_times": [{"days": "Mon-Fri", "time": "4:30pm"}, {"days": "Sat", "time": "12:00pm"}, {"days": "Sun", "time": "Closed"}], "id": "1446700003", "name": "USPS COLLECTION BOX - BLUE BOX", "address": {"city": "HENRIETTA", "state": "NY", "street": "25 GOODBURLET RD", "postcode": "14467"}}},
{"geometry": {"type": "Point", "coordinates": [-77.6178759576, 43.0490103256]}, "type": "Feature", "properties": {"collection_times": [{"days": "Mon-Fri", "time": "5:00pm"}, {"days": "Sat", "time": "12:00pm"}, {"days": "Sun", "time": "Closed"}], "id": "1446700004", "name": "USPS COLLECTION BOX - PO LOBBY", "address": {"city": "HENRIETTA", "state": "NY", "street": "25 GOODBURLET RD", "postcode": "14467"}}},
{"geometry": {"type": "Point", "coordinates": [-77.6178759576, 43.0490103256]}, "type": "Feature", "properties": {"collection_times": [{"days": "Mon-Fri", "time": "5:00pm"}, {"days": "Sat", "time": "12:00pm"}, {"days": "Sun", "time": "Closed"}], "id": "1446700010", "name": "USPS COLLECTION BOX - APC", "address": {"city": "HENRIETTA", "state": "NY", "street": "25 GOODBURLET RD", "postcode": "14467"}}},
{"geometry": {"type": "Point", "coordinates": [-77.7915621731, 43.28755277]}, "type": "Feature", "properties": {"collection_times": [{"days": "Mon-Fri", "time": "5:00pm"}, {"days": "Sat", "time": "3:00pm"}, {"days": "Sun", "time": "Closed"}], "id": "1446800001", "name": "USPS COLLECTION BOX - BLUE BOX", "address": {"city": "HILTON", "state": "NY", "street": "25 SOUTH AVE", "postcode": "14468"}}},
{"geometry": {"type": "Point", "coordinates": [-77.7915621731, 43.28755277]}, "type": "Feature", "properties": {"collection_times": [{"days": "Mon-Fri", "time": "5:00pm"}, {"days": "Sat", "time": "3:00pm"}, {"days": "Sun", "time": "Closed"}], "id": "1446800004", "name": "USPS COLLECTION BOX - BLUE BOX", "address": {"city": "HILTON", "state": "NY", "street": "25 SOUTH AVE", "postcode": "14468"}}},
{"geometry": {"type": "Point", "coordinates": [-77.7889692392, 43.2927607891]}, "type": "Feature", "properties": {"collection_times": [{"days": "Mon-Fri", "time": "5:00pm"}, {"days": "Sat", "time": "3:00pm"}, {"days": "Sun", "time": "Closed"}], "id": "1446800005", "name": "USPS COLLECTION BOX - EXPRESS", "address": {"city": "HILTON", "state": "NY", "street": "25 SOUTH AVE", "postcode": "14468"}}},
{"geometry": {"type": "Point", "coordinates": [-77.7914959274, 43.2859321162]}, "type": "Feature", "properties": {"collection_times": [{"days": "Mon-Sat", "time": "2:00pm"}, {"days": "Sun", "time": "Closed"}], "id": "1446800006", "name": "USPS COLLECTION BOX - BLUE BOX", "address": {"city": "HILTON", "state": "NY", "street": "98 SOUTH AVE", "postcode": "14468"}}},
{"geometry": {"type": "Point", "coordinates": [-77.7915621731, 43.28755277]}, "type": "Feature", "properties": {"collection_times": [{"days": "Mon-Fri", "time": "5:00pm"}, {"days": "Sat", "time": "3:00pm"}, {"days": "Sun", "time": "Closed"}], "id": "1446800008", "name": "USPS COLLECTION BOX - PO LOBBY", "address": {"city": "HILTON", "state": "NY", "street": "25 SOUTH AVE", "postcode": "14468"}}},
{"geometry": {"type": "Point", "coordinates": [-77.7889692392, 43.2927607891]}, "type": "Feature", "properties": {"collection_times": [{"days": "Mon-Fri", "time": "5:00pm"}, {"days": "Sat", "time": "3:00pm"}, {"days": "Sun", "time": "Closed"}], "id": "1446800009", "name": "USPS COLLECTION BOX - APC", "address": {"city": "HILTON", "state": "NY", "street": "25 SOUTH AVE", "postcode": "14468"}}},
{"geometry": {"type": "Point", "coordinates": [-77.4198571804, 42.9023196771]}, "type": "Feature", "properties": {"collection_times": [{"days": "Mon-Fri", "time": "4:45pm"}, {"days": "Sat", "time": "11:45am"}, {"days": "Sun", "time": "Closed"}], "id": "1446900001", "name": "USPS COLLECTION BOX - BLUE BOX", "address": {"city": "BLOOMFIELD", "state": "NY", "street": "2 ELM ST", "postcode": "14469"}}},
{"geometry": {"type": "Point", "coordinates": [-77.4198571804, 42.9023196771]}, "type": "Feature", "properties": {"collection_times": [{"days": "Mon-Fri", "time": "5:00pm"}, {"days": "Sat", "time": "12:00pm"}, {"days": "Sun", "time": "Closed"}], "id": "1446900002", "name": "USPS COLLECTION BOX - PO LOBBY", "address": {"city": "BLOOMFIELD", "state": "NY", "street": "2 ELM ST", "postcode": "14469"}}},
{"geometry": {"type": "Point", "coordinates": [-77.4198571804, 42.9023196771]}, "type": "Feature", "properties": {"collection_times": [{"days": "Mon-Fri", "time": "5:00pm"}, {"days": "Sat", "time": "12:00pm"}, {"days": "Sun", "time": "Closed"}], "id": "1446900005", "name": "USPS COLLECTION BOX - PO LOBBY", "address": {"city": "BLOOMFIELD", "state": "NY", "street": "2 ELM ST", "postcode": "14469"}}},
{"geometry": {"type": "Point", "coordinates": [-78.0247224601, 43.2255675231]}, "type": "Feature", "properties": {"collection_times": [{"days": "Mon-Fri", "time": "4:30pm"}, {"days": "Sat", "time": "11:45am"}, {"days": "Sun", "time": "Closed"}], "id": "1447000001", "name": "USPS COLLECTION BOX - BLUE BOX", "address": {"city": "HOLLEY", "state": "NY", "street": "5 WRIGHT ST", "postcode": "14470"}}},
{"geometry": {"type": "Point", "coordinates": [-78.0248655605, 43.2250340852]}, "type": "Feature", "properties": {"collection_times": [{"days": "Mon-Sat", "time": "1:00pm"}, {"days": "Sun", "time": "Closed"}], "id": "1447000002", "name": "USPS COLLECTION BOX - BLUE BOX", "address": {"city": "HOLLEY", "state": "NY", "street": "3 GEDDES STREET EXT", "postcode": "14470"}}},
{"geometry": {"type": "Point", "coordinates": [-78.0247224601, 43.2255675231]}, "type": "Feature", "properties": {"collection_times": [{"days": "Mon-Fri", "time": "4:30pm"}, {"days": "Sat", "time": "12:00pm"}, {"days": "Sun", "time": "Closed"}], "id": "1447000007", "name": "USPS COLLECTION BOX - PO LOBBY", "address": {"city": "HOLLEY", "state": "NY", "street": "5 WRIGHT ST", "postcode": "14470"}}},
{"geometry": {"type": "Point", "coordinates": [-77.5096654176, 42.7895459731]}, "type": "Feature", "properties": {"collection_times": [{"days": "Mon-Fri", "time": "5:00pm"}, {"days": "Sat", "time": "12:00pm"}, {"days": "Sun", "time": "Closed"}], "id": "1447100001", "name": "USPS COLLECTION BOX - BLUE BOX", "address": {"city": "HONEOYE", "state": "NY", "street": "8627 MAIN ST", "postcode": "14471"}}},
{"geometry": {"type": "Point", "coordinates": [-77.5096654176, 42.7895459731]}, "type": "Feature", "properties": {"collection_times": [{"days": "Mon-Fri", "time": "5:00pm"}, {"days": "Sat", "time": "12:00pm"}, {"days": "Sun", "time": "Closed"}], "id": "1447100004", "name": "USPS COLLECTION BOX - PO LOBBY", "address": {"city": "HONEOYE", "state": "NY", "street": "8627 MAIN ST", "postcode": "14471"}}},
{"geometry": {"type": "Point", "coordinates": [-77.5143310078, 42.7897222339]}, "type": "Feature", "properties": {"collection_times": [{"days": "Mon-Fri", "time": "9:30am"}, {"days": "Sat-Sun", "time": "Closed"}], "id": "1447100005", "name": "USPS COLLECTION BOX - BLUE BOX", "address": {"city": "HONEOYE", "state": "NY", "street": "8690 MAIN ST", "postcode": "14471"}}},
{"geometry": {"type": "Point", "coordinates": [-77.5922726251, 42.9521460487]}, "type": "Feature", "properties": {"collection_times": [{"days": "Mon-Fri", "time": "5:00pm"}, {"days": "Sat", "time": "12:00pm"}, {"days": "Sun", "time": "Closed"}], "id": "1447200001", "name": "USPS COLLECTION BOX - BLUE BOX", "address": {"city": "HONEOYE FALLS", "state": "NY", "street": "39 W MAIN ST", "postcode": "14472"}}},
{"geometry": {"type": "Point", "coordinates": [-77.5922726251, 42.9521460487]}, "type": "Feature", "properties": {"collection_times": [{"days": "Mon-Fri", "time": "5:00pm"}, {"days": "Sat", "time": "12:00pm"}, {"days": "Sun", "time": "Closed"}], "id": "1447200008", "name": "USPS COLLECTION BOX - BLUE BOX", "address": {"city": "HONEOYE FALLS", "state": "NY", "street": "39 W MAIN ST", "postcode": "14472"}}},
{"geometry": {"type": "Point", "coordinates": [-77.5922726251, 42.9521460487]}, "type": "Feature", "properties": {"collection_times": [{"days": "Mon-Fri", "time": "5:00pm"}, {"days": "Sat", "time": "12:00pm"}, {"days": "Sun", "time": "Closed"}], "id": "1447200010", "name": "USPS COLLECTION BOX - PO LOBBY", "address": {"city": "HONEOYE FALLS", "state": "NY", "street": "39 W MAIN ST", "postcode": "14472"}}},
{"geometry": {"type": "Point", "coordinates": [-77.4951781159, 42.9312953456]}, "type": "Feature", "properties": {"collection_times": [{"days": "Mon-Fri", "time": "4:45pm"}, {"days": "Sat", "time": "12:00pm"}, {"days": "Sun", "time": "Closed"}], "id": "1447500002", "name": "USPS COLLECTION BOX - PO LOBBY", "address": {"city": "IONIA", "state": "NY", "street": "8289 COUNTY ROAD 14", "postcode": "14475"}}},
{"geometry": {"type": "Point", "coordinates": [-77.4951781159, 42.9312953456]}, "type": "Feature", "properties": {"collection_times": [{"days": "Mon-Fri", "time": "4:45pm"}, {"days": "Sat", "time": "11:45am"}, {"days": "Sun", "time": "Closed"}], "id": "1447500003", "name": "USPS COLLECTION BOX - BLUE BOX", "address": {"city": "IONIA", "state": "NY", "street": "8289 COUNTY ROAD 14", "postcode": "14475"}}},
{"geometry": {"type": "Point", "coordinates": [-78.036025375, 43.3257256728]}, "type": "Feature", "properties": {"collection_times": [{"days": "Mon-Fri", "time": "4:15pm"}, {"days": "Sat", "time": "11:45am"}, {"days": "Sun", "time": "Closed"}], "id": "1447600001", "name": "USPS COLLECTION BOX - BLUE BOX", "address": {"city": "KENDALL", "state": "NY", "street": "1870 KENDALL RD", "postcode": "14476"}}},
{"geometry": {"type": "Point", "coordinates": [-78.036025375, 43.3257256728]}, "type": "Feature", "properties": {"collection_times": [{"days": "Mon-Fri", "time": "4:30pm"}, {"days": "Sat", "time": "12:00pm"}, {"days": "Sun", "time": "Closed"}], "id": "1447600002", "name": "USPS COLLECTION BOX - PO LOBBY", "address": {"city": "KENDALL", "state": "NY", "street": "1870 KENDALL RD", "postcode": "14476"}}},
{"geometry": {"type": "Point", "coordinates": [-78.1355134069, 43.3286830702]}, "type": "Feature", "properties": {"collection_times": [{"days": "Mon-Fri", "time": "3:30pm"}, {"days": "Sat", "time": "11:45am"}, {"days": "Sun", "time": "Closed"}], "id": "1447700001", "name": "USPS COLLECTION BOX - BLUE BOX", "address": {"city": "KENT", "state": "NY", "street": "1788 KENT RD", "postcode": "14477"}}},
{"geometry": {"type": "Point", "coordinates": [-78.1355134069, 43.3286830702]}, "type": "Feature", "properties": {"collection_times": [{"days": "Mon-Fri", "time": "3:30pm"}, {"days": "Sat", "time": "11:45am"}, {"days": "Sun", "time": "Closed"}], "id": "1447700002", "name": "USPS COLLECTION BOX - PO LOBBY", "address": {"city": "KENT", "state": "NY", "street": "1788 KENT RD", "postcode": "14477"}}},
{"geometry": {"type": "Point", "coordinates": [-77.0930103932, 42.615128127]}, "type": "Feature", "properties": {"collection_times": [{"days": "Mon-Fri", "time": "4:30pm"}, {"days": "Sat", "time": "11:45am"}, {"days": "Sun", "time": "Closed"}], "id": "1447800001", "name": "USPS COLLECTION BOX - BLUE BOX", "address": {"city": "KEUKA PARK", "state": "NY", "street": "508 ASSEMBLY AVE", "postcode": "14478"}}},
{"geometry": {"type": "Point", "coordinates": [-77.0930103932, 42.615128127]}, "type": "Feature", "properties": {"collection_times": [{"days": "Mon-Fri", "time": "4:30pm"}, {"days": "Sat", "time": "12:00pm"}, {"days": "Sun", "time": "Closed"}], "id": "1447800002", "name": "USPS COLLECTION BOX - PO LOBBY", "address": {"city": "KEUKA PARK", "state": "NY", "street": "508 ASSEMBLY AVE", "postcode": "14478"}}},
{"geometry": {"type": "Point", "coordinates": [-77.7033434454, 42.8357738762]}, "type": "Feature", "properties": {"collection_times": [{"days": "Mon-Fri", "time": "4:45pm"}, {"days": "Sat", "time": "11:45am"}, {"days": "Sun", "time": "Closed"}], "id": "1448000001", "name": "USPS COLLECTION BOX - BLUE BOX", "address": {"city": "LAKEVILLE", "state": "NY", "street": "5832 BIG TREE RD", "postcode": "14480"}}},
{"geometry": {"type": "Point", "coordinates": [-77.7033434454, 42.8357738762]}, "type": "Feature", "properties": {"collection_times": [{"days": "Mon-Fri", "time": "5:00pm"}, {"days": "Sat", "time": "12:00pm"}, {"days": "Sun", "time": "Closed"}], "id": "1448000002", "name": "USPS COLLECTION BOX - PO LOBBY", "address": {"city": "LAKEVILLE", "state": "NY", "street": "5832 BIG TREE RD", "postcode": "14480"}}},
{"geometry": {"type": "Point", "coordinates": [-77.8987737441, 42.7720890476]}, "type": "Feature", "properties": {"collection_times": [{"days": "Mon-Fri", "time": "4:45pm"}, {"days": "Sat", "time": "11:45am"}, {"days": "Sun", "time": "Closed"}], "id": "1448100001", "name": "USPS COLLECTION BOX - BLUE BOX", "address": {"city": "LEICESTER", "state": "NY", "street": "130 MAIN ST", "postcode": "14481"}}},
{"geometry": {"type": "Point", "coordinates": [-77.8987737441, 42.7720890476]}, "type": "Feature", "properties": {"collection_times": [{"days": "Mon-Fri", "time": "5:00pm"}, {"days": "Sat", "time": "12:00pm"}, {"days": "Sun", "time": "Closed"}], "id": "1448100002", "name": "USPS COLLECTION BOX - PO LOBBY", "address": {"city": "LEICESTER", "state": "NY", "street": "130 MAIN ST", "postcode": "14481"}}},
{"geometry": {"type": "Point", "coordinates": [-77.9893162403, 42.9783225647]}, "type": "Feature", "properties": {"collection_times": [{"days": "Mon-Fri", "time": "5:00pm"}, {"days": "Sat", "time": "2:30pm"}, {"days": "Sun", "time": "Closed"}], "id": "1448200001", "name": "USPS COLLECTION BOX - BLUE BOX", "address": {"city": "LEROY", "state": "NY", "street": "7 MILL ST", "postcode": "14482"}}},
{"geometry": {"type": "Point", "coordinates": [-77.9907866583, 42.9776553758]}, "type": "Feature", "properties": {"collection_times": [{"days": "Mon-Fri", "time": "2:00pm"}, {"days": "Sat", "time": "12:00pm"}, {"days": "Sun", "time": "Closed"}], "id": "1448200009", "name": "USPS COLLECTION BOX - BLUE BOX", "address": {"city": "LEROY", "state": "NY", "street": "40 MAIN ST", "postcode": "14482"}}},
{"geometry": {"type": "Point", "coordinates": [-77.9914704086, 42.9776754861]}, "type": "Feature", "properties": {"collection_times": [{"days": "Mon-Sat", "time": "2:00pm"}, {"days": "Sun", "time": "Closed"}], "id": "1448200010", "name": "USPS COLLECTION BOX - BLUE BOX", "address": {"city": "LEROY", "state": "NY", "street": "67 MAIN ST", "postcode": "14482"}}},
{"geometry": {"type": "Point", "coordinates": [-78.005844543, 42.9781155469]}, "type": "Feature", "properties": {"collection_times": [{"days": "Mon-Sat", "time": "2:00pm"}, {"days": "Sun", "time": "Closed"}], "id": "1448200016", "name": "USPS COLLECTION BOX - BLUE BOX", "address": {"city": "LEROY", "state": "NY", "street": "128 W MAIN ST", "postcode": "14482"}}},
{"geometry": {"type": "Point", "coordinates": [-77.9926580994, 42.9777287193]}, "type": "Feature", "properties": {"collection_times": [{"days": "Mon-Fri", "time": "5:00pm"}, {"days": "Sat", "time": "12:00pm"}, {"days": "Sun", "time": "Closed"}], "id": "1448200017", "name": "USPS COLLECTION BOX - PO LOBBY", "address": {"city": "LEROY", "state": "NY", "street": "2 MAIN ST", "postcode": "14482"}}},
{"geometry": {"type": "Point", "coordinates": [-77.6129280227, 42.9047799623]}, "type": "Feature", "properties": {"collection_times": [{"days": "Mon-Fri", "time": "4:15pm"}, {"days": "Sat", "time": "11:45am"}, {"days": "Sun", "time": "Closed"}], "id": "1448500001", "name": "USPS COLLECTION BOX - BLUE BOX", "address": {"city": "LIMA", "state": "NY", "street": "7275 W MAIN ST", "postcode": "14485"}}},
{"geometry": {"type": "Point", "coordinates": [-77.6129280227, 42.9047799623]}, "type": "Feature", "properties": {"collection_times": [{"days": "Mon-Fri", "time": "4:30pm"}, {"days": "Sat", "time": "12:00pm"}, {"days": "Sun", "time": "Closed"}], "id": "1448500002", "name": "USPS COLLECTION BOX - PO LOBBY", "address": {"city": "LIMA", "state": "NY", "street": "7275 W MAIN ST", "postcode": "14485"}}},
{"geometry": {"type": "Point", "coordinates": [-77.6676223794, 42.8217662264]}, "type": "Feature", "properties": {"collection_times": [{"days": "Mon-Fri", "time": "5:00pm"}, {"days": "Sat", "time": "11:45am"}, {"days": "Sun", "time": "Closed"}], "id": "1448700001", "name": "USPS COLLECTION BOX - BLUE BOX", "address": {"city": "LIVONIA", "state": "NY", "street": "34 MAIN ST", "postcode": "14487"}}},
{"geometry": {"type": "Point", "coordinates": [-77.671639708, 42.8218880712]}, "type": "Feature", "properties": {"collection_times": [{"days": "Mon-Fri", "time": "12:00pm"}, {"days": "Sat-Sun", "time": "Closed"}], "id": "1448700002", "name": "USPS COLLECTION BOX - BLUE BOX", "address": {"city": "LIVONIA", "state": "NY", "street": "1 MAIN ST", "postcode": "14487"}}},
{"geometry": {"type": "Point", "coordinates": [-77.6676223794, 42.8217662264]}, "type": "Feature", "properties": {"collection_times": [{"days": "Mon-Fri", "time": "5:00pm"}, {"days": "Sat", "time": "11:45am"}, {"days": "Sun", "time": "Closed"}], "id": "1448700003", "name": "USPS COLLECTION BOX - BLUE BOX", "address": {"city": "LIVONIA", "state": "NY", "street": "34 MAIN ST", "postcode": "14487"}}},
{"geometry": {"type": "Point", "coordinates": [-77.6676223794, 42.8217662264]}, "type": "Feature", "properties": {"collection_times": [{"days": "Mon-Fri", "time": "5:00pm"}, {"days": "Sat", "time": "12:00pm"}, {"days": "Sun", "time": "Closed"}], "id": "1448700004", "name": "USPS COLLECTION BOX - PO LOBBY", "address": {"city": "LIVONIA", "state": "NY", "street": "34 MAIN ST", "postcode": "14487"}}},
{"geometry": {"type": "Point", "coordinates": [-76.9927573241, 43.0628481633]}, "type": "Feature", "properties": {"collection_times": [{"days": "Mon-Fri", "time": "5:00pm"}, {"days": "Sat", "time": "3:30pm"}, {"days": "Sun", "time": "Closed"}], "id": "1448900001", "name": "USPS COLLECTION BOX - BLUE BOX", "address": {"city": "LYONS", "state": "NY", "street": "1 PEARL ST", "postcode": "14489"}}},
{"geometry": {"type": "Point", "coordinates": [-76.9970377079, 43.0605419327]}, "type": "Feature", "properties": {"collection_times": [{"days": "Mon-Sat", "time": "12:00pm"}, {"days": "Sun", "time": "Closed"}], "id": "1448900005", "name": "USPS COLLECTION BOX - BLUE BOX", "address": {"city": "LYONS", "state": "NY", "street": "10 FORGHAM ST", "postcode": "14489"}}},
{"geometry": {"type": "Point", "coordinates": [-77.0285640989, 43.0651763837]}, "type": "Feature", "properties": {"collection_times": [{"days": "Mon-Fri", "time": "9:00am"}, {"days": "Sat-Sun", "time": "Closed"}], "id": "1448900010", "name": "USPS COLLECTION BOX - BLUE BOX", "address": {"city": "LYONS", "state": "NY", "street": "1519 NYE RD", "postcode": "14489"}}},
{"geometry": {"type": "Point", "coordinates": [-77.036241691, 43.0744320658]}, "type": "Feature", "properties": {"collection_times": [{"days": "Mon-Fri", "time": "9:30am"}, {"days": "Sat-Sun", "time": "Closed"}], "id": "1448900013", "name": "USPS COLLECTION BOX - BLUE BOX", "address": {"city": "LYONS", "state": "NY", "street": "1779 ROSS RD", "postcode": "14489"}}},
{"geometry": {"type": "Point", "coordinates": [-76.9927573241, 43.0628481633]}, "type": "Feature", "properties": {"collection_times": [{"days": "Mon-Fri", "time": "5:00pm"}, {"days": "Sat", "time": "3:30pm"}, {"days": "Sun", "time": "Closed"}], "id": "1448900016", "name": "USPS COLLECTION BOX - PO LOBBY", "address": {"city": "LYONS", "state": "NY", "street": "1 PEARL ST", "postcode": "14489"}}}
]}
