{"type": "FeatureCollection", "features": [
{"geometry": {"type": "Point", "coordinates": [-77.3209846457, 43.1239045927]}, "type": "Feature", "properties": {"collection_times": [{"days": "Mon-Fri", "time": "10:00am"}, {"days": "Sat-Sun", "time": "Closed"}], "id": "1450200001", "name": "USPS COLLECTION BOX - BLUE BOX", "address": {"city": "MACEDON", "state": "NY", "street": "3290 CANANDAIGUA RD", "postcode": "14502"}}},
{"geometry": {"type": "Point", "coordinates": [-77.3380358784, 43.0943200429]}, "type": "Feature", "properties": {"collection_times": [{"days": "Mon-Fri", "time": "4:45pm"}, {"days": "Sat", "time": "11:45am"}, {"days": "Sun", "time": "Closed"}], "id": "1450200005", "name": "USPS COLLECTION BOX - BLUE BOX", "address": {"city": "MACEDON", "state": "NY", "street": "1475 CANANDAIGUA RD", "postcode": "14502"}}},
{"geometry": {"type": "Point", "coordinates": [-77.3380358784, 43.0943200429]}, "type": "Feature", "properties": {"collection_times": [{"days": "Mon-Fri", "time": "4:45pm"}, {"days": "Sat", "time": "11:45am"}, {"days": "Sun", "time": "Closed"}], "id": "1450200008", "name": "USPS COLLECTION BOX - BLUE BOX", "address": {"city": "MACEDON", "state": "NY", "street": "1475 CANANDAIGUA RD", "postcode": "14502"}}},
{"geometry": {"type": "Point", "coordinates": [-77.3380358784, 43.0943200429]}, "type": "Feature", "properties": {"collection_times": [{"days": "Mon-Fri", "time": "5:00pm"}, {"days": "Sat", "time": "12:00pm"}, {"days": "Sun", "time": "Closed"}], "id": "1450200010", "name": "USPS COLLECTION BOX - PO LOBBY", "address": {"city": "MACEDON", "state": "NY", "street": "1475 CANANDAIGUA RD", "postcode": "14502"}}},
{"geometry": {"type": "Point", "coordinates": [-77.355217138, 43.0644615184]}, "type": "Feature", "properties": {"collection_times": [{"days": "Mon-Fri", "time": "10:00am"}, {"days": "Sat-Sun", "time": "Closed"}], "id": "1450200011", "name": "USPS COLLECTION BOX - BLUE BOX", "address": {"city": "MACEDON", "state": "NY", "street": "425 STATE ROUTE 31", "postcode": "14502"}}},
{"geometry": {"type": "Point", "coordinates": [-77.3380358784, 43.0943200429]}, "type": "Feature", "properties": {"collection_times": [{"days": "Mon-Fri", "time": "5:00pm"}, {"days": "Sat", "time": "12:00pm"}, {"days": "Sun", "time": "Closed"}], "id": "1450200012", "name": "USPS COLLECTION BOX - APC", "address": {"city": "MACEDON", "state": "NY", "street": "1475 CANANDAIGUA RD", "postcode": "14502"}}},
{"geometry": {"type": "Point", "coordinates": [-77.2301936756, 42.9613867624]}, "type": "Feature", "properties": {"collection_times": [{"days": "Mon-Fri", "time": "4:15pm"}, {"days": "Sat", "time": "11:45am"}, {"days": "Sun", "time": "Closed"}], "id": "1450400002", "name": "USPS COLLECTION BOX - BLUE BOX", "address": {"city": "MANCHESTER", "state": "NY", "street": "109 S MAIN ST", "postcode": "14504"}}},
{"geometry": {"type": "Point", "coordinates": [-77.2238143147, 42.9766524559]}, "type": "Feature", "properties": {"collection_times": [{"days": "Mon-Fri", "time": "11:30am"}, {"days": "Sat-Sun", "time": "Closed"}], "id": "1450400003", "name": "USPS COLLECTION BOX - BLUE BOX", "address": {"city": "MANCHESTER", "state": "NY", "street": "4052 STATE ROUTE 96", "postcode": "14504"}}},
{"geometry": {"type": "Point", "coordinates": [-77.2301936756, 42.9613867624]}, "type": "Feature", "properties": {"collection_times": [{"days": "Mon-Fri", "time": "4:30pm"}, {"days": "Sat", "time": "12:00pm"}, {"days": "Sun", "time": "Closed"}], "id": "1450400005", "name": "USPS COLLECTION BOX - PO LOBBY", "address": {"city": "MANCHESTER", "state": "NY", "street": "109 S MAIN ST", "postcode": "14504"}}},
{"geometry": {"type": "Point", "coordinates": [-77.1897082801, 43.1424486827]}, "type": "Feature", "properties": {"collection_times": [{"days": "Mon-Fri", "time": "4:45pm"}, {"days": "Sat", "time": "11:45am"}, {"days": "Sun", "time": "Closed"}], "id": "1450500001", "name": "USPS COLLECTION BOX - BLUE BOX", "address": {"city": "MARION", "state": "NY", "street": "3785 S MAIN ST", "postcode": "14505"}}},
{"geometry": {"type": "Point", "coordinates": [-77.1897082801, 43.1424486827]}, "type": "Feature", "properties": {"collection_times": [{"days": "Mon-Fri", "time": "5:00pm"}, {"days": "Sat", "time": "12:00pm"}, {"days": "Sun", "time": "Closed"}], "id": "1450500002", "name": "USPS COLLECTION BOX - PO LOBBY", "address": {"city": "MARION", "state": "NY", "street": "3785 S MAIN ST", "postcode": "14505"}}},
{"geometry": {"type": "Point", "coordinates": [-77.5078973966, 42.9996950448]}, "type": "Feature", "properties": {"collection_times": [{"days": "Mon-Fri", "time": "4:45pm"}, {"days": "Sat", "time": "11:45am"}, {"days": "Sun", "time": "Closed"}], "id": "1450600001", "name": "USPS COLLECTION BOX - BLUE BOX", "address": {"city": "MENDON", "state": "NY", "street": "53 ASSEMBLY DR", "postcode": "14506"}}},
{"geometry": {"type": "Point", "coordinates": [-77.5078973966, 42.9996950448]}, "type": "Feature", "properties": {"collection_times": [{"days": "Mon-Fri", "time": "4:45pm"}, {"days": "Sat", "time": "12:00pm"}, {"days": "Sun", "time": "Closed"}], "id": "1450600002", "name": "USPS COLLECTION BOX - PO LOBBY", "address": {"city": "MENDON", "state": "NY", "street": "53 ASSEMBLY DR", "postcode": "14506"}}},
{"geometry": {"type": "Point", "coordinates": [-77.2715180336, 42.7048319157]}, "type": "Feature", "properties": {"collection_times": [{"days": "Mon-Fri", "time": "4:00pm"}, {"days": "Sat", "time": "12:00pm"}, {"days": "Sun", "time": "Closed"}], "id": "1450700001", "name": "USPS COLLECTION BOX - BLUE BOX", "address": {"city": "MIDDLESEX", "state": "NY", "street": "1213 MAIN ST", "postcode": "14507"}}},
{"geometry": {"type": "Point", "coordinates": [-77.2715180336, 42.7048319157]}, "type": "Feature", "properties": {"collection_times": [{"days": "Mon-Fri", "time": "4:00pm"}, {"days": "Sat", "time": "12:00pm"}, {"days": "Sun", "time": "Closed"}], "id": "1450700002", "name": "USPS COLLECTION BOX - PO LOBBY", "address": {"city": "MIDDLESEX", "state": "NY", "street": "1213 MAIN ST", "postcode": "14507"}}},
{"geometry": {"type": "Point", "coordinates": [-77.9952101318, 43.3251304201]}, "type": "Feature", "properties": {"collection_times": [{"days": "Mon-Fri", "time": "4:45pm"}, {"days": "Sat", "time": "11:45am"}, {"days": "Sun", "time": "Closed"}], "id": "1450800001", "name": "USPS COLLECTION BOX - BLUE BOX", "address": {"city": "MORTON", "state": "NY", "street": "1205 COUNTY LINE RD STE 1", "postcode": "14508"}}},
{"geometry": {"type": "Point", "coordinates": [-77.9952101318, 43.3251304201]}, "type": "Feature", "properties": {"collection_times": [{"days": "Mon-Fri", "time": "5:00pm"}, {"days": "Sat", "time": "12:00pm"}, {"days": "Sun", "time": "Closed"}], "id": "1450800002", "name": "USPS COLLECTION BOX - PO LOBBY", "address": {"city": "MORTON", "state": "NY", "street": "1205 COUNTY LINE RD STE 1", "postcode": "14508"}}},
{"geometry": {"type": "Point", "coordinates": [-77.8751252114, 42.7247931652]}, "type": "Feature", "properties": {"collection_times": [{"days": "Mon-Fri", "time": "5:00pm"}, {"days": "Sat", "time": "12:00pm"}, {"days": "Sun", "time": "Closed"}], "id": "1451000014", "name": "USPS COLLECTION BOX - PO LOBBY", "address": {"city": "MOUNT MORRIS", "state": "NY", "street": "31 CHAPEL ST", "postcode": "14510"}}},
{"geometry": {"type": "Point", "coordinates": [-77.873696197, 42.7250380377]}, "type": "Feature", "properties": {"collection_times": [{"days": "Mon-Sat", "time": "9:00am"}, {"days": "Sun", "time": "Closed"}], "id": "1451000016", "name": "USPS COLLECTION BOX - BLUE BOX", "address": {"city": "MOUNT MORRIS", "state": "NY", "street": "85 MAIN ST", "postcode": "14510"}}},
{"geometry": {"type": "Point", "coordinates": [-77.8751252114, 42.7247931652]}, "type": "Feature", "properties": {"collection_times": [{"days": "Mon-Fri", "time": "5:00pm"}, {"days": "Sat", "time": "11:45am"}, {"days": "Sun", "time": "Closed"}], "id": "1451000017", "name": "USPS COLLECTION BOX - BLUE BOX", "address": {"city": "MOUNT MORRIS", "state": "NY", "street": "31 CHAPEL ST", "postcode": "14510"}}},
{"geometry": {"type": "Point", "coordinates": [-77.8614744801, 42.9939653247]}, "type": "Feature", "properties": {"collection_times": [{"days": "Mon-Fri", "time": "4:45pm"}, {"days": "Sat", "time": "11:45am"}, {"days": "Sun", "time": "Closed"}], "id": "1451100001", "name": "USPS COLLECTION BOX - BLUE BOX", "address": {"city": "MUMFORD", "state": "NY", "street": "38 DAKIN ST", "postcode": "14511"}}},
{"geometry": {"type": "Point", "coordinates": [-77.8614744801, 42.9939653247]}, "type": "Feature", "properties": {"collection_times": [{"days": "Mon-Fri", "time": "5:00pm"}, {"days": "Sat", "time": "12:00pm"}, {"days": "Sun", "time": "Closed"}], "id": "1451100002", "name": "USPS COLLECTION BOX - PO LOBBY", "address": {"city": "MUMFORD", "state": "NY", "street": "38 DAKIN ST", "postcode": "14511"}}},
{"geometry": {"type": "Point", "coordinates": [-77.4030950104, 42.6144384723]}, "type": "Feature", "properties": {"collection_times": [{"days": "Mon-Sat", "time": "12:00pm"}, {"days": "Sun", "time": "Closed"}], "id": "1451200001", "name": "USPS COLLECTION BOX - BLUE BOX", "address": {"city": "NAPLES", "state": "NY", "street": "130 S MAIN ST", "postcode": "14512"}}},
{"geometry": {"type": "Point", "coordinates": [-77.4006616638, 42.6179175546]}, "type": "Feature", "properties": {"collection_times": [{"days": "Mon-Fri", "time": "4:30pm"}, {"days": "Sat", "time": "2:00pm"}, {"days": "Sun", "time": "Closed"}], "id": "1451200003", "name": "USPS COLLECTION BOX - BLUE BOX", "address": {"city": "NAPLES", "state": "NY", "street": "137 N MAIN ST", "postcode": "14512"}}},
{"geometry": {"type": "Point", "coordinates": [-77.4006616638, 42.6179175546]}, "type": "Feature", "properties": {"collection_times": [{"days": "Mon-Fri", "time": "4:45pm"}, {"days": "Sat", "time": "12:00pm"}, {"days": "Sun", "time": "Closed"}], "id": "1451200004", "name": "USPS COLLECTION BOX - PO LOBBY", "address": {"city": "NAPLES", "state": "NY", "street": "137 N MAIN ST", "postcode": "14512"}}},
{"geometry": {"type": "Point", "coordinates": [-77.0952586961, 43.0493926861]}, "type": "Feature", "properties": {"collection_times": [{"days": "Mon-Fri", "time": "5:00pm"}, {"days": "Sat", "time": "3:00pm"}, {"days": "Sun", "time": "Closed"}], "id": "1451300002", "name": "USPS COLLECTION BOX - EXPRESS", "address": {"city": "NEWARK", "state": "NY", "street": "300 S MAIN ST", "postcode": "14513"}}},
{"geometry": {"type": "Point", "coordinates": [-77.0929432801, 43.0467283498]}, "type": "Feature", "properties": {"collection_times": [{"days": "Mon-Sat", "time": "10:00am"}, {"days": "Sun", "time": "Closed"}], "id": "1451300007", "name": "USPS COLLECTION BOX - BLUE BOX", "address": {"city": "NEWARK", "state": "NY", "street": "165 E UNION ST", "postcode": "14513"}}},
{"geometry": {"type": "Point", "coordinates": [-77.1112211789, 43.0454223631]}, "type": "Feature", "properties": {"collection_times": [{"days": "Mon-Sat", "time": "10:00am"}, {"days": "Sun", "time": "Closed"}], "id": "1451300010", "name": "USPS COLLECTION BOX - BLUE BOX", "address": {"city": "NEWARK", "state": "NY", "street": "750 W MILLER ST", "postcode": "14513"}}},
{"geometry": {"type": "Point", "coordinates": [-77.1006821976, 43.0599396355]}, "type": "Feature", "properties": {"collection_times": [{"days": "Mon-Sat", "time": "12:00pm"}, {"days": "Sun", "time": "Closed"}], "id": "1451300022", "name": "USPS COLLECTION BOX - BLUE BOX", "address": {"city": "NEWARK", "state": "NY", "street": "1200 DRIVING PARK AVE", "postcode": "14513"}}},
{"geometry": {"type": "Point", "coordinates": [-77.0939444455, 43.0441390058]}, "type": "Feature", "properties": {"collection_times": [{"days": "Mon-Fri", "time": "5:00pm"}, {"days": "Sat", "time": "3:00pm"}, {"days": "Sun", "time": "Closed"}], "id": "1451300026", "name": "USPS COLLECTION BOX - BLUE BOX", "address": {"city": "NEWARK", "state": "NY", "street": "108 MAPLE CT", "postcode": "14513"}}},
{"geometry": {"type": "Point", "coordinates": [-77.0952328495, 43.0440930884]}, "type": "Feature", "properties": {"collection_times": [{"days": "Mon-Fri", "time": "5:00pm"}, {"days": "Sat", "time": "3:00pm"}, {"days": "Sun", "time": "Closed"}], "id": "1451300028", "name": "USPS COLLECTION BOX - BLUE BOX", "address": {"city": "NEWARK", "state": "NY", "street": "300 S MAIN ST", "postcode": "14513"}}},
{"geometry": {"type": "Point", "coordinates": [-77.1099400345, 43.0465757481]}, "type": "Feature", "properties": {"collection_times": [{"days": "Mon-Sat", "time": "10:00am"}, {"days": "Sun", "time": "Closed"}], "id": "1451300032", "name": "USPS COLLECTION BOX - BLUE BOX", "address": {"city": "NEWARK", "state": "NY", "street": "513 W UNION ST", "postcode": "14513"}}},
{"geometry": {"type": "Point", "coordinates": [-77.0820320807, 43.0393218403]}, "type": "Feature", "properties": {"collection_times": [{"days": "Mon-Sat", "time": "2:00pm"}, {"days": "Sun", "time": "Closed"}], "id": "1451300033", "name": "USPS COLLECTION BOX - BLUE BOX", "address": {"city": "NEWARK", "state": "NY", "street": "131 DRUMLIN CT", "postcode": "14513"}}},
{"geometry": {"type": "Point", "coordinates": [-77.0952328495, 43.0440930884]}, "type": "Feature", "properties": {"collection_times": [{"days": "Mon-Fri", "time": "5:00pm"}, {"days": "Sat", "time": "1:00pm"}, {"days": "Sun", "time": "Closed"}], "id": "1451300036", "name": "USPS COLLECTION BOX - PO LOBBY", "address": {"city": "NEWARK", "state": "NY", "street": "300 S MAIN ST", "postcode": "14513"}}},
{"geometry": {"type": "Point", "coordinates": [-77.7904442769, 43.1249574262]}, "type": "Feature", "properties": {"collection_times": [{"days": "Mon-Sat", "time": "10:00am"}, {"days": "Sun", "time": "Closed"}], "id": "1451400002", "name": "USPS COLLECTION BOX - BLUE BOX", "address": {"city": "NORTH CHILI", "state": "NY", "street": "2 FOXTAIL LN", "postcode": "14514"}}},
{"geometry": {"type": "Point", "coordinates": [-77.8034685225, 43.1128036963]}, "type": "Feature", "properties": {"collection_times": [{"days": "Mon-Fri", "time": "5:00pm"}, {"days": "Sat", "time": "11:45am"}, {"days": "Sun", "time": "Closed"}], "id": "1451400004", "name": "USPS COLLECTION BOX - BLUE BOX", "address": {"city": "NORTH CHILI", "state": "NY", "street": "3235 UNION ST", "postcode": "14514"}}},
{"geometry": {"type": "Point", "coordinates": [-77.8034685225, 43.1128036963]}, "type": "Feature", "properties": {"collection_times": [{"days": "Mon-Fri", "time": "5:00pm"}, {"days": "Sat", "time": "12:00pm"}, {"days": "Sun", "time": "Closed"}], "id": "1451400006", "name": "USPS COLLECTION BOX - PO LOBBY", "address": {"city": "NORTH CHILI", "state": "NY", "street": "3235 UNION ST", "postcode": "14514"}}},
{"geometry": {"type": "Point", "coordinates": [-77.8034685225, 43.1128036963]}, "type": "Feature", "properties": {"collection_times": [{"days": "Mon-Fri", "time": "5:00pm"}, {"days": "Sat", "time": "12:00pm"}, {"days": "Sun", "time": "Closed"}], "id": "1451400008", "name": "USPS COLLECTION BOX - APC", "address": {"city": "NORTH CHILI", "state": "NY", "street": "3235 UNION ST", "postcode": "14514"}}},
{"geometry": {"type": "Point", "coordinates": [-77.7328056981, 43.2527910835]}, "type": "Feature", "properties": {"collection_times": [{"days": "Mon-Fri", "time": "4:30pm"}, {"days": "Sat", "time": "11:45am"}, {"days": "Sun", "time": "Closed"}], "id": "1451500001", "name": "USPS COLLECTION BOX - BLUE BOX", "address": {"city": "NORTH GREECE", "state": "NY", "street": "640 N GREECE RD", "postcode": "14515"}}},
{"geometry": {"type": "Point", "coordinates": [-77.7329019612, 43.2525396723]}, "type": "Feature", "properties": {"collection_times": [{"days": "Mon-Fri", "time": "4:30pm"}, {"days": "Sat", "time": "12:00pm"}, {"days": "Sun", "time": "Closed"}], "id": "1451500004", "name": "USPS COLLECTION BOX - PO LOBBY", "address": {"city": "NORTH GREECE", "state": "NY", "street": "640 N GREECE RD", "postcode": "14515"}}},
{"geometry": {"type": "Point", "coordinates": [-76.9146976475, 43.1995734562]}, "type": "Feature", "properties": {"collection_times": [{"days": "Mon-Fri", "time": "4:15pm"}, {"days": "Sat", "time": "11:45am"}, {"days": "Sun", "time": "Closed"}], "id": "1451600001", "name": "USPS COLLECTION BOX - BLUE BOX", "address": {"city": "N ROSE", "state": "NY", "street": "10374 E RAILROAD AVE", "postcode": "14516"}}},
{"geometry": {"type": "Point", "coordinates": [-76.9146976475, 43.1995734562]}, "type": "Feature", "properties": {"collection_times": [{"days": "Mon-Fri", "time": "4:30pm"}, {"days": "Sat", "time": "12:00pm"}, {"days": "Sun", "time": "Closed"}], "id": "1451600002", "name": "USPS COLLECTION BOX - PO LOBBY", "address": {"city": "N ROSE", "state": "NY", "street": "10374 E RAILROAD AVE", "postcode": "14516"}}},
{"geometry": {"type": "Point", "coordinates": [-77.9424840778, 42.5802367627]}, "type": "Feature", "properties": {"collection_times": [{"days": "Mon-Fri", "time": "4:15pm"}, {"days": "Sat", "time": "11:45am"}, {"days": "Sun", "time": "Closed"}], "id": "1451700001", "name": "USPS COLLECTION BOX - BLUE BOX", "address": {"city": "NUNDA", "state": "NY", "street": "17 S STATE ST", "postcode": "14517"}}},
{"geometry": {"type": "Point", "coordinates": [-77.9424840778, 42.5802367627]}, "type": "Feature", "properties": {"collection_times": [{"days": "Mon-Fri", "time": "4:30pm"}, {"days": "Sat", "time": "12:00pm"}, {"days": "Sun", "time": "Closed"}], "id": "1451700003", "name": "USPS COLLECTION BOX - PO LOBBY", "address": {"city": "NUNDA", "state": "NY", "street": "17 S STATE ST", "postcode": "14517"}}},
{"geometry": {"type": "Point", "coordinates": [-77.0126051626, 42.9324240219]}, "type": "Feature", "properties": {"collection_times": [{"days": "Mon-Fri", "time": "4:45pm"}, {"days": "Sat", "time": "11:45am"}, {"days": "Sun", "time": "Closed"}], "id": "1451800001", "name": "USPS COLLECTION BOX - BLUE BOX", "address": {"city": "OAKS CORNERS", "state": "NY", "street": "2091 PRE EMPTION RD", "postcode": "14518"}}},
{"geometry": {"type": "Point", "coordinates": [-77.0126051626, 42.9324240219]}, "type": "Feature", "properties": {"collection_times": [{"days": "Mon-Fri", "time": "5:00pm"}, {"days": "Sat", "time": "12:00pm"}, {"days": "Sun", "time": "Closed"}], "id": "1451800002", "name": "USPS COLLECTION BOX - PO LOBBY", "address": {"city": "OAKS CORNERS", "state": "NY", "street": "2091 PRE EMPTION RD", "postcode": "14518"}}},
{"geometry": {"type": "Point", "coordinates": [-77.2845341311, 43.2222096656]}, "type": "Feature", "properties": {"collection_times": [{"days": "Mon-Fri", "time": "4:45pm"}, {"days": "Sat", "time": "11:45am"}, {"days": "Sun", "time": "Closed"}], "id": "1451900001", "name": "USPS COLLECTION BOX - BLUE BOX", "address": {"city": "ONTARIO", "state": "NY", "street": "2001 FURGUSON ST", "postcode": "14519"}}},
{"geometry": {"type": "Point", "coordinates": [-77.2845341311, 43.2222096656]}, "type": "Feature", "properties": {"collection_times": [{"days": "Mon-Fri", "time": "4:45pm"}, {"days": "Sat", "time": "11:45am"}, {"days": "Sun", "time": "Closed"}], "id": "1451900003", "name": "USPS COLLECTION BOX - BLUE BOX", "address": {"city": "ONTARIO", "state": "NY", "street": "2001 FURGUSON ST", "postcode": "14519"}}},
{"geometry": {"type": "Point", "coordinates": [-77.2845341311, 43.2222096656]}, "type": "Feature", "properties": {"collection_times": [{"days": "Mon-Fri", "time": "5:00pm"}, {"days": "Sat", "time": "12:00pm"}, {"days": "Sun", "time": "Closed"}], "id": "1451900004", "name": "USPS COLLECTION BOX - PO LOBBY", "address": {"city": "ONTARIO", "state": "NY", "street": "2001 FURGUSON ST", "postcode": "14519"}}},
{"geometry": {"type": "Point", "coordinates": [-77.2824923439, 43.2265026237]}, "type": "Feature", "properties": {"collection_times": [{"days": "Mon-Fri", "time": "10:30am"}, {"days": "Sat-Sun", "time": "Closed"}], "id": "1451900005", "name": "USPS COLLECTION BOX - BLUE BOX", "address": {"city": "ONTARIO", "state": "NY", "street": "6272 FURNACE RD", "postcode": "14519"}}},
{"geometry": {"type": "Point", "coordinates": [-77.3061649203, 43.2277611817]}, "type": "Feature", "properties": {"collection_times": [{"days": "Mon-Fri", "time": "4:45pm"}, {"days": "Sat", "time": "11:45am"}, {"days": "Sun", "time": "Closed"}], "id": "1452000001", "name": "USPS COLLECTION BOX - BLUE BOX", "address": {"city": "ONTARIO CENTER", "state": "NY", "street": "1544 RIDGE RD", "postcode": "14520"}}},
{"geometry": {"type": "Point", "coordinates": [-77.3061649203, 43.2277611817]}, "type": "Feature", "properties": {"collection_times": [{"days": "Mon-Fri", "time": "4:45pm"}, {"days": "Sat", "time": "11:45am"}, {"days": "Sun", "time": "Closed"}], "id": "1452000002", "name": "USPS COLLECTION BOX - PO LOBBY", "address": {"city": "ONTARIO CENTER", "state": "NY", "street": "1544 RIDGE RD", "postcode": "14520"}}},
{"geometry": {"type": "Point", "coordinates": [-76.8226300588, 42.6776049321]}, "type": "Feature", "properties": {"collection_times": [{"days": "Mon-Fri", "time": "4:15pm"}, {"days": "Sat", "time": "11:45am"}, {"days": "Sun", "time": "Closed"}], "id": "1452100001", "name": "USPS COLLECTION BOX - BLUE BOX", "address": {"city": "OVID", "state": "NY", "street": "7161 MAIN ST", "postcode": "14521"}}},
{"geometry": {"type": "Point", "coordinates": [-76.8226300588, 42.6776049321]}, "type": "Feature", "properties": {"collection_times": [{"days": "Mon-Fri", "time": "4:30pm"}, {"days": "Sat", "time": "12:00pm"}, {"days": "Sun", "time": "Closed"}], "id": "1452100002", "name": "USPS COLLECTION BOX - PO LOBBY", "address": {"city": "OVID", "state": "NY", "street": "7161 MAIN ST", "postcode": "14521"}}},
{"geometry": {"type": "Point", "coordinates": [-77.2311951514, 43.0653959367]}, "type": "Feature", "properties": {"collection_times": [{"days": "Mon-Sat", "time": "9:30am"}, {"days": "Sun", "time": "Closed"}], "id": "1452200001", "name": "USPS COLLECTION BOX - BLUE BOX", "address": {"city": "PALMYRA", "state": "NY", "street": "200 CANAL ST", "postcode": "14522"}}},
{"geometry": {"type": "Point", "coordinates": [-77.2246877199, 43.0599119444]}, "type": "Feature", "properties": {"collection_times": [{"days": "Mon-Fri", "time": "5:00pm"}, {"days": "Sat", "time": "2:00pm"}, {"days": "Sun", "time": "Closed"}], "id": "1452200011", "name": "USPS COLLECTION BOX - BLUE BOX", "address": {"city": "PALMYRA", "state": "NY", "street": "522 E MAIN ST", "postcode": "14522"}}},
{"geometry": {"type": "Point", "coordinates": [-77.2246877199, 43.0599119444]}, "type": "Feature", "properties": {"collection_times": [{"days": "Mon-Fri", "time": "5:00pm"}, {"days": "Sat", "time": "12:00pm"}, {"days": "Sun", "time": "Closed"}], "id": "1452200013", "name": "USPS COLLECTION BOX - PO LOBBY", "address": {"city": "PALMYRA", "state": "NY", "street": "522 E MAIN ST", "postcode": "14522"}}},
{"geometry": {"type": "Point", "coordinates": [-77.2246877199, 43.0599119444]}, "type": "Feature", "properties": {"collection_times": [{"days": "Mon-Fri", "time": "5:00pm"}, {"days": "Sat", "time": "2:00pm"}, {"days": "Sun", "time": "Closed"}], "id": "1452200014", "name": "USPS COLLECTION BOX - BLUE BOX", "address": {"city": "PALMYRA", "state": "NY", "street": "522 E MAIN ST", "postcode": "14522"}}},
{"geometry": {"type": "Point", "coordinates": [-78.0116500352, 42.8744886714]}, "type": "Feature", "properties": {"collection_times": [{"days": "Mon-Fri", "time": "4:15pm"}, {"days": "Sat", "time": "12:00pm"}, {"days": "Sun", "time": "Closed"}], "id": "1452500001", "name": "USPS COLLECTION BOX - BLUE BOX", "address": {"city": "PAVILION", "state": "NY", "street": "11142 LAKE ST", "postcode": "14525"}}},
{"geometry": {"type": "Point", "coordinates": [-78.0116500352, 42.8744886714]}, "type": "Feature", "properties": {"collection_times": [{"days": "Mon-Fri", "time": "4:30pm"}, {"days": "Sat", "time": "12:00pm"}, {"days": "Sun", "time": "Closed"}], "id": "1452500002", "name": "USPS COLLECTION BOX - PO LOBBY", "address": {"city": "PAVILION", "state": "NY", "street": "11142 LAKE ST", "postcode": "14525"}}},
{"geometry": {"type": "Point", "coordinates": [-77.4637997326, 43.1374577535]}, "type": "Feature", "properties": {"collection_times": [{"days": "Mon-Sat", "time": "10:00am"}, {"days": "Sun", "time": "Closed"}], "id": "1452600003", "name": "USPS COLLECTION BOX - BLUE BOX", "address": {"city": "PENFIELD", "state": "NY", "street": "1985 BAIRD RD", "postcode": "14526"}}},
{"geometry": {"type": "Point", "coordinates": [-77.4452059836, 43.1307480103]}, "type": "Feature", "properties": {"collection_times": [{"days": "Mon-Sat", "time": "12:00pm"}, {"days": "Sun", "time": "Closed"}], "id": "1452600010", "name": "USPS COLLECTION BOX - BLUE BOX", "address": {"city": "PENFIELD", "state": "NY", "street": "2157 PENFIELD RD", "postcode": "14526"}}},
{"geometry": {"type": "Point", "coordinates": [-77.4757071203, 43.133559643]}, "type": "Feature", "properties": {"collection_times": [{"days": "Mon-Sat", "time": "10:00am"}, {"days": "Sun", "time": "Closed"}], "id": "1452600013", "name": "USPS COLLECTION BOX - BLUE BOX", "address": {"city": "PENFIELD", "state": "NY", "street": "2070 FIVE MILE LINE RD", "postcode": "14526"}}},
{"geometry": {"type": "Point", "coordinates": [-77.4452059836, 43.1307480103]}, "type": "Feature", "properties": {"collection_times": [{"days": "Mon-Sat", "time": "12:00pm"}, {"days": "Sun", "time": "Closed"}], "id": "1452600014", "name": "USPS COLLECTION BOX - BLUE BOX", "address": {"city": "PENFIELD", "state": "NY", "street": "2157 PENFIELD RD", "postcode": "14526"}}},
{"geometry": {"type": "Point", "coordinates": [-77.4579797552, 43.1391300847]}, "type": "Feature", "properties": {"collection_times": [{"days": "Mon-Fri", "time": "5:00pm"}, {"days": "Sat", "time": "2:00pm"}, {"days": "Sun", "time": "Closed"}], "id": "1452600015", "name": "USPS COLLECTION BOX - BLUE BOX", "address": {"city": "PENFIELD", "state": "NY", "street": "2080 FAIRPORT NINE MILE POINT RD", "postcode": "14526"}}},
{"geometry": {"type": "Point", "coordinates": [-77.4579797552, 43.1391300847]}, "type": "Feature", "properties": {"collection_times": [{"days": "Mon-Fri", "time": "5:00pm"}, {"days": "Sat", "time": "2:00pm"}, {"days": "Sun", "time": "Closed"}], "id": "1452600016", "name": "USPS COLLECTION BOX - BLUE BOX", "address": {"city": "PENFIELD", "state": "NY", "street": "2080 FAIRPORT NINE MILE POINT RD", "postcode": "14526"}}},
{"geometry": {"type": "Point", "coordinates": [-77.4579797552, 43.1391300847]}, "type": "Feature", "properties": {"collection_times": [{"days": "Mon-Fri", "time": "5:00pm"}, {"days": "Sat", "time": "2:00pm"}, {"days": "Sun", "time": "Closed"}], "id": "1452600017", "name": "USPS COLLECTION BOX - BLUE BOX", "address": {"city": "PENFIELD", "state": "NY", "street": "2080 FAIRPORT NINE MILE POINT RD", "postcode": "14526"}}},
{"geometry": {"type": "Point", "coordinates": [-77.4579797552, 43.1391300847]}, "type": "Feature", "properties": {"collection_times": [{"days": "Mon-Fri", "time": "5:00pm"}, {"days": "Sat", "time": "2:00pm"}, {"days": "Sun", "time": "Closed"}], "id": "1452600018", "name": "USPS COLLECTION BOX - PO LOBBY", "address": {"city": "PENFIELD", "state": "NY", "street": "2080 FAIRPORT NINE MILE POINT RD", "postcode": "14526"}}},
{"geometry": {"type": "Point", "coordinates": [-77.4625091244, 43.1112871524]}, "type": "Feature", "properties": {"collection_times": [{"days": "Mon-Sat", "time": "10:00am"}, {"days": "Sun", "time": "Closed"}], "id": "1452600019", "name": "USPS COLLECTION BOX - BLUE BOX", "address": {"city": "PENFIELD", "state": "NY", "street": "2555 BAIRD RD", "postcode": "14526"}}},
{"geometry": {"type": "Point", "coordinates": [-77.4759120495, 43.1286352456]}, "type": "Feature", "properties": {"collection_times": [{"days": "Mon-Sat", "time": "10:00am"}, {"days": "Sun", "time": "Closed"}], "id": "1452600020", "name": "USPS COLLECTION BOX - BLUE BOX", "address": {"city": "PENFIELD", "state": "NY", "street": "2136 FIVE MILE LINE RD", "postcode": "14526"}}},
{"geometry": {"type": "Point", "coordinates": [-77.4579797552, 43.1391300847]}, "type": "Feature", "properties": {"collection_times": [{"days": "Mon-Fri", "time": "5:00pm"}, {"days": "Sat", "time": "2:00pm"}, {"days": "Sun", "time": "Closed"}], "id": "1452600022", "name": "USPS COLLECTION BOX - APC", "address": {"city": "PENFIELD", "state": "NY", "street": "2080 FAIRPORT NINE MILE POINT RD", "postcode": "14526"}}},
{"geometry": {"type": "Point", "coordinates": [-77.4579797552, 43.1391300847]}, "type": "Feature", "properties": {"collection_times": [{"days": "Mon-Fri", "time": "5:00pm"}, {"days": "Sat", "time": "2:00pm"}, {"days": "Sun", "time": "Closed"}], "id": "1452600023", "name": "USPS COLLECTION BOX - APC", "address": {"city": "PENFIELD", "state": "NY", "street": "2080 FAIRPORT NINE MILE POINT RD", "postcode": "14526"}}},
{"geometry": {"type": "Point", "coordinates": [-77.0546733746, 42.6625730725]}, "type": "Feature", "properties": {"collection_times": [{"days": "Mon-Fri", "time": "5:00pm"}, {"days": "Sat", "time": "12:00pm"}, {"days": "Sun", "time": "Closed"}], "id": "1452700001", "name": "USPS COLLECTION BOX - BLUE BOX", "address": {"city": "PENN YAN", "state": "NY", "street": "160 MAIN ST", "postcode": "14527"}}},
{"geometry": {"type": "Point", "coordinates": [-77.0576033933, 42.6630648234]}, "type": "Feature", "properties": {"collection_times": [{"days": "Mon-Fri", "time": "3:00pm"}, {"days": "Sat", "time": "12:00pm"}, {"days": "Sun", "time": "Closed"}], "id": "1452700002", "name": "USPS COLLECTION BOX - BLUE BOX", "address": {"city": "PENN YAN", "state": "NY", "street": "415 LIBERTY ST", "postcode": "14527"}}},
{"geometry": {"type": "Point", "coordinates": [-77.0578979603, 42.6542918485]}, "type": "Feature", "properties": {"collection_times": [{"days": "Mon-Sat", "time": "12:00pm"}, {"days": "Sun", "time": "Closed"}], "id": "1452700007", "name": "USPS COLLECTION BOX - BLUE BOX", "address": {"city": "PENN YAN", "state": "NY", "street": "232 LAKE STREET PLZ", "postcode": "14527"}}},
{"geometry": {"type": "Point", "coordinates": [-77.0537412029, 42.661090825]}, "type": "Feature", "properties": {"collection_times": [{"days": "Mon-Fri", "time": "3:00pm"}, {"days": "Sat", "time": "12:00pm"}, {"days": "Sun", "time": "Closed"}], "id": "1452700009", "name": "USPS COLLECTION BOX - BLUE BOX", "address": {"city": "PENN YAN", "state": "NY", "street": "100 MAIN ST", "postcode": "14527"}}},
{"geometry": {"type": "Point", "coordinates": [-77.052863106, 42.6652368756]}, "type": "Feature", "properties": {"collection_times": [{"days": "Mon-Fri", "time": "3:00pm"}, {"days": "Sat", "time": "12:00pm"}, {"days": "Sun", "time": "Closed"}], "id": "1452700012", "name": "USPS COLLECTION BOX - BLUE BOX", "address": {"city": "PENN YAN", "state": "NY", "street": "1 MAIDEN LN", "postcode": "14527"}}},
{"geometry": {"type": "Point", "coordinates": [-77.0546023971, 42.6624595085]}, "type": "Feature", "properties": {"collection_times": [{"days": "Mon-Fri", "time": "5:00pm"}, {"days": "Sat", "time": "12:00pm"}, {"days": "Sun", "time": "Closed"}], "id": "1452700014", "name": "USPS COLLECTION BOX - BLUE BOX", "address": {"city": "PENN YAN", "state": "NY", "street": "159 MAIN ST", "postcode": "14527"}}},
{"geometry": {"type": "Point", "coordinates": [-77.0546023971, 42.6624595085]}, "type": "Feature", "properties": {"collection_times": [{"days": "Mon-Fri", "time": "5:00pm"}, {"days": "Sat", "time": "12:00pm"}, {"days": "Sun", "time": "Closed"}], "id": "1452700016", "name": "USPS COLLECTION BOX - PO LOBBY", "address": {"city": "PENN YAN", "state": "NY", "street": "159 MAIN ST", "postcode": "14527"}}},
{"geometry": {"type": "Point", "coordinates": [-77.0576033933, 42.6630648234]}, "type": "Feature", "properties": {"collection_times": [{"days": "Mon-Fri", "time": "3:00pm"}, {"days": "Sat", "time": "12:00pm"}, {"days": "Sun", "time": "Closed"}], "id": "1452700017", "name": "USPS COLLECTION BOX - BLUE BOX", "address": {"city": "PENN YAN", "state": "NY", "street": "415 LIBERTY ST", "postcode": "14527"}}},
{"geometry": {"type": "Point", "coordinates": [-77.0596832058, 42.6706160106]}, "type": "Feature", "properties": {"collection_times": [{"days": "Mon-Sat", "time": "12:00pm"}, {"days": "Sun", "time": "Closed"}], "id": "1452700018", "name": "USPS COLLECTION BOX - BLUE BOX", "address": {"city": "PENN YAN", "state": "NY", "street": "418 N MAIN ST", "postcode": "14527"}}},
{"geometry": {"type": "Point", "coordinates": [-77.0576033933, 42.6630648234]}, "type": "Feature", "properties": {"collection_times": [{"days": "Mon-Fri", "time": "3:00pm"}, {"days": "Sat", "time": "12:00pm"}, {"days": "Sun", "time": "Closed"}], "id": "1452700019", "name": "USPS COLLECTION BOX - BLUE BOX", "address": {"city": "PENN YAN", "state": "NY", "street": "415 LIBERTY ST", "postcode": "14527"}}},
{"geometry": {"type": "Point", "coordinates": [-77.625379793, 42.537501199]}, "type": "Feature", "properties": {"collection_times": [{"days": "Mon-Fri", "time": "5:00pm"}, {"days": "Sat", "time": "12:00pm"}, {"days": "Sun", "time": "Closed"}], "id": "1452900001", "name": "USPS COLLECTION BOX - BLUE BOX", "address": {"city": "PERKINSVILLE", "state": "NY", "street": "1904 MAIN ST", "postcode": "14529"}}},
{"geometry": {"type": "Point", "coordinates": [-77.625379793, 42.537501199]}, "type": "Feature", "properties": {"collection_times": [{"days": "Mon-Fri", "time": "5:00pm"}, {"days": "Sat", "time": "12:00pm"}, {"days": "Sun", "time": "Closed"}], "id": "1452900002", "name": "USPS COLLECTION BOX - PO LOBBY", "address": {"city": "PERKINSVILLE", "state": "NY", "street": "1904 MAIN ST", "postcode": "14529"}}},
{"geometry": {"type": "Point", "coordinates": [-78.0029770504, 42.7177462787]}, "type": "Feature", "properties": {"collection_times": [{"days": "Mon-Fri", "time": "5:00pm"}, {"days": "Sat", "time": "11:45am"}, {"days": "Sun", "time": "Closed"}], "id": "1453000001", "name": "USPS COLLECTION BOX - BLUE BOX", "address": {"city": "PERRY", "state": "NY", "street": "24 MAIN ST N", "postcode": "14530"}}},
{"geometry": {"type": "Point", "coordinates": [-78.00545481, 42.7250702412]}, "type": "Feature", "properties": {"collection_times": [{"days": "Mon-Sat", "time": "12:00pm"}, {"days": "Sun", "time": "Closed"}], "id": "1453000006", "name": "USPS COLLECTION BOX - BLUE BOX", "address": {"city": "PERRY", "state": "NY", "street": "102 N CENTER ST", "postcode": "14530"}}},
{"geometry": {"type": "Point", "coordinates": [-78.0056040656, 42.7264570929]}, "type": "Feature", "properties": {"collection_times": [{"days": "Mon-Sat", "time": "12:00pm"}, {"days": "Sun", "time": "Closed"}], "id": "1453000009", "name": "USPS COLLECTION BOX - BLUE BOX", "address": {"city": "PERRY", "state": "NY", "street": "121 N CENTER ST", "postcode": "14530"}}},
{"geometry": {"type": "Point", "coordinates": [-78.0029770504, 42.7177462787]}, "type": "Feature", "properties": {"collection_times": [{"days": "Mon-Fri", "time": "5:00pm"}, {"days": "Sat", "time": "3:00pm"}, {"days": "Sun", "time": "Closed"}], "id": "1453000016", "name": "USPS COLLECTION BOX - PO LOBBY", "address": {"city": "PERRY", "state": "NY", "street": "24 MAIN ST N", "postcode": "14530"}}},
{"geometry": {"type": "Point", "coordinates": [-77.0580388929, 42.9575048528]}, "type": "Feature", "properties": {"collection_times": [{"days": "Mon-Fri", "time": "4:30pm"}, {"days": "Sat", "time": "3:00pm"}, {"days": "Sun", "time": "Closed"}], "id": "1453200001", "name": "USPS COLLECTION BOX - BLUE BOX", "address": {"city": "PHELPS", "state": "NY", "street": "6 CHURCH ST", "postcode": "14532"}}},
{"geometry": {"type": "Point", "coordinates": [-77.0580388929, 42.9575048528]}, "type": "Feature", "properties": {"collection_times": [{"days": "Mon-Fri", "time": "4:30pm"}, {"days": "Sat", "time": "3:00pm"}, {"days": "Sun", "time": "Closed"}], "id": "1453200002", "name": "USPS COLLECTION BOX - PO LOBBY", "address": {"city": "PHELPS", "state": "NY", "street": "6 CHURCH ST", "postcode": "14532"}}},
{"geometry": {"type": "Point", "coordinates": [-76.9249154573, 42.9581681881]}, "type": "Feature", "properties": {"collection_times": [{"days": "Mon-Sat", "time": "10:00am"}, {"days": "Sun", "time": "Closed"}], "id": "1453200003", "name": "USPS COLLECTION BOX - BLUE BOX", "address": {"city": "PHELPS", "state": "NY", "street": "1399 NINE FOOT RD", "postcode": "14532"}}},
{"geometry": {"type": "Point", "coordinates": [-77.8518469449, 42.8283434782]}, "type": "Feature", "properties": {"collection_times": [{"days": "Mon-Fri", "time": "4:45pm"}, {"days": "Sat", "time": "11:45am"}, {"days": "Sun", "time": "Closed"}], "id": "1453300001", "name": "USPS COLLECTION BOX - BLUE BOX", "address": {"city": "PIFFARD", "state": "NY", "street": "3215 GENESEE ST", "postcode": "14533"}}},
{"geometry": {"type": "Point", "coordinates": [-77.8518469449, 42.8283434782]}, "type": "Feature", "properties": {"collection_times": [{"days": "Mon-Fri", "time": "5:00pm"}, {"days": "Sat", "time": "12:00pm"}, {"days": "Sun", "time": "Closed"}], "id": "1453300002", "name": "USPS COLLECTION BOX - PO LOBBY", "address": {"city": "PIFFARD", "state": "NY", "street": "3215 GENESEE ST", "postcode": "14533"}}},
{"geometry": {"type": "Point", "coordinates": [-77.4698896054, 43.0506900794]}, "type": "Feature", "properties": {"collection_times": [{"days": "Mon-Fri", "time": "3:00pm"}, {"days": "Sat", "time": "12:00pm"}, {"days": "Sun", "time": "Closed"}], "id": "1453400002", "name": "USPS COLLECTION BOX - BLUE BOX", "address": {"city": "PITTSFORD", "state": "NY", "street": "1000 PITTSFORD VICTOR RD", "postcode": "14534"}}},
{"geometry": {"type": "Point", "coordinates": [-77.516026188, 43.0962375484]}, "type": "Feature", "properties": {"collection_times": [{"days": "Mon-Fri", "time": "2:30pm"}, {"days": "Sat", "time": "12:00pm"}, {"days": "Sun", "time": "Closed"}], "id": "1453400003", "name": "USPS COLLECTION BOX - BLUE BOX", "address": {"city": "PITTSFORD", "state": "NY", "street": "1 GROVE ST", "postcode": "14534"}}},
{"geometry": {"type": "Point", "coordinates": [-77.4734136402, 43.0611415218]}, "type": "Feature", "properties": {"collection_times": [{"days": "Mon-Fri", "time": "2:30pm"}, {"days": "Sat", "time": "12:00pm"}, {"days": "Sun", "time": "Closed"}], "id": "1453400005", "name": "USPS COLLECTION BOX - BLUE BOX", "address": {"city": "PITTSFORD", "state": "NY", "street": "640 KREAG RD", "postcode": "14534"}}},
{"geometry": {"type": "Point", "coordinates": [-77.5148668882, 43.0915991663]}, "type": "Feature", "properties": {"collection_times": [{"days": "Mon-Fri", "time": "2:30pm"}, {"days": "Sat", "time": "12:00pm"}, {"days": "Sun", "time": "Closed"}], "id": "1453400006", "name": "USPS COLLECTION BOX - BLUE BOX", "address": {"city": "PITTSFORD", "state": "NY", "street": "20 N MAIN ST", "postcode": "14534"}}},
{"geometry": {"type": "Point", "coordinates": [-77.5155139668, 43.090482453]}, "type": "Feature", "properties": {"collection_times": [{"days": "Mon-Fri", "time": "10:30am"}, {"days": "Sat", "time": "12:00pm"}, {"days": "Sun", "time": "Closed"}], "id": "1453400008", "name": "USPS COLLECTION BOX - BLUE BOX", "address": {"city": "PITTSFORD", "state": "NY", "street": "11 S MAIN ST", "postcode": "14534"}}},
{"geometry": {"type": "Point", "coordinates": [-77.514902377, 43.0915116273]}, "type": "Feature", "properties": {"collection_times": [{"days": "Mon-Fri", "time": "10:30am"}, {"days": "Sat", "time": "12:00pm"}, {"days": "Sun", "time": "Closed"}], "id": "1453400009", "name": "USPS COLLECTION BOX - BLUE BOX", "address": {"city": "PITTSFORD", "state": "NY", "street": "16 S MAIN ST", "postcode": "14534"}}},
{"geometry": {"type": "Point", "coordinates": [-77.5202966699, 43.0926401702]}, "type": "Feature", "properties": {"collection_times": [{"days": "Mon-Fri", "time": "2:30pm"}, {"days": "Sat", "time": "12:00pm"}, {"days": "Sun", "time": "Closed"}], "id": "1453400011", "name": "USPS COLLECTION BOX - BLUE BOX", "address": {"city": "PITTSFORD", "state": "NY", "street": "57 MONROE AVE", "postcode": "14534"}}},
{"geometry": {"type": "Point", "coordinates": [-77.5202061825, 43.0553460788]}, "type": "Feature", "properties": {"collection_times": [{"days": "Mon-Fri", "time": "1:00pm"}, {"days": "Sat", "time": "12:00pm"}, {"days": "Sun", "time": "Closed"}], "id": "1453400012", "name": "USPS COLLECTION BOX - BLUE BOX", "address": {"city": "PITTSFORD", "state": "NY", "street": "649 PITTSFORD VICTOR RD", "postcode": "14534"}}},
{"geometry": {"type": "Point", "coordinates": [-77.4672019226, 43.0555342963]}, "type": "Feature", "properties": {"collection_times": [{"days": "Mon-Fri", "time": "2:30pm"}, {"days": "Sat", "time": "12:00pm"}, {"days": "Sun", "time": "Closed"}], "id": "1453400019", "name": "USPS COLLECTION BOX - BLUE BOX", "address": {"city": "PITTSFORD", "state": "NY", "street": "171 SULLYS TRL", "postcode": "14534"}}},
{"geometry": {"type": "Point", "coordinates": [-77.4948867113, 43.0814008771]}, "type": "Feature", "properties": {"collection_times": [{"days": "Mon-Fri", "time": "5:00pm"}, {"days": "Sat", "time": "2:45pm"}, {"days": "Sun", "time": "Closed"}], "id": "1453400020", "name": "USPS COLLECTION BOX - BLUE BOX", "address": {"city": "PITTSFORD", "state": "NY", "street": "5607 PALMYRA RD", "postcode": "14534"}}},
{"geometry": {"type": "Point", "coordinates": [-77.4671557872, 43.0598012293]}, "type": "Feature", "properties": {"collection_times": [{"days": "Mon-Fri", "time": "2:30pm"}, {"days": "Sat", "time": "12:00pm"}, {"days": "Sun", "time": "Closed"}], "id": "1453400021", "name": "USPS COLLECTION BOX - BLUE BOX", "address": {"city": "PITTSFORD", "state": "NY", "street": "101 SULLYS TRL", "postcode": "14534"}}},
{"geometry": {"type": "Point", "coordinates": [-77.5168069409, 43.0948298272]}, "type": "Feature", "properties": {"collection_times": [{"days": "Mon-Fri", "time": "2:30pm"}, {"days": "Sat", "time": "12:00pm"}, {"days": "Sun", "time": "Closed"}], "id": "1453400022", "name": "USPS COLLECTION BOX - BLUE BOX", "address": {"city": "PITTSFORD", "state": "NY", "street": "40 GROVE ST", "postcode": "14534"}}},
{"geometry": {"type": "Point", "coordinates": [-77.467248058, 43.0444227628]}, "type": "Feature", "properties": {"collection_times": [{"days": "Mon-Fri", "time": "2:30pm"}, {"days": "Sat", "time": "12:00pm"}, {"days": "Sun", "time": "Closed"}], "id": "1453400026", "name": "USPS COLLECTION BOX - BLUE BOX", "address": {"city": "PITTSFORD", "state": "NY", "street": "15 FISHERS RD", "postcode": "14534"}}},
{"geometry": {"type": "Point", "coordinates": [-77.5202966699, 43.0926401702]}, "type": "Feature", "properties": {"collection_times": [{"days": "Mon-Fri", "time": "2:30pm"}, {"days": "Sat", "time": "12:00pm"}, {"days": "Sun", "time": "Closed"}], "id": "1453400030", "name": "USPS COLLECTION BOX - BLUE BOX", "address": {"city": "PITTSFORD", "state": "NY", "street": "57 MONROE AVE", "postcode": "14534"}}},
{"geometry": {"type": "Point", "coordinates": [-77.4948867113, 43.0814008771]}, "type": "Feature", "properties": {"collection_times": [{"days": "Mon-Fri", "time": "5:00pm"}, {"days": "Sat", "time": "2:45pm"}, {"days": "Sun", "time": "Closed"}], "id": "1453400032", "name": "USPS COLLECTION BOX - BLUE BOX", "address": {"city": "PITTSFORD", "state": "NY", "street": "5607 PALMYRA RD", "postcode": "14534"}}},
{"geometry": {"type": "Point", "coordinates": [-77.5202061825, 43.0553460788]}, "type": "Feature", "properties": {"collection_times": [{"days": "Mon-Fri", "time": "2:30pm"}, {"days": "Sat", "time": "12:00pm"}, {"days": "Sun", "time": "Closed"}], "id": "1453400037", "name": "USPS COLLECTION BOX - BLUE BOX", "address": {"city": "PITTSFORD", "state": "NY", "street": "1151 PITTSFORD VICTOR RD", "postcode": "14534"}}},
{"geometry": {"type": "Point", "coordinates": [-77.4948867113, 43.0814008771]}, "type": "Feature", "properties": {"collection_times": [{"days": "Mon-Fri", "time": "5:00pm"}, {"days": "Sat", "time": "2:45pm"}, {"days": "Sun", "time": "Closed"}], "id": "1453400041", "name": "USPS COLLECTION BOX - BLUE BOX", "address": {"city": "PITTSFORD", "state": "NY", "street": "5607 PALMYRA RD", "postcode": "14534"}}},
{"geometry": {"type": "Point", "coordinates": [-77.495064751, 43.081473954]}, "type": "Feature", "properties": {"collection_times": [{"days": "Mon-Fri", "time": "5:00pm"}, {"days": "Sat", "time": "2:45pm"}, {"days": "Sun", "time": "Closed"}], "id": "1453400043", "name": "USPS COLLECTION BOX - BLUE BOX", "address": {"city": "PITTSFORD", "state": "NY", "street": "5607 PALMYRA RD", "postcode": "14534"}}},
{"geometry": {"type": "Point", "coordinates": [-77.5457941674, 43.0866827888]}, "type": "Feature", "properties": {"collection_times": [{"days": "Mon-Fri", "time": "2:30pm"}, {"days": "Sat", "time": "12:00pm"}, {"days": "Sun", "time": "Closed"}], "id": "1453400045", "name": "USPS COLLECTION BOX - BLUE BOX", "address": {"city": "PITTSFORD", "state": "NY", "street": "10 OFFICE PARK WAY", "postcode": "14534"}}},
{"geometry": {"type": "Point", "coordinates": [-77.5457941674, 43.0866827888]}, "type": "Feature", "properties": {"collection_times": [{"days": "Mon-Fri", "time": "2:30pm"}, {"days": "Sat", "time": "12:00pm"}, {"days": "Sun", "time": "Closed"}], "id": "1453400046", "name": "USPS COLLECTION BOX - BLUE BOX", "address": {"city": "PITTSFORD", "state": "NY", "street": "10 OFFICE PARK WAY", "postcode": "14534"}}},
{"geometry": {"type": "Point", "coordinates": [-77.4684570421, 43.0542567007]}, "type": "Feature", "properties": {"collection_times": [{"days": "Mon-Fri", "time": "2:30pm"}, {"days": "Sat", "time": "12:00pm"}, {"days": "Sun", "time": "Closed"}], "id": "1453400049", "name": "USPS COLLECTION BOX - BLUE BOX", "address": {"city": "PITTSFORD", "state": "NY", "street": "179 SULLYS TRL", "postcode": "14534"}}},
{"geometry": {"type": "Point", "coordinates": [-77.542548128, 43.0865538463]}, "type": "Feature", "properties": {"collection_times": [{"days": "Mon-Fri", "time": "2:30pm"}, {"days": "Sat", "time": "12:00pm"}, {"days": "Sun", "time": "Closed"}], "id": "1453400050", "name": "USPS COLLECTION BOX - BLUE BOX", "address": {"city": "PITTSFORD", "state": "NY", "street": "2850 CLOVER ST", "postcode": "14534"}}},
{"geometry": {"type": "Point", "coordinates": [-77.4677271564, 43.046320229]}, "type": "Feature", "properties": {"collection_times": [{"days": "Mon-Fri", "time": "2:30pm"}, {"days": "Sat", "time": "12:00pm"}, {"days": "Sun", "time": "Closed"}], "id": "1453400054", "name": "USPS COLLECTION BOX - BLUE BOX", "address": {"city": "PITTSFORD", "state": "NY", "street": "1150 PITTSFORD VICTOR RD", "postcode": "14534"}}},
{"geometry": {"type": "Point", "coordinates": [-77.4681352773, 43.0548162402]}, "type": "Feature", "properties": {"collection_times": [{"days": "Mon-Fri", "time": "2:30pm"}, {"days": "Sat", "time": "12:00pm"}, {"days": "Sun", "time": "Closed"}], "id": "1453400056", "name": "USPS COLLECTION BOX - BLUE BOX", "address": {"city": "PITTSFORD", "state": "NY", "street": "175 SULLYS TRL", "postcode": "14534"}}},
{"geometry": {"type": "Point", "coordinates": [-77.4948867113, 43.0814008771]}, "type": "Feature", "properties": {"collection_times": [{"days": "Mon-Fri", "time": "5:00pm"}, {"days": "Sat", "time": "2:45pm"}, {"days": "Sun", "time": "Closed"}], "id": "1453400057", "name": "USPS COLLECTION BOX - APC", "address": {"city": "PITTSFORD", "state": "NY", "street": "5607 PALMYRA RD", "postcode": "14534"}}},
{"geometry": {"type": "Point", "coordinates": [-78.0414240937, 42.569449333]}, "type": "Feature", "properties": {"collection_times": [{"days": "Mon-Fri", "time": "4:45pm"}, {"days": "Sat", "time": "11:45am"}, {"days": "Sun", "time": "Closed"}], "id": "1453600001", "name": "USPS COLLECTION BOX - BLUE BOX", "address": {"city": "PORTAGEVILLE", "state": "NY", "street": "6676 HAMILTON ST", "postcode": "14536"}}},
{"geometry": {"type": "Point", "coordinates": [-78.0414240937, 42.569449333]}, "type": "Feature", "properties": {"collection_times": [{"days": "Mon-Fri", "time": "5:00pm"}, {"days": "Sat", "time": "12:00pm"}, {"days": "Sun", "time": "Closed"}], "id": "1453600002", "name": "USPS COLLECTION BOX - PO LOBBY", "address": {"city": "PORTAGEVILLE", "state": "NY", "street": "6676 HAMILTON ST", "postcode": "14536"}}},
{"geometry": {"type": "Point", "coordinates": [-77.2207743203, 42.9556439114]}, "type": "Feature", "properties": {"collection_times": [{"days": "Mon-Fri", "time": "4:45pm"}, {"days": "Sat", "time": "11:45am"}, {"days": "Sun", "time": "Closed"}], "id": "1453700001", "name": "USPS COLLECTION BOX - BLUE BOX", "address": {"city": "PORT GIBSON", "state": "NY", "street": "41 ATWATER ST", "postcode": "14537"}}},
{"geometry": {"type": "Point", "coordinates": [-77.2207743203, 42.9556439114]}, "type": "Feature", "properties": {"collection_times": [{"days": "Mon-Fri", "time": "5:00pm"}, {"days": "Sat", "time": "12:00pm"}, {"days": "Sun", "time": "Closed"}], "id": "1453700002", "name": "USPS COLLECTION BOX - PO LOBBY", "address": {"city": "PORT GIBSON", "state": "NY", "street": "41 ATWATER ST", "postcode": "14537"}}},
{"geometry": {"type": "Point", "coordinates": [-77.1871173441, 43.2208405379]}, "type": "Feature", "properties": {"collection_times": [{"days": "Mon-Fri", "time": "4:45pm"}, {"days": "Sat", "time": "11:45am"}, {"days": "Sun", "time": "Closed"}], "id": "1453800001", "name": "USPS COLLECTION BOX - BLUE BOX", "address": {"city": "PULTNEYVILLE", "state": "NY", "street": "4133 MILL ST", "postcode": "14538"}}},
{"geometry": {"type": "Point", "coordinates": [-77.1871173441, 43.2208405379]}, "type": "Feature", "properties": {"collection_times": [{"days": "Mon-Fri", "time": "4:45pm"}, {"days": "Sat", "time": "12:00pm"}, {"days": "Sun", "time": "Closed"}], "id": "1453800002", "name": "USPS COLLECTION BOX - PO LOBBY", "address": {"city": "PULTNEYVILLE", "state": "NY", "street": "4133 MILL ST", "postcode": "14538"}}},
{"geometry": {"type": "Point", "coordinates": [-77.8815615386, 42.8333882026]}, "type": "Feature", "properties": {"collection_times": [{"days": "Mon-Fri", "time": "4:45pm"}, {"days": "Sat", "time": "11:45am"}, {"days": "Sun", "time": "Closed"}], "id": "1453900001", "name": "USPS COLLECTION BOX - BLUE BOX", "address": {"city": "RETSOF", "state": "NY", "street": "3681 RETSOF RD", "postcode": "14539"}}},
{"geometry": {"type": "Point", "coordinates": [-77.8815615386, 42.8333882026]}, "type": "Feature", "properties": {"collection_times": [{"days": "Mon-Fri", "time": "5:00pm"}, {"days": "Sat", "time": "12:00pm"}, {"days": "Sun", "time": "Closed"}], "id": "1453900002", "name": "USPS COLLECTION BOX - PO LOBBY", "address": {"city": "RETSOF", "state": "NY", "street": "3681 RETSOF RD", "postcode": "14539"}}},
{"geometry": {"type": "Point", "coordinates": [-76.8353660348, 42.7517090973]}, "type": "Feature", "properties": {"collection_times": [{"days": "Mon-Fri", "time": "4:30pm"}, {"days": "Sat", "time": "12:00pm"}, {"days": "Sun", "time": "Closed"}], "id": "1454100001", "name": "USPS COLLECTION BOX - PO LOBBY", "address": {"city": "ROMULUS", "state": "NY", "street": "1969 SENECA ST", "postcode": "14541"}}},
{"geometry": {"type": "Point", "coordinates": [-76.8353660348, 42.7517090973]}, "type": "Feature", "properties": {"collection_times": [{"days": "Mon-Fri", "time": "4:15pm"}, {"days": "Sat", "time": "11:45am"}, {"days": "Sun", "time": "Closed"}], "id": "1454100003", "name": "USPS COLLECTION BOX - BLUE BOX", "address": {"city": "ROMULUS", "state": "NY", "street": "1969 SENECA ST", "postcode": "14541"}}},
{"geometry": {"type": "Point", "coordinates": [-76.877962946, 43.1538532453]}, "type": "Feature", "properties": {"collection_times": [{"days": "Mon-Fri", "time": "4:45pm"}, {"days": "Sat", "time": "11:45am"}, {"days": "Sun", "time": "Closed"}], "id": "1454200000", "name": "USPS COLLECTION BOX - BLUE BOX", "address": {"city": "ROSE", "state": "NY", "street": "10660 WOLCOTT ST", "postcode": "14542"}}},
{"geometry": {"type": "Point", "coordinates": [-76.9990608191, 43.0649278529]}, "type": "Feature", "properties": {"collection_times": [{"days": "Mon-Fri", "time": "4:45pm"}, {"days": "Sat", "time": "12:00pm"}, {"days": "Sun", "time": "Closed"}], "id": "1454200001", "name": "USPS COLLECTION BOX - PO LOBBY", "address": {"city": "ROSE", "state": "NY", "street": "10660 WOLCOTT ST", "postcode": "14542"}}},
{"geometry": {"type": "Point", "coordinates": [-77.6426016143, 42.9909589324]}, "type": "Feature", "properties": {"collection_times": [{"days": "Mon-Fri", "time": "4:00pm"}, {"days": "Sat", "time": "11:45am"}, {"days": "Sun", "time": "Closed"}], "id": "1454300001", "name": "USPS COLLECTION BOX - BLUE BOX", "address": {"city": "RUSH", "state": "NY", "street": "6144 RUSH LIMA RD", "postcode": "14543"}}},
{"geometry": {"type": "Point", "coordinates": [-77.6426016143, 42.9909589324]}, "type": "Feature", "properties": {"collection_times": [{"days": "Mon-Fri", "time": "4:00pm"}, {"days": "Sat", "time": "12:00pm"}, {"days": "Sun", "time": "Closed"}], "id": "1454300004", "name": "USPS COLLECTION BOX - PO LOBBY", "address": {"city": "RUSH", "state": "NY", "street": "6144 RUSH LIMA RD", "postcode": "14543"}}},
{"geometry": {"type": "Point", "coordinates": [-77.2262556577, 42.7597708959]}, "type": "Feature", "properties": {"collection_times": [{"days": "Mon-Fri", "time": "3:30pm"}, {"days": "Sat", "time": "11:45am"}, {"days": "Sun", "time": "Closed"}], "id": "1454400001", "name": "USPS COLLECTION BOX - BLUE BOX", "address": {"city": "RUSHVILLE", "state": "NY", "street": "12 S MAIN ST", "postcode": "14544"}}},
{"geometry": {"type": "Point", "coordinates": [-77.2262556577, 42.7597708959]}, "type": "Feature", "properties": {"collection_times": [{"days": "Mon-Fri", "time": "3:30pm"}, {"days": "Sat", "time": "12:00pm"}, {"days": "Sun", "time": "Closed"}], "id": "1454400002", "name": "USPS COLLECTION BOX - PO LOBBY", "address": {"city": "RUSHVILLE", "state": "NY", "street": "12 S MAIN ST", "postcode": "14544"}}},
{"geometry": {"type": "Point", "coordinates": [-77.7483986753, 43.0205399498]}, "type": "Feature", "properties": {"collection_times": [{"days": "Mon-Fri", "time": "5:00pm"}, {"days": "Sat", "time": "11:45am"}, {"days": "Sun", "time": "Closed"}], "id": "1454600001", "name": "USPS COLLECTION BOX - BLUE BOX", "address": {"city": "SCOTTSVILLE", "state": "NY", "street": "3 ROCHESTER ST", "postcode": "14546"}}},
{"geometry": {"type": "Point", "coordinates": [-77.7535491848, 43.0271460013]}, "type": "Feature", "properties": {"collection_times": [{"days": "Mon-Sat", "time": "10:00am"}, {"days": "Sun", "time": "Closed"}], "id": "1454600002", "name": "USPS COLLECTION BOX - BLUE BOX", "address": {"city": "SCOTTSVILLE", "state": "NY", "street": "29 CAVALIER ST", "postcode": "14546"}}},
{"geometry": {"type": "Point", "coordinates": [-77.7427083337, 43.0289555743]}, "type": "Feature", "properties": {"collection_times": [{"days": "Mon-Sat", "time": "10:00am"}, {"days": "Sun", "time": "Closed"}], "id": "1454600003", "name": "USPS COLLECTION BOX - BLUE BOX", "address": {"city": "SCOTTSVILLE", "state": "NY", "street": "3892 SCOTTSVILLE RD", "postcode": "14546"}}},
{"geometry": {"type": "Point", "coordinates": [-77.7483986753, 43.0205399498]}, "type": "Feature", "properties": {"collection_times": [{"days": "Mon-Fri", "time": "5:00pm"}, {"days": "Sat", "time": "12:00pm"}, {"days": "Sun", "time": "Closed"}], "id": "1454600004", "name": "USPS COLLECTION BOX - PO LOBBY", "address": {"city": "SCOTTSVILLE", "state": "NY", "street": "3 ROCHESTER ST", "postcode": "14546"}}},
{"geometry": {"type": "Point", "coordinates": [-77.7458279852, 43.0306012977]}, "type": "Feature", "properties": {"collection_times": [{"days": "Mon-Sat", "time": "10:00am"}, {"days": "Sun", "time": "Closed"}], "id": "1454600005", "name": "USPS COLLECTION BOX - BLUE BOX", "address": {"city": "SCOTTSVILLE", "state": "NY", "street": "300 ROBERT QUIGLEY DR", "postcode": "14546"}}},
{"geometry": {"type": "Point", "coordinates": [-77.0949396541, 42.8249160616]}, "type": "Feature", "properties": {"collection_times": [{"days": "Mon-Fri", "time": "4:45pm"}, {"days": "Sat", "time": "11:45am"}, {"days": "Sun", "time": "Closed"}], "id": "1454700003", "name": "USPS COLLECTION BOX - BLUE BOX", "address": {"city": "SENECA CASTLE", "state": "NY", "street": "2081 BUFFALO ST", "postcode": "14547"}}},
{"geometry": {"type": "Point", "coordinates": [-77.0949396541, 42.8249160616]}, "type": "Feature", "properties": {"collection_times": [{"days": "Mon-Fri", "time": "4:45pm"}, {"days": "Sat", "time": "11:45am"}, {"days": "Sun", "time": "Closed"}], "id": "1454700004", "name": "USPS COLLECTION BOX - PO LOBBY", "address": {"city": "SENECA CASTLE", "state": "NY", "street": "2081 BUFFALO ST", "postcode": "14547"}}},
{"geometry": {"type": "Point", "coordinates": [-77.220849603, 42.9557821092]}, "type": "Feature", "properties": {"collection_times": [{"days": "Mon-Fri", "time": "4:30pm"}, {"days": "Sat", "time": "12:00pm"}, {"days": "Sun", "time": "Closed"}], "id": "1454800001", "name": "USPS COLLECTION BOX - BLUE BOX", "address": {"city": "SHORTSVILLE", "state": "NY", "street": "2 SHELDON ST", "postcode": "14548"}}},
{"geometry": {"type": "Point", "coordinates": [-77.220849603, 42.9557821092]}, "type": "Feature", "properties": {"collection_times": [{"days": "Mon-Fri", "time": "4:30pm"}, {"days": "Sat", "time": "12:00pm"}, {"days": "Sun", "time": "Closed"}], "id": "1454800002", "name": "USPS COLLECTION BOX - PO LOBBY", "address": {"city": "SHORTSVILLE", "state": "NY", "street": "2 SHELDON ST", "postcode": "14548"}}},
{"geometry": {"type": "Point", "coordinates": [-78.0831311499, 42.65898258]}, "type": "Feature", "properties": {"collection_times": [{"days": "Mon-Fri", "time": "4:15pm"}, {"days": "Sat", "time": "11:45am"}, {"days": "Sun", "time": "Closed"}], "id": "1454900001", "name": "USPS COLLECTION BOX - BLUE BOX", "address": {"city": "SILVER LAKE", "state": "NY", "street": "36 PERRY AVE", "postcode": "14549"}}},
{"geometry": {"type": "Point", "coordinates": [-78.0831311499, 42.65898258]}, "type": "Feature", "properties": {"collection_times": [{"days": "Mon-Fri", "time": "4:30pm"}, {"days": "Sat", "time": "12:00pm"}, {"days": "Sun", "time": "Closed"}], "id": "1454900002", "name": "USPS COLLECTION BOX - PO LOBBY", "address": {"city": "SILVER LAKE", "state": "NY", "street": "36 PERRY AVE", "postcode": "14549"}}},
{"geometry": {"type": "Point", "coordinates": [-78.0832076933, 42.6600924076]}, "type": "Feature", "properties": {"collection_times": [{"days": "Mon-Fri", "time": "4:30pm"}, {"days": "Sat", "time": "12:00pm"}, {"days": "Sun", "time": "Closed"}], "id": "1455000001", "name": "USPS COLLECTION BOX - BLUE BOX", "address": {"city": "SILVER SPRINGS", "state": "NY", "street": "37 N MAIN ST", "postcode": "14550"}}},
{"geometry": {"type": "Point", "coordinates": [-78.0832076933, 42.6600924076]}, "type": "Feature", "properties": {"collection_times": [{"days": "Mon-Fri", "time": "4:30pm"}, {"days": "Sat", "time": "12:00pm"}, {"days": "Sun", "time": "Closed"}], "id": "1455000002", "name": "USPS COLLECTION BOX - PO LOBBY", "address": {"city": "SILVER SPRINGS", "state": "NY", "street": "37 N MAIN ST", "postcode": "14550"}}},
{"geometry": {"type": "Point", "coordinates": [-77.0644838346, 43.2361666437]}, "type": "Feature", "properties": {"collection_times": [{"days": "Mon-Fri", "time": "5:00pm"}, {"days": "Sat", "time": "11:45am"}, {"days": "Sun", "time": "Closed"}], "id": "1455100001", "name": "USPS COLLECTION BOX - BLUE BOX", "address": {"city": "SODUS", "state": "NY", "street": "44 W MAIN ST", "postcode": "14551"}}},
{"geometry": {"type": "Point", "coordinates": [-77.0644838346, 43.2361666437]}, "type": "Feature", "properties": {"collection_times": [{"days": "Mon-Fri", "time": "5:00pm"}, {"days": "Sat", "time": "12:00pm"}, {"days": "Sun", "time": "Closed"}], "id": "1455100004", "name": "USPS COLLECTION BOX - PO LOBBY", "address": {"city": "SODUS", "state": "NY", "street": "44 W MAIN ST", "postcode": "14551"}}},
{"geometry": {"type": "Point", "coordinates": [-77.0644838346, 43.2361666437]}, "type": "Feature", "properties": {"collection_times": [{"days": "Mon-Fri", "time": "5:00pm"}, {"days": "Sat", "time": "11:45am"}, {"days": "Sun", "time": "Closed"}], "id": "1455100005", "name": "USPS COLLECTION BOX - BLUE BOX", "address": {"city": "SODUS", "state": "NY", "street": "44 W MAIN ST", "postcode": "14551"}}},
{"geometry": {"type": "Point", "coordinates": [-76.9832569589, 43.2705240757]}, "type": "Feature", "properties": {"collection_times": [{"days": "Mon-Fri", "time": "4:30pm"}, {"days": "Sat", "time": "11:45am"}, {"days": "Sun", "time": "Closed"}], "id": "1455500001", "name": "USPS COLLECTION BOX - BLUE BOX", "address": {"city": "SODUS POINT", "state": "NY", "street": "8432 BAY ST", "postcode": "14555"}}},
{"geometry": {"type": "Point", "coordinates": [-76.9832569589, 43.2705240757]}, "type": "Feature", "properties": {"collection_times": [{"days": "Mon-Fri", "time": "4:45pm"}, {"days": "Sat", "time": "12:00pm"}, {"days": "Sun", "time": "Closed"}], "id": "1455500003", "name": "USPS COLLECTION BOX - PO LOBBY", "address": {"city": "SODUS POINT", "state": "NY", "street": "8432 BAY ST", "postcode": "14555"}}},
{"geometry": {"type": "Point", "coordinates": [-77.8298122861, 42.6824255327]}, "type": "Feature", "properties": {"collection_times": [{"days": "Mon-Fri", "time": "4:15pm"}, {"days": "Sat-Sun", "time": "Closed"}], "id": "1455600000", "name": "USPS COLLECTION BOX - BLUE BOX", "address": {"city": "SONYEA", "state": "NY", "street": "56 PORTER DR", "postcode": "14556"}}},
{"geometry": {"type": "Point", "coordinates": [-77.8298122861, 42.6824255327]}, "type": "Feature", "properties": {"collection_times": [{"days": "Mon-Fri", "time": "4:25pm"}, {"days": "Sat-Sun", "time": "Closed"}], "id": "1455600001", "name": "USPS COLLECTION BOX - PO LOBBY", "address": {"city": "SONYEA", "state": "NY", "street": "56 PORTER DR", "postcode": "14556"}}},
{"geometry": {"type": "Point", "coordinates": [-78.0657322167, 43.0481256494]}, "type": "Feature", "properties": {"collection_times": [{"days": "Mon-Fri", "time": "4:45pm"}, {"days": "Sat", "time": "11:45am"}, {"days": "Sun", "time": "Closed"}], "id": "1455700001", "name": "USPS COLLECTION BOX - BLUE BOX", "address": {"city": "SOUTH BYRON", "state": "NY", "street": "7545 BYRON HOLLEY RD", "postcode": "14557"}}},
{"geometry": {"type": "Point", "coordinates": [-78.0657322167, 43.0481256494]}, "type": "Feature", "properties": {"collection_times": [{"days": "Mon-Fri", "time": "5:00pm"}, {"days": "Sat", "time": "12:00pm"}, {"days": "Sun", "time": "Closed"}], "id": "1455700002", "name": "USPS COLLECTION BOX - PO LOBBY", "address": {"city": "SOUTH BYRON", "state": "NY", "street": "7545 BYRON HOLLEY RD", "postcode": "14557"}}},
{"geometry": {"type": "Point", "coordinates": [-77.7953783987, 43.1875122962]}, "type": "Feature", "properties": {"collection_times": [{"days": "Mon-Sat", "time": "2:00pm"}, {"days": "Sun", "time": "Closed"}], "id": "1455900005", "name": "USPS COLLECTION BOX - BLUE BOX", "address": {"city": "SPENCERPORT", "state": "NY", "street": "46 COLEMAN AVE", "postcode": "14559"}}},
{"geometry": {"type": "Point", "coordinates": [-77.7988220101, 43.1907382918]}, "type": "Feature", "properties": {"collection_times": [{"days": "Mon-Sat", "time": "2:00pm"}, {"days": "Sun", "time": "Closed"}], "id": "1455900010", "name": "USPS COLLECTION BOX - BLUE BOX", "address": {"city": "SPENCERPORT", "state": "NY", "street": "27 SLAYTON AVE", "postcode": "14559"}}},
{"geometry": {"type": "Point", "coordinates": [-77.8014304168, 43.1927279623]}, "type": "Feature", "properties": {"collection_times": [{"days": "Mon-Fri", "time": "5:00pm"}, {"days": "Sat", "time": "3:00pm"}, {"days": "Sun", "time": "Closed"}], "id": "1455900011", "name": "USPS COLLECTION BOX - PO LOBBY", "address": {"city": "SPENCERPORT", "state": "NY", "street": "11 AMITY ST", "postcode": "14559"}}},
{"geometry": {"type": "Point", "coordinates": [-77.8024797014, 43.1724248376]}, "type": "Feature", "properties": {"collection_times": [{"days": "Mon-Sat", "time": "2:00pm"}, {"days": "Sun", "time": "Closed"}], "id": "1455900013", "name": "USPS COLLECTION BOX - BLUE BOX", "address": {"city": "SPENCERPORT", "state": "NY", "street": "269 OGDEN CENTER RD", "postcode": "14559"}}},
{"geometry": {"type": "Point", "coordinates": [-77.801801018, 43.192692195]}, "type": "Feature", "properties": {"collection_times": [{"days": "Mon-Fri", "time": "5:00pm"}, {"days": "Sat", "time": "3:00pm"}, {"days": "Sun", "time": "Closed"}], "id": "1455900015", "name": "USPS COLLECTION BOX - BLUE BOX", "address": {"city": "SPENCERPORT", "state": "NY", "street": "11 AMITY ST", "postcode": "14559"}}},
{"geometry": {"type": "Point", "coordinates": [-77.8024170312, 43.1884719671]}, "type": "Feature", "properties": {"collection_times": [{"days": "Mon-Fri", "time": "5:00pm"}, {"days": "Sat", "time": "3:00pm"}, {"days": "Sun", "time": "Closed"}], "id": "1455900016", "name": "USPS COLLECTION BOX - APC", "address": {"city": "SPENCERPORT", "state": "NY", "street": "11 AMITY ST", "postcode": "14559"}}},
{"geometry": {"type": "Point", "coordinates": [-77.5959327002, 42.637509721]}, "type": "Feature", "properties": {"collection_times": [{"days": "Mon-Fri", "time": "4:30pm"}, {"days": "Sat", "time": "12:00pm"}, {"days": "Sun", "time": "Closed"}], "id": "1456000001", "name": "USPS COLLECTION BOX - BLUE BOX", "address": {"city": "SPRINGWATER", "state": "NY", "street": "7886 MAIN ST", "postcode": "14560"}}},
{"geometry": {"type": "Point", "coordinates": [-77.5959327002, 42.637509721]}, "type": "Feature", "properties": {"collection_times": [{"days": "Mon-Fri", "time": "4:30pm"}, {"days": "Sat", "time": "12:00pm"}, {"days": "Sun", "time": "Closed"}], "id": "1456000002", "name": "USPS COLLECTION BOX - PO LOBBY", "address": {"city": "SPRINGWATER", "state": "NY", "street": "7886 MAIN ST", "postcode": "14560"}}},
{"geometry": {"type": "Point", "coordinates": [-77.124426718, 42.8254119975]}, "type": "Feature", "properties": {"collection_times": [{"days": "Mon-Fri", "time": "3:30pm"}, {"days": "Sat", "time": "11:45am"}, {"days": "Sun", "time": "Closed"}], "id": "1456100001", "name": "USPS COLLECTION BOX - BLUE BOX", "address": {"city": "STANLEY", "state": "NY", "street": "2102 STATE ROUTE 245", "postcode": "14561"}}},
{"geometry": {"type": "Point", "coordinates": [-77.124426718, 42.8254119975]}, "type": "Feature", "properties": {"collection_times": [{"days": "Mon-Fri", "time": "3:30pm"}, {"days": "Sat", "time": "12:00pm"}, {"days": "Sun", "time": "Closed"}], "id": "1456100002", "name": "USPS COLLECTION BOX - PO LOBBY", "address": {"city": "STANLEY", "state": "NY", "street": "2102 STATE ROUTE 245", "postcode": "14561"}}},
{"geometry": {"type": "Point", "coordinates": [-77.3738099156, 43.2226378309]}, "type": "Feature", "properties": {"collection_times": [{"days": "Mon-Fri", "time": "4:45pm"}, {"days": "Sat", "time": "11:45am"}, {"days": "Sun", "time": "Closed"}], "id": "1456300001", "name": "USPS COLLECTION BOX - BLUE BOX", "address": {"city": "UNION HILL", "state": "NY", "street": "82 RIDGE RD", "postcode": "14563"}}},
{"geometry": {"type": "Point", "coordinates": [-77.3738099156, 43.2226378309]}, "type": "Feature", "properties": {"collection_times": [{"days": "Mon-Fri", "time": "4:45pm"}, {"days": "Sat", "time": "11:45am"}, {"days": "Sun", "time": "Closed"}], "id": "1456300002", "name": "USPS COLLECTION BOX - PO LOBBY", "address": {"city": "UNION HILL", "state": "NY", "street": "82 RIDGE RD", "postcode": "14563"}}},
{"geometry": {"type": "Point", "coordinates": [-77.415733744, 42.9800260256]}, "type": "Feature", "properties": {"collection_times": [{"days": "Mon-Fri", "time": "5:00pm"}, {"days": "Sat", "time": "2:00pm"}, {"days": "Sun", "time": "Closed"}], "id": "1456400001", "name": "USPS COLLECTION BOX - BLUE BOX", "address": {"city": "VICTOR", "state": "NY", "street": "21 FRAMARK DR", "postcode": "14564"}}},
{"geometry": {"type": "Point", "coordinates": [-77.3774868358, 42.9770141702]}, "type": "Feature", "properties": {"collection_times": [{"days": "Mon-Fri", "time": "12:00pm"}, {"days": "Sat-Sun", "time": "Closed"}], "id": "1456400002", "name": "USPS COLLECTION BOX - BLUE BOX", "address": {"city": "VICTOR", "state": "NY", "street": "1178 CUNNINGHAM DR", "postcode": "14564"}}},
{"geometry": {"type": "Point", "coordinates": [-77.4243003526, 42.9801197748]}, "type": "Feature", "properties": {"collection_times": [{"days": "Mon-Sat", "time": "12:00pm"}, {"days": "Sun", "time": "Closed"}], "id": "1456400003", "name": "USPS COLLECTION BOX - BLUE BOX", "address": {"city": "VICTOR", "state": "NY", "street": "EASTVIEW MALL", "postcode": "14564"}}},
{"geometry": {"type": "Point", "coordinates": [-77.4243003526, 42.9801197748]}, "type": "Feature", "properties": {"collection_times": [{"days": "Mon-Sat", "time": "12:00pm"}, {"days": "Sun", "time": "Closed"}], "id": "1456400004", "name": "USPS COLLECTION BOX - BLUE BOX", "address": {"city": "VICTOR", "state": "NY", "street": "EASTVIEW MALL", "postcode": "14564"}}},
{"geometry": {"type": "Point", "coordinates": [-77.4080338641, 42.9821494369]}, "type": "Feature", "properties": {"collection_times": [{"days": "Mon-Fri", "time": "2:30pm"}, {"days": "Sat", "time": "12:30pm"}, {"days": "Sun", "time": "Closed"}], "id": "1456400005", "name": "USPS COLLECTION BOX - BLUE BOX", "address": {"city": "VICTOR", "state": "NY", "street": "85 E MAIN ST", "postcode": "14564"}}},
{"geometry": {"type": "Point", "coordinates": [-77.415733744, 42.9800260256]}, "type": "Feature", "properties": {"collection_times": [{"days": "Mon-Fri", "time": "5:00pm"}, {"days": "Sat", "time": "2:00pm"}, {"days": "Sun", "time": "Closed"}], "id": "1456400008", "name": "USPS COLLECTION BOX - BLUE BOX", "address": {"city": "VICTOR", "state": "NY", "street": "21 FRAMARK DR", "postcode": "14564"}}},
{"geometry": {"type": "Point", "coordinates": [-77.415733744, 42.9800260256]}, "type": "Feature", "properties": {"collection_times": [{"days": "Mon-Fri", "time": "5:00pm"}, {"days": "Sat", "time": "2:00pm"}, {"days": "Sun", "time": "Closed"}], "id": "1456400009", "name": "USPS COLLECTION BOX - BLUE BOX", "address": {"city": "VICTOR", "state": "NY", "street": "21 FRAMARK DR", "postcode": "14564"}}},
{"geometry": {"type": "Point", "coordinates": [-77.4243003526, 42.9801197748]}, "type": "Feature", "properties": {"collection_times": [{"days": "Mon-Sat", "time": "11:00am"}, {"days": "Sun", "time": "Closed"}], "id": "1456400010", "name": "USPS COLLECTION BOX - BLUE BOX", "address": {"city": "VICTOR", "state": "NY", "street": "10 COBBLESTONE COURT DR", "postcode": "14564"}}},
{"geometry": {"type": "Point", "coordinates": [-77.415733744, 42.9800260256]}, "type": "Feature", "properties": {"collection_times": [{"days": "Mon-Fri", "time": "5:00pm"}, {"days": "Sat", "time": "2:00pm"}, {"days": "Sun", "time": "Closed"}], "id": "1456400011", "name": "USPS COLLECTION BOX - PO LOBBY", "address": {"city": "VICTOR", "state": "NY", "street": "21 FRAMARK DR", "postcode": "14564"}}},
{"geometry": {"type": "Point", "coordinates": [-77.4243003526, 42.9801197748]}, "type": "Feature", "properties": {"collection_times": [{"days": "Mon-Fri", "time": "11:30am"}, {"days": "Sat-Sun", "time": "Closed"}], "id": "1456400013", "name": "USPS COLLECTION BOX - BLUE BOX", "address": {"city": "VICTOR", "state": "NY", "street": "6392 PLASTER MILL RD", "postcode": "14564"}}},
{"geometry": {"type": "Point", "coordinates": [-77.4185184152, 42.9914824528]}, "type": "Feature", "properties": {"collection_times": [{"days": "Mon-Fri", "time": "5:00pm"}, {"days": "Sat", "time": "2:00pm"}, {"days": "Sun", "time": "Closed"}], "id": "1456400015", "name": "USPS COLLECTION BOX - APC", "address": {"city": "VICTOR", "state": "NY", "street": "21 FRAMARK DR", "postcode": "14564"}}},
{"geometry": {"type": "Point", "coordinates": [-77.278168156, 43.1392557012]}, "type": "Feature", "properties": {"collection_times": [{"days": "Mon-Fri", "time": "4:45pm"}, {"days": "Sat", "time": "11:45am"}, {"days": "Sun", "time": "Closed"}], "id": "1456800001", "name": "USPS COLLECTION BOX - BLUE BOX", "address": {"city": "WALWORTH", "state": "NY", "street": "2263 WALWORTH MARION RD", "postcode": "14568"}}},
{"geometry": {"type": "Point", "coordinates": [-77.278168156, 43.1392557012]}, "type": "Feature", "properties": {"collection_times": [{"days": "Mon-Fri", "time": "5:00pm"}, {"days": "Sat", "time": "12:00pm"}, {"days": "Sun", "time": "Closed"}], "id": "1456800002", "name": "USPS COLLECTION BOX - PO LOBBY", "address": {"city": "WALWORTH", "state": "NY", "street": "2263 WALWORTH MARION RD", "postcode": "14568"}}},
{"geometry": {"type": "Point", "coordinates": [-78.1305284179, 42.7593675069]}, "type": "Feature", "properties": {"collection_times": [{"days": "Mon-Fri", "time": "10:30am"}, {"days": "Sat", "time": "10:00am"}, {"days": "Sun", "time": "Closed"}], "id": "1456900002", "name": "USPS COLLECTION BOX - BLUE BOX", "address": {"city": "WARSAW", "state": "NY", "street": "461 N MAIN ST", "postcode": "14569"}}},
{"geometry": {"type": "Point", "coordinates": [-78.1325962301, 42.7397422177]}, "type": "Feature", "properties": {"collection_times": [{"days": "Mon-Fri", "time": "4:45pm"}, {"days": "Sat", "time": "3:00pm"}, {"days": "Sun", "time": "Closed"}], "id": "1456900006", "name": "USPS COLLECTION BOX - BLUE BOX", "address": {"city": "WARSAW", "state": "NY", "street": "22 S MAIN ST", "postcode": "14569"}}},
{"geometry": {"type": "Point", "coordinates": [-78.1325938642, 42.7448703448]}, "type": "Feature", "properties": {"collection_times": [{"days": "Mon-Sat", "time": "10:30am"}, {"days": "Sun", "time": "Closed"}], "id": "1456900009", "name": "USPS COLLECTION BOX - BLUE BOX", "address": {"city": "WARSAW", "state": "NY", "street": "171 N MAIN ST", "postcode": "14569"}}},
{"geometry": {"type": "Point", "coordinates": [-78.1344570246, 42.740223682]}, "type": "Feature", "properties": {"collection_times": [{"days": "Mon-Sat", "time": "1:30pm"}, {"days": "Sun", "time": "Closed"}], "id": "1456900010", "name": "USPS COLLECTION BOX - BLUE BOX", "address": {"city": "WARSAW", "state": "NY", "street": "67 W BUFFALO ST", "postcode": "14569"}}},
{"geometry": {"type": "Point", "coordinates": [-78.1344286336, 42.7427209083]}, "type": "Feature", "properties": {"collection_times": [{"days": "Mon-Sat", "time": "2:00pm"}, {"days": "Sun", "time": "Closed"}], "id": "1456900012", "name": "USPS COLLECTION BOX - BLUE BOX", "address": {"city": "WARSAW", "state": "NY", "street": "23 W COURT ST", "postcode": "14569"}}},
{"geometry": {"type": "Point", "coordinates": [-78.1271439723, 42.7650468929]}, "type": "Feature", "properties": {"collection_times": [{"days": "Mon-Fri", "time": "9:30am"}, {"days": "Sat-Sun", "time": "Closed"}], "id": "1456900013", "name": "USPS COLLECTION BOX - BLUE BOX", "address": {"city": "WARSAW", "state": "NY", "street": "2382 ROUTE 19 N", "postcode": "14569"}}},
{"geometry": {"type": "Point", "coordinates": [-78.1325974131, 42.7394855156]}, "type": "Feature", "properties": {"collection_times": [{"days": "Mon-Fri", "time": "4:45pm"}, {"days": "Sat", "time": "3:00pm"}, {"days": "Sun", "time": "Closed"}], "id": "1456900014", "name": "USPS COLLECTION BOX - BLUE BOX", "address": {"city": "WARSAW", "state": "NY", "street": "35 S MAIN ST", "postcode": "14569"}}},
{"geometry": {"type": "Point", "coordinates": [-78.132678652, 42.7429357578]}, "type": "Feature", "properties": {"collection_times": [{"days": "Mon-Sat", "time": "2:00pm"}, {"days": "Sun", "time": "Closed"}], "id": "1456900017", "name": "USPS COLLECTION BOX - BLUE BOX", "address": {"city": "WARSAW", "state": "NY", "street": "143 N MAIN ST", "postcode": "14569"}}},
{"geometry": {"type": "Point", "coordinates": [-78.2513546636, 43.3199185273]}, "type": "Feature", "properties": {"collection_times": [{"days": "Mon-Fri", "time": "3:30pm"}, {"days": "Sat", "time": "11:45am"}, {"days": "Sun", "time": "Closed"}], "id": "1457100001", "name": "USPS COLLECTION BOX - BLUE BOX", "address": {"city": "WATERPORT", "state": "NY", "street": "1975 MAIN ST", "postcode": "14571"}}},
{"geometry": {"type": "Point", "coordinates": [-78.2513546636, 43.3199185273]}, "type": "Feature", "properties": {"collection_times": [{"days": "Mon-Fri", "time": "3:30pm"}, {"days": "Sat", "time": "12:00pm"}, {"days": "Sun", "time": "Closed"}], "id": "1457100002", "name": "USPS COLLECTION BOX - PO LOBBY", "address": {"city": "WATERPORT", "state": "NY", "street": "1975 MAIN ST", "postcode": "14571"}}},
{"geometry": {"type": "Point", "coordinates": [-77.5900817851, 42.5677660093]}, "type": "Feature", "properties": {"collection_times": [{"days": "Mon-Fri", "time": "5:00pm"}, {"days": "Sat", "time": "2:15pm"}, {"days": "Sun", "time": "Closed"}], "id": "1457200001", "name": "USPS COLLECTION BOX - BLUE BOX", "address": {"city": "WAYLAND", "state": "NY", "street": "23 E NAPLES ST", "postcode": "14572"}}},
{"geometry": {"type": "Point", "coordinates": [-77.5915936067, 42.5686484966]}, "type": "Feature", "properties": {"collection_times": [{"days": "Mon-Fri", "time": "4:00pm"}, {"days": "Sat", "time": "2:30pm"}, {"days": "Sun", "time": "Closed"}], "id": "1457200002", "name": "USPS COLLECTION BOX - BLUE BOX", "address": {"city": "WAYLAND", "state": "NY", "street": "31 N MAIN ST", "postcode": "14572"}}},
{"geometry": {"type": "Point", "coordinates": [-77.5900817851, 42.5677660093]}, "type": "Feature", "properties": {"collection_times": [{"days": "Mon-Fri", "time": "5:00pm"}, {"days": "Sat", "time": "3:00pm"}, {"days": "Sun", "time": "Closed"}], "id": "1457200005", "name": "USPS COLLECTION BOX - PO LOBBY", "address": {"city": "WAYLAND", "state": "NY", "street": "23 E NAPLES ST", "postcode": "14572"}}},
{"geometry": {"type": "Point", "coordinates": [-77.4379698236, 43.2142270585]}, "type": "Feature", "properties": {"collection_times": [{"days": "Mon-Fri", "time": "5:00pm"}, {"days": "Sat", "time": "2:30pm"}, {"days": "Sun", "time": "Closed"}], "id": "1458000001", "name": "USPS COLLECTION BOX - BLUE BOX", "address": {"city": "WEBSTER", "state": "NY", "street": "75 BARRETT DR", "postcode": "14580"}}},
{"geometry": {"type": "Point", "coordinates": [-77.5029450278, 43.1916928732]}, "type": "Feature", "properties": {"collection_times": [{"days": "Mon-Sat", "time": "11:00am"}, {"days": "Sun", "time": "Closed"}], "id": "1458000008", "name": "USPS COLLECTION BOX - BLUE BOX", "address": {"city": "WEBSTER", "state": "NY", "street": "1900 EMPIRE BLVD", "postcode": "14580"}}},
{"geometry": {"type": "Point", "coordinates": [-77.5022503168, 43.1928499116]}, "type": "Feature", "properties": {"collection_times": [{"days": "Mon-Sat", "time": "12:00pm"}, {"days": "Sun", "time": "Closed"}], "id": "1458000009", "name": "USPS COLLECTION BOX - BLUE BOX", "address": {"city": "WEBSTER", "state": "NY", "street": "1950 EMPIRE BLVD", "postcode": "14580"}}},
{"geometry": {"type": "Point", "coordinates": [-77.4613167194, 43.2150025707]}, "type": "Feature", "properties": {"collection_times": [{"days": "Mon-Sat", "time": "1:00pm"}, {"days": "Sun", "time": "Closed"}], "id": "1458000024", "name": "USPS COLLECTION BOX - EXPRESS", "address": {"city": "WEBSTER", "state": "NY", "street": "420 RIDGE RD", "postcode": "14580"}}},
{"geometry": {"type": "Point", "coordinates": [-77.4620276601, 43.2084139982]}, "type": "Feature", "properties": {"collection_times": [{"days": "Mon-Sat", "time": "10:00am"}, {"days": "Sun", "time": "Closed"}], "id": "1458000025", "name": "USPS COLLECTION BOX - BLUE BOX", "address": {"city": "WEBSTER", "state": "NY", "street": "964 RIDGE RD", "postcode": "14580"}}},
{"geometry": {"type": "Point", "coordinates": [-77.446636181, 43.2111549141]}, "type": "Feature", "properties": {"collection_times": [{"days": "Mon-Sat", "time": "10:00am"}, {"days": "Sun", "time": "Closed"}], "id": "1458000032", "name": "USPS COLLECTION BOX - BLUE BOX", "address": {"city": "WEBSTER", "state": "NY", "street": "900 HOLT RD", "postcode": "14580"}}},
{"geometry": {"type": "Point", "coordinates": [-77.4613167194, 43.2150025707]}, "type": "Feature", "properties": {"collection_times": [{"days": "Mon-Fri", "time": "5:00pm"}, {"days": "Sat", "time": "2:30pm"}, {"days": "Sun", "time": "Closed"}], "id": "1458000035", "name": "USPS COLLECTION BOX - EXPRESS", "address": {"city": "WEBSTER", "state": "NY", "street": "75 BARRETT DR", "postcode": "14580"}}},
{"geometry": {"type": "Point", "coordinates": [-77.496594904, 43.2038891801]}, "type": "Feature", "properties": {"collection_times": [{"days": "Mon-Sat", "time": "10:00am"}, {"days": "Sun", "time": "Closed"}], "id": "1458000037", "name": "USPS COLLECTION BOX - BLUE BOX", "address": {"city": "WEBSTER", "state": "NY", "street": "1049 GRAVEL RD", "postcode": "14580"}}},
{"geometry": {"type": "Point", "coordinates": [-77.5122726592, 43.2056435083]}, "type": "Feature", "properties": {"collection_times": [{"days": "Mon-Sat", "time": "1:00pm"}, {"days": "Sun", "time": "Closed"}], "id": "1458000039", "name": "USPS COLLECTION BOX - BLUE BOX", "address": {"city": "WEBSTER", "state": "NY", "street": "420 RIDGE RD", "postcode": "14580"}}},
{"geometry": {"type": "Point", "coordinates": [-77.4576459801, 43.2092172273]}, "type": "Feature", "properties": {"collection_times": [{"days": "Mon-Sat", "time": "10:00am"}, {"days": "Sun", "time": "Closed"}], "id": "1458000044", "name": "USPS COLLECTION BOX - BLUE BOX", "address": {"city": "WEBSTER", "state": "NY", "street": "1000 RIDGE RD", "postcode": "14580"}}},
{"geometry": {"type": "Point", "coordinates": [-77.462260703, 43.2083678628]}, "type": "Feature", "properties": {"collection_times": [{"days": "Mon-Sat", "time": "10:00am"}, {"days": "Sun", "time": "Closed"}], "id": "1458000045", "name": "USPS COLLECTION BOX - BLUE BOX", "address": {"city": "WEBSTER", "state": "NY", "street": "950 RIDGE RD", "postcode": "14580"}}},
{"geometry": {"type": "Point", "coordinates": [-77.4379698236, 43.2142270585]}, "type": "Feature", "properties": {"collection_times": [{"days": "Mon-Fri", "time": "5:00pm"}, {"days": "Sat", "time": "2:30pm"}, {"days": "Sun", "time": "Closed"}], "id": "1458000046", "name": "USPS COLLECTION BOX - PO LOBBY", "address": {"city": "WEBSTER", "state": "NY", "street": "75 BARRETT DR", "postcode": "14580"}}},
{"geometry": {"type": "Point", "coordinates": [-77.4379698236, 43.2142270585]}, "type": "Feature", "properties": {"collection_times": [{"days": "Mon-Fri", "time": "5:00pm"}, {"days": "Sat", "time": "2:30pm"}, {"days": "Sun", "time": "Closed"}], "id": "1458000048", "name": "USPS COLLECTION BOX - APC", "address": {"city": "WEBSTER", "state": "NY", "street": "75 BARRETT DR", "postcode": "14580"}}},
{"geometry": {"type": "Point", "coordinates": [-77.5513256366, 42.9074480422]}, "type": "Feature", "properties": {"collection_times": [{"days": "Mon-Fri", "time": "1:00pm"}, {"days": "Sat", "time": "11:45am"}, {"days": "Sun", "time": "Closed"}], "id": "1458500001", "name": "USPS COLLECTION BOX - BLUE BOX", "address": {"city": "WEST BLOOMFIELD", "state": "NY", "street": "9222 STATE ROUTE 5 AND 20", "postcode": "14585"}}},
{"geometry": {"type": "Point", "coordinates": [-77.5513256366, 42.9074480422]}, "type": "Feature", "properties": {"collection_times": [{"days": "Mon-Fri", "time": "12:45pm"}, {"days": "Sat", "time": "11:45am"}, {"days": "Sun", "time": "Closed"}], "id": "1458500002", "name": "USPS COLLECTION BOX - PO LOBBY", "address": {"city": "WEST BLOOMFIELD", "state": "NY", "street": "9222 STATE ROUTE 5 AND 20", "postcode": "14585"}}},
{"geometry": {"type": "Point", "coordinates": [-77.6868614229, 43.0403028071]}, "type": "Feature", "properties": {"collection_times": [{"days": "Mon-Fri", "time": "4:45pm"}, {"days": "Sat", "time": "11:45am"}, {"days": "Sun", "time": "Closed"}], "id": "1458600003", "name": "USPS COLLECTION BOX - BLUE BOX", "address": {"city": "WEST HENRIETTA", "state": "NY", "street": "772 ERIE STATION RD", "postcode": "14586"}}},
{"geometry": {"type": "Point", "coordinates": [-77.6868614229, 43.0403028071]}, "type": "Feature", "properties": {"collection_times": [{"days": "Mon-Fri", "time": "4:45pm"}, {"days": "Sat", "time": "11:45am"}, {"days": "Sun", "time": "Closed"}], "id": "1458600006", "name": "USPS COLLECTION BOX - PO LOBBY", "address": {"city": "WEST HENRIETTA", "state": "NY", "street": "772 ERIE STATION RD", "postcode": "14586"}}},
{"geometry": {"type": "Point", "coordinates": [-77.6868614229, 43.0403028071]}, "type": "Feature", "properties": {"collection_times": [{"days": "Mon-Fri", "time": "4:45pm"}, {"days": "Sat", "time": "11:45am"}, {"days": "Sun", "time": "Closed"}], "id": "1458600007", "name": "USPS COLLECTION BOX - BLUE BOX", "address": {"city": "WEST HENRIETTA", "state": "NY", "street": "772 ERIE STATION RD", "postcode": "14586"}}},
{"geometry": {"type": "Point", "coordinates": [-76.8774856664, 42.6795072403]}, "type": "Feature", "properties": {"collection_times": [{"days": "Mon-Fri", "time": "4:30pm"}, {"days": "Sat", "time": "11:45am"}, {"days": "Sun", "time": "Closed"}], "id": "1458800001", "name": "USPS COLLECTION BOX - BLUE BOX", "address": {"city": "WILLARD", "state": "NY", "street": "1435 PROSPECT ST", "postcode": "14588"}}},
{"geometry": {"type": "Point", "coordinates": [-76.8774856664, 42.6795072403]}, "type": "Feature", "properties": {"collection_times": [{"days": "Mon-Fri", "time": "4:45pm"}, {"days": "Sat", "time": "12:00pm"}, {"days": "Sun", "time": "Closed"}], "id": "1458800002", "name": "USPS COLLECTION BOX - PO LOBBY", "address": {"city": "WILLARD", "state": "NY", "street": "1435 PROSPECT ST", "postcode": "14588"}}},
{"geometry": {"type": "Point", "coordinates": [-77.1863662814, 43.2230708598]}, "type": "Feature", "properties": {"collection_times": [{"days": "Mon-Fri", "time": "4:30pm"}, {"days": "Sat", "time": "11:30am"}, {"days": "Sun", "time": "Closed"}], "id": "1458900001", "name": "USPS COLLECTION BOX - BLUE BOX", "address": {"city": "WILLIAMSON", "state": "NY", "street": "6144 ROUTE 21", "postcode": "14589"}}},
{"geometry": {"type": "Point", "coordinates": [-77.1863662814, 43.2230708598]}, "type": "Feature", "properties": {"collection_times": [{"days": "Mon-Fri", "time": "4:30pm"}, {"days": "Sat", "time": "11:30am"}, {"days": "Sun", "time": "Closed"}], "id": "1458900005", "name": "USPS COLLECTION BOX - PO LOBBY", "address": {"city": "WILLIAMSON", "state": "NY", "street": "6144 ROUTE 21", "postcode": "14589"}}},
{"geometry": {"type": "Point", "coordinates": [-77.1863662814, 43.2230708598]}, "type": "Feature", "properties": {"collection_times": [{"days": "Mon-Fri", "time": "4:30pm"}, {"days": "Sat", "time": "11:30am"}, {"days": "Sun", "time": "Closed"}], "id": "1458900007", "name": "USPS COLLECTION BOX - BLUE BOX", "address": {"city": "WILLIAMSON", "state": "NY", "street": "6144 STATE ROUTE 21", "postcode": "14589"}}},
{"geometry": {"type": "Point", "coordinates": [-76.8151312819, 43.2209226063]}, "type": "Feature", "properties": {"collection_times": [{"days": "Mon-Fri", "time": "5:00pm"}, {"days": "Sat", "time": "1:00pm"}, {"days": "Sun", "time": "Closed"}], "id": "1459000001", "name": "USPS COLLECTION BOX - BLUE BOX", "address": {"city": "WOLCOTT", "state": "NY", "street": "6048 LAKE AVE", "postcode": "14590"}}},
{"geometry": {"type": "Point", "coordinates": [-76.8150011565, 43.2193303435]}, "type": "Feature", "properties": {"collection_times": [{"days": "Mon-Sat", "time": "9:00am"}, {"days": "Sun", "time": "Closed"}], "id": "1459000006", "name": "USPS COLLECTION BOX - BLUE BOX", "address": {"city": "WOLCOTT", "state": "NY", "street": "6010 NEW HARTFORD ST", "postcode": "14590"}}},
{"geometry": {"type": "Point", "coordinates": [-76.8151312819, 43.2209226063]}, "type": "Feature", "properties": {"collection_times": [{"days": "Mon-Fri", "time": "5:00pm"}, {"days": "Sat", "time": "1:00pm"}, {"days": "Sun", "time": "Closed"}], "id": "1459000008", "name": "USPS COLLECTION BOX - PO LOBBY", "address": {"city": "WOLCOTT", "state": "NY", "street": "6048 LAKE AVE", "postcode": "14590"}}},
{"geometry": {"type": "Point", "coordinates": [-78.0878685517, 42.8284972629]}, "type": "Feature", "properties": {"collection_times": [{"days": "Mon-Fri", "time": "3:30pm"}, {"days": "Sat", "time": "11:45am"}, {"days": "Sun", "time": "Closed"}], "id": "1459100001", "name": "USPS COLLECTION BOX - BLUE BOX", "address": {"city": "WYOMING", "state": "NY", "street": "2 S ACADEMY ST", "postcode": "14591"}}},
{"geometry": {"type": "Point", "coordinates": [-78.0878685517, 42.8284972629]}, "type": "Feature", "properties": {"collection_times": [{"days": "Mon-Fri", "time": "3:30pm"}, {"days": "Sat", "time": "12:00pm"}, {"days": "Sun", "time": "Closed"}], "id": "1459100002", "name": "USPS COLLECTION BOX - PO LOBBY", "address": {"city": "WYOMING", "state": "NY", "street": "2 S ACADEMY ST", "postcode": "14591"}}},
{"geometry": {"type": "Point", "coordinates": [-77.8857414881, 42.8705147358]}, "type": "Feature", "properties": {"collection_times": [{"days": "Mon-Fri", "time": "4:45pm"}, {"days": "Sat", "time": "11:45am"}, {"days": "Sun", "time": "Closed"}], "id": "1459200001", "name": "USPS COLLECTION BOX - BLUE BOX", "address": {"city": "YORK", "state": "NY", "street": "2706 MAIN ST", "postcode": "14592"}}},
{"geometry": {"type": "Point", "coordinates": [-77.8857414881, 42.8705147358]}, "type": "Feature", "properties": {"collection_times": [{"days": "Mon-Fri", "time": "5:00pm"}, {"days": "Sat", "time": "12:00pm"}, {"days": "Sun", "time": "Closed"}], "id": "1459200002", "name": "USPS COLLECTION BOX - PO LOBBY", "address": {"city": "YORK", "state": "NY", "street": "2706 MAIN ST", "postcode": "14592"}}}
]}
