{"type": "FeatureCollection", "features": [
{"geometry": {"type": "Point", "coordinates": [-77.6062574475, 43.1567404012]}, "type": "Feature", "properties": {"collection_times": [{"days": "Mon-Fri", "time": "5:00pm"}, {"days": "Sat-Sun", "time": "Closed"}], "id": "1460400001", "name": "USPS COLLECTION BOX - BLUE BOX", "address": {"city": "ROCHESTER", "state": "NY", "street": "1 LIBERTY POLE WAY", "postcode": "14604"}}},
{"geometry": {"type": "Point", "coordinates": [-77.6026593559, 43.1579334245]}, "type": "Feature", "properties": {"collection_times": [{"days": "Mon-Fri", "time": "4:15pm"}, {"days": "Sat-Sun", "time": "Closed"}], "id": "1460400009", "name": "USPS COLLECTION BOX - BLUE BOX", "address": {"city": "ROCHESTER", "state": "NY", "street": "387 E MAIN ST", "postcode": "14604"}}},
{"geometry": {"type": "Point", "coordinates": [-77.5976799305, 43.155865778]}, "type": "Feature", "properties": {"collection_times": [{"days": "Mon-Fri", "time": "3:45pm"}, {"days": "Sat-Sun", "time": "Closed"}], "id": "1460400010", "name": "USPS COLLECTION BOX - BLUE BOX", "address": {"city": "ROCHESTER", "state": "NY", "street": "255 EAST AVE", "postcode": "14604"}}},
{"geometry": {"type": "Point", "coordinates": [-77.6053579968, 43.1574225578]}, "type": "Feature", "properties": {"collection_times": [{"days": "Mon-Fri", "time": "5:00pm"}, {"days": "Sat", "time": "4:15pm"}, {"days": "Sun", "time": "Closed"}], "id": "1460400011", "name": "USPS COLLECTION BOX - EXPRESS", "address": {"city": "ROCHESTER", "state": "NY", "street": "183 E MAIN ST", "postcode": "14604"}}},
{"geometry": {"type": "Point", "coordinates": [-77.6074268725, 43.1568628859]}, "type": "Feature", "properties": {"collection_times": [{"days": "Mon-Fri", "time": "5:00pm"}, {"days": "Sat", "time": "4:15pm"}, {"days": "Sun", "time": "Closed"}], "id": "1460400012", "name": "USPS COLLECTION BOX - BLUE BOX", "address": {"city": "ROCHESTER", "state": "NY", "street": "183 E MAIN ST", "postcode": "14604"}}},
{"geometry": {"type": "Point", "coordinates": [-77.6049231883, 43.1534123211]}, "type": "Feature", "properties": {"collection_times": [{"days": "Mon-Fri", "time": "5:00pm"}, {"days": "Sat-Sun", "time": "Closed"}], "id": "1460400014", "name": "USPS COLLECTION BOX - BLUE BOX", "address": {"city": "ROCHESTER", "state": "NY", "street": "180 S CLINTON AVE", "postcode": "14604"}}},
{"geometry": {"type": "Point", "coordinates": [-77.6005840948, 43.1566063103]}, "type": "Feature", "properties": {"collection_times": [{"days": "Mon-Fri", "time": "4:45pm"}, {"days": "Sat-Sun", "time": "Closed"}], "id": "1460400018", "name": "USPS COLLECTION BOX - BLUE BOX", "address": {"city": "ROCHESTER", "state": "NY", "street": "130 EAST AVE", "postcode": "14604"}}},
{"geometry": {"type": "Point", "coordinates": [-77.6028030118, 43.155997473]}, "type": "Feature", "properties": {"collection_times": [{"days": "Mon-Fri", "time": "4:30pm"}, {"days": "Sat", "time": "12:30pm"}, {"days": "Sun", "time": "Closed"}], "id": "1460400020", "name": "USPS COLLECTION BOX - BLUE BOX", "address": {"city": "ROCHESTER", "state": "NY", "street": "50 CHESTNUT ST", "postcode": "14604"}}},
{"geometry": {"type": "Point", "coordinates": [-77.6067282703, 43.1550276774]}, "type": "Feature", "properties": {"collection_times": [{"days": "Mon-Fri", "time": "5:30pm"}, {"days": "Sat-Sun", "time": "Closed"}], "id": "1460400022", "name": "USPS COLLECTION BOX - BLUE BOX", "address": {"city": "ROCHESTER", "state": "NY", "street": "200 E BROAD ST", "postcode": "14604"}}},
{"geometry": {"type": "Point", "coordinates": [-77.6113206304, 43.1595814521]}, "type": "Feature", "properties": {"collection_times": [{"days": "Mon-Fri", "time": "4:30pm"}, {"days": "Sat-Sun", "time": "Closed"}], "id": "1460400024", "name": "USPS COLLECTION BOX - BLUE BOX", "address": {"city": "ROCHESTER", "state": "NY", "street": "170 N WATER ST", "postcode": "14604"}}},
{"geometry": {"type": "Point", "coordinates": [-77.604966839, 43.1606468677]}, "type": "Feature", "properties": {"collection_times": [{"days": "Mon-Fri", "time": "5:00pm"}, {"days": "Sat", "time": "12:30pm"}, {"days": "Sun", "time": "Closed"}], "id": "1460400027", "name": "USPS COLLECTION BOX - BLUE BOX", "address": {"city": "ROCHESTER", "state": "NY", "street": "400 ANDREWS ST", "postcode": "14604"}}},
{"geometry": {"type": "Point", "coordinates": [-77.5980353125, 43.15601805]}, "type": "Feature", "properties": {"collection_times": [{"days": "Mon-Fri", "time": "4:15pm"}, {"days": "Sat-Sun", "time": "Closed"}], "id": "1460400034", "name": "USPS COLLECTION BOX - BLUE BOX", "address": {"city": "ROCHESTER", "state": "NY", "street": "234 EAST AVE", "postcode": "14604"}}},
{"geometry": {"type": "Point", "coordinates": [-77.5956298627, 43.1553523738]}, "type": "Feature", "properties": {"collection_times": [{"days": "Mon-Fri", "time": "4:15pm"}, {"days": "Sat-Sun", "time": "Closed"}], "id": "1460400035", "name": "USPS COLLECTION BOX - BLUE BOX", "address": {"city": "ROCHESTER", "state": "NY", "street": "334 EAST AVE", "postcode": "14604"}}},
{"geometry": {"type": "Point", "coordinates": [-77.5944233008, 43.1551952722]}, "type": "Feature", "properties": {"collection_times": [{"days": "Mon-Sat", "time": "4:30pm"}, {"days": "Sun", "time": "Closed"}], "id": "1460400039", "name": "USPS COLLECTION BOX - BLUE BOX", "address": {"city": "ROCHESTER", "state": "NY", "street": "311 ALEXANDER ST", "postcode": "14604"}}},
{"geometry": {"type": "Point", "coordinates": [-77.6053579968, 43.1574225578]}, "type": "Feature", "properties": {"collection_times": [{"days": "Mon-Sat", "time": "4:30pm"}, {"days": "Sun", "time": "Closed"}], "id": "1460400040", "name": "USPS COLLECTION BOX - EXPRESS", "address": {"city": "ROCHESTER", "state": "NY", "street": "311 ALEXANDER ST", "postcode": "14604"}}},
{"geometry": {"type": "Point", "coordinates": [-77.6064172655, 43.1571528373]}, "type": "Feature", "properties": {"collection_times": [{"days": "Mon-Fri", "time": "4:30pm"}, {"days": "Sat-Sun", "time": "Closed"}], "id": "1460400046", "name": "USPS COLLECTION BOX - BLUE BOX", "address": {"city": "ROCHESTER", "state": "NY", "street": "226 E MAIN ST", "postcode": "14604"}}},
{"geometry": {"type": "Point", "coordinates": [-77.6245212695, 43.1529509671]}, "type": "Feature", "properties": {"collection_times": [{"days": "Mon-Fri", "time": "4:00pm"}, {"days": "Sat", "time": "12:30pm"}, {"days": "Sun", "time": "Closed"}], "id": "1460400047", "name": "USPS COLLECTION BOX - BLUE BOX", "address": {"city": "ROCHESTER", "state": "NY", "street": "444 E MAIN ST", "postcode": "14604"}}},
{"geometry": {"type": "Point", "coordinates": [-77.6062574475, 43.1567404012]}, "type": "Feature", "properties": {"collection_times": [{"days": "Mon-Fri", "time": "5:00pm"}, {"days": "Sat-Sun", "time": "Closed"}], "id": "1460400048", "name": "USPS COLLECTION BOX - BLUE BOX", "address": {"city": "ROCHESTER", "state": "NY", "street": "1 CITY CTR", "postcode": "14604"}}},
{"geometry": {"type": "Point", "coordinates": [-77.6094846781, 43.1564537086]}, "type": "Feature", "properties": {"collection_times": [{"days": "Mon-Fri", "time": "5:30pm"}, {"days": "Sat", "time": "4:15pm"}, {"days": "Sun", "time": "Closed"}], "id": "1460400049", "name": "USPS COLLECTION BOX - BLUE BOX", "address": {"city": "ROCHESTER", "state": "NY", "street": "123 E MAIN ST", "postcode": "14604"}}},
{"geometry": {"type": "Point", "coordinates": [-77.6094372032, 43.1576410158]}, "type": "Feature", "properties": {"collection_times": [{"days": "Mon-Fri", "time": "5:00pm"}, {"days": "Sat-Sun", "time": "Closed"}], "id": "1460400058", "name": "USPS COLLECTION BOX - BLUE BOX", "address": {"city": "ROCHESTER", "state": "NY", "street": "5 BRAGDON PL", "postcode": "14604"}}},
{"geometry": {"type": "Point", "coordinates": [-77.6072502589, 43.1525739476]}, "type": "Feature", "properties": {"collection_times": [{"days": "Mon-Fri", "time": "5:00pm"}, {"days": "Sat-Sun", "time": "Closed"}], "id": "1460400060", "name": "USPS COLLECTION BOX - BLUE BOX", "address": {"city": "ROCHESTER", "state": "NY", "street": "200 SOUTH AVE", "postcode": "14604"}}},
{"geometry": {"type": "Point", "coordinates": [-77.6094390012, 43.1577186802]}, "type": "Feature", "properties": {"collection_times": [{"days": "Mon-Fri", "time": "4:45pm"}, {"days": "Sat-Sun", "time": "Closed"}], "id": "1460400061", "name": "USPS COLLECTION BOX - BLUE BOX", "address": {"city": "ROCHESTER", "state": "NY", "street": "55 SAINT PAUL ST", "postcode": "14604"}}},
{"geometry": {"type": "Point", "coordinates": [-77.6103485869, 43.1606600614]}, "type": "Feature", "properties": {"collection_times": [{"days": "Mon-Fri", "time": "4:30pm"}, {"days": "Sat-Sun", "time": "Closed"}], "id": "1460400062", "name": "USPS COLLECTION BOX - BLUE BOX", "address": {"city": "ROCHESTER", "state": "NY", "street": "183 SAINT PAUL ST", "postcode": "14604"}}},
{"geometry": {"type": "Point", "coordinates": [-77.609284758, 43.1575231035]}, "type": "Feature", "properties": {"collection_times": [{"days": "Mon-Fri", "time": "2:00pm"}, {"days": "Sat-Sun", "time": "Closed"}], "id": "1460400063", "name": "USPS COLLECTION BOX - BLUE BOX", "address": {"city": "ROCHESTER", "state": "NY", "street": "36 SAINT PAUL ST", "postcode": "14604"}}},
{"geometry": {"type": "Point", "coordinates": [-77.6103744952, 43.1609593041]}, "type": "Feature", "properties": {"collection_times": [{"days": "Mon-Fri", "time": "4:30pm"}, {"days": "Sat-Sun", "time": "Closed"}], "id": "1460400066", "name": "USPS COLLECTION BOX - BLUE BOX", "address": {"city": "ROCHESTER", "state": "NY", "street": "205 SAINT PAUL ST", "postcode": "14604"}}},
{"geometry": {"type": "Point", "coordinates": [-77.6053579968, 43.1574225578]}, "type": "Feature", "properties": {"collection_times": [{"days": "Mon-Fri", "time": "5:30pm"}, {"days": "Sat-Sun", "time": "Closed"}], "id": "1460400069", "name": "USPS COLLECTION BOX - EXPRESS", "address": {"city": "ROCHESTER", "state": "NY", "street": "200 E BROAD ST", "postcode": "14604"}}},
{"geometry": {"type": "Point", "coordinates": [-77.6053579968, 43.1574225578]}, "type": "Feature", "properties": {"collection_times": [{"days": "Mon-Fri", "time": "5:00pm"}, {"days": "Sat-Sun", "time": "Closed"}], "id": "1460400073", "name": "USPS COLLECTION BOX - BLUE BOX", "address": {"city": "ROCHESTER", "state": "NY", "street": "1 BAUSCH AND LOMB PL", "postcode": "14604"}}},
{"geometry": {"type": "Point", "coordinates": [-77.6028908648, 43.157191875]}, "type": "Feature", "properties": {"collection_times": [{"days": "Mon-Fri", "time": "4:30pm"}, {"days": "Sat-Sun", "time": "Closed"}], "id": "1460400074", "name": "USPS COLLECTION BOX - BLUE BOX", "address": {"city": "ROCHESTER", "state": "NY", "street": "42 EAST AVE", "postcode": "14604"}}},
{"geometry": {"type": "Point", "coordinates": [-77.6095758003, 43.158459091]}, "type": "Feature", "properties": {"collection_times": [{"days": "Mon-Fri", "time": "3:00pm"}, {"days": "Sat-Sun", "time": "Closed"}], "id": "1460400076", "name": "USPS COLLECTION BOX - BLUE BOX", "address": {"city": "ROCHESTER", "state": "NY", "street": "80 SAINT PAUL ST", "postcode": "14604"}}},
{"geometry": {"type": "Point", "coordinates": [-77.5978473931, 43.1591126724]}, "type": "Feature", "properties": {"collection_times": [{"days": "Mon-Fri", "time": "4:00pm"}, {"days": "Sat-Sun", "time": "Closed"}], "id": "1460400081", "name": "USPS COLLECTION BOX - BLUE BOX", "address": {"city": "ROCHESTER", "state": "NY", "street": "550 E MAIN ST", "postcode": "14604"}}},
{"geometry": {"type": "Point", "coordinates": [-77.6029523787, 43.1603219844]}, "type": "Feature", "properties": {"collection_times": [{"days": "Mon-Fri", "time": "4:15pm"}, {"days": "Sat-Sun", "time": "Closed"}], "id": "1460400082", "name": "USPS COLLECTION BOX - BLUE BOX", "address": {"city": "ROCHESTER", "state": "NY", "street": "150 N CHESTNUT ST", "postcode": "14604"}}},
{"geometry": {"type": "Point", "coordinates": [-77.6072471257, 43.1590064262]}, "type": "Feature", "properties": {"collection_times": [{"days": "Mon-Fri", "time": "5:00pm"}, {"days": "Sat-Sun", "time": "Closed"}], "id": "1460400084", "name": "USPS COLLECTION BOX - BLUE BOX", "address": {"city": "ROCHESTER", "state": "NY", "street": "87 CLINTON AVE N", "postcode": "14604"}}},
{"geometry": {"type": "Point", "coordinates": [-77.6078036934, 43.1542060866]}, "type": "Feature", "properties": {"collection_times": [{"days": "Mon-Fri", "time": "3:15pm"}, {"days": "Sat-Sun", "time": "Closed"}], "id": "1460400087", "name": "USPS COLLECTION BOX - BLUE BOX", "address": {"city": "ROCHESTER", "state": "NY", "street": "115 SOUTH AVE", "postcode": "14604"}}},
{"geometry": {"type": "Point", "coordinates": [-77.6045674608, 43.1579218238]}, "type": "Feature", "properties": {"collection_times": [{"days": "Mon-Fri", "time": "5:00pm"}, {"days": "Sat", "time": "12:30pm"}, {"days": "Sun", "time": "Closed"}], "id": "1460400091", "name": "USPS COLLECTION BOX - BLUE BOX", "address": {"city": "ROCHESTER", "state": "NY", "street": "14 FRANKLIN ST", "postcode": "14604"}}},
{"geometry": {"type": "Point", "coordinates": [-77.6072471257, 43.1590064262]}, "type": "Feature", "properties": {"collection_times": [{"days": "Mon-Fri", "time": "5:00pm"}, {"days": "Sat-Sun", "time": "Closed"}], "id": "1460400094", "name": "USPS COLLECTION BOX - BLUE BOX", "address": {"city": "ROCHESTER", "state": "NY", "street": "87 CLINTON AVE N", "postcode": "14604"}}},
{"geometry": {"type": "Point", "coordinates": [-77.6031795068, 43.1547892853]}, "type": "Feature", "properties": {"collection_times": [{"days": "Mon-Fri", "time": "5:00pm"}, {"days": "Sat-Sun", "time": "Closed"}], "id": "1460400095", "name": "USPS COLLECTION BOX - BLUE BOX", "address": {"city": "ROCHESTER", "state": "NY", "street": "100 CHESTNUT ST", "postcode": "14604"}}},
{"geometry": {"type": "Point", "coordinates": [-77.6064741341, 43.1615074238]}, "type": "Feature", "properties": {"collection_times": [{"days": "Mon-Sat", "time": "5:00pm"}, {"days": "Sun", "time": "Closed"}], "id": "1460500004", "name": "USPS COLLECTION BOX - BLUE BOX", "address": {"city": "ROCHESTER", "state": "NY", "street": "216 CUMBERLAND ST", "postcode": "14605"}}},
{"geometry": {"type": "Point", "coordinates": [-77.6064741341, 43.1615074238]}, "type": "Feature", "properties": {"collection_times": [{"days": "Mon-Sat", "time": "5:00pm"}, {"days": "Sun", "time": "Closed"}], "id": "1460500005", "name": "USPS COLLECTION BOX - BLUE BOX", "address": {"city": "ROCHESTER", "state": "NY", "street": "216 CUMBERLAND ST", "postcode": "14605"}}},
{"geometry": {"type": "Point", "coordinates": [-77.6012205267, 43.1608188272]}, "type": "Feature", "properties": {"collection_times": [{"days": "Mon-Fri", "time": "4:15pm"}, {"days": "Sat-Sun", "time": "Closed"}], "id": "1460500016", "name": "USPS COLLECTION BOX - BLUE BOX", "address": {"city": "ROCHESTER", "state": "NY", "street": "58 UNIVERSITY AVE", "postcode": "14605"}}},
{"geometry": {"type": "Point", "coordinates": [-77.600778361, 43.1679635412]}, "type": "Feature", "properties": {"collection_times": [{"days": "Mon-Sat", "time": "5:00pm"}, {"days": "Sun", "time": "Closed"}], "id": "1460500017", "name": "USPS COLLECTION BOX - EXPRESS", "address": {"city": "ROCHESTER", "state": "NY", "street": "216 CUMBERLAND ST", "postcode": "14605"}}},
{"geometry": {"type": "Point", "coordinates": [-77.6085983811, 43.1623006438]}, "type": "Feature", "properties": {"collection_times": [{"days": "Mon-Fri", "time": "4:00pm"}, {"days": "Sat-Sun", "time": "Closed"}], "id": "1460500018", "name": "USPS COLLECTION BOX - BLUE BOX", "address": {"city": "ROCHESTER", "state": "NY", "street": "265 CLINTON AVE N", "postcode": "14605"}}},
{"geometry": {"type": "Point", "coordinates": [-77.6176979622, 43.1680869271]}, "type": "Feature", "properties": {"collection_times": [{"days": "Mon-Fri", "time": "10:00am"}, {"days": "Sat-Sun", "time": "Closed"}], "id": "1460500023", "name": "USPS COLLECTION BOX - BLUE BOX", "address": {"city": "ROCHESTER", "state": "NY", "street": "691 SAINT PAUL ST", "postcode": "14605"}}},
{"geometry": {"type": "Point", "coordinates": [-77.6097717537, 43.1704521365]}, "type": "Feature", "properties": {"collection_times": [{"days": "Mon-Fri", "time": "12:00pm"}, {"days": "Sat-Sun", "time": "Closed"}], "id": "1460500026", "name": "USPS COLLECTION BOX - BLUE BOX", "address": {"city": "ROCHESTER", "state": "NY", "street": "285 UPPER FALLS BLVD", "postcode": "14605"}}},
{"geometry": {"type": "Point", "coordinates": [-77.7324260544, 43.1636934175]}, "type": "Feature", "properties": {"collection_times": [{"days": "Mon-Fri", "time": "1:45pm"}, {"days": "Sat", "time": "12:45pm"}, {"days": "Sun", "time": "Closed"}], "id": "1460600002", "name": "USPS COLLECTION BOX - BLUE BOX", "address": {"city": "ROCHESTER", "state": "NY", "street": "720 ELMGROVE RD", "postcode": "14606"}}},
{"geometry": {"type": "Point", "coordinates": [-77.6887474041, 43.164648581]}, "type": "Feature", "properties": {"collection_times": [{"days": "Mon-Sat", "time": "9:45am"}, {"days": "Sun", "time": "Closed"}], "id": "1460600006", "name": "USPS COLLECTION BOX - BLUE BOX", "address": {"city": "ROCHESTER", "state": "NY", "street": "2315 LYELL AVE", "postcode": "14606"}}},
{"geometry": {"type": "Point", "coordinates": [-77.6851757478, 43.1699101036]}, "type": "Feature", "properties": {"collection_times": [{"days": "Mon-Fri", "time": "12:45pm"}, {"days": "Sat", "time": "11:45am"}, {"days": "Sun", "time": "Closed"}], "id": "1460600011", "name": "USPS COLLECTION BOX - BLUE BOX", "address": {"city": "ROCHESTER", "state": "NY", "street": "429 MCNAUGHTON ST", "postcode": "14606"}}},
{"geometry": {"type": "Point", "coordinates": [-77.6611413339, 43.1647180932]}, "type": "Feature", "properties": {"collection_times": [{"days": "Mon-Sat", "time": "9:45am"}, {"days": "Sun", "time": "Closed"}], "id": "1460600013", "name": "USPS COLLECTION BOX - BLUE BOX", "address": {"city": "ROCHESTER", "state": "NY", "street": "1338 LYELL AVE", "postcode": "14606"}}},
{"geometry": {"type": "Point", "coordinates": [-77.7311153359, 43.1748995877]}, "type": "Feature", "properties": {"collection_times": [{"days": "Mon-Sat", "time": "1:00pm"}, {"days": "Sun", "time": "Closed"}], "id": "1460600015", "name": "USPS COLLECTION BOX - BLUE BOX", "address": {"city": "ROCHESTER", "state": "NY", "street": "1520 SPENCERPORT RD", "postcode": "14606"}}},
{"geometry": {"type": "Point", "coordinates": [-77.7048867697, 43.1702635716]}, "type": "Feature", "properties": {"collection_times": [{"days": "Mon-Fri", "time": "10:00am"}, {"days": "Sat", "time": "9:45am"}, {"days": "Sun", "time": "Closed"}], "id": "1460600016", "name": "USPS COLLECTION BOX - BLUE BOX", "address": {"city": "ROCHESTER", "state": "NY", "street": "525 SPENCERPORT RD", "postcode": "14606"}}},
{"geometry": {"type": "Point", "coordinates": [-77.6851757478, 43.1699101036]}, "type": "Feature", "properties": {"collection_times": [{"days": "Mon-Sat", "time": "5:00pm"}, {"days": "Sun", "time": "Closed"}], "id": "1460600021", "name": "USPS COLLECTION BOX - BLUE BOX", "address": {"city": "ROCHESTER", "state": "NY", "street": "1280 LEXINGTON AVE", "postcode": "14606"}}},
{"geometry": {"type": "Point", "coordinates": [-77.6851757478, 43.1699101036]}, "type": "Feature", "properties": {"collection_times": [{"days": "Mon-Sat", "time": "5:00pm"}, {"days": "Sun", "time": "Closed"}], "id": "1460600023", "name": "USPS COLLECTION BOX - EXPRESS", "address": {"city": "ROCHESTER", "state": "NY", "street": "1280 LEXINGTON AVE", "postcode": "14606"}}},
{"geometry": {"type": "Point", "coordinates": [-77.6806715999, 43.1783207054]}, "type": "Feature", "properties": {"collection_times": [{"days": "Mon-Fri", "time": "10:00am"}, {"days": "Sat-Sun", "time": "Closed"}], "id": "1460600029", "name": "USPS COLLECTION BOX - BLUE BOX", "address": {"city": "ROCHESTER", "state": "NY", "street": "687 LEE RD", "postcode": "14606"}}},
{"geometry": {"type": "Point", "coordinates": [-77.6851757478, 43.1699101036]}, "type": "Feature", "properties": {"collection_times": [{"days": "Mon-Fri", "time": "4:00pm"}, {"days": "Sat", "time": "3:00pm"}, {"days": "Sun", "time": "Closed"}], "id": "1460600035", "name": "USPS COLLECTION BOX - BLUE BOX", "address": {"city": "ROCHESTER", "state": "NY", "street": "2222 LYELL AVE", "postcode": "14606"}}},
{"geometry": {"type": "Point", "coordinates": [-77.5881170149, 43.1502706788]}, "type": "Feature", "properties": {"collection_times": [{"days": "Mon-Fri", "time": "4:45pm"}, {"days": "Sat", "time": "11:00am"}, {"days": "Sun", "time": "Closed"}], "id": "1460700005", "name": "USPS COLLECTION BOX - EXPRESS", "address": {"city": "ROCHESTER", "state": "NY", "street": "274 GOODMAN ST N", "postcode": "14607"}}},
{"geometry": {"type": "Point", "coordinates": [-77.5971031186, 43.1497289751]}, "type": "Feature", "properties": {"collection_times": [{"days": "Mon-Sat", "time": "4:30pm"}, {"days": "Sun", "time": "Closed"}], "id": "1460700006", "name": "USPS COLLECTION BOX - BLUE BOX", "address": {"city": "ROCHESTER", "state": "NY", "street": "220 ALEXANDER ST", "postcode": "14607"}}},
{"geometry": {"type": "Point", "coordinates": [-77.5993239575, 43.1548121187]}, "type": "Feature", "properties": {"collection_times": [{"days": "Mon-Fri", "time": "3:30pm"}, {"days": "Sat-Sun", "time": "Closed"}], "id": "1460700007", "name": "USPS COLLECTION BOX - BLUE BOX", "address": {"city": "ROCHESTER", "state": "NY", "street": "475 E BROAD ST", "postcode": "14607"}}},
{"geometry": {"type": "Point", "coordinates": [-77.5653946145, 43.1499912038]}, "type": "Feature", "properties": {"collection_times": [{"days": "Mon-Fri", "time": "4:00pm"}, {"days": "Sat-Sun", "time": "Closed"}], "id": "1460700011", "name": "USPS COLLECTION BOX - BLUE BOX", "address": {"city": "ROCHESTER", "state": "NY", "street": "1344 UNIVERSITY AVE", "postcode": "14607"}}},
{"geometry": {"type": "Point", "coordinates": [-77.5804785242, 43.1515160379]}, "type": "Feature", "properties": {"collection_times": [{"days": "Mon-Fri", "time": "3:15pm"}, {"days": "Sat-Sun", "time": "Closed"}], "id": "1460700013", "name": "USPS COLLECTION BOX - BLUE BOX", "address": {"city": "ROCHESTER", "state": "NY", "street": "901 EAST AVE", "postcode": "14607"}}},
{"geometry": {"type": "Point", "coordinates": [-77.5879110554, 43.1533957597]}, "type": "Feature", "properties": {"collection_times": [{"days": "Mon-Fri", "time": "4:45pm"}, {"days": "Sat", "time": "10:45am"}, {"days": "Sun", "time": "Closed"}], "id": "1460700014", "name": "USPS COLLECTION BOX - BLUE BOX", "address": {"city": "ROCHESTER", "state": "NY", "street": "610 EAST AVE", "postcode": "14607"}}},
{"geometry": {"type": "Point", "coordinates": [-77.5920798028, 43.1544556909]}, "type": "Feature", "properties": {"collection_times": [{"days": "Mon-Fri", "time": "5:00pm"}, {"days": "Sat-Sun", "time": "Closed"}], "id": "1460700016", "name": "USPS COLLECTION BOX - BLUE BOX", "address": {"city": "ROCHESTER", "state": "NY", "street": "460 EAST AVE", "postcode": "14607"}}},
{"geometry": {"type": "Point", "coordinates": [-77.5852277992, 43.1587996963]}, "type": "Feature", "properties": {"collection_times": [{"days": "Mon-Fri", "time": "4:45pm"}, {"days": "Sat", "time": "11:00am"}, {"days": "Sun", "time": "Closed"}], "id": "1460700017", "name": "USPS COLLECTION BOX - BLUE BOX", "address": {"city": "ROCHESTER", "state": "NY", "street": "274 GOODMAN ST N", "postcode": "14607"}}},
{"geometry": {"type": "Point", "coordinates": [-77.5793215904, 43.1448193072]}, "type": "Feature", "properties": {"collection_times": [{"days": "Mon-Fri", "time": "11:45am"}, {"days": "Sat-Sun", "time": "Closed"}], "id": "1460700019", "name": "USPS COLLECTION BOX - BLUE BOX", "address": {"city": "ROCHESTER", "state": "NY", "street": "525 HARVARD ST", "postcode": "14607"}}},
{"geometry": {"type": "Point", "coordinates": [-77.5991277698, 43.1495888459]}, "type": "Feature", "properties": {"collection_times": [{"days": "Mon-Fri", "time": "4:15pm"}, {"days": "Sat-Sun", "time": "Closed"}], "id": "1460700022", "name": "USPS COLLECTION BOX - BLUE BOX", "address": {"city": "ROCHESTER", "state": "NY", "street": "259 MONROE AVE", "postcode": "14607"}}},
{"geometry": {"type": "Point", "coordinates": [-77.5875348745, 43.1430141118]}, "type": "Feature", "properties": {"collection_times": [{"days": "Mon-Sat", "time": "10:30am"}, {"days": "Sun", "time": "Closed"}], "id": "1460700023", "name": "USPS COLLECTION BOX - BLUE BOX", "address": {"city": "ROCHESTER", "state": "NY", "street": "774 MONROE AVE", "postcode": "14607"}}},
{"geometry": {"type": "Point", "coordinates": [-77.5895624661, 43.1441769605]}, "type": "Feature", "properties": {"collection_times": [{"days": "Mon-Sat", "time": "10:45am"}, {"days": "Sun", "time": "Closed"}], "id": "1460700026", "name": "USPS COLLECTION BOX - BLUE BOX", "address": {"city": "ROCHESTER", "state": "NY", "street": "686 MONROE AVE", "postcode": "14607"}}},
{"geometry": {"type": "Point", "coordinates": [-77.5891044494, 43.1502430086]}, "type": "Feature", "properties": {"collection_times": [{"days": "Mon-Fri", "time": "4:30pm"}, {"days": "Sat", "time": "10:00am"}, {"days": "Sun", "time": "Closed"}], "id": "1460700028", "name": "USPS COLLECTION BOX - BLUE BOX", "address": {"city": "ROCHESTER", "state": "NY", "street": "235 PARK AVE", "postcode": "14607"}}},
{"geometry": {"type": "Point", "coordinates": [-77.5781066915, 43.1482073017]}, "type": "Feature", "properties": {"collection_times": [{"days": "Mon-Sat", "time": "10:00am"}, {"days": "Sun", "time": "Closed"}], "id": "1460700030", "name": "USPS COLLECTION BOX - BLUE BOX", "address": {"city": "ROCHESTER", "state": "NY", "street": "657 PARK AVE", "postcode": "14607"}}},
{"geometry": {"type": "Point", "coordinates": [-77.5925813774, 43.1512404084]}, "type": "Feature", "properties": {"collection_times": [{"days": "Mon-Sat", "time": "11:00am"}, {"days": "Sun", "time": "Closed"}], "id": "1460700031", "name": "USPS COLLECTION BOX - BLUE BOX", "address": {"city": "ROCHESTER", "state": "NY", "street": "121 PARK AVE", "postcode": "14607"}}},
{"geometry": {"type": "Point", "coordinates": [-77.591959141, 43.1433512551]}, "type": "Feature", "properties": {"collection_times": [{"days": "Mon-Fri", "time": "11:00am"}, {"days": "Sat-Sun", "time": "Closed"}], "id": "1460700034", "name": "USPS COLLECTION BOX - BLUE BOX", "address": {"city": "ROCHESTER", "state": "NY", "street": "77 BOARDMAN ST", "postcode": "14607"}}},
{"geometry": {"type": "Point", "coordinates": [-77.5994175859, 43.1510496151]}, "type": "Feature", "properties": {"collection_times": [{"days": "Mon-Fri", "time": "4:30pm"}, {"days": "Sat-Sun", "time": "Closed"}], "id": "1460700036", "name": "USPS COLLECTION BOX - BLUE BOX", "address": {"city": "ROCHESTER", "state": "NY", "street": "109 S UNION ST", "postcode": "14607"}}},
{"geometry": {"type": "Point", "coordinates": [-77.5960261539, 43.1568511828]}, "type": "Feature", "properties": {"collection_times": [{"days": "Mon-Fri", "time": "4:30pm"}, {"days": "Sat-Sun", "time": "Closed"}], "id": "1460700037", "name": "USPS COLLECTION BOX - BLUE BOX", "address": {"city": "ROCHESTER", "state": "NY", "street": "30 N UNION ST", "postcode": "14607"}}},
{"geometry": {"type": "Point", "coordinates": [-77.573219888, 43.1523464751]}, "type": "Feature", "properties": {"collection_times": [{"days": "Mon-Fri", "time": "4:30pm"}, {"days": "Sat-Sun", "time": "Closed"}], "id": "1460700038", "name": "USPS COLLECTION BOX - BLUE BOX", "address": {"city": "ROCHESTER", "state": "NY", "street": "1100 UNIVERSITY AVE", "postcode": "14607"}}},
{"geometry": {"type": "Point", "coordinates": [-77.5845857578, 43.1525463951]}, "type": "Feature", "properties": {"collection_times": [{"days": "Mon-Fri", "time": "4:45pm"}, {"days": "Sat", "time": "11:45am"}, {"days": "Sun", "time": "Closed"}], "id": "1460700041", "name": "USPS COLLECTION BOX - BLUE BOX", "address": {"city": "ROCHESTER", "state": "NY", "street": "740 EAST AVE", "postcode": "14607"}}},
{"geometry": {"type": "Point", "coordinates": [-77.5852277992, 43.1587996963]}, "type": "Feature", "properties": {"collection_times": [{"days": "Mon-Fri", "time": "4:45pm"}, {"days": "Sat", "time": "11:00am"}, {"days": "Sun", "time": "Closed"}], "id": "1460700043", "name": "USPS COLLECTION BOX - BLUE BOX", "address": {"city": "ROCHESTER", "state": "NY", "street": "274 GOODMAN ST N", "postcode": "14607"}}},
{"geometry": {"type": "Point", "coordinates": [-77.5898511081, 43.1589887897]}, "type": "Feature", "properties": {"collection_times": [{"days": "Mon-Fri", "time": "3:45pm"}, {"days": "Sat-Sun", "time": "Closed"}], "id": "1460700044", "name": "USPS COLLECTION BOX - BLUE BOX", "address": {"city": "ROCHESTER", "state": "NY", "street": "46 PRINCE ST", "postcode": "14607"}}},
{"geometry": {"type": "Point", "coordinates": [-77.5878105039, 43.1595802691]}, "type": "Feature", "properties": {"collection_times": [{"days": "Mon-Fri", "time": "4:00pm"}, {"days": "Sat-Sun", "time": "Closed"}], "id": "1460700045", "name": "USPS COLLECTION BOX - BLUE BOX", "address": {"city": "ROCHESTER", "state": "NY", "street": "65 COLLEGE AVE", "postcode": "14607"}}},
{"geometry": {"type": "Point", "coordinates": [-77.5767356421, 43.153414687]}, "type": "Feature", "properties": {"collection_times": [{"days": "Mon-Fri", "time": "4:30pm"}, {"days": "Sat-Sun", "time": "Closed"}], "id": "1460700048", "name": "USPS COLLECTION BOX - BLUE BOX", "address": {"city": "ROCHESTER", "state": "NY", "street": "1000 UNIVERSITY AVE", "postcode": "14607"}}},
{"geometry": {"type": "Point", "coordinates": [-77.5820731529, 43.155002218]}, "type": "Feature", "properties": {"collection_times": [{"days": "Mon-Sat", "time": "10:30am"}, {"days": "Sun", "time": "Closed"}], "id": "1460700051", "name": "USPS COLLECTION BOX - BLUE BOX", "address": {"city": "ROCHESTER", "state": "NY", "street": "775 UNIVERSITY AVE", "postcode": "14607"}}},
{"geometry": {"type": "Point", "coordinates": [-77.5995738479, 43.1549702781]}, "type": "Feature", "properties": {"collection_times": [{"days": "Mon-Fri", "time": "5:00pm"}, {"days": "Sat", "time": "12:00pm"}, {"days": "Sun", "time": "Closed"}], "id": "1460700052", "name": "USPS COLLECTION BOX - BLUE BOX", "address": {"city": "ROCHESTER", "state": "NY", "street": "454 E BROAD ST", "postcode": "14607"}}},
{"geometry": {"type": "Point", "coordinates": [-77.5945379915, 43.1569115137]}, "type": "Feature", "properties": {"collection_times": [{"days": "Mon-Fri", "time": "4:15pm"}, {"days": "Sat-Sun", "time": "Closed"}], "id": "1460700055", "name": "USPS COLLECTION BOX - BLUE BOX", "address": {"city": "ROCHESTER", "state": "NY", "street": "175 CHARLOTTE ST", "postcode": "14607"}}},
{"geometry": {"type": "Point", "coordinates": [-77.6113135669, 43.149815423]}, "type": "Feature", "properties": {"collection_times": [{"days": "Mon-Fri", "time": "5:00pm"}, {"days": "Sat", "time": "9:30am"}, {"days": "Sun", "time": "Closed"}], "id": "1460800001", "name": "USPS COLLECTION BOX - BLUE BOX", "address": {"city": "ROCHESTER", "state": "NY", "street": "301 EXCHANGE BLVD", "postcode": "14608"}}},
{"geometry": {"type": "Point", "coordinates": [-77.613759814, 43.1504771024]}, "type": "Feature", "properties": {"collection_times": [{"days": "Mon-Fri", "time": "3:30pm"}, {"days": "Sat", "time": "9:30am"}, {"days": "Sun", "time": "Closed"}], "id": "1460800007", "name": "USPS COLLECTION BOX - BLUE BOX", "address": {"city": "ROCHESTER", "state": "NY", "street": "232 PLYMOUTH AVE S", "postcode": "14608"}}},
{"geometry": {"type": "Point", "coordinates": [-77.6209463675, 43.1586279872]}, "type": "Feature", "properties": {"collection_times": [{"days": "Mon-Fri", "time": "9:30am"}, {"days": "Sat", "time": "3:45pm"}, {"days": "Sun", "time": "Closed"}], "id": "1460800011", "name": "USPS COLLECTION BOX - BLUE BOX", "address": {"city": "ROCHESTER", "state": "NY", "street": "1 MORRIE SILVER WAY", "postcode": "14608"}}},
{"geometry": {"type": "Point", "coordinates": [-77.6192819442, 43.1611973741]}, "type": "Feature", "properties": {"collection_times": [{"days": "Mon-Fri", "time": "4:00pm"}, {"days": "Sat-Sun", "time": "Closed"}], "id": "1460800015", "name": "USPS COLLECTION BOX - BLUE BOX", "address": {"city": "ROCHESTER", "state": "NY", "street": "343 STATE ST", "postcode": "14608"}}},
{"geometry": {"type": "Point", "coordinates": [-77.6214893456, 43.1599505353]}, "type": "Feature", "properties": {"collection_times": [{"days": "Mon-Fri", "time": "2:00pm"}, {"days": "Sat", "time": "3:45pm"}, {"days": "Sun", "time": "Closed"}], "id": "1460800016", "name": "USPS COLLECTION BOX - BLUE BOX", "address": {"city": "ROCHESTER", "state": "NY", "street": "150 VERONA ST", "postcode": "14608"}}},
{"geometry": {"type": "Point", "coordinates": [-77.6228596789, 43.1505313791]}, "type": "Feature", "properties": {"collection_times": [{"days": "Mon-Fri", "time": "10:15am"}, {"days": "Sat", "time": "10:00am"}, {"days": "Sun", "time": "Closed"}], "id": "1460800022", "name": "USPS COLLECTION BOX - BLUE BOX", "address": {"city": "ROCHESTER", "state": "NY", "street": "150 VAN AUKER ST", "postcode": "14608"}}},
{"geometry": {"type": "Point", "coordinates": [-77.5600819458, 43.1566962152]}, "type": "Feature", "properties": {"collection_times": [{"days": "Mon-Sat", "time": "10:15am"}, {"days": "Sun", "time": "Closed"}], "id": "1460900001", "name": "USPS COLLECTION BOX - BLUE BOX", "address": {"city": "ROCHESTER", "state": "NY", "street": "871 ATLANTIC AVE", "postcode": "14609"}}},
{"geometry": {"type": "Point", "coordinates": [-77.5443769825, 43.1719043356]}, "type": "Feature", "properties": {"collection_times": [{"days": "Mon-Fri", "time": "12:30pm"}, {"days": "Sat", "time": "12:00pm"}, {"days": "Sun", "time": "Closed"}], "id": "1460900013", "name": "USPS COLLECTION BOX - BLUE BOX", "address": {"city": "ROCHESTER", "state": "NY", "street": "544 CULVER PKWY", "postcode": "14609"}}},
{"geometry": {"type": "Point", "coordinates": [-77.5652325491, 43.1616350689]}, "type": "Feature", "properties": {"collection_times": [{"days": "Mon-Fri", "time": "4:00pm"}, {"days": "Sat-Sun", "time": "Closed"}], "id": "1460900014", "name": "USPS COLLECTION BOX - BLUE BOX", "address": {"city": "ROCHESTER", "state": "NY", "street": "915 CULVER RD", "postcode": "14609"}}},
{"geometry": {"type": "Point", "coordinates": [-77.5601990587, 43.1709603344]}, "type": "Feature", "properties": {"collection_times": [{"days": "Mon-Fri", "time": "4:00pm"}, {"days": "Sat", "time": "2:00pm"}, {"days": "Sun", "time": "Closed"}], "id": "1460900015", "name": "USPS COLLECTION BOX - BLUE BOX", "address": {"city": "ROCHESTER", "state": "NY", "street": "1392 CULVER RD", "postcode": "14609"}}},
{"geometry": {"type": "Point", "coordinates": [-77.5793642998, 43.1697197675]}, "type": "Feature", "properties": {"collection_times": [{"days": "Mon-Fri", "time": "12:00pm"}, {"days": "Sat-Sun", "time": "Closed"}], "id": "1460900017", "name": "USPS COLLECTION BOX - BLUE BOX", "address": {"city": "ROCHESTER", "state": "NY", "street": "836 GOODMAN ST N", "postcode": "14609"}}},
{"geometry": {"type": "Point", "coordinates": [-77.5450678306, 43.1792623404]}, "type": "Feature", "properties": {"collection_times": [{"days": "Mon-Fri", "time": "4:00pm"}, {"days": "Sat-Sun", "time": "Closed"}], "id": "1460900020", "name": "USPS COLLECTION BOX - BLUE BOX", "address": {"city": "ROCHESTER", "state": "NY", "street": "500 HELENDALE RD", "postcode": "14609"}}},
{"geometry": {"type": "Point", "coordinates": [-77.5499419433, 43.1594168889]}, "type": "Feature", "properties": {"collection_times": [{"days": "Mon-Sat", "time": "10:00am"}, {"days": "Sun", "time": "Closed"}], "id": "1460900021", "name": "USPS COLLECTION BOX - BLUE BOX", "address": {"city": "ROCHESTER", "state": "NY", "street": "2290 E MAIN ST", "postcode": "14609"}}},
{"geometry": {"type": "Point", "coordinates": [-77.5671891632, 43.1598653623]}, "type": "Feature", "properties": {"collection_times": [{"days": "Mon-Fri", "time": "3:30pm"}, {"days": "Sat-Sun", "time": "Closed"}], "id": "1460900023", "name": "USPS COLLECTION BOX - BLUE BOX", "address": {"city": "ROCHESTER", "state": "NY", "street": "1653 E MAIN ST", "postcode": "14609"}}},
{"geometry": {"type": "Point", "coordinates": [-77.5762234208, 43.1611571534]}, "type": "Feature", "properties": {"collection_times": [{"days": "Mon-Fri", "time": "10:30am"}, {"days": "Sat-Sun", "time": "Closed"}], "id": "1460900024", "name": "USPS COLLECTION BOX - BLUE BOX", "address": {"city": "ROCHESTER", "state": "NY", "street": "1337 E MAIN ST", "postcode": "14609"}}},
{"geometry": {"type": "Point", "coordinates": [-77.5555606766, 43.160073563]}, "type": "Feature", "properties": {"collection_times": [{"days": "Mon-Sat", "time": "10:00am"}, {"days": "Sun", "time": "Closed"}], "id": "1460900025", "name": "USPS COLLECTION BOX - BLUE BOX", "address": {"city": "ROCHESTER", "state": "NY", "street": "2052 E MAIN ST", "postcode": "14609"}}},
{"geometry": {"type": "Point", "coordinates": [-77.5578953755, 43.1600283043]}, "type": "Feature", "properties": {"collection_times": [{"days": "Mon-Sat", "time": "10:00am"}, {"days": "Sun", "time": "Closed"}], "id": "1460900027", "name": "USPS COLLECTION BOX - BLUE BOX", "address": {"city": "ROCHESTER", "state": "NY", "street": "1986 E MAIN ST", "postcode": "14609"}}},
{"geometry": {"type": "Point", "coordinates": [-77.5579857425, 43.1670305447]}, "type": "Feature", "properties": {"collection_times": [{"days": "Mon-Sat", "time": "11:30am"}, {"days": "Sun", "time": "Closed"}], "id": "1460900029", "name": "USPS COLLECTION BOX - BLUE BOX", "address": {"city": "ROCHESTER", "state": "NY", "street": "698 MELVILLE ST", "postcode": "14609"}}},
{"geometry": {"type": "Point", "coordinates": [-77.5659828239, 43.1840017777]}, "type": "Feature", "properties": {"collection_times": [{"days": "Mon-Sat", "time": "5:00pm"}, {"days": "Sun", "time": "Closed"}], "id": "1460900031", "name": "USPS COLLECTION BOX - BLUE BOX", "address": {"city": "ROCHESTER", "state": "NY", "street": "300 WARING RD", "postcode": "14609"}}},
{"geometry": {"type": "Point", "coordinates": [-77.5659828239, 43.1840017777]}, "type": "Feature", "properties": {"collection_times": [{"days": "Mon-Sat", "time": "5:00pm"}, {"days": "Sun", "time": "Closed"}], "id": "1460900032", "name": "USPS COLLECTION BOX - BLUE BOX", "address": {"city": "ROCHESTER", "state": "NY", "street": "300 WARING RD", "postcode": "14609"}}},
{"geometry": {"type": "Point", "coordinates": [-77.5659828239, 43.1840017777]}, "type": "Feature", "properties": {"collection_times": [{"days": "Mon-Sat", "time": "5:00pm"}, {"days": "Sun", "time": "Closed"}], "id": "1460900033", "name": "USPS COLLECTION BOX - BLUE BOX", "address": {"city": "ROCHESTER", "state": "NY", "street": "300 WARING RD", "postcode": "14609"}}},
{"geometry": {"type": "Point", "coordinates": [-77.575010536, 43.167951637]}, "type": "Feature", "properties": {"collection_times": [{"days": "Mon-Sat", "time": "10:30am"}, {"days": "Sun", "time": "Closed"}], "id": "1460900035", "name": "USPS COLLECTION BOX - BLUE BOX", "address": {"city": "ROCHESTER", "state": "NY", "street": "350 WEBSTER AVE", "postcode": "14609"}}},
{"geometry": {"type": "Point", "coordinates": [-77.5583726388, 43.1764019288]}, "type": "Feature", "properties": {"collection_times": [{"days": "Mon-Fri", "time": "4:00pm"}, {"days": "Sat", "time": "2:00pm"}, {"days": "Sun", "time": "Closed"}], "id": "1460900042", "name": "USPS COLLECTION BOX - BLUE BOX", "address": {"city": "ROCHESTER", "state": "NY", "street": "2350 CLIFFORD AVE", "postcode": "14609"}}},
{"geometry": {"type": "Point", "coordinates": [-77.5611171508, 43.1748243048]}, "type": "Feature", "properties": {"collection_times": [{"days": "Mon-Fri", "time": "5:00pm"}, {"days": "Sat", "time": "3:00pm"}, {"days": "Sun", "time": "Closed"}], "id": "1460900048", "name": "USPS COLLECTION BOX - APC", "address": {"city": "ROCHESTER", "state": "NY", "street": "300 WARING RD", "postcode": "14609"}}},
{"geometry": {"type": "Point", "coordinates": [-77.5462199836, 43.1493114216]}, "type": "Feature", "properties": {"collection_times": [{"days": "Mon-Sat", "time": "12:00pm"}, {"days": "Sun", "time": "Closed"}], "id": "1461000002", "name": "USPS COLLECTION BOX - BLUE BOX", "address": {"city": "ROCHESTER", "state": "NY", "street": "5 BOBRICH DR", "postcode": "14610"}}},
{"geometry": {"type": "Point", "coordinates": [-77.5538595246, 43.1493996458]}, "type": "Feature", "properties": {"collection_times": [{"days": "Mon-Fri", "time": "4:00pm"}, {"days": "Sat-Sun", "time": "Closed"}], "id": "1461000003", "name": "USPS COLLECTION BOX - BLUE BOX", "address": {"city": "ROCHESTER", "state": "NY", "street": "595 BLOSSOM RD", "postcode": "14610"}}},
{"geometry": {"type": "Point", "coordinates": [-77.5538844237, 43.1480180282]}, "type": "Feature", "properties": {"collection_times": [{"days": "Mon-Fri", "time": "5:00pm"}, {"days": "Sat", "time": "12:00pm"}, {"days": "Sun", "time": "Closed"}], "id": "1461000005", "name": "USPS COLLECTION BOX - BLUE BOX", "address": {"city": "ROCHESTER", "state": "NY", "street": "130 N WINTON RD", "postcode": "14610"}}},
{"geometry": {"type": "Point", "coordinates": [-77.5538844237, 43.1480180282]}, "type": "Feature", "properties": {"collection_times": [{"days": "Mon-Fri", "time": "5:00pm"}, {"days": "Sat", "time": "12:00pm"}, {"days": "Sun", "time": "Closed"}], "id": "1461000006", "name": "USPS COLLECTION BOX - BLUE BOX", "address": {"city": "ROCHESTER", "state": "NY", "street": "130 N WINTON RD", "postcode": "14610"}}},
{"geometry": {"type": "Point", "coordinates": [-77.5538844237, 43.1480180282]}, "type": "Feature", "properties": {"collection_times": [{"days": "Mon-Fri", "time": "5:00pm"}, {"days": "Sat", "time": "12:00pm"}, {"days": "Sun", "time": "Closed"}], "id": "1461000007", "name": "USPS COLLECTION BOX - BLUE BOX", "address": {"city": "ROCHESTER", "state": "NY", "street": "130 N WINTON RD", "postcode": "14610"}}},
{"geometry": {"type": "Point", "coordinates": [-77.5489858954, 43.1447612118]}, "type": "Feature", "properties": {"collection_times": [{"days": "Mon-Fri", "time": "5:00pm"}, {"days": "Sat", "time": "12:00pm"}, {"days": "Sun", "time": "Closed"}], "id": "1461000008", "name": "USPS COLLECTION BOX - EXPRESS", "address": {"city": "ROCHESTER", "state": "NY", "street": "130 N WINTON RD", "postcode": "14610"}}},
{"geometry": {"type": "Point", "coordinates": [-77.5586178729, 43.1474946012]}, "type": "Feature", "properties": {"collection_times": [{"days": "Mon-Fri", "time": "4:00pm"}, {"days": "Sat-Sun", "time": "Closed"}], "id": "1461000014", "name": "USPS COLLECTION BOX - BLUE BOX", "address": {"city": "ROCHESTER", "state": "NY", "street": "1680 UNIVERSITY AVE", "postcode": "14610"}}},
{"geometry": {"type": "Point", "coordinates": [-77.5411939097, 43.1388664154]}, "type": "Feature", "properties": {"collection_times": [{"days": "Mon-Fri", "time": "12:00pm"}, {"days": "Sat-Sun", "time": "Closed"}], "id": "1461000015", "name": "USPS COLLECTION BOX - BLUE BOX", "address": {"city": "ROCHESTER", "state": "NY", "street": "2430 EAST AVE", "postcode": "14610"}}},
{"geometry": {"type": "Point", "coordinates": [-77.5489858954, 43.1447612118]}, "type": "Feature", "properties": {"collection_times": [{"days": "Mon-Sat", "time": "9:00am"}, {"days": "Sun", "time": "Closed"}], "id": "1461000016", "name": "USPS COLLECTION BOX - BLUE BOX", "address": {"city": "ROCHESTER", "state": "NY", "street": "1750 EAST AVE", "postcode": "14610"}}},
{"geometry": {"type": "Point", "coordinates": [-77.5501841281, 43.1548070297]}, "type": "Feature", "properties": {"collection_times": [{"days": "Mon-Fri", "time": "9:30am"}, {"days": "Sat-Sun", "time": "Closed"}], "id": "1461000032", "name": "USPS COLLECTION BOX - BLUE BOX", "address": {"city": "ROCHESTER", "state": "NY", "street": "480 N WINTON RD", "postcode": "14610"}}},
{"geometry": {"type": "Point", "coordinates": [-77.5537755915, 43.1482167653]}, "type": "Feature", "properties": {"collection_times": [{"days": "Mon-Fri", "time": "4:00pm"}, {"days": "Sat", "time": "3:00pm"}, {"days": "Sun", "time": "Closed"}], "id": "1461000034", "name": "USPS COLLECTION BOX - BLUE BOX", "address": {"city": "ROCHESTER", "state": "NY", "street": "175 N WINTON RD", "postcode": "14610"}}},
{"geometry": {"type": "Point", "coordinates": [-77.5596464669, 43.1537189863]}, "type": "Feature", "properties": {"collection_times": [{"days": "Mon-Fri", "time": "11:00am"}, {"days": "Sat-Sun", "time": "Closed"}], "id": "1461000040", "name": "USPS COLLECTION BOX - BLUE BOX", "address": {"city": "ROCHESTER", "state": "NY", "street": "333 HUMBOLDT ST", "postcode": "14610"}}},
{"geometry": {"type": "Point", "coordinates": [-77.5538844237, 43.1480180282]}, "type": "Feature", "properties": {"collection_times": [{"days": "Mon-Fri", "time": "5:00pm"}, {"days": "Sat", "time": "12:00pm"}, {"days": "Sun", "time": "Closed"}], "id": "1461000043", "name": "USPS COLLECTION BOX - APC", "address": {"city": "ROCHESTER", "state": "NY", "street": "130 N WINTON RD", "postcode": "14610"}}},
{"geometry": {"type": "Point", "coordinates": [-77.6360634001, 43.1489407362]}, "type": "Feature", "properties": {"collection_times": [{"days": "Mon-Sat", "time": "11:00am"}, {"days": "Sun", "time": "Closed"}], "id": "1461100006", "name": "USPS COLLECTION BOX - BLUE BOX", "address": {"city": "ROCHESTER", "state": "NY", "street": "89 GENESEE ST", "postcode": "14611"}}},
{"geometry": {"type": "Point", "coordinates": [-77.6507273594, 43.1593626047]}, "type": "Feature", "properties": {"collection_times": [{"days": "Mon-Sat", "time": "11:30am"}, {"days": "Sun", "time": "Closed"}], "id": "1461100013", "name": "USPS COLLECTION BOX - BLUE BOX", "address": {"city": "ROCHESTER", "state": "NY", "street": "1099 JAY ST", "postcode": "14611"}}},
{"geometry": {"type": "Point", "coordinates": [-77.6596765413, 43.1555350259]}, "type": "Feature", "properties": {"collection_times": [{"days": "Mon-Fri", "time": "12:45pm"}, {"days": "Sat", "time": "11:15am"}, {"days": "Sun", "time": "Closed"}], "id": "1461100021", "name": "USPS COLLECTION BOX - BLUE BOX", "address": {"city": "ROCHESTER", "state": "NY", "street": "285 MOUNT READ BLVD", "postcode": "14611"}}},
{"geometry": {"type": "Point", "coordinates": [-77.6628704332, 43.1494600552]}, "type": "Feature", "properties": {"collection_times": [{"days": "Mon-Fri", "time": "5:00pm"}, {"days": "Sat-Sun", "time": "Closed"}], "id": "1461100032", "name": "USPS COLLECTION BOX - BLUE BOX", "address": {"city": "ROCHESTER", "state": "NY", "street": "801 WEST AVE", "postcode": "14611"}}},
{"geometry": {"type": "Point", "coordinates": [-77.6515317715, 43.1499651787]}, "type": "Feature", "properties": {"collection_times": [{"days": "Mon-Sat", "time": "11:00am"}, {"days": "Sun", "time": "Closed"}], "id": "1461100035", "name": "USPS COLLECTION BOX - BLUE BOX", "address": {"city": "ROCHESTER", "state": "NY", "street": "450 WEST AVE", "postcode": "14611"}}},
{"geometry": {"type": "Point", "coordinates": [-77.6285445456, 43.2532414974]}, "type": "Feature", "properties": {"collection_times": [{"days": "Mon-Sat", "time": "11:00am"}, {"days": "Sun", "time": "Closed"}], "id": "1461200040", "name": "USPS COLLECTION BOX - BLUE BOX", "address": {"city": "ROCHESTER", "state": "NY", "street": "500 GREENLEAF RD", "postcode": "14612"}}},
{"geometry": {"type": "Point", "coordinates": [-77.6260461036, 43.2310333565]}, "type": "Feature", "properties": {"collection_times": [{"days": "Mon-Sat", "time": "1:00pm"}, {"days": "Sun", "time": "Closed"}], "id": "1461200041", "name": "USPS COLLECTION BOX - BLUE BOX", "address": {"city": "ROCHESTER", "state": "NY", "street": "3345 LAKE AVE", "postcode": "14612"}}},
{"geometry": {"type": "Point", "coordinates": [-77.6204885624, 43.2412789641]}, "type": "Feature", "properties": {"collection_times": [{"days": "Mon-Sat", "time": "10:00am"}, {"days": "Sun", "time": "Closed"}], "id": "1461200042", "name": "USPS COLLECTION BOX - BLUE BOX", "address": {"city": "ROCHESTER", "state": "NY", "street": "3885 LAKE AVE", "postcode": "14612"}}},
{"geometry": {"type": "Point", "coordinates": [-77.6132941011, 43.2518649411]}, "type": "Feature", "properties": {"collection_times": [{"days": "Mon-Fri", "time": "5:00pm"}, {"days": "Sat", "time": "12:00pm"}, {"days": "Sun", "time": "Closed"}], "id": "1461200043", "name": "USPS COLLECTION BOX - BLUE BOX", "address": {"city": "ROCHESTER", "state": "NY", "street": "4455 LAKE AVE", "postcode": "14612"}}},
{"geometry": {"type": "Point", "coordinates": [-77.6996438956, 43.2530470399]}, "type": "Feature", "properties": {"collection_times": [{"days": "Mon-Sat", "time": "9:00am"}, {"days": "Sun", "time": "Closed"}], "id": "1461200046", "name": "USPS COLLECTION BOX - BLUE BOX", "address": {"city": "ROCHESTER", "state": "NY", "street": "3177 LATTA RD", "postcode": "14612"}}},
{"geometry": {"type": "Point", "coordinates": [-77.6587958502, 43.2528587986]}, "type": "Feature", "properties": {"collection_times": [{"days": "Mon-Sat", "time": "1:00pm"}, {"days": "Sun", "time": "Closed"}], "id": "1461200047", "name": "USPS COLLECTION BOX - BLUE BOX", "address": {"city": "ROCHESTER", "state": "NY", "street": "1766 LATTA RD", "postcode": "14612"}}},
{"geometry": {"type": "Point", "coordinates": [-77.6245488405, 43.2276239878]}, "type": "Feature", "properties": {"collection_times": [{"days": "Mon-Fri", "time": "10:00am"}, {"days": "Sat-Sun", "time": "Closed"}], "id": "1461200048", "name": "USPS COLLECTION BOX - BLUE BOX", "address": {"city": "ROCHESTER", "state": "NY", "street": "100 BOXART ST", "postcode": "14612"}}},
{"geometry": {"type": "Point", "coordinates": [-77.6583192688, 43.2576401097]}, "type": "Feature", "properties": {"collection_times": [{"days": "Mon-Fri", "time": "6:00pm"}, {"days": "Sat", "time": "5:00pm"}, {"days": "Sun", "time": "Closed"}], "id": "1461200056", "name": "USPS COLLECTION BOX - BLUE BOX", "address": {"city": "ROCHESTER", "state": "NY", "street": "3245 LATTA RD", "postcode": "14612"}}},
{"geometry": {"type": "Point", "coordinates": [-77.6583192688, 43.2576401097]}, "type": "Feature", "properties": {"collection_times": [{"days": "Mon-Fri", "time": "6:00pm"}, {"days": "Sat", "time": "5:00pm"}, {"days": "Sun", "time": "Closed"}], "id": "1461200058", "name": "USPS COLLECTION BOX - EXPRESS", "address": {"city": "ROCHESTER", "state": "NY", "street": "3245 LATTA RD", "postcode": "14612"}}},
{"geometry": {"type": "Point", "coordinates": [-77.6583192688, 43.2576401097]}, "type": "Feature", "properties": {"collection_times": [{"days": "Mon-Fri", "time": "6:00pm"}, {"days": "Sat", "time": "5:00pm"}, {"days": "Sun", "time": "Closed"}], "id": "1461200060", "name": "USPS COLLECTION BOX - BLUE BOX", "address": {"city": "ROCHESTER", "state": "NY", "street": "3245 LATTA RD", "postcode": "14612"}}},
{"geometry": {"type": "Point", "coordinates": [-77.6583192688, 43.2576401097]}, "type": "Feature", "properties": {"collection_times": [{"days": "Mon-Fri", "time": "10:30am"}, {"days": "Sat-Sun", "time": "Closed"}], "id": "1461200061", "name": "USPS COLLECTION BOX - BLUE BOX", "address": {"city": "ROCHESTER", "state": "NY", "street": "1 VINCE TOFANY BLVD", "postcode": "14612"}}},
{"geometry": {"type": "Point", "coordinates": [-77.6583192688, 43.2576401097]}, "type": "Feature", "properties": {"collection_times": [{"days": "Mon-Fri", "time": "10:30am"}, {"days": "Sat-Sun", "time": "Closed"}], "id": "1461200063", "name": "USPS COLLECTION BOX - BLUE BOX", "address": {"city": "ROCHESTER", "state": "NY", "street": "1 VINCE TOFANY BLVD", "postcode": "14612"}}},
{"geometry": {"type": "Point", "coordinates": [-77.6583192688, 43.2576401097]}, "type": "Feature", "properties": {"collection_times": [{"days": "Mon-Fri", "time": "6:00pm"}, {"days": "Sat", "time": "5:00pm"}, {"days": "Sun", "time": "Closed"}], "id": "1461200065", "name": "USPS COLLECTION BOX - APC", "address": {"city": "ROCHESTER", "state": "NY", "street": "3245 LATTA RD", "postcode": "14612"}}},
{"geometry": {"type": "Point", "coordinates": [-77.6583192688, 43.2576401097]}, "type": "Feature", "properties": {"collection_times": [{"days": "Mon-Fri", "time": "6:00pm"}, {"days": "Sat", "time": "5:00pm"}, {"days": "Sun", "time": "Closed"}], "id": "1461200073", "name": "USPS COLLECTION BOX - APC", "address": {"city": "ROCHESTER", "state": "NY", "street": "3245 LATTA RD", "postcode": "14612"}}},
{"geometry": {"type": "Point", "coordinates": [-77.6388028618, 43.1851106651]}, "type": "Feature", "properties": {"collection_times": [{"days": "Mon-Fri", "time": "11:30am"}, {"days": "Sat", "time": "10:30am"}, {"days": "Sun", "time": "Closed"}], "id": "1461300002", "name": "USPS COLLECTION BOX - BLUE BOX", "address": {"city": "ROCHESTER", "state": "NY", "street": "1054 DEWEY AVE", "postcode": "14613"}}},
{"geometry": {"type": "Point", "coordinates": [-77.6387945222, 43.1902960465]}, "type": "Feature", "properties": {"collection_times": [{"days": "Mon-Fri", "time": "11:30am"}, {"days": "Sat", "time": "10:30am"}, {"days": "Sun", "time": "Closed"}], "id": "1461300004", "name": "USPS COLLECTION BOX - BLUE BOX", "address": {"city": "ROCHESTER", "state": "NY", "street": "1300 DEWEY AVE", "postcode": "14613"}}},
{"geometry": {"type": "Point", "coordinates": [-77.6314285669, 43.1786022493]}, "type": "Feature", "properties": {"collection_times": [{"days": "Mon-Sat", "time": "10:15am"}, {"days": "Sun", "time": "Closed"}], "id": "1461300008", "name": "USPS COLLECTION BOX - BLUE BOX", "address": {"city": "ROCHESTER", "state": "NY", "street": "710 LAKE AVE", "postcode": "14613"}}},
{"geometry": {"type": "Point", "coordinates": [-77.6295831509, 43.174691387]}, "type": "Feature", "properties": {"collection_times": [{"days": "Mon-Sat", "time": "10:00am"}, {"days": "Sun", "time": "Closed"}], "id": "1461300011", "name": "USPS COLLECTION BOX - BLUE BOX", "address": {"city": "ROCHESTER", "state": "NY", "street": "541 LAKE AVE", "postcode": "14613"}}},
{"geometry": {"type": "Point", "coordinates": [-77.6398370392, 43.1793084758]}, "type": "Feature", "properties": {"collection_times": [{"days": "Mon-Fri", "time": "4:30pm"}, {"days": "Sat", "time": "12:00pm"}, {"days": "Sun", "time": "Closed"}], "id": "1461300013", "name": "USPS COLLECTION BOX - BLUE BOX", "address": {"city": "ROCHESTER", "state": "NY", "street": "376 LEXINGTON AVE", "postcode": "14613"}}},
{"geometry": {"type": "Point", "coordinates": [-77.615684566, 43.1540239109]}, "type": "Feature", "properties": {"collection_times": [{"days": "Mon-Fri", "time": "5:30pm"}, {"days": "Sat-Sun", "time": "Closed"}], "id": "1461400001", "name": "USPS COLLECTION BOX - BLUE BOX", "address": {"city": "ROCHESTER", "state": "NY", "street": "131 W BROAD ST", "postcode": "14614"}}},
{"geometry": {"type": "Point", "coordinates": [-77.6136482672, 43.1555237904]}, "type": "Feature", "properties": {"collection_times": [{"days": "Mon-Fri", "time": "5:00pm"}, {"days": "Sat-Sun", "time": "Closed"}], "id": "1461400003", "name": "USPS COLLECTION BOX - EXPRESS", "address": {"city": "ROCHESTER", "state": "NY", "street": "47 FITZHUGH ST S", "postcode": "14614"}}},
{"geometry": {"type": "Point", "coordinates": [-77.6136706776, 43.1540816892]}, "type": "Feature", "properties": {"collection_times": [{"days": "Mon-Fri", "time": "5:00pm"}, {"days": "Sat-Sun", "time": "Closed"}], "id": "1461400004", "name": "USPS COLLECTION BOX - BLUE BOX", "address": {"city": "ROCHESTER", "state": "NY", "street": "47 FITZHUGH ST S", "postcode": "14614"}}},
{"geometry": {"type": "Point", "coordinates": [-77.6191707461, 43.1552920429]}, "type": "Feature", "properties": {"collection_times": [{"days": "Mon-Fri", "time": "5:00pm"}, {"days": "Sat-Sun", "time": "Closed"}], "id": "1461400005", "name": "USPS COLLECTION BOX - BLUE BOX", "address": {"city": "ROCHESTER", "state": "NY", "street": "70 CASCADE DR", "postcode": "14614"}}},
{"geometry": {"type": "Point", "coordinates": [-77.6117700615, 43.1537637629]}, "type": "Feature", "properties": {"collection_times": [{"days": "Mon-Fri", "time": "5:00pm"}, {"days": "Sat-Sun", "time": "Closed"}], "id": "1461400008", "name": "USPS COLLECTION BOX - BLUE BOX", "address": {"city": "ROCHESTER", "state": "NY", "street": "99 EXCHANGE BLVD", "postcode": "14614"}}},
{"geometry": {"type": "Point", "coordinates": [-77.6121167618, 43.1547254056]}, "type": "Feature", "properties": {"collection_times": [{"days": "Mon-Fri", "time": "4:45pm"}, {"days": "Sat", "time": "4:00pm"}, {"days": "Sun", "time": "Closed"}], "id": "1461400011", "name": "USPS COLLECTION BOX - BLUE BOX", "address": {"city": "ROCHESTER", "state": "NY", "street": "45 EXCHANGE BLVD", "postcode": "14614"}}},
{"geometry": {"type": "Point", "coordinates": [-77.6154606428, 43.1571527635]}, "type": "Feature", "properties": {"collection_times": [{"days": "Mon-Fri", "time": "5:00pm"}, {"days": "Sat-Sun", "time": "Closed"}], "id": "1461400013", "name": "USPS COLLECTION BOX - BLUE BOX", "address": {"city": "ROCHESTER", "state": "NY", "street": "94 FITZHUGH ST N", "postcode": "14614"}}},
{"geometry": {"type": "Point", "coordinates": [-77.6140941759, 43.1551652744]}, "type": "Feature", "properties": {"collection_times": [{"days": "Mon-Fri", "time": "5:00pm"}, {"days": "Sat-Sun", "time": "Closed"}], "id": "1461400016", "name": "USPS COLLECTION BOX - BLUE BOX", "address": {"city": "ROCHESTER", "state": "NY", "street": "5 FITZHUGH ST S", "postcode": "14614"}}},
{"geometry": {"type": "Point", "coordinates": [-77.6123751552, 43.1555173694]}, "type": "Feature", "properties": {"collection_times": [{"days": "Mon-Fri", "time": "5:30pm"}, {"days": "Sat", "time": "4:00pm"}, {"days": "Sun", "time": "Closed"}], "id": "1461400022", "name": "USPS COLLECTION BOX - BLUE BOX", "address": {"city": "ROCHESTER", "state": "NY", "street": "8 EXCHANGE BLVD", "postcode": "14614"}}},
{"geometry": {"type": "Point", "coordinates": [-77.6136482672, 43.1555237904]}, "type": "Feature", "properties": {"collection_times": [{"days": "Mon-Fri", "time": "5:00pm"}, {"days": "Sat", "time": "4:00pm"}, {"days": "Sun", "time": "Closed"}], "id": "1461400025", "name": "USPS COLLECTION BOX - EXPRESS", "address": {"city": "ROCHESTER", "state": "NY", "street": "50 W MAIN ST", "postcode": "14614"}}},
{"geometry": {"type": "Point", "coordinates": [-77.6152279438, 43.1550897569]}, "type": "Feature", "properties": {"collection_times": [{"days": "Mon-Fri", "time": "5:00pm"}, {"days": "Sat-Sun", "time": "Closed"}], "id": "1461400026", "name": "USPS COLLECTION BOX - BLUE BOX", "address": {"city": "ROCHESTER", "state": "NY", "street": "90 W MAIN ST", "postcode": "14614"}}},
{"geometry": {"type": "Point", "coordinates": [-77.6169307593, 43.1546775082]}, "type": "Feature", "properties": {"collection_times": [{"days": "Mon-Fri", "time": "4:15pm"}, {"days": "Sat-Sun", "time": "Closed"}], "id": "1461400028", "name": "USPS COLLECTION BOX - BLUE BOX", "address": {"city": "ROCHESTER", "state": "NY", "street": "1 WASHINGTON ST S", "postcode": "14614"}}},
{"geometry": {"type": "Point", "coordinates": [-77.6126204668, 43.1557009959]}, "type": "Feature", "properties": {"collection_times": [{"days": "Mon-Fri", "time": "5:30pm"}, {"days": "Sat", "time": "4:00pm"}, {"days": "Sun", "time": "Closed"}], "id": "1461400034", "name": "USPS COLLECTION BOX - BLUE BOX", "address": {"city": "ROCHESTER", "state": "NY", "street": "1 STATE ST", "postcode": "14614"}}},
{"geometry": {"type": "Point", "coordinates": [-77.6141808261, 43.1521698825]}, "type": "Feature", "properties": {"collection_times": [{"days": "Mon-Fri", "time": "10:30am"}, {"days": "Sat-Sun", "time": "Closed"}], "id": "1461400036", "name": "USPS COLLECTION BOX - BLUE BOX", "address": {"city": "ROCHESTER", "state": "NY", "street": "150 PLYMOUTH AVE S", "postcode": "14614"}}},
{"geometry": {"type": "Point", "coordinates": [-77.6151013672, 43.1582340618]}, "type": "Feature", "properties": {"collection_times": [{"days": "Mon-Fri", "time": "4:00pm"}, {"days": "Sat-Sun", "time": "Closed"}], "id": "1461400039", "name": "USPS COLLECTION BOX - BLUE BOX", "address": {"city": "ROCHESTER", "state": "NY", "street": "150 STATE ST", "postcode": "14614"}}},
{"geometry": {"type": "Point", "coordinates": [-77.6179948849, 43.1604107063]}, "type": "Feature", "properties": {"collection_times": [{"days": "Mon-Fri", "time": "5:00pm"}, {"days": "Sat-Sun", "time": "Closed"}], "id": "1461400040", "name": "USPS COLLECTION BOX - BLUE BOX", "address": {"city": "ROCHESTER", "state": "NY", "street": "300 STATE ST", "postcode": "14614"}}},
{"geometry": {"type": "Point", "coordinates": [-77.6169307593, 43.1546775082]}, "type": "Feature", "properties": {"collection_times": [{"days": "Mon-Fri", "time": "4:15pm"}, {"days": "Sat-Sun", "time": "Closed"}], "id": "1461400047", "name": "USPS COLLECTION BOX - BLUE BOX", "address": {"city": "ROCHESTER", "state": "NY", "street": "1 WASHINGTON ST S", "postcode": "14614"}}},
{"geometry": {"type": "Point", "coordinates": [-77.6136482672, 43.1555237904]}, "type": "Feature", "properties": {"collection_times": [{"days": "Mon-Fri", "time": "5:30pm"}, {"days": "Sat", "time": "4:00pm"}, {"days": "Sun", "time": "Closed"}], "id": "1461400050", "name": "USPS COLLECTION BOX - EXPRESS", "address": {"city": "ROCHESTER", "state": "NY", "street": "8 EXCHANGE BLVD", "postcode": "14614"}}},
{"geometry": {"type": "Point", "coordinates": [-77.6148840932, 43.1567319847]}, "type": "Feature", "properties": {"collection_times": [{"days": "Mon-Fri", "time": "5:00pm"}, {"days": "Sat-Sun", "time": "Closed"}], "id": "1461400051", "name": "USPS COLLECTION BOX - BLUE BOX", "address": {"city": "ROCHESTER", "state": "NY", "street": "30 CHURCH ST", "postcode": "14614"}}},
{"geometry": {"type": "Point", "coordinates": [-77.6177346339, 43.1612340458]}, "type": "Feature", "properties": {"collection_times": [{"days": "Mon-Fri", "time": "4:00pm"}, {"days": "Sat-Sun", "time": "Closed"}], "id": "1461400055", "name": "USPS COLLECTION BOX - BLUE BOX", "address": {"city": "ROCHESTER", "state": "NY", "street": "250 MILL ST", "postcode": "14614"}}},
{"geometry": {"type": "Point", "coordinates": [-77.6172259615, 43.1546390495]}, "type": "Feature", "properties": {"collection_times": [{"days": "Mon-Fri", "time": "5:00pm"}, {"days": "Sat-Sun", "time": "Closed"}], "id": "1461400058", "name": "USPS COLLECTION BOX - BLUE BOX", "address": {"city": "ROCHESTER", "state": "NY", "street": "150 W MAIN ST", "postcode": "14614"}}},
{"geometry": {"type": "Point", "coordinates": [-77.6139131062, 43.1554654836]}, "type": "Feature", "properties": {"collection_times": [{"days": "Mon-Fri", "time": "5:00pm"}, {"days": "Sat", "time": "4:00pm"}, {"days": "Sun", "time": "Closed"}], "id": "1461400060", "name": "USPS COLLECTION BOX - BLUE BOX", "address": {"city": "ROCHESTER", "state": "NY", "street": "50 W MAIN ST", "postcode": "14614"}}},
{"geometry": {"type": "Point", "coordinates": [-77.6111715775, 43.1525605906]}, "type": "Feature", "properties": {"collection_times": [{"days": "Mon-Fri", "time": "5:00pm"}, {"days": "Sat", "time": "4:00pm"}, {"days": "Sun", "time": "Closed"}], "id": "1461400066", "name": "USPS COLLECTION BOX - BLUE BOX", "address": {"city": "ROCHESTER", "state": "NY", "street": "144 EXCHANGE BLVD", "postcode": "14614"}}},
{"geometry": {"type": "Point", "coordinates": [-77.6126136045, 43.1558018982]}, "type": "Feature", "properties": {"collection_times": [{"days": "Mon-Fri", "time": "5:00pm"}, {"days": "Sat-Sun", "time": "Closed"}], "id": "1461400067", "name": "USPS COLLECTION BOX - BLUE BOX", "address": {"city": "ROCHESTER", "state": "NY", "street": "2 STATE ST", "postcode": "14614"}}},
{"geometry": {"type": "Point", "coordinates": [-77.6153533375, 43.1600132321]}, "type": "Feature", "properties": {"collection_times": [{"days": "Mon-Fri", "time": "4:00pm"}, {"days": "Sat-Sun", "time": "Closed"}], "id": "1461400068", "name": "USPS COLLECTION BOX - BLUE BOX", "address": {"city": "ROCHESTER", "state": "NY", "street": "64 COMMERCIAL ST", "postcode": "14614"}}},
{"geometry": {"type": "Point", "coordinates": [-77.6110166099, 43.1517313364]}, "type": "Feature", "properties": {"collection_times": [{"days": "Mon-Fri", "time": "3:30pm"}, {"days": "Sat-Sun", "time": "Closed"}], "id": "1461400070", "name": "USPS COLLECTION BOX - BLUE BOX", "address": {"city": "ROCHESTER", "state": "NY", "street": "185 EXCHANGE BLVD", "postcode": "14614"}}},
{"geometry": {"type": "Point", "coordinates": [-77.6135818755, 43.1555395382]}, "type": "Feature", "properties": {"collection_times": [{"days": "Mon-Fri", "time": "5:00pm"}, {"days": "Sat", "time": "4:00pm"}, {"days": "Sun", "time": "Closed"}], "id": "1461400076", "name": "USPS COLLECTION BOX - BLUE BOX", "address": {"city": "ROCHESTER", "state": "NY", "street": "36 W MAIN ST", "postcode": "14614"}}},
{"geometry": {"type": "Point", "coordinates": [-77.6516488845, 43.2072984679]}, "type": "Feature", "properties": {"collection_times": [{"days": "Mon-Sat", "time": "11:30am"}, {"days": "Sun", "time": "Closed"}], "id": "1461500002", "name": "USPS COLLECTION BOX - BLUE BOX", "address": {"city": "ROCHESTER", "state": "NY", "street": "193 BONESTEEL ST", "postcode": "14615"}}},
{"geometry": {"type": "Point", "coordinates": [-77.6387002156, 43.2017208164]}, "type": "Feature", "properties": {"collection_times": [{"days": "Mon-Fri", "time": "5:00pm"}, {"days": "Sat", "time": "12:00pm"}, {"days": "Sun", "time": "Closed"}], "id": "1461500004", "name": "USPS COLLECTION BOX - BLUE BOX", "address": {"city": "ROCHESTER", "state": "NY", "street": "1857 DEWEY AVE", "postcode": "14615"}}},
{"geometry": {"type": "Point", "coordinates": [-77.6388741106, 43.1935288255]}, "type": "Feature", "properties": {"collection_times": [{"days": "Mon-Sat", "time": "10:30am"}, {"days": "Sun", "time": "Closed"}], "id": "1461500007", "name": "USPS COLLECTION BOX - BLUE BOX", "address": {"city": "ROCHESTER", "state": "NY", "street": "1477 DEWEY AVE", "postcode": "14615"}}},
{"geometry": {"type": "Point", "coordinates": [-77.6283398827, 43.196766684]}, "type": "Feature", "properties": {"collection_times": [{"days": "Mon-Sat", "time": "1:15pm"}, {"days": "Sun", "time": "Closed"}], "id": "1461500010", "name": "USPS COLLECTION BOX - BLUE BOX", "address": {"city": "ROCHESTER", "state": "NY", "street": "1737 LAKE AVE", "postcode": "14615"}}},
{"geometry": {"type": "Point", "coordinates": [-77.6011045968, 43.1958829139]}, "type": "Feature", "properties": {"collection_times": [{"days": "Mon-Sat", "time": "10:00am"}, {"days": "Sun", "time": "Closed"}], "id": "1461500013", "name": "USPS COLLECTION BOX - BLUE BOX", "address": {"city": "ROCHESTER", "state": "NY", "street": "630 W RIDGE RD", "postcode": "14615"}}},
{"geometry": {"type": "Point", "coordinates": [-77.6327310047, 43.1971865346]}, "type": "Feature", "properties": {"collection_times": [{"days": "Mon-Sat", "time": "3:00pm"}, {"days": "Sun", "time": "Closed"}], "id": "1461500014", "name": "USPS COLLECTION BOX - BLUE BOX", "address": {"city": "ROCHESTER", "state": "NY", "street": "200 W RIDGE RD", "postcode": "14615"}}},
{"geometry": {"type": "Point", "coordinates": [-77.6684908256, 43.2055858279]}, "type": "Feature", "properties": {"collection_times": [{"days": "Mon-Sat", "time": "12:30pm"}, {"days": "Sun", "time": "Closed"}], "id": "1461500015", "name": "USPS COLLECTION BOX - BLUE BOX", "address": {"city": "ROCHESTER", "state": "NY", "street": "1528 W RIDGE RD", "postcode": "14615"}}},
{"geometry": {"type": "Point", "coordinates": [-77.6639274465, 43.208015386]}, "type": "Feature", "properties": {"collection_times": [{"days": "Mon-Sat", "time": "12:00pm"}, {"days": "Sun", "time": "Closed"}], "id": "1461500020", "name": "USPS COLLECTION BOX - BLUE BOX", "address": {"city": "ROCHESTER", "state": "NY", "street": "1746 STONE RD", "postcode": "14615"}}},
{"geometry": {"type": "Point", "coordinates": [-77.6602643746, 43.2152550499]}, "type": "Feature", "properties": {"collection_times": [{"days": "Mon-Sat", "time": "11:30am"}, {"days": "Sun", "time": "Closed"}], "id": "1461500026", "name": "USPS COLLECTION BOX - BLUE BOX", "address": {"city": "ROCHESTER", "state": "NY", "street": "1401 STONE RD", "postcode": "14615"}}},
{"geometry": {"type": "Point", "coordinates": [-77.6599024119, 43.1939800958]}, "type": "Feature", "properties": {"collection_times": [{"days": "Mon-Fri", "time": "11:30am"}, {"days": "Sat-Sun", "time": "Closed"}], "id": "1461500028", "name": "USPS COLLECTION BOX - BLUE BOX", "address": {"city": "ROCHESTER", "state": "NY", "street": "2401 MOUNT READ BLVD", "postcode": "14615"}}},
{"geometry": {"type": "Point", "coordinates": [-77.6696528042, 43.2055316377]}, "type": "Feature", "properties": {"collection_times": [{"days": "Mon-Fri", "time": "11:45am"}, {"days": "Sat-Sun", "time": "Closed"}], "id": "1461500030", "name": "USPS COLLECTION BOX - BLUE BOX", "address": {"city": "ROCHESTER", "state": "NY", "street": "1577 W RIDGE RD", "postcode": "14615"}}},
{"geometry": {"type": "Point", "coordinates": [-77.632547646, 43.2418266741]}, "type": "Feature", "properties": {"collection_times": [{"days": "Mon-Sat", "time": "11:30am"}, {"days": "Sun", "time": "Closed"}], "id": "1461600002", "name": "USPS COLLECTION BOX - BLUE BOX", "address": {"city": "ROCHESTER", "state": "NY", "street": "600 DENISE RD", "postcode": "14616"}}},
{"geometry": {"type": "Point", "coordinates": [-77.6468377903, 43.2394027912]}, "type": "Feature", "properties": {"collection_times": [{"days": "Mon-Fri", "time": "4:00pm"}, {"days": "Sat", "time": "11:30am"}, {"days": "Sun", "time": "Closed"}], "id": "1461600004", "name": "USPS COLLECTION BOX - BLUE BOX", "address": {"city": "ROCHESTER", "state": "NY", "street": "3800 DEWEY AVE", "postcode": "14616"}}},
{"geometry": {"type": "Point", "coordinates": [-77.6590660372, 43.2272916573]}, "type": "Feature", "properties": {"collection_times": [{"days": "Mon-Sat", "time": "10:00am"}, {"days": "Sun", "time": "Closed"}], "id": "1461600020", "name": "USPS COLLECTION BOX - BLUE BOX", "address": {"city": "ROCHESTER", "state": "NY", "street": "3737 MOUNT READ BLVD", "postcode": "14616"}}},
{"geometry": {"type": "Point", "coordinates": [-77.6532662686, 43.2178097514]}, "type": "Feature", "properties": {"collection_times": [{"days": "Mon-Sat", "time": "11:15am"}, {"days": "Sun", "time": "Closed"}], "id": "1461600023", "name": "USPS COLLECTION BOX - BLUE BOX", "address": {"city": "ROCHESTER", "state": "NY", "street": "1070 STONE RD", "postcode": "14616"}}},
{"geometry": {"type": "Point", "coordinates": [-77.6590305484, 43.2226994106]}, "type": "Feature", "properties": {"collection_times": [{"days": "Mon-Sat", "time": "10:00am"}, {"days": "Sun", "time": "Closed"}], "id": "1461600029", "name": "USPS COLLECTION BOX - BLUE BOX", "address": {"city": "ROCHESTER", "state": "NY", "street": "3507 MOUNT READ BLVD", "postcode": "14616"}}},
{"geometry": {"type": "Point", "coordinates": [-77.598384543, 43.2115792449]}, "type": "Feature", "properties": {"collection_times": [{"days": "Mon-Fri", "time": "1:00pm"}, {"days": "Sat", "time": "12:30pm"}, {"days": "Sun", "time": "Closed"}], "id": "1461700002", "name": "USPS COLLECTION BOX - BLUE BOX", "address": {"city": "IRONDEQUOIT", "state": "NY", "street": "45 COOPER RD", "postcode": "14617"}}},
{"geometry": {"type": "Point", "coordinates": [-77.6073952934, 43.2480625139]}, "type": "Feature", "properties": {"collection_times": [{"days": "Mon-Sat", "time": "10:30am"}, {"days": "Sun", "time": "Closed"}], "id": "1461700003", "name": "USPS COLLECTION BOX - BLUE BOX", "address": {"city": "IRONDEQUOIT", "state": "NY", "street": "119 PATTONWOOD DR", "postcode": "14617"}}},
{"geometry": {"type": "Point", "coordinates": [-77.5947912718, 43.2262704765]}, "type": "Feature", "properties": {"collection_times": [{"days": "Mon-Sat", "time": "11:30am"}, {"days": "Sun", "time": "Closed"}], "id": "1461700004", "name": "USPS COLLECTION BOX - BLUE BOX", "address": {"city": "IRONDEQUOIT", "state": "NY", "street": "154 PINE GROVE AVE", "postcode": "14617"}}},
{"geometry": {"type": "Point", "coordinates": [-77.6090564469, 43.2064053339]}, "type": "Feature", "properties": {"collection_times": [{"days": "Mon-Sat", "time": "11:45am"}, {"days": "Sun", "time": "Closed"}], "id": "1461700008", "name": "USPS COLLECTION BOX - BLUE BOX", "address": {"city": "IRONDEQUOIT", "state": "NY", "street": "261 ROGERS PKWY", "postcode": "14617"}}},
{"geometry": {"type": "Point", "coordinates": [-77.5987256663, 43.2444232691]}, "type": "Feature", "properties": {"collection_times": [{"days": "Mon-Sat", "time": "12:00pm"}, {"days": "Sun", "time": "Closed"}], "id": "1461700010", "name": "USPS COLLECTION BOX - BLUE BOX", "address": {"city": "IRONDEQUOIT", "state": "NY", "street": "4770 SAINT PAUL BLVD", "postcode": "14617"}}},
{"geometry": {"type": "Point", "coordinates": [-77.607987052, 43.2153638821]}, "type": "Feature", "properties": {"collection_times": [{"days": "Mon-Sat", "time": "2:00pm"}, {"days": "Sun", "time": "Closed"}], "id": "1461700011", "name": "USPS COLLECTION BOX - BLUE BOX", "address": {"city": "IRONDEQUOIT", "state": "NY", "street": "3200 SAINT PAUL BLVD", "postcode": "14617"}}},
{"geometry": {"type": "Point", "coordinates": [-77.5809422442, 43.2111821222]}, "type": "Feature", "properties": {"collection_times": [{"days": "Mon-Fri", "time": "5:00pm"}, {"days": "Sat", "time": "10:30am"}, {"days": "Sun", "time": "Closed"}], "id": "1461700014", "name": "USPS COLLECTION BOX - BLUE BOX", "address": {"city": "IRONDEQUOIT", "state": "NY", "street": "1280 TITUS AVE", "postcode": "14617"}}},
{"geometry": {"type": "Point", "coordinates": [-77.6024673655, 43.210551605]}, "type": "Feature", "properties": {"collection_times": [{"days": "Mon-Fri", "time": "5:00pm"}, {"days": "Sat", "time": "12:30pm"}, {"days": "Sun", "time": "Closed"}], "id": "1461700015", "name": "USPS COLLECTION BOX - BLUE BOX", "address": {"city": "IRONDEQUOIT", "state": "NY", "street": "525 TITUS AVE", "postcode": "14617"}}},
{"geometry": {"type": "Point", "coordinates": [-77.5770726255, 43.2012463468]}, "type": "Feature", "properties": {"collection_times": [{"days": "Mon-Fri", "time": "3:00pm"}, {"days": "Sat", "time": "11:00am"}, {"days": "Sun", "time": "Closed"}], "id": "1461700018", "name": "USPS COLLECTION BOX - BLUE BOX", "address": {"city": "IRONDEQUOIT", "state": "NY", "street": "100 KINGS HWY S", "postcode": "14617"}}},
{"geometry": {"type": "Point", "coordinates": [-77.6071678508, 43.1952832627]}, "type": "Feature", "properties": {"collection_times": [{"days": "Mon-Fri", "time": "6:00pm"}, {"days": "Sat", "time": "2:30pm"}, {"days": "Sun", "time": "Closed"}], "id": "1461700020", "name": "USPS COLLECTION BOX - APC", "address": {"city": "IRONDEQUOIT", "state": "NY", "street": "425 E RIDGE RD", "postcode": "14617"}}},
{"geometry": {"type": "Point", "coordinates": [-77.5503418849, 43.1166755698]}, "type": "Feature", "properties": {"collection_times": [{"days": "Mon-Fri", "time": "5:00pm"}, {"days": "Sat-Sun", "time": "Closed"}], "id": "1461800011", "name": "USPS COLLECTION BOX - BLUE BOX", "address": {"city": "ROCHESTER", "state": "NY", "street": "140 ALLENS CREEK RD", "postcode": "14618"}}},
{"geometry": {"type": "Point", "coordinates": [-77.5506740325, 43.1166650628]}, "type": "Feature", "properties": {"collection_times": [{"days": "Mon-Fri", "time": "5:00pm"}, {"days": "Sat-Sun", "time": "Closed"}], "id": "1461800013", "name": "USPS COLLECTION BOX - BLUE BOX", "address": {"city": "ROCHESTER", "state": "NY", "street": "120 ALLENS CREEK RD", "postcode": "14618"}}},
{"geometry": {"type": "Point", "coordinates": [-77.5629681231, 43.1169401416]}, "type": "Feature", "properties": {"collection_times": [{"days": "Mon-Fri", "time": "5:00pm"}, {"days": "Sat-Sun", "time": "Closed"}], "id": "1461800015", "name": "USPS COLLECTION BOX - EXPRESS", "address": {"city": "ROCHESTER", "state": "NY", "street": "120 ALLENS CREEK RD", "postcode": "14618"}}},
{"geometry": {"type": "Point", "coordinates": [-77.5506809709, 43.1166081018]}, "type": "Feature", "properties": {"collection_times": [{"days": "Mon-Fri", "time": "5:00pm"}, {"days": "Sat-Sun", "time": "Closed"}], "id": "1461800018", "name": "USPS COLLECTION BOX - BLUE BOX", "address": {"city": "ROCHESTER", "state": "NY", "street": "95 ALLENS CREEK RD", "postcode": "14618"}}},
{"geometry": {"type": "Point", "coordinates": [-77.5948893304, 43.1210465638]}, "type": "Feature", "properties": {"collection_times": [{"days": "Mon-Fri", "time": "5:15pm"}, {"days": "Sat", "time": "3:00pm"}, {"days": "Sun", "time": "Closed"}], "id": "1461800019", "name": "USPS COLLECTION BOX - BLUE BOX", "address": {"city": "ROCHESTER", "state": "NY", "street": "1900 CLINTON AVE S", "postcode": "14618"}}},
{"geometry": {"type": "Point", "coordinates": [-77.5629681231, 43.1169401416]}, "type": "Feature", "properties": {"collection_times": [{"days": "Mon-Fri", "time": "5:15pm"}, {"days": "Sat", "time": "3:00pm"}, {"days": "Sun", "time": "Closed"}], "id": "1461800021", "name": "USPS COLLECTION BOX - EXPRESS", "address": {"city": "ROCHESTER", "state": "NY", "street": "1900 CLINTON AVE S", "postcode": "14618"}}},
{"geometry": {"type": "Point", "coordinates": [-77.5169256109, 43.1170888416]}, "type": "Feature", "properties": {"collection_times": [{"days": "Mon-Fri", "time": "12:30pm"}, {"days": "Sat-Sun", "time": "Closed"}], "id": "1461800024", "name": "USPS COLLECTION BOX - BLUE BOX", "address": {"city": "ROCHESTER", "state": "NY", "street": "3690 EAST AVE", "postcode": "14618"}}},
{"geometry": {"type": "Point", "coordinates": [-77.5172824904, 43.1113687765]}, "type": "Feature", "properties": {"collection_times": [{"days": "Mon-Sat", "time": "11:30am"}, {"days": "Sun", "time": "Closed"}], "id": "1461800026", "name": "USPS COLLECTION BOX - BLUE BOX", "address": {"city": "ROCHESTER", "state": "NY", "street": "3901 EAST AVE", "postcode": "14618"}}},
{"geometry": {"type": "Point", "coordinates": [-77.5763476315, 43.1005115791]}, "type": "Feature", "properties": {"collection_times": [{"days": "Mon-Fri", "time": "3:00pm"}, {"days": "Sat", "time": "1:00pm"}, {"days": "Sun", "time": "Closed"}], "id": "1461800027", "name": "USPS COLLECTION BOX - BLUE BOX", "address": {"city": "ROCHESTER", "state": "NY", "street": "966 EASTBROOKE LN", "postcode": "14618"}}},
{"geometry": {"type": "Point", "coordinates": [-77.5755219262, 43.1261072623]}, "type": "Feature", "properties": {"collection_times": [{"days": "Mon-Fri", "time": "4:15pm"}, {"days": "Sat-Sun", "time": "Closed"}], "id": "1461800029", "name": "USPS COLLECTION BOX - BLUE BOX", "address": {"city": "ROCHESTER", "state": "NY", "street": "2300 ELMWOOD AVE", "postcode": "14618"}}},
{"geometry": {"type": "Point", "coordinates": [-77.5652443787, 43.1018743479]}, "type": "Feature", "properties": {"collection_times": [{"days": "Mon-Sat", "time": "1:00pm"}, {"days": "Sun", "time": "Closed"}], "id": "1461800030", "name": "USPS COLLECTION BOX - BLUE BOX", "address": {"city": "ROCHESTER", "state": "NY", "street": "900 EDGEWOOD AVE", "postcode": "14618"}}},
{"geometry": {"type": "Point", "coordinates": [-77.5558554823, 43.1266708842]}, "type": "Feature", "properties": {"collection_times": [{"days": "Mon-Sat", "time": "12:00pm"}, {"days": "Sun", "time": "Closed"}], "id": "1461800031", "name": "USPS COLLECTION BOX - BLUE BOX", "address": {"city": "ROCHESTER", "state": "NY", "street": "2981 ELMWOOD AVE", "postcode": "14618"}}},
{"geometry": {"type": "Point", "coordinates": [-77.5503864141, 43.12689393]}, "type": "Feature", "properties": {"collection_times": [{"days": "Mon-Fri", "time": "1:30pm"}, {"days": "Sat-Sun", "time": "Closed"}], "id": "1461800032", "name": "USPS COLLECTION BOX - BLUE BOX", "address": {"city": "ROCHESTER", "state": "NY", "street": "3181 ELMWOOD AVE", "postcode": "14618"}}},
{"geometry": {"type": "Point", "coordinates": [-77.5366546264, 43.1012473796]}, "type": "Feature", "properties": {"collection_times": [{"days": "Mon-Fri", "time": "5:00pm"}, {"days": "Sat-Sun", "time": "Closed"}], "id": "1461800034", "name": "USPS COLLECTION BOX - BLUE BOX", "address": {"city": "ROCHESTER", "state": "NY", "street": "3400 MONROE AVE", "postcode": "14618"}}},
{"geometry": {"type": "Point", "coordinates": [-77.5388324539, 43.103312826]}, "type": "Feature", "properties": {"collection_times": [{"days": "Mon-Fri", "time": "5:00pm"}, {"days": "Sat-Sun", "time": "Closed"}], "id": "1461800035", "name": "USPS COLLECTION BOX - BLUE BOX", "address": {"city": "ROCHESTER", "state": "NY", "street": "3300 MONROE AVE", "postcode": "14618"}}},
{"geometry": {"type": "Point", "coordinates": [-77.5418750243, 43.1062548449]}, "type": "Feature", "properties": {"collection_times": [{"days": "Mon-Fri", "time": "4:45pm"}, {"days": "Sat", "time": "3:00pm"}, {"days": "Sun", "time": "Closed"}], "id": "1461800036", "name": "USPS COLLECTION BOX - BLUE BOX", "address": {"city": "ROCHESTER", "state": "NY", "street": "3195 MONROE AVE", "postcode": "14618"}}},
{"geometry": {"type": "Point", "coordinates": [-77.5547683528, 43.1174184043]}, "type": "Feature", "properties": {"collection_times": [{"days": "Mon-Fri", "time": "4:30pm"}, {"days": "Sat-Sun", "time": "Closed"}], "id": "1461800037", "name": "USPS COLLECTION BOX - BLUE BOX", "address": {"city": "ROCHESTER", "state": "NY", "street": "2541 MONROE AVE", "postcode": "14618"}}},
{"geometry": {"type": "Point", "coordinates": [-77.5391991712, 43.1036700796]}, "type": "Feature", "properties": {"collection_times": [{"days": "Mon-Fri", "time": "5:00pm"}, {"days": "Sat", "time": "3:00pm"}, {"days": "Sun", "time": "Closed"}], "id": "1461800038", "name": "USPS COLLECTION BOX - BLUE BOX", "address": {"city": "ROCHESTER", "state": "NY", "street": "3290 MONROE AVE", "postcode": "14618"}}},
{"geometry": {"type": "Point", "coordinates": [-77.5394546903, 43.1039196839]}, "type": "Feature", "properties": {"collection_times": [{"days": "Mon-Fri", "time": "5:00pm"}, {"days": "Sat", "time": "3:00pm"}, {"days": "Sun", "time": "Closed"}], "id": "1461800041", "name": "USPS COLLECTION BOX - BLUE BOX", "address": {"city": "ROCHESTER", "state": "NY", "street": "3349 MONROE AVE", "postcode": "14618"}}},
{"geometry": {"type": "Point", "coordinates": [-77.5394546903, 43.1039196839]}, "type": "Feature", "properties": {"collection_times": [{"days": "Mon-Fri", "time": "5:00pm"}, {"days": "Sat", "time": "3:00pm"}, {"days": "Sun", "time": "Closed"}], "id": "1461800042", "name": "USPS COLLECTION BOX - BLUE BOX", "address": {"city": "ROCHESTER", "state": "NY", "street": "3349 MONROE AVE", "postcode": "14618"}}},
{"geometry": {"type": "Point", "coordinates": [-77.5468237353, 43.11028756]}, "type": "Feature", "properties": {"collection_times": [{"days": "Mon-Fri", "time": "4:45pm"}, {"days": "Sat-Sun", "time": "Closed"}], "id": "1461800043", "name": "USPS COLLECTION BOX - BLUE BOX", "address": {"city": "ROCHESTER", "state": "NY", "street": "2937 MONROE AVE", "postcode": "14618"}}},
{"geometry": {"type": "Point", "coordinates": [-77.5622650161, 43.1244477579]}, "type": "Feature", "properties": {"collection_times": [{"days": "Mon-Fri", "time": "2:30pm"}, {"days": "Sat-Sun", "time": "Closed"}], "id": "1461800046", "name": "USPS COLLECTION BOX - BLUE BOX", "address": {"city": "ROCHESTER", "state": "NY", "street": "2052 MONROE AVE", "postcode": "14618"}}},
{"geometry": {"type": "Point", "coordinates": [-77.5641994022, 43.1336418849]}, "type": "Feature", "properties": {"collection_times": [{"days": "Mon-Fri", "time": "1:00pm"}, {"days": "Sat-Sun", "time": "Closed"}], "id": "1461800049", "name": "USPS COLLECTION BOX - BLUE BOX", "address": {"city": "ROCHESTER", "state": "NY", "street": "112 VARINNA DR", "postcode": "14618"}}},
{"geometry": {"type": "Point", "coordinates": [-77.5962154274, 43.1153387868]}, "type": "Feature", "properties": {"collection_times": [{"days": "Mon-Fri", "time": "11:15am"}, {"days": "Sat-Sun", "time": "Closed"}], "id": "1461800050", "name": "USPS COLLECTION BOX - BLUE BOX", "address": {"city": "ROCHESTER", "state": "NY", "street": "919 WESTFALL RD", "postcode": "14618"}}},
{"geometry": {"type": "Point", "coordinates": [-77.5971641604, 43.1143462842]}, "type": "Feature", "properties": {"collection_times": [{"days": "Mon-Fri", "time": "3:30pm"}, {"days": "Sat-Sun", "time": "Closed"}], "id": "1461800051", "name": "USPS COLLECTION BOX - BLUE BOX", "address": {"city": "ROCHESTER", "state": "NY", "street": "2253 CLINTON AVE S", "postcode": "14618"}}},
{"geometry": {"type": "Point", "coordinates": [-77.5767522035, 43.1060738522]}, "type": "Feature", "properties": {"collection_times": [{"days": "Mon-Fri", "time": "5:00pm"}, {"days": "Sat-Sun", "time": "Closed"}], "id": "1461800052", "name": "USPS COLLECTION BOX - BLUE BOX", "address": {"city": "ROCHESTER", "state": "NY", "street": "2000 WINTON RD S", "postcode": "14618"}}},
{"geometry": {"type": "Point", "coordinates": [-77.5629681231, 43.1169401416]}, "type": "Feature", "properties": {"collection_times": [{"days": "Mon-Fri", "time": "5:00pm"}, {"days": "Sat-Sun", "time": "Closed"}], "id": "1461800053", "name": "USPS COLLECTION BOX - EXPRESS", "address": {"city": "ROCHESTER", "state": "NY", "street": "2000 WINTON RD S", "postcode": "14618"}}},
{"geometry": {"type": "Point", "coordinates": [-77.5646446185, 43.1283619821]}, "type": "Feature", "properties": {"collection_times": [{"days": "Mon-Fri", "time": "4:15pm"}, {"days": "Sat-Sun", "time": "Closed"}], "id": "1461800055", "name": "USPS COLLECTION BOX - BLUE BOX", "address": {"city": "ROCHESTER", "state": "NY", "street": "885 WINTON RD S", "postcode": "14618"}}},
{"geometry": {"type": "Point", "coordinates": [-77.5506809709, 43.1166081018]}, "type": "Feature", "properties": {"collection_times": [{"days": "Mon-Fri", "time": "5:00pm"}, {"days": "Sat-Sun", "time": "Closed"}], "id": "1461800057", "name": "USPS COLLECTION BOX - BLUE BOX", "address": {"city": "ROCHESTER", "state": "NY", "street": "95 ALLENS CREEK RD", "postcode": "14618"}}},
{"geometry": {"type": "Point", "coordinates": [-77.5516155085, 43.1165761619]}, "type": "Feature", "properties": {"collection_times": [{"days": "Mon-Fri", "time": "5:00pm"}, {"days": "Sat-Sun", "time": "Closed"}], "id": "1461800059", "name": "USPS COLLECTION BOX - BLUE BOX", "address": {"city": "ROCHESTER", "state": "NY", "street": "100 ALLENS CREEK RD", "postcode": "14618"}}},
{"geometry": {"type": "Point", "coordinates": [-77.5579845595, 43.1152358694]}, "type": "Feature", "properties": {"collection_times": [{"days": "Mon-Fri", "time": "1:00pm"}, {"days": "Sat", "time": "12:00pm"}, {"days": "Sun", "time": "Closed"}], "id": "1461800060", "name": "USPS COLLECTION BOX - BLUE BOX", "address": {"city": "ROCHESTER", "state": "NY", "street": "173 EDGEWOOD AVE", "postcode": "14618"}}},
{"geometry": {"type": "Point", "coordinates": [-77.5749777651, 43.1093695759]}, "type": "Feature", "properties": {"collection_times": [{"days": "Mon-Fri", "time": "5:00pm"}, {"days": "Sat-Sun", "time": "Closed"}], "id": "1461800061", "name": "USPS COLLECTION BOX - BLUE BOX", "address": {"city": "ROCHESTER", "state": "NY", "street": "1850 WINTON RD S", "postcode": "14618"}}},
{"geometry": {"type": "Point", "coordinates": [-77.5629681231, 43.1169401416]}, "type": "Feature", "properties": {"collection_times": [{"days": "Mon-Fri", "time": "5:00pm"}, {"days": "Sat-Sun", "time": "Closed"}], "id": "1461800067", "name": "USPS COLLECTION BOX - BLUE BOX", "address": {"city": "ROCHESTER", "state": "NY", "street": "1 MERIDEN ST", "postcode": "14618"}}},
{"geometry": {"type": "Point", "coordinates": [-77.5629681231, 43.1169401416]}, "type": "Feature", "properties": {"collection_times": [{"days": "Mon-Fri", "time": "5:00pm"}, {"days": "Sat-Sun", "time": "Closed"}], "id": "1461800068", "name": "USPS COLLECTION BOX - BLUE BOX", "address": {"city": "ROCHESTER", "state": "NY", "street": "1 MERIDEN ST", "postcode": "14618"}}},
{"geometry": {"type": "Point", "coordinates": [-77.5669714988, 43.1263663303]}, "type": "Feature", "properties": {"collection_times": [{"days": "Mon-Fri", "time": "5:30pm"}, {"days": "Sat", "time": "3:00pm"}, {"days": "Sun", "time": "Closed"}], "id": "1461800069", "name": "USPS COLLECTION BOX - BLUE BOX", "address": {"city": "ROCHESTER", "state": "NY", "street": "2600 ELMWOOD AVE", "postcode": "14618"}}},
{"geometry": {"type": "Point", "coordinates": [-77.5669714988, 43.1263663303]}, "type": "Feature", "properties": {"collection_times": [{"days": "Mon-Fri", "time": "5:30pm"}, {"days": "Sat", "time": "3:00pm"}, {"days": "Sun", "time": "Closed"}], "id": "1461800070", "name": "USPS COLLECTION BOX - BLUE BOX", "address": {"city": "ROCHESTER", "state": "NY", "street": "2600 ELMWOOD AVE", "postcode": "14618"}}},
{"geometry": {"type": "Point", "coordinates": [-77.5669714988, 43.1263663303]}, "type": "Feature", "properties": {"collection_times": [{"days": "Mon-Fri", "time": "5:30pm"}, {"days": "Sat", "time": "3:00pm"}, {"days": "Sun", "time": "Closed"}], "id": "1461800071", "name": "USPS COLLECTION BOX - BLUE BOX", "address": {"city": "ROCHESTER", "state": "NY", "street": "2600 ELMWOOD AVE", "postcode": "14618"}}},
{"geometry": {"type": "Point", "coordinates": [-77.5629681231, 43.1169401416]}, "type": "Feature", "properties": {"collection_times": [{"days": "Mon-Fri", "time": "4:00pm"}, {"days": "Sat-Sun", "time": "Closed"}], "id": "1461800072", "name": "USPS COLLECTION BOX - BLUE BOX", "address": {"city": "ROCHESTER", "state": "NY", "street": "1 COLUMBIA AVE", "postcode": "14618"}}},
{"geometry": {"type": "Point", "coordinates": [-77.5975557199, 43.1120974792]}, "type": "Feature", "properties": {"collection_times": [{"days": "Mon-Fri", "time": "3:30pm"}, {"days": "Sat-Sun", "time": "Closed"}], "id": "1461800074", "name": "USPS COLLECTION BOX - BLUE BOX", "address": {"city": "ROCHESTER", "state": "NY", "street": "2365 CLINTON AVE S", "postcode": "14618"}}},
{"geometry": {"type": "Point", "coordinates": [-77.5940742716, 43.1116053683]}, "type": "Feature", "properties": {"collection_times": [{"days": "Mon-Fri", "time": "11:30am"}, {"days": "Sat-Sun", "time": "Closed"}], "id": "1461800075", "name": "USPS COLLECTION BOX - BLUE BOX", "address": {"city": "ROCHESTER", "state": "NY", "street": "995 SENATOR KEATING BLVD", "postcode": "14618"}}},
{"geometry": {"type": "Point", "coordinates": [-77.5948893304, 43.1210465638]}, "type": "Feature", "properties": {"collection_times": [{"days": "Mon-Fri", "time": "3:00pm"}, {"days": "Sat", "time": "12:00pm"}, {"days": "Sun", "time": "Closed"}], "id": "1461800076", "name": "USPS COLLECTION BOX - APC", "address": {"city": "ROCHESTER", "state": "NY", "street": "1900 CLINTON AVE S", "postcode": "14618"}}},
{"geometry": {"type": "Point", "coordinates": [-77.6423555588, 43.1422215293]}, "type": "Feature", "properties": {"collection_times": [{"days": "Mon-Sat", "time": "9:45am"}, {"days": "Sun", "time": "Closed"}], "id": "1461900002", "name": "USPS COLLECTION BOX - BLUE BOX", "address": {"city": "ROCHESTER", "state": "NY", "street": "332 ARNETT BLVD", "postcode": "14619"}}},
{"geometry": {"type": "Point", "coordinates": [-77.6428322913, 43.1310200909]}, "type": "Feature", "properties": {"collection_times": [{"days": "Mon-Sat", "time": "9:45am"}, {"days": "Sun", "time": "Closed"}], "id": "1461900004", "name": "USPS COLLECTION BOX - BLUE BOX", "address": {"city": "ROCHESTER", "state": "NY", "street": "280 BROOKS AVE", "postcode": "14619"}}},
{"geometry": {"type": "Point", "coordinates": [-77.6484927499, 43.1309656747]}, "type": "Feature", "properties": {"collection_times": [{"days": "Mon-Sat", "time": "12:00pm"}, {"days": "Sun", "time": "Closed"}], "id": "1461900005", "name": "USPS COLLECTION BOX - BLUE BOX", "address": {"city": "ROCHESTER", "state": "NY", "street": "485 BROOKS AVE", "postcode": "14619"}}},
{"geometry": {"type": "Point", "coordinates": [-77.6510173431, 43.1344615402]}, "type": "Feature", "properties": {"collection_times": [{"days": "Mon-Sat", "time": "5:00pm"}, {"days": "Sun", "time": "Closed"}], "id": "1461900012", "name": "USPS COLLECTION BOX - BLUE BOX", "address": {"city": "ROCHESTER", "state": "NY", "street": "525 THURSTON RD", "postcode": "14619"}}},
{"geometry": {"type": "Point", "coordinates": [-77.661462712, 43.140010579]}, "type": "Feature", "properties": {"collection_times": [{"days": "Mon-Fri", "time": "11:30am"}, {"days": "Sat-Sun", "time": "Closed"}], "id": "1461900016", "name": "USPS COLLECTION BOX - BLUE BOX", "address": {"city": "ROCHESTER", "state": "NY", "street": "382 ROXBOROUGH RD", "postcode": "14619"}}},
{"geometry": {"type": "Point", "coordinates": [-77.6514308363, 43.1412272515]}, "type": "Feature", "properties": {"collection_times": [{"days": "Mon-Fri", "time": "10:15am"}, {"days": "Sat", "time": "9:45am"}, {"days": "Sun", "time": "Closed"}], "id": "1461900017", "name": "USPS COLLECTION BOX - BLUE BOX", "address": {"city": "ROCHESTER", "state": "NY", "street": "9 ROXBOROUGH RD", "postcode": "14619"}}},
{"geometry": {"type": "Point", "coordinates": [-77.6437017661, 43.1384419754]}, "type": "Feature", "properties": {"collection_times": [{"days": "Mon-Fri", "time": "11:00am"}, {"days": "Sat-Sun", "time": "Closed"}], "id": "1461900018", "name": "USPS COLLECTION BOX - BLUE BOX", "address": {"city": "ROCHESTER", "state": "NY", "street": "265 MELROSE ST", "postcode": "14619"}}},
{"geometry": {"type": "Point", "coordinates": [-77.657457213, 43.1309136245]}, "type": "Feature", "properties": {"collection_times": [{"days": "Mon-Fri", "time": "3:30pm"}, {"days": "Sat-Sun", "time": "Closed"}], "id": "1461900019", "name": "USPS COLLECTION BOX - BLUE BOX", "address": {"city": "ROCHESTER", "state": "NY", "street": "760 BROOKS AVE", "postcode": "14619"}}},
{"geometry": {"type": "Point", "coordinates": [-77.6273142356, 43.1170410648]}, "type": "Feature", "properties": {"collection_times": [{"days": "Mon-Fri", "time": "10:30am"}, {"days": "Sat", "time": "10:00am"}, {"days": "Sun", "time": "Closed"}], "id": "1462000003", "name": "USPS COLLECTION BOX - BLUE BOX", "address": {"city": "ROCHESTER", "state": "NY", "street": "234 CASTLEMAN RD", "postcode": "14620"}}},
{"geometry": {"type": "Point", "coordinates": [-77.5922915525, 43.1256234321]}, "type": "Feature", "properties": {"collection_times": [{"days": "Mon-Sat", "time": "11:00am"}, {"days": "Sun", "time": "Closed"}], "id": "1462000006", "name": "USPS COLLECTION BOX - BLUE BOX", "address": {"city": "ROCHESTER", "state": "NY", "street": "1660 ELMWOOD AVE", "postcode": "14620"}}},
{"geometry": {"type": "Point", "coordinates": [-77.5965950384, 43.1402877467]}, "type": "Feature", "properties": {"collection_times": [{"days": "Mon-Sat", "time": "1:30pm"}, {"days": "Sun", "time": "Closed"}], "id": "1462000007", "name": "USPS COLLECTION BOX - BLUE BOX", "address": {"city": "ROCHESTER", "state": "NY", "street": "919 CLINTON AVE S", "postcode": "14620"}}},
{"geometry": {"type": "Point", "coordinates": [-77.5948615445, 43.1383674514]}, "type": "Feature", "properties": {"collection_times": [{"days": "Mon-Sat", "time": "11:30am"}, {"days": "Sun", "time": "Closed"}], "id": "1462000009", "name": "USPS COLLECTION BOX - BLUE BOX", "address": {"city": "ROCHESTER", "state": "NY", "street": "1026 CLINTON AVE S", "postcode": "14620"}}},
{"geometry": {"type": "Point", "coordinates": [-77.5979212823, 43.1417782502]}, "type": "Feature", "properties": {"collection_times": [{"days": "Mon-Sat", "time": "9:45am"}, {"days": "Sun", "time": "Closed"}], "id": "1462000010", "name": "USPS COLLECTION BOX - BLUE BOX", "address": {"city": "ROCHESTER", "state": "NY", "street": "820 CLINTON AVE S", "postcode": "14620"}}},
{"geometry": {"type": "Point", "coordinates": [-77.5930523511, 43.1358631918]}, "type": "Feature", "properties": {"collection_times": [{"days": "Mon-Sat", "time": "11:15am"}, {"days": "Sun", "time": "Closed"}], "id": "1462000011", "name": "USPS COLLECTION BOX - BLUE BOX", "address": {"city": "ROCHESTER", "state": "NY", "street": "1163 CLINTON AVE S", "postcode": "14620"}}},
{"geometry": {"type": "Point", "coordinates": [-77.6246884403, 43.1185226314]}, "type": "Feature", "properties": {"collection_times": [{"days": "Mon-Fri", "time": "1:45pm"}, {"days": "Sat-Sun", "time": "Closed"}], "id": "1462000013", "name": "USPS COLLECTION BOX - BLUE BOX", "address": {"city": "ROCHESTER", "state": "NY", "street": "1 EASTMORELAND DR", "postcode": "14620"}}},
{"geometry": {"type": "Point", "coordinates": [-77.6097614905, 43.1249408647]}, "type": "Feature", "properties": {"collection_times": [{"days": "Mon-Fri", "time": "4:30pm"}, {"days": "Sat", "time": "12:45pm"}, {"days": "Sun", "time": "Closed"}], "id": "1462000015", "name": "USPS COLLECTION BOX - BLUE BOX", "address": {"city": "ROCHESTER", "state": "NY", "street": "1111 ELMWOOD AVE", "postcode": "14620"}}},
{"geometry": {"type": "Point", "coordinates": [-77.62359, 43.124382]}, "type": "Feature", "properties": {"collection_times": [{"days": "Mon-Sat", "time": "10:30am"}, {"days": "Sun", "time": "Closed"}], "id": "1462000016", "name": "USPS COLLECTION BOX - BLUE BOX", "address": {"city": "ROCHESTER", "state": "NY", "street": "601 ELMWOOD AVE", "postcode": "14620"}}},
{"geometry": {"type": "Point", "coordinates": [-77.5885852023, 43.1294490587]}, "type": "Feature", "properties": {"collection_times": [{"days": "Mon-Fri", "time": "12:30pm"}, {"days": "Sat", "time": "10:30am"}, {"days": "Sun", "time": "Closed"}], "id": "1462000017", "name": "USPS COLLECTION BOX - BLUE BOX", "address": {"city": "ROCHESTER", "state": "NY", "street": "1 CLINTWOOD DR APT 0", "postcode": "14620"}}},
{"geometry": {"type": "Point", "coordinates": [-77.5958811079, 43.1398596246]}, "type": "Feature", "properties": {"collection_times": [{"days": "Mon-Sat", "time": "10:00am"}, {"days": "Sun", "time": "Closed"}], "id": "1462000018", "name": "USPS COLLECTION BOX - BLUE BOX", "address": {"city": "ROCHESTER", "state": "NY", "street": "700 GOODMAN ST S", "postcode": "14620"}}},
{"geometry": {"type": "Point", "coordinates": [-77.5996259824, 43.1333473007]}, "type": "Feature", "properties": {"collection_times": [{"days": "Mon-Sat", "time": "10:00am"}, {"days": "Sun", "time": "Closed"}], "id": "1462000020", "name": "USPS COLLECTION BOX - BLUE BOX", "address": {"city": "ROCHESTER", "state": "NY", "street": "1068 GOODMAN ST S", "postcode": "14620"}}},
{"geometry": {"type": "Point", "coordinates": [-77.6026684384, 43.1299838481]}, "type": "Feature", "properties": {"collection_times": [{"days": "Mon-Fri", "time": "3:00pm"}, {"days": "Sat-Sun", "time": "Closed"}], "id": "1462000029", "name": "USPS COLLECTION BOX - BLUE BOX", "address": {"city": "ROCHESTER", "state": "NY", "street": "388 KENDRICK RD", "postcode": "14620"}}},
{"geometry": {"type": "Point", "coordinates": [-77.5993856972, 43.1286508161]}, "type": "Feature", "properties": {"collection_times": [{"days": "Mon-Fri", "time": "12:45pm"}, {"days": "Sat", "time": "10:30am"}, {"days": "Sun", "time": "Closed"}], "id": "1462000031", "name": "USPS COLLECTION BOX - BLUE BOX", "address": {"city": "ROCHESTER", "state": "NY", "street": "30 LILAC DR", "postcode": "14620"}}},
{"geometry": {"type": "Point", "coordinates": [-77.5998187204, 43.1391411041]}, "type": "Feature", "properties": {"collection_times": [{"days": "Mon-Sat", "time": "10:00am"}, {"days": "Sun", "time": "Closed"}], "id": "1462000033", "name": "USPS COLLECTION BOX - BLUE BOX", "address": {"city": "ROCHESTER", "state": "NY", "street": "791 MEIGS ST", "postcode": "14620"}}},
{"geometry": {"type": "Point", "coordinates": [-77.6014583015, 43.1361328395]}, "type": "Feature", "properties": {"collection_times": [{"days": "Mon-Sat", "time": "10:00am"}, {"days": "Sun", "time": "Closed"}], "id": "1462000034", "name": "USPS COLLECTION BOX - BLUE BOX", "address": {"city": "ROCHESTER", "state": "NY", "street": "947 MEIGS ST", "postcode": "14620"}}},
{"geometry": {"type": "Point", "coordinates": [-77.5828515399, 43.1403761133]}, "type": "Feature", "properties": {"collection_times": [{"days": "Mon-Sat", "time": "10:00am"}, {"days": "Sun", "time": "Closed"}], "id": "1462000035", "name": "USPS COLLECTION BOX - BLUE BOX", "address": {"city": "ROCHESTER", "state": "NY", "street": "990 MONROE AVE", "postcode": "14620"}}},
{"geometry": {"type": "Point", "coordinates": [-77.5794990342, 43.138482196]}, "type": "Feature", "properties": {"collection_times": [{"days": "Mon-Sat", "time": "10:30am"}, {"days": "Sun", "time": "Closed"}], "id": "1462000037", "name": "USPS COLLECTION BOX - BLUE BOX", "address": {"city": "ROCHESTER", "state": "NY", "street": "1136 MONROE AVE", "postcode": "14620"}}},
{"geometry": {"type": "Point", "coordinates": [-77.6110473669, 43.1440503839]}, "type": "Feature", "properties": {"collection_times": [{"days": "Mon-Sat", "time": "10:15am"}, {"days": "Sun", "time": "Closed"}], "id": "1462000038", "name": "USPS COLLECTION BOX - BLUE BOX", "address": {"city": "ROCHESTER", "state": "NY", "street": "185 MOUNT HOPE AVE", "postcode": "14620"}}},
{"geometry": {"type": "Point", "coordinates": [-77.6064326439, 43.1486520942]}, "type": "Feature", "properties": {"collection_times": [{"days": "Mon-Fri", "time": "4:30pm"}, {"days": "Sat", "time": "10:00am"}, {"days": "Sun", "time": "Closed"}], "id": "1462000040", "name": "USPS COLLECTION BOX - BLUE BOX", "address": {"city": "ROCHESTER", "state": "NY", "street": "1 MOUNT HOPE AVE", "postcode": "14620"}}},
{"geometry": {"type": "Point", "coordinates": [-77.602668438, 43.129977742]}, "type": "Feature", "properties": {"collection_times": [{"days": "Mon-Sat", "time": "10:00am"}, {"days": "Sun", "time": "Closed"}], "id": "1462000041", "name": "USPS COLLECTION BOX - BLUE BOX", "address": {"city": "ROCHESTER", "state": "NY", "street": "71 CELEBRATION DR", "postcode": "14620"}}},
{"geometry": {"type": "Point", "coordinates": [-77.6193588365, 43.1207425434]}, "type": "Feature", "properties": {"collection_times": [{"days": "Mon-Sat", "time": "10:00am"}, {"days": "Sun", "time": "Closed"}], "id": "1462000043", "name": "USPS COLLECTION BOX - BLUE BOX", "address": {"city": "ROCHESTER", "state": "NY", "street": "1499 MOUNT HOPE AVE", "postcode": "14620"}}},
{"geometry": {"type": "Point", "coordinates": [-77.6211116582, 43.117490532]}, "type": "Feature", "properties": {"collection_times": [{"days": "Mon-Sat", "time": "10:00am"}, {"days": "Sun", "time": "Closed"}], "id": "1462000044", "name": "USPS COLLECTION BOX - BLUE BOX", "address": {"city": "ROCHESTER", "state": "NY", "street": "1677 MOUNT HOPE AVE", "postcode": "14620"}}},
{"geometry": {"type": "Point", "coordinates": [-77.6120647116, 43.124960975]}, "type": "Feature", "properties": {"collection_times": [{"days": "Mon-Fri", "time": "3:00pm"}, {"days": "Sat", "time": "12:15pm"}, {"days": "Sun", "time": "Closed"}], "id": "1462000047", "name": "USPS COLLECTION BOX - BLUE BOX", "address": {"city": "ROCHESTER", "state": "NY", "street": "1000 ELMWOOD AVE", "postcode": "14620"}}},
{"geometry": {"type": "Point", "coordinates": [-77.6056033897, 43.1464813645]}, "type": "Feature", "properties": {"collection_times": [{"days": "Mon-Sat", "time": "11:00am"}, {"days": "Sun", "time": "Closed"}], "id": "1462000048", "name": "USPS COLLECTION BOX - BLUE BOX", "address": {"city": "ROCHESTER", "state": "NY", "street": "500 SOUTH AVE", "postcode": "14620"}}},
{"geometry": {"type": "Point", "coordinates": [-77.6044145159, 43.1421257096]}, "type": "Feature", "properties": {"collection_times": [{"days": "Mon-Sat", "time": "10:30am"}, {"days": "Sun", "time": "Closed"}], "id": "1462000051", "name": "USPS COLLECTION BOX - BLUE BOX", "address": {"city": "ROCHESTER", "state": "NY", "street": "684 SOUTH AVE", "postcode": "14620"}}},
{"geometry": {"type": "Point", "coordinates": [-77.6098018766, 43.1377200388]}, "type": "Feature", "properties": {"collection_times": [{"days": "Mon-Sat", "time": "10:00am"}, {"days": "Sun", "time": "Closed"}], "id": "1462000052", "name": "USPS COLLECTION BOX - BLUE BOX", "address": {"city": "ROCHESTER", "state": "NY", "street": "90 MANOR PKWY", "postcode": "14620"}}},
{"geometry": {"type": "Point", "coordinates": [-77.6026684384, 43.1299838481]}, "type": "Feature", "properties": {"collection_times": [{"days": "Mon-Fri", "time": "11:00am"}, {"days": "Sat", "time": "10:00am"}, {"days": "Sun", "time": "Closed"}], "id": "1462000053", "name": "USPS COLLECTION BOX - BLUE BOX", "address": {"city": "ROCHESTER", "state": "NY", "street": "47 GREEN KNOLLS DR", "postcode": "14620"}}},
{"geometry": {"type": "Point", "coordinates": [-77.6197659768, 43.1145090013]}, "type": "Feature", "properties": {"collection_times": [{"days": "Mon-Fri", "time": "3:15pm"}, {"days": "Sat-Sun", "time": "Closed"}], "id": "1462000054", "name": "USPS COLLECTION BOX - BLUE BOX", "address": {"city": "ROCHESTER", "state": "NY", "street": "111 WESTFALL RD", "postcode": "14620"}}},
{"geometry": {"type": "Point", "coordinates": [-77.614962961, 43.1178312814]}, "type": "Feature", "properties": {"collection_times": [{"days": "Mon-Fri", "time": "1:30pm"}, {"days": "Sat-Sun", "time": "Closed"}], "id": "1462000055", "name": "USPS COLLECTION BOX - BLUE BOX", "address": {"city": "ROCHESTER", "state": "NY", "street": "55 SCIENCE PKWY", "postcode": "14620"}}},
{"geometry": {"type": "Point", "coordinates": [-77.6207568784, 43.1218043023]}, "type": "Feature", "properties": {"collection_times": [{"days": "Mon-Fri", "time": "10:00am"}, {"days": "Sat-Sun", "time": "Closed"}], "id": "1462000057", "name": "USPS COLLECTION BOX - BLUE BOX", "address": {"city": "ROCHESTER", "state": "NY", "street": "60 CRITTENDEN BLVD", "postcode": "14620"}}},
{"geometry": {"type": "Point", "coordinates": [-77.6045581887, 43.1283744285]}, "type": "Feature", "properties": {"collection_times": [{"days": "Mon-Fri", "time": "4:30pm"}, {"days": "Sat", "time": "1:00pm"}, {"days": "Sun", "time": "Closed"}], "id": "1462000059", "name": "USPS COLLECTION BOX - BLUE BOX", "address": {"city": "ROCHESTER", "state": "NY", "street": "1 LIBRARY RD", "postcode": "14620"}}},
{"geometry": {"type": "Point", "coordinates": [-77.6234743508, 43.1185836433]}, "type": "Feature", "properties": {"collection_times": [{"days": "Mon-Fri", "time": "9:30am"}, {"days": "Sat-Sun", "time": "Closed"}], "id": "1462000064", "name": "USPS COLLECTION BOX - BLUE BOX", "address": {"city": "ROCHESTER", "state": "NY", "street": "125 LATTIMORE RD", "postcode": "14620"}}},
{"geometry": {"type": "Point", "coordinates": [-77.6258776784, 43.12408216]}, "type": "Feature", "properties": {"collection_times": [{"days": "Mon-Fri", "time": "10:45am"}, {"days": "Sat-Sun", "time": "Closed"}], "id": "1462000067", "name": "USPS COLLECTION BOX - BLUE BOX", "address": {"city": "ROCHESTER", "state": "NY", "street": "477 ELMWOOD AVE", "postcode": "14620"}}},
{"geometry": {"type": "Point", "coordinates": [-77.6071140283, 43.129314264]}, "type": "Feature", "properties": {"collection_times": [{"days": "Mon-Fri", "time": "3:15pm"}, {"days": "Sat", "time": "1:00pm"}, {"days": "Sun", "time": "Closed"}], "id": "1462000070", "name": "USPS COLLECTION BOX - BLUE BOX", "address": {"city": "ROCHESTER", "state": "NY", "street": "249 HIGHLAND AVE", "postcode": "14620"}}},
{"geometry": {"type": "Point", "coordinates": [-77.6026684384, 43.1299838481]}, "type": "Feature", "properties": {"collection_times": [{"days": "Mon-Sat", "time": "10:00am"}, {"days": "Sun", "time": "Closed"}], "id": "1462000072", "name": "USPS COLLECTION BOX - BLUE BOX", "address": {"city": "ROCHESTER", "state": "NY", "street": "145 CULVER RD", "postcode": "14620"}}},
{"geometry": {"type": "Point", "coordinates": [-77.6137847339, 43.1861566253]}, "type": "Feature", "properties": {"collection_times": [{"days": "Mon-Sat", "time": "9:30am"}, {"days": "Sun", "time": "Closed"}], "id": "1462100001", "name": "USPS COLLECTION BOX - BLUE BOX", "address": {"city": "ROCHESTER", "state": "NY", "street": "1430 N CLINTON AVE", "postcode": "14621"}}},
{"geometry": {"type": "Point", "coordinates": [-77.6125748713, 43.1982178572]}, "type": "Feature", "properties": {"collection_times": [{"days": "Mon-Fri", "time": "1:45pm"}, {"days": "Sat-Sun", "time": "Closed"}], "id": "1462100009", "name": "USPS COLLECTION BOX - BLUE BOX", "address": {"city": "ROCHESTER", "state": "NY", "street": "2025 N CLINTON AVE", "postcode": "14621"}}},
{"geometry": {"type": "Point", "coordinates": [-77.5991326042, 43.1801034242]}, "type": "Feature", "properties": {"collection_times": [{"days": "Mon-Sat", "time": "10:15am"}, {"days": "Sun", "time": "Closed"}], "id": "1462100015", "name": "USPS COLLECTION BOX - BLUE BOX", "address": {"city": "ROCHESTER", "state": "NY", "street": "835 HUDSON AVE", "postcode": "14621"}}},
{"geometry": {"type": "Point", "coordinates": [-77.5986110733, 43.1964603997]}, "type": "Feature", "properties": {"collection_times": [{"days": "Mon-Fri", "time": "5:00pm"}, {"days": "Sat", "time": "2:30pm"}, {"days": "Sun", "time": "Closed"}], "id": "1462100018", "name": "USPS COLLECTION BOX - BLUE BOX", "address": {"city": "ROCHESTER", "state": "NY", "street": "744 E RIDGE RD", "postcode": "14621"}}},
{"geometry": {"type": "Point", "coordinates": [-77.589194491, 43.1785486649]}, "type": "Feature", "properties": {"collection_times": [{"days": "Mon-Fri", "time": "1:15pm"}, {"days": "Sat", "time": "12:00pm"}, {"days": "Sun", "time": "Closed"}], "id": "1462100029", "name": "USPS COLLECTION BOX - BLUE BOX", "address": {"city": "ROCHESTER", "state": "NY", "street": "693 PORTLAND AVE", "postcode": "14621"}}},
{"geometry": {"type": "Point", "coordinates": [-77.5843275777, 43.189761314]}, "type": "Feature", "properties": {"collection_times": [{"days": "Mon-Fri", "time": "5:00pm"}, {"days": "Sat-Sun", "time": "Closed"}], "id": "1462100030", "name": "USPS COLLECTION BOX - BLUE BOX", "address": {"city": "ROCHESTER", "state": "NY", "street": "1299 PORTLAND AVE", "postcode": "14621"}}},
{"geometry": {"type": "Point", "coordinates": [-77.5842533463, 43.1897492716]}, "type": "Feature", "properties": {"collection_times": [{"days": "Mon-Fri", "time": "5:00pm"}, {"days": "Sat-Sun", "time": "Closed"}], "id": "1462100032", "name": "USPS COLLECTION BOX - BLUE BOX", "address": {"city": "ROCHESTER", "state": "NY", "street": "1295 PORTLAND AVE", "postcode": "14621"}}},
{"geometry": {"type": "Point", "coordinates": [-77.584376374, 43.1917768633]}, "type": "Feature", "properties": {"collection_times": [{"days": "Mon-Fri", "time": "5:00pm"}, {"days": "Sat-Sun", "time": "Closed"}], "id": "1462100033", "name": "USPS COLLECTION BOX - BLUE BOX", "address": {"city": "ROCHESTER", "state": "NY", "street": "1415 PORTLAND AVE", "postcode": "14621"}}},
{"geometry": {"type": "Point", "coordinates": [-77.5803950595, 43.1983325203]}, "type": "Feature", "properties": {"collection_times": [{"days": "Mon-Fri", "time": "5:00pm"}, {"days": "Sat", "time": "2:15pm"}, {"days": "Sun", "time": "Closed"}], "id": "1462100040", "name": "USPS COLLECTION BOX - BLUE BOX", "address": {"city": "ROCHESTER", "state": "NY", "street": "1381 E RIDGE RD", "postcode": "14621"}}},
{"geometry": {"type": "Point", "coordinates": [-77.5903196961, 43.1971928509]}, "type": "Feature", "properties": {"collection_times": [{"days": "Mon-Fri", "time": "5:00pm"}, {"days": "Sat", "time": "2:30pm"}, {"days": "Sun", "time": "Closed"}], "id": "1462100042", "name": "USPS COLLECTION BOX - BLUE BOX", "address": {"city": "ROCHESTER", "state": "NY", "street": "1040 E RIDGE RD", "postcode": "14621"}}},
{"geometry": {"type": "Point", "coordinates": [-77.6035970913, 43.1936577681]}, "type": "Feature", "properties": {"collection_times": [{"days": "Mon-Sat", "time": "12:30pm"}, {"days": "Sun", "time": "Closed"}], "id": "1462100053", "name": "USPS COLLECTION BOX - BLUE BOX", "address": {"city": "ROCHESTER", "state": "NY", "street": "401 SENECA MANOR DR", "postcode": "14621"}}},
{"geometry": {"type": "Point", "coordinates": [-77.6250548158, 43.1828700501]}, "type": "Feature", "properties": {"collection_times": [{"days": "Mon-Sat", "time": "1:15pm"}, {"days": "Sun", "time": "Closed"}], "id": "1462100058", "name": "USPS COLLECTION BOX - BLUE BOX", "address": {"city": "ROCHESTER", "state": "NY", "street": "1455 SAINT PAUL ST", "postcode": "14621"}}},
{"geometry": {"type": "Point", "coordinates": [-77.5844544493, 43.1873502308]}, "type": "Feature", "properties": {"collection_times": [{"days": "Mon-Fri", "time": "10:45am"}, {"days": "Sat-Sun", "time": "Closed"}], "id": "1462100065", "name": "USPS COLLECTION BOX - BLUE BOX", "address": {"city": "ROCHESTER", "state": "NY", "street": "1404 NORTON ST", "postcode": "14621"}}},
{"geometry": {"type": "Point", "coordinates": [-77.5935655993, 43.1946171478]}, "type": "Feature", "properties": {"collection_times": [{"days": "Mon-Sat", "time": "2:00pm"}, {"days": "Sun", "time": "Closed"}], "id": "1462100066", "name": "USPS COLLECTION BOX - BLUE BOX", "address": {"city": "ROCHESTER", "state": "NY", "street": "56 BRAMBURY DR", "postcode": "14621"}}},
{"geometry": {"type": "Point", "coordinates": [-77.6023469079, 43.1866818248]}, "type": "Feature", "properties": {"collection_times": [{"days": "Mon-Fri", "time": "6:00pm"}, {"days": "Sat", "time": "5:00pm"}, {"days": "Sun", "time": "Closed"}], "id": "1462100072", "name": "USPS COLLECTION BOX - EXPRESS", "address": {"city": "ROCHESTER", "state": "NY", "street": "425 E RIDGE RD", "postcode": "14621"}}},
{"geometry": {"type": "Point", "coordinates": [-77.607348853, 43.195291743]}, "type": "Feature", "properties": {"collection_times": [{"days": "Mon-Fri", "time": "6:00pm"}, {"days": "Sat", "time": "5:00pm"}, {"days": "Sun", "time": "Closed"}], "id": "1462100074", "name": "USPS COLLECTION BOX - BLUE BOX", "address": {"city": "ROCHESTER", "state": "NY", "street": "425 E RIDGE RD", "postcode": "14621"}}},
{"geometry": {"type": "Point", "coordinates": [-77.607348853, 43.195291743]}, "type": "Feature", "properties": {"collection_times": [{"days": "Mon-Fri", "time": "6:00pm"}, {"days": "Sat", "time": "5:00pm"}, {"days": "Sun", "time": "Closed"}], "id": "1462100076", "name": "USPS COLLECTION BOX - BLUE BOX", "address": {"city": "ROCHESTER", "state": "NY", "street": "425 E RIDGE RD", "postcode": "14621"}}},
{"geometry": {"type": "Point", "coordinates": [-77.5914599323, 43.1751184352]}, "type": "Feature", "properties": {"collection_times": [{"days": "Mon-Sat", "time": "11:45am"}, {"days": "Sun", "time": "Closed"}], "id": "1462100078", "name": "USPS COLLECTION BOX - BLUE BOX", "address": {"city": "ROCHESTER", "state": "NY", "street": "520 PORTLAND AVE", "postcode": "14621"}}},
{"geometry": {"type": "Point", "coordinates": [-77.5450962216, 43.2309647449]}, "type": "Feature", "properties": {"collection_times": [{"days": "Mon-Sat", "time": "2:00pm"}, {"days": "Sun", "time": "Closed"}], "id": "1462200001", "name": "USPS COLLECTION BOX - BLUE BOX", "address": {"city": "IRONDEQUOIT", "state": "NY", "street": "4515 CULVER RD", "postcode": "14622"}}},
{"geometry": {"type": "Point", "coordinates": [-77.5619533868, 43.2074427889]}, "type": "Feature", "properties": {"collection_times": [{"days": "Mon-Fri", "time": "11:15am"}, {"days": "Sat", "time": "10:15am"}, {"days": "Sun", "time": "Closed"}], "id": "1462200005", "name": "USPS COLLECTION BOX - BLUE BOX", "address": {"city": "IRONDEQUOIT", "state": "NY", "street": "3212 CULVER RD", "postcode": "14622"}}},
{"geometry": {"type": "Point", "coordinates": [-77.5578142134, 43.2043327898]}, "type": "Feature", "properties": {"collection_times": [{"days": "Mon-Fri", "time": "4:30pm"}, {"days": "Sat", "time": "11:00am"}, {"days": "Sun", "time": "Closed"}], "id": "1462200006", "name": "USPS COLLECTION BOX - BLUE BOX", "address": {"city": "IRONDEQUOIT", "state": "NY", "street": "2200 E RIDGE RD", "postcode": "14622"}}},
{"geometry": {"type": "Point", "coordinates": [-77.5588954379, 43.2040973809]}, "type": "Feature", "properties": {"collection_times": [{"days": "Mon-Fri", "time": "4:30pm"}, {"days": "Sat", "time": "9:45am"}, {"days": "Sun", "time": "Closed"}], "id": "1462200007", "name": "USPS COLLECTION BOX - BLUE BOX", "address": {"city": "IRONDEQUOIT", "state": "NY", "street": "2255 E RIDGE RD", "postcode": "14622"}}},
{"geometry": {"type": "Point", "coordinates": [-77.5714442666, 43.1994791091]}, "type": "Feature", "properties": {"collection_times": [{"days": "Mon-Fri", "time": "5:00pm"}, {"days": "Sat", "time": "3:30pm"}, {"days": "Sun", "time": "Closed"}], "id": "1462200010", "name": "USPS COLLECTION BOX - BLUE BOX", "address": {"city": "IRONDEQUOIT", "state": "NY", "street": "285 IRONDEQUOIT MALL DR", "postcode": "14622"}}},
{"geometry": {"type": "Point", "coordinates": [-77.5670294638, 43.2019290171]}, "type": "Feature", "properties": {"collection_times": [{"days": "Mon-Fri", "time": "4:30pm"}, {"days": "Sat", "time": "10:00am"}, {"days": "Sun", "time": "Closed"}], "id": "1462200013", "name": "USPS COLLECTION BOX - BLUE BOX", "address": {"city": "IRONDEQUOIT", "state": "NY", "street": "1880 E RIDGE RD", "postcode": "14622"}}},
{"geometry": {"type": "Point", "coordinates": [-77.5456118109, 43.2047195187]}, "type": "Feature", "properties": {"collection_times": [{"days": "Mon-Fri", "time": "11:00am"}, {"days": "Sat", "time": "10:00am"}, {"days": "Sun", "time": "Closed"}], "id": "1462200015", "name": "USPS COLLECTION BOX - BLUE BOX", "address": {"city": "IRONDEQUOIT", "state": "NY", "street": "2679 E RIDGE RD", "postcode": "14622"}}},
{"geometry": {"type": "Point", "coordinates": [-77.6269874341, 43.0870508487]}, "type": "Feature", "properties": {"collection_times": [{"days": "Mon-Fri", "time": "5:00pm"}, {"days": "Sat-Sun", "time": "Closed"}], "id": "1462300001", "name": "USPS COLLECTION BOX - BLUE BOX", "address": {"city": "ROCHESTER", "state": "NY", "street": "3385 BRIGHTON HENRIETTA TOWN LINE RD", "postcode": "14623"}}},
{"geometry": {"type": "Point", "coordinates": [-77.6269874341, 43.0870508487]}, "type": "Feature", "properties": {"collection_times": [{"days": "Mon-Fri", "time": "5:00pm"}, {"days": "Sat", "time": "9:45am"}, {"days": "Sun", "time": "Closed"}], "id": "1462300002", "name": "USPS COLLECTION BOX - EXPRESS", "address": {"city": "ROCHESTER", "state": "NY", "street": "3340 BRIGHTON HENRIETTA TL RD", "postcode": "14623"}}},
{"geometry": {"type": "Point", "coordinates": [-77.646164457, 43.0881576879]}, "type": "Feature", "properties": {"collection_times": [{"days": "Mon-Fri", "time": "5:00pm"}, {"days": "Sat", "time": "11:00am"}, {"days": "Sun", "time": "Closed"}], "id": "1462300004", "name": "USPS COLLECTION BOX - BLUE BOX", "address": {"city": "ROCHESTER", "state": "NY", "street": "1812 BRIGHTON HENRIETTA TL RD", "postcode": "14623"}}},
{"geometry": {"type": "Point", "coordinates": [-77.6251813606, 43.068400158]}, "type": "Feature", "properties": {"collection_times": [{"days": "Mon-Fri", "time": "4:45pm"}, {"days": "Sat", "time": "12:30pm"}, {"days": "Sun", "time": "Closed"}], "id": "1462300005", "name": "USPS COLLECTION BOX - BLUE BOX", "address": {"city": "ROCHESTER", "state": "NY", "street": "475 CALKINS RD", "postcode": "14623"}}},
{"geometry": {"type": "Point", "coordinates": [-77.6206447129, 43.0809158639]}, "type": "Feature", "properties": {"collection_times": [{"days": "Mon-Sat", "time": "3:00pm"}, {"days": "Sun", "time": "Closed"}], "id": "1462300006", "name": "USPS COLLECTION BOX - BLUE BOX", "address": {"city": "ROCHESTER", "state": "NY", "street": "400 CLAY RD", "postcode": "14623"}}},
{"geometry": {"type": "Point", "coordinates": [-77.646164457, 43.0881576879]}, "type": "Feature", "properties": {"collection_times": [{"days": "Mon-Fri", "time": "6:00pm"}, {"days": "Sat", "time": "10:15am"}, {"days": "Sun", "time": "Closed"}], "id": "1462300012", "name": "USPS COLLECTION BOX - BLUE BOX", "address": {"city": "ROCHESTER", "state": "NY", "street": "300 CORPORATE WOODS", "postcode": "14623"}}},
{"geometry": {"type": "Point", "coordinates": [-77.6269874341, 43.0870508487]}, "type": "Feature", "properties": {"collection_times": [{"days": "Mon-Fri", "time": "6:00pm"}, {"days": "Sat", "time": "10:15am"}, {"days": "Sun", "time": "Closed"}], "id": "1462300013", "name": "USPS COLLECTION BOX - EXPRESS", "address": {"city": "ROCHESTER", "state": "NY", "street": "300 CORPORATE WOODS", "postcode": "14623"}}},
{"geometry": {"type": "Point", "coordinates": [-77.646164457, 43.0881576879]}, "type": "Feature", "properties": {"collection_times": [{"days": "Mon-Fri", "time": "6:00pm"}, {"days": "Sat", "time": "10:15am"}, {"days": "Sun", "time": "Closed"}], "id": "1462300014", "name": "USPS COLLECTION BOX - BLUE BOX", "address": {"city": "ROCHESTER", "state": "NY", "street": "300 CORPORATE WOODS", "postcode": "14623"}}},
{"geometry": {"type": "Point", "coordinates": [-77.646164457, 43.0881576879]}, "type": "Feature", "properties": {"collection_times": [{"days": "Mon-Fri", "time": "6:00pm"}, {"days": "Sat", "time": "10:15am"}, {"days": "Sun", "time": "Closed"}], "id": "1462300015", "name": "USPS COLLECTION BOX - BLUE BOX", "address": {"city": "ROCHESTER", "state": "NY", "street": "300 CORPORATE WOODS", "postcode": "14623"}}},
{"geometry": {"type": "Point", "coordinates": [-77.6322281274, 43.1040791476]}, "type": "Feature", "properties": {"collection_times": [{"days": "Mon-Sat", "time": "1:00pm"}, {"days": "Sun", "time": "Closed"}], "id": "1462300016", "name": "USPS COLLECTION BOX - BLUE BOX", "address": {"city": "ROCHESTER", "state": "NY", "street": "1545 CRITTENDEN RD", "postcode": "14623"}}},
{"geometry": {"type": "Point", "coordinates": [-77.6256935818, 43.0942951298]}, "type": "Feature", "properties": {"collection_times": [{"days": "Mon-Fri", "time": "5:00pm"}, {"days": "Sat-Sun", "time": "Closed"}], "id": "1462300019", "name": "USPS COLLECTION BOX - BLUE BOX", "address": {"city": "ROCHESTER", "state": "NY", "street": "1950 BRIGHTON HENRIETTA TOWN LINE RD", "postcode": "14623"}}},
{"geometry": {"type": "Point", "coordinates": [-77.648005085, 43.077270013]}, "type": "Feature", "properties": {"collection_times": [{"days": "Mon-Fri", "time": "11:15am"}, {"days": "Sat-Sun", "time": "Closed"}], "id": "1462300020", "name": "USPS COLLECTION BOX - BLUE BOX", "address": {"city": "ROCHESTER", "state": "NY", "street": "133 GOLDEN ROD LN", "postcode": "14623"}}},
{"geometry": {"type": "Point", "coordinates": [-77.6121668976, 43.0686123479]}, "type": "Feature", "properties": {"collection_times": [{"days": "Mon-Fri", "time": "4:45pm"}, {"days": "Sat", "time": "1:00pm"}, {"days": "Sun", "time": "Closed"}], "id": "1462300022", "name": "USPS COLLECTION BOX - BLUE BOX", "address": {"city": "ROCHESTER", "state": "NY", "street": "745 CALKINS RD", "postcode": "14623"}}},
{"geometry": {"type": "Point", "coordinates": [-77.6163188689, 43.1558027975]}, "type": "Feature", "properties": {"collection_times": [{"days": "Mon-Fri", "time": "11:00am"}, {"days": "Sat", "time": "10:15am"}, {"days": "Sun", "time": "Closed"}], "id": "1462300024", "name": "USPS COLLECTION BOX - BLUE BOX", "address": {"city": "ROCHESTER", "state": "NY", "street": "1000 E HENRIETTA RD BLDG 4", "postcode": "14623"}}},
{"geometry": {"type": "Point", "coordinates": [-77.6100974508, 43.0894213388]}, "type": "Feature", "properties": {"collection_times": [{"days": "Mon-Sat", "time": "2:30pm"}, {"days": "Sun", "time": "Closed"}], "id": "1462300025", "name": "USPS COLLECTION BOX - BLUE BOX", "address": {"city": "ROCHESTER", "state": "NY", "street": "1555 E HENRIETTA RD", "postcode": "14623"}}},
{"geometry": {"type": "Point", "coordinates": [-77.6245094399, 43.1106365249]}, "type": "Feature", "properties": {"collection_times": [{"days": "Mon-Fri", "time": "5:00pm"}, {"days": "Sat", "time": "11:30am"}, {"days": "Sun", "time": "Closed"}], "id": "1462300026", "name": "USPS COLLECTION BOX - BLUE BOX", "address": {"city": "ROCHESTER", "state": "NY", "street": "2024 W HENRIETTA RD", "postcode": "14623"}}},
{"geometry": {"type": "Point", "coordinates": [-77.6245094399, 43.1106365249]}, "type": "Feature", "properties": {"collection_times": [{"days": "Mon-Fri", "time": "5:00pm"}, {"days": "Sat", "time": "11:30am"}, {"days": "Sun", "time": "Closed"}], "id": "1462300027", "name": "USPS COLLECTION BOX - BLUE BOX", "address": {"city": "ROCHESTER", "state": "NY", "street": "2024 W HENRIETTA RD", "postcode": "14623"}}},
{"geometry": {"type": "Point", "coordinates": [-77.6269874341, 43.0870508487]}, "type": "Feature", "properties": {"collection_times": [{"days": "Mon-Fri", "time": "5:00pm"}, {"days": "Sat", "time": "11:30am"}, {"days": "Sun", "time": "Closed"}], "id": "1462300028", "name": "USPS COLLECTION BOX - EXPRESS", "address": {"city": "ROCHESTER", "state": "NY", "street": "2024 W HENRIETTA RD", "postcode": "14623"}}},
{"geometry": {"type": "Point", "coordinates": [-77.6444281029, 43.0729214272]}, "type": "Feature", "properties": {"collection_times": [{"days": "Mon-Sat", "time": "2:00pm"}, {"days": "Sun", "time": "Closed"}], "id": "1462300030", "name": "USPS COLLECTION BOX - BLUE BOX", "address": {"city": "ROCHESTER", "state": "NY", "street": "3995 W HENRIETTA RD", "postcode": "14623"}}},
{"geometry": {"type": "Point", "coordinates": [-77.6370653663, 43.0866555808]}, "type": "Feature", "properties": {"collection_times": [{"days": "Mon-Fri", "time": "4:45pm"}, {"days": "Sat", "time": "11:45am"}, {"days": "Sun", "time": "Closed"}], "id": "1462300031", "name": "USPS COLLECTION BOX - BLUE BOX", "address": {"city": "ROCHESTER", "state": "NY", "street": "3333 W HENRIETTA RD", "postcode": "14623"}}},
{"geometry": {"type": "Point", "coordinates": [-77.6274766945, 43.1047054614]}, "type": "Feature", "properties": {"collection_times": [{"days": "Mon-Sat", "time": "2:00pm"}, {"days": "Sun", "time": "Closed"}], "id": "1462300032", "name": "USPS COLLECTION BOX - BLUE BOX", "address": {"city": "ROCHESTER", "state": "NY", "street": "2360 W HENRIETTA RD", "postcode": "14623"}}},
{"geometry": {"type": "Point", "coordinates": [-77.6296493966, 43.0832664034]}, "type": "Feature", "properties": {"collection_times": [{"days": "Mon-Sat", "time": "10:30am"}, {"days": "Sun", "time": "Closed"}], "id": "1462300033", "name": "USPS COLLECTION BOX - BLUE BOX", "address": {"city": "ROCHESTER", "state": "NY", "street": "650 HYLAN DR", "postcode": "14623"}}},
{"geometry": {"type": "Point", "coordinates": [-77.6132370239, 43.0871867294]}, "type": "Feature", "properties": {"collection_times": [{"days": "Mon-Fri", "time": "5:00pm"}, {"days": "Sat", "time": "12:30pm"}, {"days": "Sun", "time": "Closed"}], "id": "1462300034", "name": "USPS COLLECTION BOX - BLUE BOX", "address": {"city": "ROCHESTER", "state": "NY", "street": "900 JEFFERSON RD", "postcode": "14623"}}},
{"geometry": {"type": "Point", "coordinates": [-77.661087714, 43.0760491707]}, "type": "Feature", "properties": {"collection_times": [{"days": "Mon-Fri", "time": "4:00pm"}, {"days": "Sat-Sun", "time": "Closed"}], "id": "1462300044", "name": "USPS COLLECTION BOX - BLUE BOX", "address": {"city": "ROCHESTER", "state": "NY", "street": "150 RESEARCH BLVD", "postcode": "14623"}}},
{"geometry": {"type": "Point", "coordinates": [-77.6227924984, 43.1013235646]}, "type": "Feature", "properties": {"collection_times": [{"days": "Mon-Fri", "time": "1:15pm"}, {"days": "Sat", "time": "10:00am"}, {"days": "Sun", "time": "Closed"}], "id": "1462300046", "name": "USPS COLLECTION BOX - BLUE BOX", "address": {"city": "ROCHESTER", "state": "NY", "street": "125 W SQUIRE DR", "postcode": "14623"}}},
{"geometry": {"type": "Point", "coordinates": [-77.6182480381, 43.1037907414]}, "type": "Feature", "properties": {"collection_times": [{"days": "Mon-Fri", "time": "5:00pm"}, {"days": "Sat", "time": "10:30am"}, {"days": "Sun", "time": "Closed"}], "id": "1462300047", "name": "USPS COLLECTION BOX - BLUE BOX", "address": {"city": "ROCHESTER", "state": "NY", "street": "300 WHITE SPRUCE BLVD", "postcode": "14623"}}},
{"geometry": {"type": "Point", "coordinates": [-77.5787466723, 43.0968018198]}, "type": "Feature", "properties": {"collection_times": [{"days": "Mon-Fri", "time": "6:00pm"}, {"days": "Sat", "time": "9:45am"}, {"days": "Sun", "time": "Closed"}], "id": "1462300052", "name": "USPS COLLECTION BOX - BLUE BOX", "address": {"city": "ROCHESTER", "state": "NY", "street": "3450 WINTON PL", "postcode": "14623"}}},
{"geometry": {"type": "Point", "coordinates": [-77.5819453934, 43.0883838838]}, "type": "Feature", "properties": {"collection_times": [{"days": "Mon-Sat", "time": "11:00am"}, {"days": "Sun", "time": "Closed"}], "id": "1462300055", "name": "USPS COLLECTION BOX - BLUE BOX", "address": {"city": "ROCHESTER", "state": "NY", "street": "3259 WINTON RD S", "postcode": "14623"}}},
{"geometry": {"type": "Point", "coordinates": [-77.5819820651, 43.0911342634]}, "type": "Feature", "properties": {"collection_times": [{"days": "Mon-Fri", "time": "5:00pm"}, {"days": "Sat", "time": "9:45am"}, {"days": "Sun", "time": "Closed"}], "id": "1462300056", "name": "USPS COLLECTION BOX - BLUE BOX", "address": {"city": "ROCHESTER", "state": "NY", "street": "3136 WINTON RD S", "postcode": "14623"}}},
{"geometry": {"type": "Point", "coordinates": [-77.6252166823, 43.098577807]}, "type": "Feature", "properties": {"collection_times": [{"days": "Mon-Fri", "time": "5:00pm"}, {"days": "Sat", "time": "10:45am"}, {"days": "Sun", "time": "Closed"}], "id": "1462300058", "name": "USPS COLLECTION BOX - BLUE BOX", "address": {"city": "ROCHESTER", "state": "NY", "street": "770 W METRO PARK", "postcode": "14623"}}},
{"geometry": {"type": "Point", "coordinates": [-77.6425010628, 43.0810152324]}, "type": "Feature", "properties": {"collection_times": [{"days": "Mon-Fri", "time": "5:00pm"}, {"days": "Sat", "time": "11:45am"}, {"days": "Sun", "time": "Closed"}], "id": "1462300059", "name": "USPS COLLECTION BOX - BLUE BOX", "address": {"city": "ROCHESTER", "state": "NY", "street": "56 COMMERCE DR", "postcode": "14623"}}},
{"geometry": {"type": "Point", "coordinates": [-77.646164457, 43.0881576879]}, "type": "Feature", "properties": {"collection_times": [{"days": "Mon-Fri", "time": "6:00pm"}, {"days": "Sat", "time": "10:15am"}, {"days": "Sun", "time": "Closed"}], "id": "1462300060", "name": "USPS COLLECTION BOX - BLUE BOX", "address": {"city": "ROCHESTER", "state": "NY", "street": "300 CORPORATE WOODS", "postcode": "14623"}}},
{"geometry": {"type": "Point", "coordinates": [-77.646164457, 43.0881576879]}, "type": "Feature", "properties": {"collection_times": [{"days": "Mon-Fri", "time": "5:00pm"}, {"days": "Sat", "time": "9:45am"}, {"days": "Sun", "time": "Closed"}], "id": "1462300063", "name": "USPS COLLECTION BOX - BLUE BOX", "address": {"city": "ROCHESTER", "state": "NY", "street": "3340 BRIGHTON HENRIETTA TL RD", "postcode": "14623"}}},
{"geometry": {"type": "Point", "coordinates": [-77.5791796353, 43.0950037222]}, "type": "Feature", "properties": {"collection_times": [{"days": "Mon-Fri", "time": "6:00pm"}, {"days": "Sat", "time": "9:45am"}, {"days": "Sun", "time": "Closed"}], "id": "1462300064", "name": "USPS COLLECTION BOX - BLUE BOX", "address": {"city": "ROCHESTER", "state": "NY", "street": "3445 WINTON PL", "postcode": "14623"}}},
{"geometry": {"type": "Point", "coordinates": [-77.646164457, 43.0881576879]}, "type": "Feature", "properties": {"collection_times": [{"days": "Mon-Fri", "time": "5:00pm"}, {"days": "Sat", "time": "9:45am"}, {"days": "Sun", "time": "Closed"}], "id": "1462300071", "name": "USPS COLLECTION BOX - BLUE BOX", "address": {"city": "ROCHESTER", "state": "NY", "street": "3340 BRIGHTON HENRIETTA TL RD", "postcode": "14623"}}},
{"geometry": {"type": "Point", "coordinates": [-77.586197539, 43.0957996762]}, "type": "Feature", "properties": {"collection_times": [{"days": "Mon-Fri", "time": "5:00pm"}, {"days": "Sat", "time": "9:45am"}, {"days": "Sun", "time": "Closed"}], "id": "1462300072", "name": "USPS COLLECTION BOX - BLUE BOX", "address": {"city": "ROCHESTER", "state": "NY", "street": "3340 BRIGHTON HENRIETTA TOWN LINE RD", "postcode": "14623"}}},
{"geometry": {"type": "Point", "coordinates": [-77.5756283925, 43.0958258787]}, "type": "Feature", "properties": {"collection_times": [{"days": "Mon-Fri", "time": "6:00pm"}, {"days": "Sat", "time": "9:45am"}, {"days": "Sun", "time": "Closed"}], "id": "1462300074", "name": "USPS COLLECTION BOX - BLUE BOX", "address": {"city": "ROCHESTER", "state": "NY", "street": "3495 WINTON PL", "postcode": "14623"}}},
{"geometry": {"type": "Point", "coordinates": [-77.608102982, 43.0872600728]}, "type": "Feature", "properties": {"collection_times": [{"days": "Mon-Sat", "time": "10:00am"}, {"days": "Sun", "time": "Closed"}], "id": "1462300077", "name": "USPS COLLECTION BOX - BLUE BOX", "address": {"city": "ROCHESTER", "state": "NY", "street": "1225 JEFFERSON RD", "postcode": "14623"}}},
{"geometry": {"type": "Point", "coordinates": [-77.6252166823, 43.098577807]}, "type": "Feature", "properties": {"collection_times": [{"days": "Mon-Fri", "time": "5:00pm"}, {"days": "Sat", "time": "10:45am"}, {"days": "Sun", "time": "Closed"}], "id": "1462300080", "name": "USPS COLLECTION BOX - BLUE BOX", "address": {"city": "ROCHESTER", "state": "NY", "street": "770 W METRO PARK", "postcode": "14623"}}},
{"geometry": {"type": "Point", "coordinates": [-77.6439525534, 43.0665677546]}, "type": "Feature", "properties": {"collection_times": [{"days": "Mon-Fri", "time": "4:00pm"}, {"days": "Sat-Sun", "time": "Closed"}], "id": "1462300087", "name": "USPS COLLECTION BOX - BLUE BOX", "address": {"city": "ROCHESTER", "state": "NY", "street": "75 TOWN CENTRE DR", "postcode": "14623"}}},
{"geometry": {"type": "Point", "coordinates": [-77.6269874341, 43.0870508487]}, "type": "Feature", "properties": {"collection_times": [{"days": "Mon-Fri", "time": "5:00pm"}, {"days": "Sat", "time": "11:45am"}, {"days": "Sun", "time": "Closed"}], "id": "1462300090", "name": "USPS COLLECTION BOX - EXPRESS", "address": {"city": "ROCHESTER", "state": "NY", "street": "56 COMMERCE DR", "postcode": "14623"}}},
{"geometry": {"type": "Point", "coordinates": [-77.646164457, 43.0881576879]}, "type": "Feature", "properties": {"collection_times": [{"days": "Mon-Fri", "time": "3:15pm"}, {"days": "Sat-Sun", "time": "Closed"}], "id": "1462300093", "name": "USPS COLLECTION BOX - BLUE BOX", "address": {"city": "ROCHESTER", "state": "NY", "street": "25 NATHANIEL ROCH.-RIT", "postcode": "14623"}}},
{"geometry": {"type": "Point", "coordinates": [-77.6187898333, 43.1054350544]}, "type": "Feature", "properties": {"collection_times": [{"days": "Mon-Fri", "time": "5:00pm"}, {"days": "Sat", "time": "10:30am"}, {"days": "Sun", "time": "Closed"}], "id": "1462300096", "name": "USPS COLLECTION BOX - BLUE BOX", "address": {"city": "ROCHESTER", "state": "NY", "street": "125 WHITE SPRUCE BLVD", "postcode": "14623"}}},
{"geometry": {"type": "Point", "coordinates": [-77.5791796353, 43.0950037222]}, "type": "Feature", "properties": {"collection_times": [{"days": "Mon-Fri", "time": "6:00pm"}, {"days": "Sat", "time": "9:45am"}, {"days": "Sun", "time": "Closed"}], "id": "1462300098", "name": "USPS COLLECTION BOX - BLUE BOX", "address": {"city": "ROCHESTER", "state": "NY", "street": "3445 WINTON PL", "postcode": "14623"}}},
{"geometry": {"type": "Point", "coordinates": [-77.7255365039, 43.1273420847]}, "type": "Feature", "properties": {"collection_times": [{"days": "Mon-Fri", "time": "5:45pm"}, {"days": "Sat-Sun", "time": "Closed"}], "id": "1462400001", "name": "USPS COLLECTION BOX - EXPRESS", "address": {"city": "ROCHESTER", "state": "NY", "street": "1 AIRPORT WAY", "postcode": "14624"}}},
{"geometry": {"type": "Point", "coordinates": [-77.6707548547, 43.1299069265]}, "type": "Feature", "properties": {"collection_times": [{"days": "Mon-Fri", "time": "5:45pm"}, {"days": "Sat-Sun", "time": "Closed"}], "id": "1462400003", "name": "USPS COLLECTION BOX - BLUE BOX", "address": {"city": "ROCHESTER", "state": "NY", "street": "1 AIRPORT WAY", "postcode": "14624"}}},
{"geometry": {"type": "Point", "coordinates": [-77.7133792321, 43.1465168533]}, "type": "Feature", "properties": {"collection_times": [{"days": "Mon-Sat", "time": "12:00pm"}, {"days": "Sun", "time": "Closed"}], "id": "1462400005", "name": "USPS COLLECTION BOX - BLUE BOX", "address": {"city": "ROCHESTER", "state": "NY", "street": "2345 BUFFALO RD", "postcode": "14624"}}},
{"geometry": {"type": "Point", "coordinates": [-77.6940721589, 43.1498669931]}, "type": "Feature", "properties": {"collection_times": [{"days": "Mon-Fri", "time": "4:15pm"}, {"days": "Sat", "time": "3:00pm"}, {"days": "Sun", "time": "Closed"}], "id": "1462400007", "name": "USPS COLLECTION BOX - BLUE BOX", "address": {"city": "ROCHESTER", "state": "NY", "street": "1605 BUFFALO RD", "postcode": "14624"}}},
{"geometry": {"type": "Point", "coordinates": [-77.7543813106, 43.1425101174]}, "type": "Feature", "properties": {"collection_times": [{"days": "Mon-Fri", "time": "2:00pm"}, {"days": "Sat", "time": "12:30pm"}, {"days": "Sun", "time": "Closed"}], "id": "1462400011", "name": "USPS COLLECTION BOX - BLUE BOX", "address": {"city": "ROCHESTER", "state": "NY", "street": "3 WINDSORSHIRE DR", "postcode": "14624"}}},
{"geometry": {"type": "Point", "coordinates": [-77.7080123106, 43.1478901959]}, "type": "Feature", "properties": {"collection_times": [{"days": "Mon-Sat", "time": "1:00pm"}, {"days": "Sun", "time": "Closed"}], "id": "1462400012", "name": "USPS COLLECTION BOX - BLUE BOX", "address": {"city": "ROCHESTER", "state": "NY", "street": "2125 BUFFALO RD", "postcode": "14624"}}},
{"geometry": {"type": "Point", "coordinates": [-77.7530521269, 43.1037552526]}, "type": "Feature", "properties": {"collection_times": [{"days": "Mon-Fri", "time": "10:30am"}, {"days": "Sat-Sun", "time": "Closed"}], "id": "1462400015", "name": "USPS COLLECTION BOX - BLUE BOX", "address": {"city": "ROCHESTER", "state": "NY", "street": "3235 CHILI AVE", "postcode": "14624"}}},
{"geometry": {"type": "Point", "coordinates": [-77.6669587394, 43.1398780876]}, "type": "Feature", "properties": {"collection_times": [{"days": "Mon-Fri", "time": "12:00pm"}, {"days": "Sat-Sun", "time": "Closed"}], "id": "1462400016", "name": "USPS COLLECTION BOX - BLUE BOX", "address": {"city": "ROCHESTER", "state": "NY", "street": "1160 CHILI AVE", "postcode": "14624"}}},
{"geometry": {"type": "Point", "coordinates": [-77.7255365039, 43.1273420847]}, "type": "Feature", "properties": {"collection_times": [{"days": "Mon-Fri", "time": "4:15pm"}, {"days": "Sat-Sun", "time": "Closed"}], "id": "1462400019", "name": "USPS COLLECTION BOX - EXPRESS", "address": {"city": "ROCHESTER", "state": "NY", "street": "901 ELMGROVE RD", "postcode": "14624"}}},
{"geometry": {"type": "Point", "coordinates": [-77.7324235123, 43.1525088468]}, "type": "Feature", "properties": {"collection_times": [{"days": "Mon-Fri", "time": "4:15pm"}, {"days": "Sat-Sun", "time": "Closed"}], "id": "1462400020", "name": "USPS COLLECTION BOX - BLUE BOX", "address": {"city": "ROCHESTER", "state": "NY", "street": "901 ELMGROVE RD", "postcode": "14624"}}},
{"geometry": {"type": "Point", "coordinates": [-77.7487507856, 43.1061696604]}, "type": "Feature", "properties": {"collection_times": [{"days": "Mon-Fri", "time": "1:30pm"}, {"days": "Sat", "time": "12:00pm"}, {"days": "Sun", "time": "Closed"}], "id": "1462400023", "name": "USPS COLLECTION BOX - BLUE BOX", "address": {"city": "ROCHESTER", "state": "NY", "street": "810 PAUL RD", "postcode": "14624"}}},
{"geometry": {"type": "Point", "coordinates": [-77.6556641574, 43.1188310357]}, "type": "Feature", "properties": {"collection_times": [{"days": "Mon-Fri", "time": "5:30pm"}, {"days": "Sat-Sun", "time": "Closed"}], "id": "1462400025", "name": "USPS COLLECTION BOX - BLUE BOX", "address": {"city": "ROCHESTER", "state": "NY", "street": "1200 SCOTTSVILLE RD", "postcode": "14624"}}},
{"geometry": {"type": "Point", "coordinates": [-77.7518904339, 43.1043861494]}, "type": "Feature", "properties": {"collection_times": [{"days": "Mon-Sat", "time": "11:00am"}, {"days": "Sun", "time": "Closed"}], "id": "1462400030", "name": "USPS COLLECTION BOX - BLUE BOX", "address": {"city": "ROCHESTER", "state": "NY", "street": "3242 CHILI AVE", "postcode": "14624"}}},
{"geometry": {"type": "Point", "coordinates": [-77.6908777621, 43.1333992302]}, "type": "Feature", "properties": {"collection_times": [{"days": "Mon-Fri", "time": "6:00pm"}, {"days": "Sat", "time": "5:00pm"}, {"days": "Sun", "time": "Closed"}], "id": "1462400035", "name": "USPS COLLECTION BOX - BLUE BOX", "address": {"city": "ROCHESTER", "state": "NY", "street": "1485 HOWARD RD", "postcode": "14624"}}},
{"geometry": {"type": "Point", "coordinates": [-77.7255365039, 43.1273420847]}, "type": "Feature", "properties": {"collection_times": [{"days": "Mon-Fri", "time": "6:00pm"}, {"days": "Sat", "time": "5:00pm"}, {"days": "Sun", "time": "Closed"}], "id": "1462400038", "name": "USPS COLLECTION BOX - EXPRESS", "address": {"city": "ROCHESTER", "state": "NY", "street": "1485 HOWARD RD", "postcode": "14624"}}},
{"geometry": {"type": "Point", "coordinates": [-77.6700959466, 43.1388098756]}, "type": "Feature", "properties": {"collection_times": [{"days": "Mon-Fri", "time": "12:00pm"}, {"days": "Sat-Sun", "time": "Closed"}], "id": "1462400042", "name": "USPS COLLECTION BOX - BLUE BOX", "address": {"city": "ROCHESTER", "state": "NY", "street": "1279 CHILI AVE", "postcode": "14624"}}},
{"geometry": {"type": "Point", "coordinates": [-77.7457792952, 43.1073289717]}, "type": "Feature", "properties": {"collection_times": [{"days": "Mon-Fri", "time": "12:30pm"}, {"days": "Sat", "time": "12:15pm"}, {"days": "Sun", "time": "Closed"}], "id": "1462400044", "name": "USPS COLLECTION BOX - BLUE BOX", "address": {"city": "ROCHESTER", "state": "NY", "street": "3175 CHILI AVE", "postcode": "14624"}}},
{"geometry": {"type": "Point", "coordinates": [-77.730458211, 43.1288503914]}, "type": "Feature", "properties": {"collection_times": [{"days": "Mon-Fri", "time": "12:00pm"}, {"days": "Sat-Sun", "time": "Closed"}], "id": "1462400045", "name": "USPS COLLECTION BOX - BLUE BOX", "address": {"city": "ROCHESTER", "state": "NY", "street": "1 WEST VIEW COMMONS BLVD", "postcode": "14624"}}},
{"geometry": {"type": "Point", "coordinates": [-77.7558714869, 43.1553719722]}, "type": "Feature", "properties": {"collection_times": [{"days": "Mon-Fri", "time": "3:00pm"}, {"days": "Sat-Sun", "time": "Closed"}], "id": "1462400048", "name": "USPS COLLECTION BOX - BLUE BOX", "address": {"city": "ROCHESTER", "state": "NY", "street": "19 VANTAGE POINT DR", "postcode": "14624"}}},
{"geometry": {"type": "Point", "coordinates": [-77.7324142248, 43.1615688232]}, "type": "Feature", "properties": {"collection_times": [{"days": "Mon-Fri", "time": "11:00am"}, {"days": "Sat-Sun", "time": "Closed"}], "id": "1462400049", "name": "USPS COLLECTION BOX - BLUE BOX", "address": {"city": "ROCHESTER", "state": "NY", "street": "765 ELMGROVE RD", "postcode": "14624"}}},
{"geometry": {"type": "Point", "coordinates": [-77.7604633648, 43.1000963605]}, "type": "Feature", "properties": {"collection_times": [{"days": "Mon-Fri", "time": "11:30am"}, {"days": "Sat-Sun", "time": "Closed"}], "id": "1462400057", "name": "USPS COLLECTION BOX - BLUE BOX", "address": {"city": "ROCHESTER", "state": "NY", "street": "3333 CHILI AVE", "postcode": "14624"}}},
{"geometry": {"type": "Point", "coordinates": [-77.7978294897, 43.1267176691]}, "type": "Feature", "properties": {"collection_times": [{"days": "Mon-Fri", "time": "1:00pm"}, {"days": "Sat-Sun", "time": "Closed"}], "id": "1462400058", "name": "USPS COLLECTION BOX - BLUE BOX", "address": {"city": "ROCHESTER", "state": "NY", "street": "2301 WESTSIDE DR", "postcode": "14624"}}},
{"geometry": {"type": "Point", "coordinates": [-77.6668661099, 43.1308006129]}, "type": "Feature", "properties": {"collection_times": [{"days": "Mon-Fri", "time": "3:30pm"}, {"days": "Sat-Sun", "time": "Closed"}], "id": "1462400059", "name": "USPS COLLECTION BOX - BLUE BOX", "address": {"city": "ROCHESTER", "state": "NY", "street": "1200 BROOKS AVE", "postcode": "14624"}}},
{"geometry": {"type": "Point", "coordinates": [-77.7274966644, 43.1442727801]}, "type": "Feature", "properties": {"collection_times": [{"days": "Mon-Fri", "time": "4:45pm"}, {"days": "Sat-Sun", "time": "Closed"}], "id": "1462400060", "name": "USPS COLLECTION BOX - BLUE BOX", "address": {"city": "ROCHESTER", "state": "NY", "street": "2735 BUFFALO RD", "postcode": "14624"}}},
{"geometry": {"type": "Point", "coordinates": [-77.6423001617, 43.1723918577]}, "type": "Feature", "properties": {"collection_times": [{"days": "Mon-Fri", "time": "4:30pm"}, {"days": "Sat-Sun", "time": "Closed"}], "id": "1462400061", "name": "USPS COLLECTION BOX - BLUE BOX", "address": {"city": "ROCHESTER", "state": "NY", "street": "100 MILE XING", "postcode": "14624"}}},
{"geometry": {"type": "Point", "coordinates": [-77.6908237535, 43.133323312]}, "type": "Feature", "properties": {"collection_times": [{"days": "Mon-Fri", "time": "6:00pm"}, {"days": "Sat", "time": "3:00pm"}, {"days": "Sun", "time": "Closed"}], "id": "1462400062", "name": "USPS COLLECTION BOX - APC", "address": {"city": "ROCHESTER", "state": "NY", "street": "1485 HOWARD RD", "postcode": "14624"}}},
{"geometry": {"type": "Point", "coordinates": [-77.6556641574, 43.1188310357]}, "type": "Feature", "properties": {"collection_times": [{"days": "Mon-Fri", "time": "5:30pm"}, {"days": "Sat-Sun", "time": "Closed"}], "id": "1462400066", "name": "USPS COLLECTION BOX - BLUE BOX", "address": {"city": "ROCHESTER", "state": "NY", "street": "1200 SCOTTSVILLE RD", "postcode": "14624"}}},
{"geometry": {"type": "Point", "coordinates": [-77.5054280586, 43.1536702062]}, "type": "Feature", "properties": {"collection_times": [{"days": "Mon-Fri", "time": "4:30pm"}, {"days": "Sat-Sun", "time": "Closed"}], "id": "1462500001", "name": "USPS COLLECTION BOX - BLUE BOX", "address": {"city": "ROCHESTER", "state": "NY", "street": "2505 BROWNCROFT BLVD", "postcode": "14625"}}},
{"geometry": {"type": "Point", "coordinates": [-77.50207437, 43.1204846583]}, "type": "Feature", "properties": {"collection_times": [{"days": "Mon-Fri", "time": "5:30pm"}, {"days": "Sat-Sun", "time": "Closed"}], "id": "1462500003", "name": "USPS COLLECTION BOX - BLUE BOX", "address": {"city": "ROCHESTER", "state": "NY", "street": "806 LINDEN AVE", "postcode": "14625"}}},
{"geometry": {"type": "Point", "coordinates": [-77.513563836, 43.1252702497]}, "type": "Feature", "properties": {"collection_times": [{"days": "Mon-Fri", "time": "3:30pm"}, {"days": "Sat-Sun", "time": "Closed"}], "id": "1462500004", "name": "USPS COLLECTION BOX - BLUE BOX", "address": {"city": "ROCHESTER", "state": "NY", "street": "512 LINDEN AVE", "postcode": "14625"}}},
{"geometry": {"type": "Point", "coordinates": [-77.51992, 43.1239]}, "type": "Feature", "properties": {"collection_times": [{"days": "Mon-Fri", "time": "5:30pm"}, {"days": "Sat-Sun", "time": "Closed"}], "id": "1462500005", "name": "USPS COLLECTION BOX - BLUE BOX", "address": {"city": "ROCHESTER", "state": "NY", "street": "90 LINDEN OAKS", "postcode": "14625"}}},
{"geometry": {"type": "Point", "coordinates": [-77.5199891005, 43.1239968635]}, "type": "Feature", "properties": {"collection_times": [{"days": "Mon-Fri", "time": "5:30pm"}, {"days": "Sat-Sun", "time": "Closed"}], "id": "1462500006", "name": "USPS COLLECTION BOX - BLUE BOX", "address": {"city": "ROCHESTER", "state": "NY", "street": "80 LINDEN OAKS", "postcode": "14625"}}},
{"geometry": {"type": "Point", "coordinates": [-77.5058399908, 43.1476419504]}, "type": "Feature", "properties": {"collection_times": [{"days": "Mon-Fri", "time": "5:30pm"}, {"days": "Sat-Sun", "time": "Closed"}], "id": "1462500007", "name": "USPS COLLECTION BOX - EXPRESS", "address": {"city": "ROCHESTER", "state": "NY", "street": "80 LINDEN OAKS", "postcode": "14625"}}},
{"geometry": {"type": "Point", "coordinates": [-77.4918162101, 43.1361951356]}, "type": "Feature", "properties": {"collection_times": [{"days": "Mon-Fri", "time": "3:15pm"}, {"days": "Sat-Sun", "time": "Closed"}], "id": "1462500008", "name": "USPS COLLECTION BOX - BLUE BOX", "address": {"city": "ROCHESTER", "state": "NY", "street": "625 PANORAMA TRL", "postcode": "14625"}}},
{"geometry": {"type": "Point", "coordinates": [-77.4967179318, 43.1350113944]}, "type": "Feature", "properties": {"collection_times": [{"days": "Mon-Fri", "time": "3:00pm"}, {"days": "Sat", "time": "4:30pm"}, {"days": "Sun", "time": "Closed"}], "id": "1462500009", "name": "USPS COLLECTION BOX - BLUE BOX", "address": {"city": "ROCHESTER", "state": "NY", "street": "1601 PENFIELD RD", "postcode": "14625"}}},
{"geometry": {"type": "Point", "coordinates": [-77.494920603, 43.1345956611]}, "type": "Feature", "properties": {"collection_times": [{"days": "Mon-Sat", "time": "5:00pm"}, {"days": "Sun", "time": "Closed"}], "id": "1462500013", "name": "USPS COLLECTION BOX - BLUE BOX", "address": {"city": "ROCHESTER", "state": "NY", "street": "1614 PENFIELD RD", "postcode": "14625"}}},
{"geometry": {"type": "Point", "coordinates": [-77.5131445, 43.1211163584]}, "type": "Feature", "properties": {"collection_times": [{"days": "Mon-Fri", "time": "5:30pm"}, {"days": "Sat-Sun", "time": "Closed"}], "id": "1462500014", "name": "USPS COLLECTION BOX - BLUE BOX", "address": {"city": "ROCHESTER", "state": "NY", "street": "300 LINDEN OAKS", "postcode": "14625"}}},
{"geometry": {"type": "Point", "coordinates": [-77.494920603, 43.1345956611]}, "type": "Feature", "properties": {"collection_times": [{"days": "Mon-Sat", "time": "5:00pm"}, {"days": "Sun", "time": "Closed"}], "id": "1462500015", "name": "USPS COLLECTION BOX - BLUE BOX", "address": {"city": "ROCHESTER", "state": "NY", "street": "1614 PENFIELD RD", "postcode": "14625"}}},
{"geometry": {"type": "Point", "coordinates": [-77.5058399908, 43.1476419504]}, "type": "Feature", "properties": {"collection_times": [{"days": "Mon-Sat", "time": "5:00pm"}, {"days": "Sun", "time": "Closed"}], "id": "1462500017", "name": "USPS COLLECTION BOX - EXPRESS", "address": {"city": "ROCHESTER", "state": "NY", "street": "1614 PENFIELD RD", "postcode": "14625"}}},
{"geometry": {"type": "Point", "coordinates": [-77.5131445, 43.1211163584]}, "type": "Feature", "properties": {"collection_times": [{"days": "Mon-Fri", "time": "5:30pm"}, {"days": "Sat-Sun", "time": "Closed"}], "id": "1462500020", "name": "USPS COLLECTION BOX - BLUE BOX", "address": {"city": "ROCHESTER", "state": "NY", "street": "300 LINDEN OAKS", "postcode": "14625"}}},
{"geometry": {"type": "Point", "coordinates": [-77.5184290733, 43.1230764779]}, "type": "Feature", "properties": {"collection_times": [{"days": "Mon-Fri", "time": "5:30pm"}, {"days": "Sat-Sun", "time": "Closed"}], "id": "1462500022", "name": "USPS COLLECTION BOX - BLUE BOX", "address": {"city": "ROCHESTER", "state": "NY", "street": "150 LINDEN OAKS", "postcode": "14625"}}},
{"geometry": {"type": "Point", "coordinates": [-77.5128168203, 43.1207165183]}, "type": "Feature", "properties": {"collection_times": [{"days": "Mon-Fri", "time": "5:30pm"}, {"days": "Sat-Sun", "time": "Closed"}], "id": "1462500024", "name": "USPS COLLECTION BOX - BLUE BOX", "address": {"city": "ROCHESTER", "state": "NY", "street": "350 LINDEN OAKS", "postcode": "14625"}}},
{"geometry": {"type": "Point", "coordinates": [-77.5100451475, 43.1200386828]}, "type": "Feature", "properties": {"collection_times": [{"days": "Mon-Fri", "time": "5:30pm"}, {"days": "Sat-Sun", "time": "Closed"}], "id": "1462500025", "name": "USPS COLLECTION BOX - BLUE BOX", "address": {"city": "ROCHESTER", "state": "NY", "street": "360 LINDEN OAKS", "postcode": "14625"}}},
{"geometry": {"type": "Point", "coordinates": [-77.5084576165, 43.1198730685]}, "type": "Feature", "properties": {"collection_times": [{"days": "Mon-Fri", "time": "5:30pm"}, {"days": "Sat-Sun", "time": "Closed"}], "id": "1462500028", "name": "USPS COLLECTION BOX - BLUE BOX", "address": {"city": "ROCHESTER", "state": "NY", "street": "500 LINDEN OAKS", "postcode": "14625"}}},
{"geometry": {"type": "Point", "coordinates": [-77.5168820956, 43.1249924579]}, "type": "Feature", "properties": {"collection_times": [{"days": "Mon-Fri", "time": "3:30pm"}, {"days": "Sat-Sun", "time": "Closed"}], "id": "1462500032", "name": "USPS COLLECTION BOX - BLUE BOX", "address": {"city": "ROCHESTER", "state": "NY", "street": "30 HAGEN DR", "postcode": "14625"}}},
{"geometry": {"type": "Point", "coordinates": [-77.494920603, 43.1345956611]}, "type": "Feature", "properties": {"collection_times": [{"days": "Mon-Fri", "time": "5:00pm"}, {"days": "Sat", "time": "3:00pm"}, {"days": "Sun", "time": "Closed"}], "id": "1462500034", "name": "USPS COLLECTION BOX - APC", "address": {"city": "ROCHESTER", "state": "NY", "street": "1614 PENFIELD RD", "postcode": "14625"}}},
{"geometry": {"type": "Point", "coordinates": [-77.516583535, 43.1259849654]}, "type": "Feature", "properties": {"collection_times": [{"days": "Mon-Fri", "time": "3:30pm"}, {"days": "Sat-Sun", "time": "Closed"}], "id": "1462500035", "name": "USPS COLLECTION BOX - BLUE BOX", "address": {"city": "ROCHESTER", "state": "NY", "street": "10 HAGEN DR", "postcode": "14625"}}},
{"geometry": {"type": "Point", "coordinates": [-77.5135185448, 43.1216206052]}, "type": "Feature", "properties": {"collection_times": [{"days": "Mon-Fri", "time": "4:00pm"}, {"days": "Sat-Sun", "time": "Closed"}], "id": "1462500042", "name": "USPS COLLECTION BOX - BLUE BOX", "address": {"city": "ROCHESTER", "state": "NY", "street": "290 LINDEN OAKS", "postcode": "14625"}}},
{"geometry": {"type": "Point", "coordinates": [-77.6778422607, 43.2228529274]}, "type": "Feature", "properties": {"collection_times": [{"days": "Mon-Fri", "time": "12:00pm"}, {"days": "Sat", "time": "10:30am"}, {"days": "Sun", "time": "Closed"}], "id": "1462600001", "name": "USPS COLLECTION BOX - BLUE BOX", "address": {"city": "ROCHESTER", "state": "NY", "street": "761 FETZNER RD", "postcode": "14626"}}},
{"geometry": {"type": "Point", "coordinates": [-77.701540484, 43.1912963881]}, "type": "Feature", "properties": {"collection_times": [{"days": "Mon-Sat", "time": "9:00am"}, {"days": "Sun", "time": "Closed"}], "id": "1462600003", "name": "USPS COLLECTION BOX - BLUE BOX", "address": {"city": "ROCHESTER", "state": "NY", "street": "1561 LONG POND RD", "postcode": "14626"}}},
{"geometry": {"type": "Point", "coordinates": [-77.7015360099, 43.1915880182]}, "type": "Feature", "properties": {"collection_times": [{"days": "Mon-Sat", "time": "9:00am"}, {"days": "Sun", "time": "Closed"}], "id": "1462600004", "name": "USPS COLLECTION BOX - BLUE BOX", "address": {"city": "ROCHESTER", "state": "NY", "street": "1555 LONG POND RD", "postcode": "14626"}}},
{"geometry": {"type": "Point", "coordinates": [-77.6928277464, 43.2078054846]}, "type": "Feature", "properties": {"collection_times": [{"days": "Mon-Sat", "time": "12:00pm"}, {"days": "Sun", "time": "Closed"}], "id": "1462600005", "name": "USPS COLLECTION BOX - BLUE BOX", "address": {"city": "ROCHESTER", "state": "NY", "street": "271 GREECE RIDGE CENTER DR", "postcode": "14626"}}},
{"geometry": {"type": "Point", "coordinates": [-77.7045892324, 43.2138120392]}, "type": "Feature", "properties": {"collection_times": [{"days": "Mon-Fri", "time": "4:30pm"}, {"days": "Sat", "time": "3:00pm"}, {"days": "Sun", "time": "Closed"}], "id": "1462600007", "name": "USPS COLLECTION BOX - EXPRESS", "address": {"city": "ROCHESTER", "state": "NY", "street": "271 GREECE RIDGE CENTER DR", "postcode": "14626"}}},
{"geometry": {"type": "Point", "coordinates": [-77.6968142577, 43.2227136061]}, "type": "Feature", "properties": {"collection_times": [{"days": "Mon-Sat", "time": "3:00pm"}, {"days": "Sun", "time": "Closed"}], "id": "1462600010", "name": "USPS COLLECTION BOX - BLUE BOX", "address": {"city": "ROCHESTER", "state": "NY", "street": "1100 LONG POND RD", "postcode": "14626"}}},
{"geometry": {"type": "Point", "coordinates": [-77.7291666711, 43.215447625]}, "type": "Feature", "properties": {"collection_times": [{"days": "Mon-Sat", "time": "10:00am"}, {"days": "Sun", "time": "Closed"}], "id": "1462600016", "name": "USPS COLLECTION BOX - BLUE BOX", "address": {"city": "ROCHESTER", "state": "NY", "street": "500 ELMRIDGE CENTER DR", "postcode": "14626"}}},
{"geometry": {"type": "Point", "coordinates": [-77.7056474123, 43.2103363065]}, "type": "Feature", "properties": {"collection_times": [{"days": "Mon-Fri", "time": "5:00pm"}, {"days": "Sat", "time": "12:00pm"}, {"days": "Sun", "time": "Closed"}], "id": "1462600019", "name": "USPS COLLECTION BOX - BLUE BOX", "address": {"city": "ROCHESTER", "state": "NY", "street": "2833 W RIDGE RD", "postcode": "14626"}}},
{"geometry": {"type": "Point", "coordinates": [-77.7045892324, 43.2138120392]}, "type": "Feature", "properties": {"collection_times": [{"days": "Mon-Fri", "time": "5:00pm"}, {"days": "Sat", "time": "12:00pm"}, {"days": "Sun", "time": "Closed"}], "id": "1462600021", "name": "USPS COLLECTION BOX - EXPRESS", "address": {"city": "ROCHESTER", "state": "NY", "street": "2833 W RIDGE RD", "postcode": "14626"}}},
{"geometry": {"type": "Point", "coordinates": [-77.7039263629, 43.1863950788]}, "type": "Feature", "properties": {"collection_times": [{"days": "Mon-Sat", "time": "11:00am"}, {"days": "Sun", "time": "Closed"}], "id": "1462600023", "name": "USPS COLLECTION BOX - BLUE BOX", "address": {"city": "ROCHESTER", "state": "NY", "street": "45 ERIE CANAL DR", "postcode": "14626"}}},
{"geometry": {"type": "Point", "coordinates": [-77.7056474123, 43.2103363065]}, "type": "Feature", "properties": {"collection_times": [{"days": "Mon-Fri", "time": "10:30am"}, {"days": "Sat", "time": "10:00am"}, {"days": "Sun", "time": "Closed"}], "id": "1462600025", "name": "USPS COLLECTION BOX - BLUE BOX", "address": {"city": "ROCHESTER", "state": "NY", "street": "2833 W RIDGE RD", "postcode": "14626"}}},
{"geometry": {"type": "Point", "coordinates": [-77.6949882098, 43.1825424596]}, "type": "Feature", "properties": {"collection_times": [{"days": "Mon-Fri", "time": "12:00pm"}, {"days": "Sat-Sun", "time": "Closed"}], "id": "1462600030", "name": "USPS COLLECTION BOX - BLUE BOX", "address": {"city": "ROCHESTER", "state": "NY", "street": "105 CANAL LANDING BLVD", "postcode": "14626"}}},
{"geometry": {"type": "Point", "coordinates": [-77.7045892324, 43.2138120392]}, "type": "Feature", "properties": {"collection_times": [{"days": "Mon-Fri", "time": "5:00pm"}, {"days": "Sat", "time": "3:00pm"}, {"days": "Sun", "time": "Closed"}], "id": "1462600035", "name": "USPS COLLECTION BOX - EXPRESS", "address": {"city": "ROCHESTER", "state": "NY", "street": "45 ERIE CANAL DR", "postcode": "14626"}}},
{"geometry": {"type": "Point", "coordinates": [-77.6795162036, 43.2073484896]}, "type": "Feature", "properties": {"collection_times": [{"days": "Mon-Sat", "time": "12:30pm"}, {"days": "Sun", "time": "Closed"}], "id": "1462600036", "name": "USPS COLLECTION BOX - BLUE BOX", "address": {"city": "ROCHESTER", "state": "NY", "street": "1940 W RIDGE RD", "postcode": "14626"}}},
{"geometry": {"type": "Point", "coordinates": [-77.7056474123, 43.2103363065]}, "type": "Feature", "properties": {"collection_times": [{"days": "Mon-Fri", "time": "5:00pm"}, {"days": "Sat", "time": "12:00pm"}, {"days": "Sun", "time": "Closed"}], "id": "1462600039", "name": "USPS COLLECTION BOX - BLUE BOX", "address": {"city": "ROCHESTER", "state": "NY", "street": "2833 W RIDGE RD", "postcode": "14626"}}},
{"geometry": {"type": "Point", "coordinates": [-77.7056474123, 43.2103363065]}, "type": "Feature", "properties": {"collection_times": [{"days": "Mon-Fri", "time": "5:00pm"}, {"days": "Sat", "time": "12:00pm"}, {"days": "Sun", "time": "Closed"}], "id": "1462600040", "name": "USPS COLLECTION BOX - BLUE BOX", "address": {"city": "ROCHESTER", "state": "NY", "street": "2833 W RIDGE RD", "postcode": "14626"}}},
{"geometry": {"type": "Point", "coordinates": [-77.7056474123, 43.2103363065]}, "type": "Feature", "properties": {"collection_times": [{"days": "Mon-Fri", "time": "5:00pm"}, {"days": "Sat", "time": "12:00pm"}, {"days": "Sun", "time": "Closed"}], "id": "1462600041", "name": "USPS COLLECTION BOX - APC", "address": {"city": "ROCHESTER", "state": "NY", "street": "2833 W RIDGE RD", "postcode": "14626"}}},
{"geometry": {"type": "Point", "coordinates": [-77.5962059637, 43.0870778971]}, "type": "Feature", "properties": {"collection_times": [{"days": "Mon-Fri", "time": "7:00pm"}, {"days": "Sat", "time": "5:00pm"}, {"days": "Sun", "time": "Closed"}], "id": "1469200002", "name": "USPS COLLECTION BOX - BLUE BOX", "address": {"city": "ROCHESTER", "state": "NY", "street": "1335 JEFFERSON RD", "postcode": "14692"}}},
{"geometry": {"type": "Point", "coordinates": [-77.5962059637, 43.0870778971]}, "type": "Feature", "properties": {"collection_times": [{"days": "Mon-Fri", "time": "7:00pm"}, {"days": "Sat", "time": "5:00pm"}, {"days": "Sun", "time": "Closed"}], "id": "1469200003", "name": "USPS COLLECTION BOX - BLUE BOX", "address": {"city": "ROCHESTER", "state": "NY", "street": "1335 JEFFERSON RD", "postcode": "14692"}}},
{"geometry": {"type": "Point", "coordinates": [-77.5962059637, 43.0870778971]}, "type": "Feature", "properties": {"collection_times": [{"days": "Mon-Fri", "time": "7:00pm"}, {"days": "Sat", "time": "5:00pm"}, {"days": "Sun", "time": "Closed"}], "id": "1469200004", "name": "USPS COLLECTION BOX - BLUE BOX", "address": {"city": "ROCHESTER", "state": "NY", "street": "1335 JEFFERSON RD", "postcode": "14692"}}},
{"geometry": {"type": "Point", "coordinates": [-77.5962059637, 43.0870778971]}, "type": "Feature", "properties": {"collection_times": [{"days": "Mon-Fri", "time": "7:00pm"}, {"days": "Sat", "time": "5:00pm"}, {"days": "Sun", "time": "Closed"}], "id": "1469200005", "name": "USPS COLLECTION BOX - BLUE BOX", "address": {"city": "ROCHESTER", "state": "NY", "street": "1335 JEFFERSON RD", "postcode": "14692"}}},
{"geometry": {"type": "Point", "coordinates": [-77.5962059637, 43.0870778971]}, "type": "Feature", "properties": {"collection_times": [{"days": "Mon-Fri", "time": "7:00pm"}, {"days": "Sat", "time": "5:00pm"}, {"days": "Sun", "time": "Closed"}], "id": "1469200006", "name": "USPS COLLECTION BOX - BLUE BOX", "address": {"city": "ROCHESTER", "state": "NY", "street": "1335 JEFFERSON RD", "postcode": "14692"}}},
{"geometry": {"type": "Point", "coordinates": [-77.5955165593, 43.0870204337]}, "type": "Feature", "properties": {"collection_times": [{"days": "Mon-Fri", "time": "7:00pm"}, {"days": "Sat", "time": "5:00pm"}, {"days": "Sun", "time": "Closed"}], "id": "1469200008", "name": "USPS COLLECTION BOX - EXPRESS", "address": {"city": "ROCHESTER", "state": "NY", "street": "1335 JEFFERSON RD", "postcode": "14692"}}},
{"geometry": {"type": "Point", "coordinates": [-77.5962059637, 43.0870778971]}, "type": "Feature", "properties": {"collection_times": [{"days": "Mon-Fri", "time": "7:00pm"}, {"days": "Sat", "time": "2:00pm"}, {"days": "Sun", "time": "Closed"}], "id": "1469200014", "name": "USPS COLLECTION BOX - APC", "address": {"city": "ROCHESTER", "state": "NY", "street": "1335 JEFFERSON RD", "postcode": "14692"}}},
{"geometry": {"type": "Point", "coordinates": [-75.6107001075, 42.9370820155]}, "type": "Feature", "properties": {"collection_times": [{"days": "Mon-Fri", "time": "7:00pm"}, {"days": "Sat", "time": "2:00pm"}, {"days": "Sun", "time": "Closed"}], "id": "1469200051", "name": "USPS COLLECTION BOX - APC", "address": {"city": "ROCHESTER", "state": "NY", "street": "1335 JEFFERSON RD", "postcode": "14692"}}},
{"geometry": {"type": "Point", "coordinates": [-75.6107001075, 42.9370820155]}, "type": "Feature", "properties": {"collection_times": [{"days": "Mon-Fri", "time": "7:00pm"}, {"days": "Sat", "time": "2:00pm"}, {"days": "Sun", "time": "Closed"}], "id": "1469200052", "name": "USPS COLLECTION BOX - APC", "address": {"city": "ROCHESTER", "state": "NY", "street": "1335 JEFFERSON RD", "postcode": "14692"}}}
]}
