{"type": "FeatureCollection", "features": [
{"geometry": {"type": "Point", "coordinates": [-79.237173125, 42.0961520137]}, "type": "Feature", "properties": {"collection_times": [{"days": "Mon-Fri", "time": "5:00pm"}, {"days": "Sat", "time": "3:00pm"}, {"days": "Sun", "time": "Closed"}], "id": "1470100002", "name": "USPS COLLECTION BOX - EXPRESS", "address": {"city": "JAMESTOWN", "state": "NY", "street": "300 E 2ND ST", "postcode": "14701"}}},
{"geometry": {"type": "Point", "coordinates": [-79.2434294153, 42.0948601528]}, "type": "Feature", "properties": {"collection_times": [{"days": "Mon-Sat", "time": "2:00pm"}, {"days": "Sun", "time": "Closed"}], "id": "1470100031", "name": "USPS COLLECTION BOX - BLUE BOX", "address": {"city": "JAMESTOWN", "state": "NY", "street": "111 W 2ND ST", "postcode": "14701"}}},
{"geometry": {"type": "Point", "coordinates": [-79.2490471248, 42.0966945417]}, "type": "Feature", "properties": {"collection_times": [{"days": "Mon-Sat", "time": "2:00pm"}, {"days": "Sun", "time": "Closed"}], "id": "1470100039", "name": "USPS COLLECTION BOX - BLUE BOX", "address": {"city": "JAMESTOWN", "state": "NY", "street": "100 MURRAY AVE", "postcode": "14701"}}},
{"geometry": {"type": "Point", "coordinates": [-79.2498249174, 42.0950028969]}, "type": "Feature", "properties": {"collection_times": [{"days": "Mon-Sat", "time": "2:00pm"}, {"days": "Sun", "time": "Closed"}], "id": "1470100040", "name": "USPS COLLECTION BOX - BLUE BOX", "address": {"city": "JAMESTOWN", "state": "NY", "street": "560 W 3RD ST", "postcode": "14701"}}},
{"geometry": {"type": "Point", "coordinates": [-79.2416582604, 42.0973479389]}, "type": "Feature", "properties": {"collection_times": [{"days": "Mon-Sat", "time": "2:00pm"}, {"days": "Sun", "time": "Closed"}], "id": "1470100041", "name": "USPS COLLECTION BOX - BLUE BOX", "address": {"city": "JAMESTOWN", "state": "NY", "street": "415 N MAIN ST", "postcode": "14701"}}},
{"geometry": {"type": "Point", "coordinates": [-79.240541946, 42.0983432824]}, "type": "Feature", "properties": {"collection_times": [{"days": "Mon-Sat", "time": "2:00pm"}, {"days": "Sun", "time": "Closed"}], "id": "1470100042", "name": "USPS COLLECTION BOX - BLUE BOX", "address": {"city": "JAMESTOWN", "state": "NY", "street": "500 PINE ST", "postcode": "14701"}}},
{"geometry": {"type": "Point", "coordinates": [-79.2396271231, 42.0993039109]}, "type": "Feature", "properties": {"collection_times": [{"days": "Mon-Sat", "time": "2:00pm"}, {"days": "Sun", "time": "Closed"}], "id": "1470100043", "name": "USPS COLLECTION BOX - BLUE BOX", "address": {"city": "JAMESTOWN", "state": "NY", "street": "200 E 6TH ST", "postcode": "14701"}}},
{"geometry": {"type": "Point", "coordinates": [-79.2408608329, 42.0972789246]}, "type": "Feature", "properties": {"collection_times": [{"days": "Mon-Sat", "time": "2:00pm"}, {"days": "Sun", "time": "Closed"}], "id": "1470100045", "name": "USPS COLLECTION BOX - BLUE BOX", "address": {"city": "JAMESTOWN", "state": "NY", "street": "18 E 4TH ST", "postcode": "14701"}}},
{"geometry": {"type": "Point", "coordinates": [-79.242667245, 42.0970131332]}, "type": "Feature", "properties": {"collection_times": [{"days": "Mon-Sat", "time": "2:00pm"}, {"days": "Sun", "time": "Closed"}], "id": "1470100046", "name": "USPS COLLECTION BOX - BLUE BOX", "address": {"city": "JAMESTOWN", "state": "NY", "street": "101 W 4TH ST", "postcode": "14701"}}},
{"geometry": {"type": "Point", "coordinates": [-79.2430406613, 42.09612333]}, "type": "Feature", "properties": {"collection_times": [{"days": "Mon-Sat", "time": "2:00pm"}, {"days": "Sun", "time": "Closed"}], "id": "1470100047", "name": "USPS COLLECTION BOX - BLUE BOX", "address": {"city": "JAMESTOWN", "state": "NY", "street": "110 W 3RD ST", "postcode": "14701"}}},
{"geometry": {"type": "Point", "coordinates": [-79.241313799, 42.0963101261]}, "type": "Feature", "properties": {"collection_times": [{"days": "Mon-Sat", "time": "2:00pm"}, {"days": "Sun", "time": "Closed"}], "id": "1470100048", "name": "USPS COLLECTION BOX - BLUE BOX", "address": {"city": "JAMESTOWN", "state": "NY", "street": "1 W 3RD ST", "postcode": "14701"}}},
{"geometry": {"type": "Point", "coordinates": [-79.2394518369, 42.096724249]}, "type": "Feature", "properties": {"collection_times": [{"days": "Mon-Sat", "time": "2:00pm"}, {"days": "Sun", "time": "Closed"}], "id": "1470100049", "name": "USPS COLLECTION BOX - BLUE BOX", "address": {"city": "JAMESTOWN", "state": "NY", "street": "121 E 3RD ST", "postcode": "14701"}}},
{"geometry": {"type": "Point", "coordinates": [-79.2374244396, 42.0960662671]}, "type": "Feature", "properties": {"collection_times": [{"days": "Mon-Sat", "time": "5:00pm"}, {"days": "Sun", "time": "Closed"}], "id": "1470100053", "name": "USPS COLLECTION BOX - BLUE BOX", "address": {"city": "JAMESTOWN", "state": "NY", "street": "300 E 2ND ST", "postcode": "14701"}}},
{"geometry": {"type": "Point", "coordinates": [-79.2374244396, 42.0960662671]}, "type": "Feature", "properties": {"collection_times": [{"days": "Mon-Sat", "time": "5:00pm"}, {"days": "Sun", "time": "Closed"}], "id": "1470100057", "name": "USPS COLLECTION BOX - BLUE BOX", "address": {"city": "JAMESTOWN", "state": "NY", "street": "300 E 2ND ST", "postcode": "14701"}}},
{"geometry": {"type": "Point", "coordinates": [-79.2911968871, 42.0974250737]}, "type": "Feature", "properties": {"collection_times": [{"days": "Mon-Sat", "time": "9:00am"}, {"days": "Sun", "time": "Closed"}], "id": "1470100065", "name": "USPS COLLECTION BOX - BLUE BOX", "address": {"city": "JAMESTOWN", "state": "NY", "street": "945 FAIRMOUNT AVE", "postcode": "14701"}}},
{"geometry": {"type": "Point", "coordinates": [-79.254200585, 42.0941728584]}, "type": "Feature", "properties": {"collection_times": [{"days": "Mon-Sat", "time": "2:00pm"}, {"days": "Sun", "time": "Closed"}], "id": "1470100069", "name": "USPS COLLECTION BOX - BLUE BOX", "address": {"city": "JAMESTOWN", "state": "NY", "street": "607 W 3RD ST", "postcode": "14701"}}},
{"geometry": {"type": "Point", "coordinates": [-79.2454737929, 42.1105605082]}, "type": "Feature", "properties": {"collection_times": [{"days": "Mon-Sat", "time": "10:00am"}, {"days": "Sun", "time": "Closed"}], "id": "1470100072", "name": "USPS COLLECTION BOX - BLUE BOX", "address": {"city": "JAMESTOWN", "state": "NY", "street": "2000 WASHINGTON ST", "postcode": "14701"}}},
{"geometry": {"type": "Point", "coordinates": [-79.2566242686, 42.0792568297]}, "type": "Feature", "properties": {"collection_times": [{"days": "Mon-Sat", "time": "2:00pm"}, {"days": "Sun", "time": "Closed"}], "id": "1470100075", "name": "USPS COLLECTION BOX - BLUE BOX", "address": {"city": "JAMESTOWN", "state": "NY", "street": "26 E 2ND ST", "postcode": "14701"}}},
{"geometry": {"type": "Point", "coordinates": [-79.2566242686, 42.0792568297]}, "type": "Feature", "properties": {"collection_times": [{"days": "Mon-Fri", "time": "5:00pm"}, {"days": "Sat", "time": "2:00pm"}, {"days": "Sun", "time": "Closed"}], "id": "1470100084", "name": "USPS COLLECTION BOX - BLUE BOX", "address": {"city": "JAMESTOWN", "state": "NY", "street": "752 FOOTE AVE", "postcode": "14701"}}},
{"geometry": {"type": "Point", "coordinates": [-79.2387411384, 42.0930248007]}, "type": "Feature", "properties": {"collection_times": [{"days": "Mon-Sat", "time": "2:00pm"}, {"days": "Sun", "time": "Closed"}], "id": "1470100089", "name": "USPS COLLECTION BOX - BLUE BOX", "address": {"city": "JAMESTOWN", "state": "NY", "street": "15 S MAIN ST", "postcode": "14701"}}},
{"geometry": {"type": "Point", "coordinates": [-79.235302689, 42.0902816636]}, "type": "Feature", "properties": {"collection_times": [{"days": "Mon-Fri", "time": "2:00pm"}, {"days": "Sat-Sun", "time": "Closed"}], "id": "1470100090", "name": "USPS COLLECTION BOX - BLUE BOX", "address": {"city": "JAMESTOWN", "state": "NY", "street": "320 PRATHER AVE", "postcode": "14701"}}},
{"geometry": {"type": "Point", "coordinates": [-78.4938800436, 42.0905825869]}, "type": "Feature", "properties": {"collection_times": [{"days": "Mon-Fri", "time": "4:45pm"}, {"days": "Sat", "time": "12:00pm"}, {"days": "Sun", "time": "Closed"}], "id": "1470600004", "name": "USPS COLLECTION BOX - BLUE BOX", "address": {"city": "ALLEGANY", "state": "NY", "street": "21 N 5TH ST", "postcode": "14706"}}},
{"geometry": {"type": "Point", "coordinates": [-77.9488101348, 42.1237757073]}, "type": "Feature", "properties": {"collection_times": [{"days": "Mon-Fri", "time": "4:30pm"}, {"days": "Sat", "time": "11:45am"}, {"days": "Sun", "time": "Closed"}], "id": "1470700001", "name": "USPS COLLECTION BOX - BLUE BOX", "address": {"city": "ALLENTOWN", "state": "NY", "street": "5840 MAIN ST", "postcode": "14707"}}},
{"geometry": {"type": "Point", "coordinates": [-78.0167928838, 42.306092063]}, "type": "Feature", "properties": {"collection_times": [{"days": "Mon-Fri", "time": "3:30pm"}, {"days": "Sat", "time": "12:00pm"}, {"days": "Sun", "time": "Closed"}], "id": "1470900001", "name": "USPS COLLECTION BOX - BLUE BOX", "address": {"city": "ANGELICA", "state": "NY", "street": "1 W MAIN ST", "postcode": "14709"}}},
{"geometry": {"type": "Point", "coordinates": [-79.3751739611, 42.094963336]}, "type": "Feature", "properties": {"collection_times": [{"days": "Mon-Fri", "time": "4:45pm"}, {"days": "Sat", "time": "11:45am"}, {"days": "Sun", "time": "Closed"}], "id": "1471000001", "name": "USPS COLLECTION BOX - BLUE BOX", "address": {"city": "ASHVILLE", "state": "NY", "street": "2181 N MAPLE AVE", "postcode": "14710"}}},
{"geometry": {"type": "Point", "coordinates": [-78.112009336, 42.3426765194]}, "type": "Feature", "properties": {"collection_times": [{"days": "Mon-Fri", "time": "4:45pm"}, {"days": "Sat", "time": "12:00pm"}, {"days": "Sun", "time": "Closed"}], "id": "1471100001", "name": "USPS COLLECTION BOX - BLUE BOX", "address": {"city": "BELFAST", "state": "NY", "street": "53 S MAIN ST", "postcode": "14711"}}},
{"geometry": {"type": "Point", "coordinates": [-79.3914298519, 42.15875478]}, "type": "Feature", "properties": {"collection_times": [{"days": "Mon-Fri", "time": "4:00pm"}, {"days": "Sat", "time": "12:00pm"}, {"days": "Sun", "time": "Closed"}], "id": "1471200001", "name": "USPS COLLECTION BOX - BLUE BOX", "address": {"city": "BEMUS POINT", "state": "NY", "street": "29 MAIN ST", "postcode": "14712"}}},
{"geometry": {"type": "Point", "coordinates": [-78.2268258202, 42.275237013]}, "type": "Feature", "properties": {"collection_times": [{"days": "Mon-Fri", "time": "12:00pm"}, {"days": "Sat", "time": "11:55am"}, {"days": "Sun", "time": "Closed"}], "id": "1471400001", "name": "USPS COLLECTION BOX - BLUE BOX", "address": {"city": "BLACK CREEK", "state": "NY", "street": "6391 ROUTE 305", "postcode": "14714"}}},
{"geometry": {"type": "Point", "coordinates": [-78.1675337402, 42.0673530738]}, "type": "Feature", "properties": {"collection_times": [{"days": "Mon-Fri", "time": "4:30pm"}, {"days": "Sat", "time": "12:00pm"}, {"days": "Sun", "time": "Closed"}], "id": "1471500001", "name": "USPS COLLECTION BOX - BLUE BOX", "address": {"city": "BOLIVAR", "state": "NY", "street": "273 MAIN ST", "postcode": "14715"}}},
{"geometry": {"type": "Point", "coordinates": [-78.1689284488, 42.0629749427]}, "type": "Feature", "properties": {"collection_times": [{"days": "Mon-Sat", "time": "1:00pm"}, {"days": "Sun", "time": "Closed"}], "id": "1471500005", "name": "USPS COLLECTION BOX - BLUE BOX", "address": {"city": "BOLIVAR", "state": "NY", "street": "500 S MAIN ST", "postcode": "14715"}}},
{"geometry": {"type": "Point", "coordinates": [-78.0673274604, 42.0816957697]}, "type": "Feature", "properties": {"collection_times": [{"days": "Mon-Fri", "time": "9:30am"}, {"days": "Sat-Sun", "time": "Closed"}], "id": "1471500008", "name": "USPS COLLECTION BOX - BLUE BOX", "address": {"city": "BOLIVAR", "state": "NY", "street": "5920 ROUTE 417 E", "postcode": "14715"}}},
{"geometry": {"type": "Point", "coordinates": [-79.4398700839, 42.3891531291]}, "type": "Feature", "properties": {"collection_times": [{"days": "Mon-Fri", "time": "4:30pm"}, {"days": "Sat", "time": "11:30am"}, {"days": "Sun", "time": "Closed"}], "id": "1471600001", "name": "USPS COLLECTION BOX - BLUE BOX", "address": {"city": "BROCTON", "state": "NY", "street": "42 E MAIN ST", "postcode": "14716"}}},
{"geometry": {"type": "Point", "coordinates": [-78.1518284803, 42.3784347728]}, "type": "Feature", "properties": {"collection_times": [{"days": "Mon-Sat", "time": "11:00am"}, {"days": "Sun", "time": "Closed"}], "id": "1471700001", "name": "USPS COLLECTION BOX - BLUE BOX", "address": {"city": "CANEADEA", "state": "NY", "street": "8908 ROUTE 19", "postcode": "14717"}}},
{"geometry": {"type": "Point", "coordinates": [-79.3101478897, 42.3442459128]}, "type": "Feature", "properties": {"collection_times": [{"days": "Mon-Fri", "time": "4:45pm"}, {"days": "Sat", "time": "12:00pm"}, {"days": "Sun", "time": "Closed"}], "id": "1471800001", "name": "USPS COLLECTION BOX - BLUE BOX", "address": {"city": "CASSADAGA", "state": "NY", "street": "15 MAPLE AVE", "postcode": "14718"}}},
{"geometry": {"type": "Point", "coordinates": [-78.8693431748, 42.330480155]}, "type": "Feature", "properties": {"collection_times": [{"days": "Mon-Sat", "time": "2:45pm"}, {"days": "Sun", "time": "Closed"}], "id": "1471900001", "name": "USPS COLLECTION BOX - BLUE BOX", "address": {"city": "CATTARAUGUS", "state": "NY", "street": "18 MAIN ST", "postcode": "14719"}}},
{"geometry": {"type": "Point", "coordinates": [-78.8684044431, 42.3197435127]}, "type": "Feature", "properties": {"collection_times": [{"days": "Mon-Fri", "time": "5:00pm"}, {"days": "Sat", "time": "3:00pm"}, {"days": "Sun", "time": "Closed"}], "id": "1471900004", "name": "USPS COLLECTION BOX - BLUE BOX", "address": {"city": "CATTARAUGUS", "state": "NY", "street": "8 MEMORIAL DR", "postcode": "14719"}}},
{"geometry": {"type": "Point", "coordinates": [-79.2823833973, 42.1100524563]}, "type": "Feature", "properties": {"collection_times": [{"days": "Mon-Fri", "time": "5:00pm"}, {"days": "Sat", "time": "12:00pm"}, {"days": "Sun", "time": "Closed"}], "id": "1472000001", "name": "USPS COLLECTION BOX - BLUE BOX", "address": {"city": "CELORON", "state": "NY", "street": "17 BOULEVARD", "postcode": "14720"}}},
{"geometry": {"type": "Point", "coordinates": [-78.273308907, 42.022254935]}, "type": "Feature", "properties": {"collection_times": [{"days": "Mon-Fri", "time": "4:45pm"}, {"days": "Sat", "time": "11:45am"}, {"days": "Sun", "time": "Closed"}], "id": "1472100001", "name": "USPS COLLECTION BOX - BLUE BOX", "address": {"city": "CERES", "state": "NY", "street": "227 MAIN ST", "postcode": "14721"}}},
{"geometry": {"type": "Point", "coordinates": [-79.4649899357, 42.2089904123]}, "type": "Feature", "properties": {"collection_times": [{"days": "Mon-Fri", "time": "4:45pm"}, {"days": "Sat", "time": "12:00pm"}, {"days": "Sun", "time": "Closed"}], "id": "1472200003", "name": "USPS COLLECTION BOX - BLUE BOX", "address": {"city": "CHAUTAUQUA", "state": "NY", "street": "10-12 ROBERTS ST", "postcode": "14722"}}},
{"geometry": {"type": "Point", "coordinates": [-79.0996435824, 42.2934567523]}, "type": "Feature", "properties": {"collection_times": [{"days": "Mon-Fri", "time": "4:45pm"}, {"days": "Sat", "time": "11:45am"}, {"days": "Sun", "time": "Closed"}], "id": "1472300003", "name": "USPS COLLECTION BOX - BLUE BOX", "address": {"city": "CHERRY CREEK", "state": "NY", "street": "6746 MAIN ST", "postcode": "14723"}}},
{"geometry": {"type": "Point", "coordinates": [-79.628974509, 42.0207693971]}, "type": "Feature", "properties": {"collection_times": [{"days": "Mon-Fri", "time": "4:30pm"}, {"days": "Sat", "time": "12:00pm"}, {"days": "Sun", "time": "Closed"}], "id": "1472400001", "name": "USPS COLLECTION BOX - BLUE BOX", "address": {"city": "CLYMER", "state": "NY", "street": "8727 E MAIN ST", "postcode": "14724"}}},
{"geometry": {"type": "Point", "coordinates": [-79.0310594789, 42.2389968707]}, "type": "Feature", "properties": {"collection_times": [{"days": "Mon-Fri", "time": "4:45pm"}, {"days": "Sat", "time": "11:00am"}, {"days": "Sun", "time": "Closed"}], "id": "1472600001", "name": "USPS COLLECTION BOX - BLUE BOX", "address": {"city": "CONEWANGO VLY", "state": "NY", "street": "5496 ROUTE 62", "postcode": "14726"}}},
{"geometry": {"type": "Point", "coordinates": [-79.0130490311, 42.2930130383]}, "type": "Feature", "properties": {"collection_times": [{"days": "Mon-Sat", "time": "10:00am"}, {"days": "Sun", "time": "Closed"}], "id": "1472600003", "name": "USPS COLLECTION BOX - BLUE BOX", "address": {"city": "CONEWANGO VLY", "state": "NY", "street": "12195 LEON NEW ALBION RD", "postcode": "14726"}}},
{"geometry": {"type": "Point", "coordinates": [-78.2764200418, 42.217075918]}, "type": "Feature", "properties": {"collection_times": [{"days": "Mon-Sat", "time": "12:00pm"}, {"days": "Sun", "time": "Closed"}], "id": "1472700003", "name": "USPS COLLECTION BOX - BLUE BOX", "address": {"city": "CUBA", "state": "NY", "street": "27 W MAIN ST", "postcode": "14727"}}},
{"geometry": {"type": "Point", "coordinates": [-78.2840377124, 42.2183651534]}, "type": "Feature", "properties": {"collection_times": [{"days": "Mon-Fri", "time": "5:00pm"}, {"days": "Sat", "time": "3:30pm"}, {"days": "Sun", "time": "Closed"}], "id": "1472700005", "name": "USPS COLLECTION BOX - BLUE BOX", "address": {"city": "CUBA", "state": "NY", "street": "40 WATER ST", "postcode": "14727"}}},
{"geometry": {"type": "Point", "coordinates": [-78.2775809557, 42.2208640393]}, "type": "Feature", "properties": {"collection_times": [{"days": "Mon-Sat", "time": "12:00pm"}, {"days": "Sun", "time": "Closed"}], "id": "1472700007", "name": "USPS COLLECTION BOX - BLUE BOX", "address": {"city": "CUBA", "state": "NY", "street": "72 GENESEE ST", "postcode": "14727"}}},
{"geometry": {"type": "Point", "coordinates": [-79.4439821116, 42.2369982189]}, "type": "Feature", "properties": {"collection_times": [{"days": "Mon-Fri", "time": "4:30pm"}, {"days": "Sat", "time": "12:00pm"}, {"days": "Sun", "time": "Closed"}], "id": "1472800001", "name": "USPS COLLECTION BOX - BLUE BOX", "address": {"city": "DEWITTVILLE", "state": "NY", "street": "5452 E LAKE RD", "postcode": "14728"}}},
{"geometry": {"type": "Point", "coordinates": [-78.7550977501, 42.3895537461]}, "type": "Feature", "properties": {"collection_times": [{"days": "Mon-Fri", "time": "12:30pm"}, {"days": "Sat", "time": "11:45am"}, {"days": "Sun", "time": "Closed"}], "id": "1472900001", "name": "USPS COLLECTION BOX - BLUE BOX", "address": {"city": "EAST OTTO", "state": "NY", "street": "8991 REED HILL RD", "postcode": "14729"}}},
{"geometry": {"type": "Point", "coordinates": [-78.6725412883, 42.2751658411]}, "type": "Feature", "properties": {"collection_times": [{"days": "Mon-Fri", "time": "5:00pm"}, {"days": "Sat", "time": "12:00pm"}, {"days": "Sun", "time": "Closed"}], "id": "1473100005", "name": "USPS COLLECTION BOX - BLUE BOX", "address": {"city": "ELLICOTTVILLE", "state": "NY", "street": "4 WASHINGTON ST", "postcode": "14731"}}},
{"geometry": {"type": "Point", "coordinates": [-79.1080570422, 42.2159278232]}, "type": "Feature", "properties": {"collection_times": [{"days": "Mon-Fri", "time": "4:45pm"}, {"days": "Sat", "time": "11:45am"}, {"days": "Sun", "time": "Closed"}], "id": "1473200000", "name": "USPS COLLECTION BOX - BLUE BOX", "address": {"city": "ELLINGTON", "state": "NY", "street": "5006 MILL ST", "postcode": "14732"}}},
{"geometry": {"type": "Point", "coordinates": [-79.1971811924, 42.1182861292]}, "type": "Feature", "properties": {"collection_times": [{"days": "Mon-Fri", "time": "5:00pm"}, {"days": "Sat", "time": "1:00pm"}, {"days": "Sun", "time": "Closed"}], "id": "1473300006", "name": "USPS COLLECTION BOX - BLUE BOX", "address": {"city": "FALCONER", "state": "NY", "street": "5 W EVERETT ST", "postcode": "14733"}}},
{"geometry": {"type": "Point", "coordinates": [-79.1971811924, 42.1182861292]}, "type": "Feature", "properties": {"collection_times": [{"days": "Mon-Fri", "time": "5:00pm"}, {"days": "Sat", "time": "1:00pm"}, {"days": "Sun", "time": "Closed"}], "id": "1473300007", "name": "USPS COLLECTION BOX - BLUE BOX", "address": {"city": "FALCONER", "state": "NY", "street": "5 W EVERETT ST", "postcode": "14733"}}},
{"geometry": {"type": "Point", "coordinates": [-78.1145751535, 42.4661342107]}, "type": "Feature", "properties": {"collection_times": [{"days": "Mon-Fri", "time": "4:45pm"}, {"days": "Sat", "time": "12:00pm"}, {"days": "Sun", "time": "Closed"}], "id": "1473500003", "name": "USPS COLLECTION BOX - BLUE BOX", "address": {"city": "FILLMORE", "state": "NY", "street": "54 W MAIN ST", "postcode": "14735"}}},
{"geometry": {"type": "Point", "coordinates": [-79.7345372971, 42.1195711271]}, "type": "Feature", "properties": {"collection_times": [{"days": "Mon-Fri", "time": "4:30pm"}, {"days": "Sat", "time": "11:45am"}, {"days": "Sun", "time": "Closed"}], "id": "1473600001", "name": "USPS COLLECTION BOX - BLUE BOX", "address": {"city": "FINDLEY LAKE", "state": "NY", "street": "10404 MAIN ST", "postcode": "14736"}}},
{"geometry": {"type": "Point", "coordinates": [-78.4583181372, 42.3357112762]}, "type": "Feature", "properties": {"collection_times": [{"days": "Mon-Fri", "time": "5:00pm"}, {"days": "Sat", "time": "4:00pm"}, {"days": "Sun", "time": "Closed"}], "id": "1473700001", "name": "USPS COLLECTION BOX - BLUE BOX", "address": {"city": "FRANKLINVILLE", "state": "NY", "street": "14 S MAIN ST", "postcode": "14737"}}},
{"geometry": {"type": "Point", "coordinates": [-78.4598935313, 42.3372072706]}, "type": "Feature", "properties": {"collection_times": [{"days": "Mon-Sat", "time": "9:00am"}, {"days": "Sun", "time": "Closed"}], "id": "1473700002", "name": "USPS COLLECTION BOX - BLUE BOX", "address": {"city": "FRANKLINVILLE", "state": "NY", "street": "17 ELM ST", "postcode": "14737"}}},
{"geometry": {"type": "Point", "coordinates": [-78.4530728263, 42.3401718021]}, "type": "Feature", "properties": {"collection_times": [{"days": "Mon-Sat", "time": "12:00pm"}, {"days": "Sun", "time": "Closed"}], "id": "1473700003", "name": "USPS COLLECTION BOX - BLUE BOX", "address": {"city": "FRANKLINVILLE", "state": "NY", "street": "46 PINE ST", "postcode": "14737"}}},
{"geometry": {"type": "Point", "coordinates": [-78.4513114004, 42.3362183533]}, "type": "Feature", "properties": {"collection_times": [{"days": "Mon-Sat", "time": "10:00am"}, {"days": "Sun", "time": "Closed"}], "id": "1473700004", "name": "USPS COLLECTION BOX - BLUE BOX", "address": {"city": "FRANKLINVILLE", "state": "NY", "street": "9 MAPLE AVE", "postcode": "14737"}}},
{"geometry": {"type": "Point", "coordinates": [-78.4590290247, 42.3338997537]}, "type": "Feature", "properties": {"collection_times": [{"days": "Mon-Sat", "time": "10:00am"}, {"days": "Sun", "time": "Closed"}], "id": "1473700005", "name": "USPS COLLECTION BOX - BLUE BOX", "address": {"city": "FRANKLINVILLE", "state": "NY", "street": "37 S MAIN ST", "postcode": "14737"}}},
{"geometry": {"type": "Point", "coordinates": [-78.4576272772, 42.3376425743]}, "type": "Feature", "properties": {"collection_times": [{"days": "Mon-Sat", "time": "1:30pm"}, {"days": "Sun", "time": "Closed"}], "id": "1473700006", "name": "USPS COLLECTION BOX - BLUE BOX", "address": {"city": "FRANKLINVILLE", "state": "NY", "street": "13 PARK SQ", "postcode": "14737"}}},
{"geometry": {"type": "Point", "coordinates": [-79.158793022, 42.0538910008]}, "type": "Feature", "properties": {"collection_times": [{"days": "Mon-Fri", "time": "5:00pm"}, {"days": "Sat", "time": "12:00pm"}, {"days": "Sun", "time": "Closed"}], "id": "1473800002", "name": "USPS COLLECTION BOX - BLUE BOX", "address": {"city": "FREWSBURG", "state": "NY", "street": "21 E MAIN ST", "postcode": "14738"}}},
{"geometry": {"type": "Point", "coordinates": [-78.1333426772, 42.2075396259]}, "type": "Feature", "properties": {"collection_times": [{"days": "Mon-Fri", "time": "4:45pm"}, {"days": "Sat", "time": "12:00pm"}, {"days": "Sun", "time": "Closed"}], "id": "1473900001", "name": "USPS COLLECTION BOX - BLUE BOX", "address": {"city": "FRIENDSHIP", "state": "NY", "street": "4 W WATER ST", "postcode": "14739"}}},
{"geometry": {"type": "Point", "coordinates": [-79.2490838565, 42.192852952]}, "type": "Feature", "properties": {"collection_times": [{"days": "Mon-Fri", "time": "5:00pm"}, {"days": "Sat", "time": "12:00pm"}, {"days": "Sun", "time": "Closed"}], "id": "1474000001", "name": "USPS COLLECTION BOX - BLUE BOX", "address": {"city": "GERRY", "state": "NY", "street": "4465 ROUTE 60", "postcode": "14740"}}},
{"geometry": {"type": "Point", "coordinates": [-78.6394882318, 42.2168471471]}, "type": "Feature", "properties": {"collection_times": [{"days": "Mon-Fri", "time": "4:45pm"}, {"days": "Sat", "time": "12:00pm"}, {"days": "Sun", "time": "Closed"}], "id": "1474100001", "name": "USPS COLLECTION BOX - BLUE BOX", "address": {"city": "GREAT VALLEY", "state": "NY", "street": "6027 DEPOT ST", "postcode": "14741"}}},
{"geometry": {"type": "Point", "coordinates": [-79.2368796193, 42.0970237463]}, "type": "Feature", "properties": {"collection_times": [{"days": "Mon-Fri", "time": "5:00pm"}, {"days": "Sat", "time": "11:45am"}, {"days": "Sun", "time": "Closed"}], "id": "1474200001", "name": "USPS COLLECTION BOX - BLUE BOX", "address": {"city": "GREENHURST", "state": "NY", "street": "2871 GREENHURST AVE", "postcode": "14742"}}},
{"geometry": {"type": "Point", "coordinates": [-79.2368796193, 42.0970237463]}, "type": "Feature", "properties": {"collection_times": [{"days": "Mon-Fri", "time": "5:00pm"}, {"days": "Sat", "time": "11:45am"}, {"days": "Sun", "time": "Closed"}], "id": "1474200003", "name": "USPS COLLECTION BOX - PO LOBBY", "address": {"city": "GREENHURST", "state": "NY", "street": "2871 GREENHURST AVE", "postcode": "14742"}}},
{"geometry": {"type": "Point", "coordinates": [-78.3938957284, 42.1625014028]}, "type": "Feature", "properties": {"collection_times": [{"days": "Mon-Fri", "time": "3:00pm"}, {"days": "Sat", "time": "11:45am"}, {"days": "Sun", "time": "Closed"}], "id": "1474300002", "name": "USPS COLLECTION BOX - BLUE BOX", "address": {"city": "HINSDALE", "state": "NY", "street": "3722 MAIN ST", "postcode": "14743"}}},
{"geometry": {"type": "Point", "coordinates": [-78.1591601773, 42.4208960221]}, "type": "Feature", "properties": {"collection_times": [{"days": "Mon-Fri", "time": "4:45pm"}, {"days": "Sat", "time": "11:45am"}, {"days": "Sun", "time": "Closed"}], "id": "1474400001", "name": "USPS COLLECTION BOX - BLUE BOX", "address": {"city": "HOUGHTON", "state": "NY", "street": "9672 ROUTE 19", "postcode": "14744"}}},
{"geometry": {"type": "Point", "coordinates": [-78.1366350719, 42.4728071743]}, "type": "Feature", "properties": {"collection_times": [{"days": "Mon-Fri", "time": "11:00am"}, {"days": "Sat", "time": "11:15am"}, {"days": "Sun", "time": "Closed"}], "id": "1474500003", "name": "USPS COLLECTION BOX - BLUE BOX", "address": {"city": "HUME", "state": "NY", "street": "10912 COUNTY ROAD 23", "postcode": "14745"}}},
{"geometry": {"type": "Point", "coordinates": [-78.1366350719, 42.4728071743]}, "type": "Feature", "properties": {"collection_times": [{"days": "Mon-Fri", "time": "10:55am"}, {"days": "Sat", "time": "11:15am"}, {"days": "Sun", "time": "Closed"}], "id": "1474500004", "name": "USPS COLLECTION BOX - PO LOBBY", "address": {"city": "HUME", "state": "NY", "street": "10912 COUNTY ROAD 23", "postcode": "14745"}}},
{"geometry": {"type": "Point", "coordinates": [-79.1011460709, 42.158566003]}, "type": "Feature", "properties": {"collection_times": [{"days": "Mon-Fri", "time": "5:00pm"}, {"days": "Sat", "time": "12:00pm"}, {"days": "Sun", "time": "Closed"}], "id": "1474700001", "name": "USPS COLLECTION BOX - BLUE BOX", "address": {"city": "KENNEDY", "state": "NY", "street": "3600 CHURCH ST", "postcode": "14747"}}},
{"geometry": {"type": "Point", "coordinates": [-78.6790959526, 42.1583964539]}, "type": "Feature", "properties": {"collection_times": [{"days": "Mon-Fri", "time": "1:00pm"}, {"days": "Sat", "time": "11:45am"}, {"days": "Sun", "time": "Closed"}], "id": "1474800001", "name": "USPS COLLECTION BOX - BLUE BOX", "address": {"city": "KILLBUCK", "state": "NY", "street": "3753 OAKWOOD ST", "postcode": "14748"}}},
{"geometry": {"type": "Point", "coordinates": [-79.3026313684, 42.0991592915]}, "type": "Feature", "properties": {"collection_times": [{"days": "Mon-Sat", "time": "1:30pm"}, {"days": "Sun", "time": "Closed"}], "id": "1475000002", "name": "USPS COLLECTION BOX - BLUE BOX", "address": {"city": "LAKEWOOD", "state": "NY", "street": "318 E FAIRMOUNT AVE", "postcode": "14750"}}},
{"geometry": {"type": "Point", "coordinates": [-79.3266608139, 42.0978521218]}, "type": "Feature", "properties": {"collection_times": [{"days": "Mon-Fri", "time": "5:00pm"}, {"days": "Sat", "time": "1:00pm"}, {"days": "Sun", "time": "Closed"}], "id": "1475000004", "name": "USPS COLLECTION BOX - BLUE BOX", "address": {"city": "LAKEWOOD", "state": "NY", "street": "2 W FAIRMOUNT AVE", "postcode": "14750"}}},
{"geometry": {"type": "Point", "coordinates": [-79.3295261684, 42.3491306805]}, "type": "Feature", "properties": {"collection_times": [{"days": "Mon-Fri", "time": "4:45pm"}, {"days": "Sat", "time": "12:00pm"}, {"days": "Sun", "time": "Closed"}], "id": "1475200001", "name": "USPS COLLECTION BOX - BLUE BOX", "address": {"city": "LILYDALE", "state": "NY", "street": "30 SOUTH ST", "postcode": "14752"}}},
{"geometry": {"type": "Point", "coordinates": [-78.6291918231, 42.026134596]}, "type": "Feature", "properties": {"collection_times": [{"days": "Mon-Fri", "time": "3:00pm"}, {"days": "Sat", "time": "11:45am"}, {"days": "Sun", "time": "Closed"}], "id": "1475300001", "name": "USPS COLLECTION BOX - BLUE BOX", "address": {"city": "LIMESTONE", "state": "NY", "street": "610 MAIN ST", "postcode": "14753"}}},
{"geometry": {"type": "Point", "coordinates": [-78.6238099059, 42.034964252]}, "type": "Feature", "properties": {"collection_times": [{"days": "Mon-Fri", "time": "12:30pm"}, {"days": "Sat-Sun", "time": "Closed"}], "id": "1475300003", "name": "USPS COLLECTION BOX - BLUE BOX", "address": {"city": "LIMESTONE", "state": "NY", "street": "5903 BAILEY DR", "postcode": "14753"}}},
{"geometry": {"type": "Point", "coordinates": [-78.2114145166, 42.0236535132]}, "type": "Feature", "properties": {"collection_times": [{"days": "Mon-Fri", "time": "12:30pm"}, {"days": "Sat", "time": "11:45am"}, {"days": "Sun", "time": "Closed"}], "id": "1475400001", "name": "USPS COLLECTION BOX - BLUE BOX", "address": {"city": "LITTLE GENESEE", "state": "NY", "street": "8258 STATE ROUTE 417", "postcode": "14754"}}},
{"geometry": {"type": "Point", "coordinates": [-78.7981466882, 42.2497322234]}, "type": "Feature", "properties": {"collection_times": [{"days": "Mon-Fri", "time": "5:00pm"}, {"days": "Sat", "time": "12:00pm"}, {"days": "Sun", "time": "Closed"}], "id": "1475500001", "name": "USPS COLLECTION BOX - BLUE BOX", "address": {"city": "LITTLE VALLEY", "state": "NY", "street": "115 MAIN ST", "postcode": "14755"}}},
{"geometry": {"type": "Point", "coordinates": [-78.8036356178, 42.2530326789]}, "type": "Feature", "properties": {"collection_times": [{"days": "Mon-Sat", "time": "10:00am"}, {"days": "Sun", "time": "Closed"}], "id": "1475500007", "name": "USPS COLLECTION BOX - BLUE BOX", "address": {"city": "LITTLE VALLEY", "state": "NY", "street": "415 COURT CT", "postcode": "14755"}}},
{"geometry": {"type": "Point", "coordinates": [-78.7886041151, 42.2478043005]}, "type": "Feature", "properties": {"collection_times": [{"days": "Mon-Sat", "time": "9:15am"}, {"days": "Sun", "time": "Closed"}], "id": "1475500009", "name": "USPS COLLECTION BOX - BLUE BOX", "address": {"city": "LITTLE VALLEY", "state": "NY", "street": "114 1ST ST", "postcode": "14755"}}},
{"geometry": {"type": "Point", "coordinates": [-79.5034492994, 42.2552684713]}, "type": "Feature", "properties": {"collection_times": [{"days": "Mon-Fri", "time": "5:00pm"}, {"days": "Sat", "time": "12:30pm"}, {"days": "Sun", "time": "Closed"}], "id": "1475700001", "name": "USPS COLLECTION BOX - BLUE BOX", "address": {"city": "MAYVILLE", "state": "NY", "street": "19 E CHAUTAUQUA ST", "postcode": "14757"}}},
{"geometry": {"type": "Point", "coordinates": [-79.5034492994, 42.2552684713]}, "type": "Feature", "properties": {"collection_times": [{"days": "Mon-Fri", "time": "5:00pm"}, {"days": "Sat", "time": "12:30pm"}, {"days": "Sun", "time": "Closed"}], "id": "1475700002", "name": "USPS COLLECTION BOX - BLUE BOX", "address": {"city": "MAYVILLE", "state": "NY", "street": "19 E CHAUTAUQUA ST", "postcode": "14757"}}},
{"geometry": {"type": "Point", "coordinates": [-79.5031511937, 42.252770062]}, "type": "Feature", "properties": {"collection_times": [{"days": "Mon-Sat", "time": "9:00am"}, {"days": "Sun", "time": "Closed"}], "id": "1475700005", "name": "USPS COLLECTION BOX - BLUE BOX", "address": {"city": "MAYVILLE", "state": "NY", "street": "64 S ERIE ST", "postcode": "14757"}}},
{"geometry": {"type": "Point", "coordinates": [-79.4496998614, 42.0125005735]}, "type": "Feature", "properties": {"collection_times": [{"days": "Mon-Sat", "time": "11:45am"}, {"days": "Sun", "time": "Closed"}], "id": "1475800001", "name": "USPS COLLECTION BOX - BLUE BOX", "address": {"city": "NIOBE", "state": "NY", "street": "5967 PANAMA NIOBE RD", "postcode": "14758"}}},
{"geometry": {"type": "Point", "coordinates": [-78.4375927974, 42.077500302]}, "type": "Feature", "properties": {"collection_times": [{"days": "Mon-Sat", "time": "1:00pm"}, {"days": "Sun", "time": "Closed"}], "id": "1476000008", "name": "USPS COLLECTION BOX - BLUE BOX", "address": {"city": "OLEAN", "state": "NY", "street": "700 W STATE ST", "postcode": "14760"}}},
{"geometry": {"type": "Point", "coordinates": [-78.4567260211, 42.0771183521]}, "type": "Feature", "properties": {"collection_times": [{"days": "Mon-Sat", "time": "1:00pm"}, {"days": "Sun", "time": "Closed"}], "id": "1476000019", "name": "USPS COLLECTION BOX - BLUE BOX", "address": {"city": "OLEAN", "state": "NY", "street": "2223 W STATE ST", "postcode": "14760"}}},
{"geometry": {"type": "Point", "coordinates": [-78.4587683887, 42.0770387343]}, "type": "Feature", "properties": {"collection_times": [{"days": "Mon-Sat", "time": "11:00am"}, {"days": "Sun", "time": "Closed"}], "id": "1476000020", "name": "USPS COLLECTION BOX - BLUE BOX", "address": {"city": "OLEAN", "state": "NY", "street": "2501 W STATE ST", "postcode": "14760"}}},
{"geometry": {"type": "Point", "coordinates": [-78.429839579, 42.0824768336]}, "type": "Feature", "properties": {"collection_times": [{"days": "Mon-Sat", "time": "10:00am"}, {"days": "Sun", "time": "Closed"}], "id": "1476000032", "name": "USPS COLLECTION BOX - BLUE BOX", "address": {"city": "OLEAN", "state": "NY", "street": "400 N UNION ST", "postcode": "14760"}}},
{"geometry": {"type": "Point", "coordinates": [-78.4266017535, 42.0902859163]}, "type": "Feature", "properties": {"collection_times": [{"days": "Mon-Sat", "time": "1:00pm"}, {"days": "Sun", "time": "Closed"}], "id": "1476000033", "name": "USPS COLLECTION BOX - BLUE BOX", "address": {"city": "OLEAN", "state": "NY", "street": "515 MAIN ST", "postcode": "14760"}}},
{"geometry": {"type": "Point", "coordinates": [-78.4122503149, 42.0733918292]}, "type": "Feature", "properties": {"collection_times": [{"days": "Mon-Fri", "time": "4:00pm"}, {"days": "Sat", "time": "1:00pm"}, {"days": "Sun", "time": "Closed"}], "id": "1476000035", "name": "USPS COLLECTION BOX - BLUE BOX", "address": {"city": "OLEAN", "state": "NY", "street": "TIMES SQUARE", "postcode": "14760"}}},
{"geometry": {"type": "Point", "coordinates": [-78.4451399387, 42.0774596881]}, "type": "Feature", "properties": {"collection_times": [{"days": "Mon-Sat", "time": "1:00pm"}, {"days": "Sun", "time": "Closed"}], "id": "1476000038", "name": "USPS COLLECTION BOX - BLUE BOX", "address": {"city": "OLEAN", "state": "NY", "street": "1322 W STATE ST", "postcode": "14760"}}},
{"geometry": {"type": "Point", "coordinates": [-78.4299261523, 42.0775519758]}, "type": "Feature", "properties": {"collection_times": [{"days": "Mon-Fri", "time": "5:30pm"}, {"days": "Sat", "time": "1:00pm"}, {"days": "Sun", "time": "Closed"}], "id": "1476000043", "name": "USPS COLLECTION BOX - BLUE BOX", "address": {"city": "OLEAN", "state": "NY", "street": "102 W STATE ST", "postcode": "14760"}}},
{"geometry": {"type": "Point", "coordinates": [-78.4598008484, 42.0771098068]}, "type": "Feature", "properties": {"collection_times": [{"days": "Mon-Sat", "time": "12:00pm"}, {"days": "Sun", "time": "Closed"}], "id": "1476000044", "name": "USPS COLLECTION BOX - BLUE BOX", "address": {"city": "OLEAN", "state": "NY", "street": "2636 W STATE ST", "postcode": "14760"}}},
{"geometry": {"type": "Point", "coordinates": [-78.4299556922, 42.0795088758]}, "type": "Feature", "properties": {"collection_times": [{"days": "Mon-Fri", "time": "4:00pm"}, {"days": "Sat", "time": "1:00pm"}, {"days": "Sun", "time": "Closed"}], "id": "1476000048", "name": "USPS COLLECTION BOX - BLUE BOX", "address": {"city": "OLEAN", "state": "NY", "street": "201 N UNION ST", "postcode": "14760"}}},
{"geometry": {"type": "Point", "coordinates": [-78.4289961023, 42.0734561581]}, "type": "Feature", "properties": {"collection_times": [{"days": "Mon-Sat", "time": "1:00pm"}, {"days": "Sun", "time": "Closed"}], "id": "1476000049", "name": "USPS COLLECTION BOX - BLUE BOX", "address": {"city": "OLEAN", "state": "NY", "street": "111 E GREEN ST", "postcode": "14760"}}},
{"geometry": {"type": "Point", "coordinates": [-78.4488697713, 42.0873615768]}, "type": "Feature", "properties": {"collection_times": [{"days": "Mon-Fri", "time": "1:00pm"}, {"days": "Sat-Sun", "time": "Closed"}], "id": "1476000051", "name": "USPS COLLECTION BOX - BLUE BOX", "address": {"city": "OLEAN", "state": "NY", "street": "1701 LEO MOSS DR", "postcode": "14760"}}},
{"geometry": {"type": "Point", "coordinates": [-78.4267579041, 42.0899369434]}, "type": "Feature", "properties": {"collection_times": [{"days": "Mon-Sat", "time": "1:00pm"}, {"days": "Sun", "time": "Closed"}], "id": "1476000056", "name": "USPS COLLECTION BOX - BLUE BOX", "address": {"city": "OLEAN", "state": "NY", "street": "535 MAIN ST", "postcode": "14760"}}},
{"geometry": {"type": "Point", "coordinates": [-78.4439522127, 42.0851258493]}, "type": "Feature", "properties": {"collection_times": [{"days": "Mon-Sat", "time": "1:00pm"}, {"days": "Sun", "time": "Closed"}], "id": "1476000059", "name": "USPS COLLECTION BOX - BLUE BOX", "address": {"city": "OLEAN", "state": "NY", "street": "1201 WAYNE ST", "postcode": "14760"}}},
{"geometry": {"type": "Point", "coordinates": [-78.8681745423, 42.3197033813]}, "type": "Feature", "properties": {"collection_times": [{"days": "Mon-Fri", "time": "4:45pm"}, {"days": "Sat", "time": "11:45am"}, {"days": "Sun", "time": "Closed"}], "id": "1476600001", "name": "USPS COLLECTION BOX - BLUE BOX", "address": {"city": "OTTO", "state": "NY", "street": "9120 OTTO EAST OTTO RD", "postcode": "14766"}}},
{"geometry": {"type": "Point", "coordinates": [-79.4823110056, 42.0749370237]}, "type": "Feature", "properties": {"collection_times": [{"days": "Mon-Fri", "time": "5:00pm"}, {"days": "Sat", "time": "12:00pm"}, {"days": "Sun", "time": "Closed"}], "id": "1476700001", "name": "USPS COLLECTION BOX - BLUE BOX", "address": {"city": "PANAMA", "state": "NY", "street": "6 E MAIN ST", "postcode": "14767"}}},
{"geometry": {"type": "Point", "coordinates": [-79.4698816558, 42.3788498285]}, "type": "Feature", "properties": {"collection_times": [{"days": "Mon-Fri", "time": "12:00pm"}, {"days": "Sat", "time": "11:45am"}, {"days": "Sun", "time": "Closed"}], "id": "1476900001", "name": "USPS COLLECTION BOX - BLUE BOX", "address": {"city": "PORTLAND", "state": "NY", "street": "6372 W MAIN RD", "postcode": "14769"}}},
{"geometry": {"type": "Point", "coordinates": [-79.4698816558, 42.3788498285]}, "type": "Feature", "properties": {"collection_times": [{"days": "Mon-Sat", "time": "12:00pm"}, {"days": "Sun", "time": "Closed"}], "id": "1476900002", "name": "USPS COLLECTION BOX - PO LOBBY", "address": {"city": "PORTLAND", "state": "NY", "street": "6372 W MAIN RD", "postcode": "14769"}}},
{"geometry": {"type": "Point", "coordinates": [-78.3403995338, 42.0384273612]}, "type": "Feature", "properties": {"collection_times": [{"days": "Mon-Fri", "time": "4:45pm"}, {"days": "Sat", "time": "11:45am"}, {"days": "Sun", "time": "Closed"}], "id": "1477000001", "name": "USPS COLLECTION BOX - BLUE BOX", "address": {"city": "PORTVILLE", "state": "NY", "street": "1 S MAIN ST", "postcode": "14770"}}},
{"geometry": {"type": "Point", "coordinates": [-78.9478697576, 42.1724979315]}, "type": "Feature", "properties": {"collection_times": [{"days": "Mon-Sat", "time": "3:30pm"}, {"days": "Sun", "time": "Closed"}], "id": "1477200007", "name": "USPS COLLECTION BOX - BLUE BOX", "address": {"city": "RANDOLPH", "state": "NY", "street": "90 MAIN ST", "postcode": "14772"}}},
{"geometry": {"type": "Point", "coordinates": [-78.9761074861, 42.1619696807]}, "type": "Feature", "properties": {"collection_times": [{"days": "Mon-Sat", "time": "3:30pm"}, {"days": "Sun", "time": "Closed"}], "id": "1477200008", "name": "USPS COLLECTION BOX - BLUE BOX", "address": {"city": "RANDOLPH", "state": "NY", "street": "117 MAIN ST", "postcode": "14772"}}},
{"geometry": {"type": "Point", "coordinates": [-78.1531431323, 42.0884450351]}, "type": "Feature", "properties": {"collection_times": [{"days": "Mon-Fri", "time": "11:00am"}, {"days": "Sat", "time": "11:45am"}, {"days": "Sun", "time": "Closed"}], "id": "1477400001", "name": "USPS COLLECTION BOX - BLUE BOX", "address": {"city": "RICHBURG", "state": "NY", "street": "210 MAIN ST", "postcode": "14774"}}},
{"geometry": {"type": "Point", "coordinates": [-79.7111319412, 42.2665988523]}, "type": "Feature", "properties": {"collection_times": [{"days": "Mon-Fri", "time": "4:00pm"}, {"days": "Sat", "time": "11:45am"}, {"days": "Sun", "time": "Closed"}], "id": "1477500001", "name": "USPS COLLECTION BOX - BLUE BOX", "address": {"city": "RIPLEY", "state": "NY", "street": "13 W MAIN ST", "postcode": "14775"}}},
{"geometry": {"type": "Point", "coordinates": [-78.2520585242, 42.392326097]}, "type": "Feature", "properties": {"collection_times": [{"days": "Mon-Fri", "time": "4:45pm"}, {"days": "Sat", "time": "11:45am"}, {"days": "Sun", "time": "Closed"}], "id": "1477700001", "name": "USPS COLLECTION BOX - BLUE BOX", "address": {"city": "RUSHFORD", "state": "NY", "street": "9019 MAIN ST", "postcode": "14777"}}},
{"geometry": {"type": "Point", "coordinates": [-78.4858867606, 42.0831838795]}, "type": "Feature", "properties": {"collection_times": [{"days": "Mon-Fri", "time": "4:15pm"}, {"days": "Sat", "time": "12:00pm"}, {"days": "Sun", "time": "Closed"}], "id": "1477800002", "name": "USPS COLLECTION BOX - BLUE BOX", "address": {"city": "ST BONAS", "state": "NY", "street": "3261 W STATE RD", "postcode": "14778"}}},
{"geometry": {"type": "Point", "coordinates": [-78.7168804374, 42.1589814334]}, "type": "Feature", "properties": {"collection_times": [{"days": "Mon-Sat", "time": "5:00pm"}, {"days": "Sun", "time": "Closed"}], "id": "1477900001", "name": "USPS COLLECTION BOX - BLUE BOX", "address": {"city": "SALAMANCA", "state": "NY", "street": "35 CHESTNUT ST", "postcode": "14779"}}},
{"geometry": {"type": "Point", "coordinates": [-78.7079898366, 42.1568155285]}, "type": "Feature", "properties": {"collection_times": [{"days": "Mon-Sat", "time": "12:00pm"}, {"days": "Sun", "time": "Closed"}], "id": "1477900006", "name": "USPS COLLECTION BOX - BLUE BOX", "address": {"city": "SALAMANCA", "state": "NY", "street": "225 WILDWOOD AVE", "postcode": "14779"}}},
{"geometry": {"type": "Point", "coordinates": [-78.7148308883, 42.1587875211]}, "type": "Feature", "properties": {"collection_times": [{"days": "Mon-Sat", "time": "12:00pm"}, {"days": "Sun", "time": "Closed"}], "id": "1477900008", "name": "USPS COLLECTION BOX - BLUE BOX", "address": {"city": "SALAMANCA", "state": "NY", "street": "100 MAIN ST", "postcode": "14779"}}},
{"geometry": {"type": "Point", "coordinates": [-78.7157086439, 42.1561826454]}, "type": "Feature", "properties": {"collection_times": [{"days": "Mon-Sat", "time": "12:00pm"}, {"days": "Sun", "time": "Closed"}], "id": "1477900014", "name": "USPS COLLECTION BOX - BLUE BOX", "address": {"city": "SALAMANCA", "state": "NY", "street": "41 MAIN ST", "postcode": "14779"}}},
{"geometry": {"type": "Point", "coordinates": [-78.7238531063, 42.1563457781]}, "type": "Feature", "properties": {"collection_times": [{"days": "Mon-Sat", "time": "12:00pm"}, {"days": "Sun", "time": "Closed"}], "id": "1477900019", "name": "USPS COLLECTION BOX - BLUE BOX", "address": {"city": "SALAMANCA", "state": "NY", "street": "218 BROAD ST", "postcode": "14779"}}},
{"geometry": {"type": "Point", "coordinates": [-78.736783143, 42.161145248]}, "type": "Feature", "properties": {"collection_times": [{"days": "Mon-Sat", "time": "12:00pm"}, {"days": "Sun", "time": "Closed"}], "id": "1477900022", "name": "USPS COLLECTION BOX - BLUE BOX", "address": {"city": "SALAMANCA", "state": "NY", "street": "50 IROQUOIS DR", "postcode": "14779"}}},
{"geometry": {"type": "Point", "coordinates": [-78.7167195326, 42.1589879564]}, "type": "Feature", "properties": {"collection_times": [{"days": "Mon-Sat", "time": "5:00pm"}, {"days": "Sun", "time": "Closed"}], "id": "1477900028", "name": "USPS COLLECTION BOX - BLUE BOX", "address": {"city": "SALAMANCA", "state": "NY", "street": "40 CHESTNUT ST", "postcode": "14779"}}},
{"geometry": {"type": "Point", "coordinates": [-78.7353031762, 42.1581605528]}, "type": "Feature", "properties": {"collection_times": [{"days": "Mon-Sat", "time": "12:00pm"}, {"days": "Sun", "time": "Closed"}], "id": "1477900029", "name": "USPS COLLECTION BOX - BLUE BOX", "address": {"city": "SALAMANCA", "state": "NY", "street": "545 BROAD ST", "postcode": "14779"}}},
{"geometry": {"type": "Point", "coordinates": [-78.8905079038, 42.096530111]}, "type": "Feature", "properties": {"collection_times": [{"days": "Mon-Sat", "time": "12:00pm"}, {"days": "Sun", "time": "Closed"}], "id": "1477900031", "name": "USPS COLLECTION BOX - BLUE BOX", "address": {"city": "SALAMANCA", "state": "NY", "street": "3582 CENTER RD", "postcode": "14779"}}},
{"geometry": {"type": "Point", "coordinates": [-79.5951735716, 42.1599657482]}, "type": "Feature", "properties": {"collection_times": [{"days": "Mon-Fri", "time": "4:45pm"}, {"days": "Sat", "time": "12:00pm"}, {"days": "Sun", "time": "Closed"}], "id": "1478100001", "name": "USPS COLLECTION BOX - BLUE BOX", "address": {"city": "SHERMAN", "state": "NY", "street": "109 MILLER ST", "postcode": "14781"}}},
{"geometry": {"type": "Point", "coordinates": [-79.2606172519, 42.2640293849]}, "type": "Feature", "properties": {"collection_times": [{"days": "Mon-Fri", "time": "4:45pm"}, {"days": "Sat", "time": "12:00pm"}, {"days": "Sun", "time": "Closed"}], "id": "1478200001", "name": "USPS COLLECTION BOX - BLUE BOX", "address": {"city": "SINCLAIRVILLE", "state": "NY", "street": "11 MAIN ST", "postcode": "14782"}}},
{"geometry": {"type": "Point", "coordinates": [-79.2606172519, 42.2640293849]}, "type": "Feature", "properties": {"collection_times": [{"days": "Mon-Fri", "time": "4:45pm"}, {"days": "Sat", "time": "12:00pm"}, {"days": "Sun", "time": "Closed"}], "id": "1478200003", "name": "USPS COLLECTION BOX - PO LOBBY", "address": {"city": "SINCLAIRVILLE", "state": "NY", "street": "11 MAIN ST", "postcode": "14782"}}},
{"geometry": {"type": "Point", "coordinates": [-78.9758686255, 42.1620388685]}, "type": "Feature", "properties": {"collection_times": [{"days": "Mon-Fri", "time": "4:45pm"}, {"days": "Sat", "time": "11:45am"}, {"days": "Sun", "time": "Closed"}], "id": "1478300001", "name": "USPS COLLECTION BOX - BLUE BOX", "address": {"city": "STEAMBURG", "state": "NY", "street": "2560 ROUTE 394", "postcode": "14783"}}},
{"geometry": {"type": "Point", "coordinates": [-79.3835458354, 42.315581684]}, "type": "Feature", "properties": {"collection_times": [{"days": "Mon-Fri", "time": "12:00pm"}, {"days": "Sat", "time": "11:30am"}, {"days": "Sun", "time": "Closed"}], "id": "1478400001", "name": "USPS COLLECTION BOX - BLUE BOX", "address": {"city": "STOCKTON", "state": "NY", "street": "7254 ROUTE 380", "postcode": "14784"}}},
{"geometry": {"type": "Point", "coordinates": [-79.405991397, 42.1548681665]}, "type": "Feature", "properties": {"collection_times": [{"days": "Mon-Fri", "time": "4:55pm"}, {"days": "Sat", "time": "12:00pm"}, {"days": "Sun", "time": "Closed"}], "id": "1478500001", "name": "USPS COLLECTION BOX - BLUE BOX", "address": {"city": "STOW", "state": "NY", "street": "3479 OLD BRIDGE RD", "postcode": "14785"}}},
{"geometry": {"type": "Point", "coordinates": [-78.282085096, 42.2185235975]}, "type": "Feature", "properties": {"collection_times": [{"days": "Mon-Fri", "time": "2:00pm"}, {"days": "Sat", "time": "11:45am"}, {"days": "Sun", "time": "Closed"}], "id": "1478600001", "name": "USPS COLLECTION BOX - BLUE BOX", "address": {"city": "W CLARKSVILLE", "state": "NY", "street": "2941 ROUTE 305", "postcode": "14786"}}},
{"geometry": {"type": "Point", "coordinates": [-79.5728759781, 42.3244029591]}, "type": "Feature", "properties": {"collection_times": [{"days": "Mon-Fri", "time": "5:00pm"}, {"days": "Sat", "time": "12:30pm"}, {"days": "Sun", "time": "Closed"}], "id": "1478700001", "name": "USPS COLLECTION BOX - BLUE BOX", "address": {"city": "WESTFIELD", "state": "NY", "street": "7 ACADEMY ST", "postcode": "14787"}}},
{"geometry": {"type": "Point", "coordinates": [-79.5728759781, 42.3244029591]}, "type": "Feature", "properties": {"collection_times": [{"days": "Mon-Fri", "time": "5:00pm"}, {"days": "Sat", "time": "12:30pm"}, {"days": "Sun", "time": "Closed"}], "id": "1478700002", "name": "USPS COLLECTION BOX - PO LOBBY", "address": {"city": "WESTFIELD", "state": "NY", "street": "7 ACADEMY ST", "postcode": "14787"}}},
{"geometry": {"type": "Point", "coordinates": [-79.5762487212, 42.3218603291]}, "type": "Feature", "properties": {"collection_times": [{"days": "Mon-Fri", "time": "2:30pm"}, {"days": "Sat", "time": "1:30pm"}, {"days": "Sun", "time": "Closed"}], "id": "1478700003", "name": "USPS COLLECTION BOX - BLUE BOX", "address": {"city": "WESTFIELD", "state": "NY", "street": "23 ELM ST", "postcode": "14787"}}},
{"geometry": {"type": "Point", "coordinates": [-79.5783211382, 42.3218276575]}, "type": "Feature", "properties": {"collection_times": [{"days": "Mon-Fri", "time": "2:30pm"}, {"days": "Sat", "time": "1:30pm"}, {"days": "Sun", "time": "Closed"}], "id": "1478700004", "name": "USPS COLLECTION BOX - BLUE BOX", "address": {"city": "WESTFIELD", "state": "NY", "street": "1 E MAIN ST", "postcode": "14787"}}},
{"geometry": {"type": "Point", "coordinates": [-79.5763096149, 42.3231269149]}, "type": "Feature", "properties": {"collection_times": [{"days": "Mon-Fri", "time": "2:30pm"}, {"days": "Sat", "time": "1:30pm"}, {"days": "Sun", "time": "Closed"}], "id": "1478700006", "name": "USPS COLLECTION BOX - BLUE BOX", "address": {"city": "WESTFIELD", "state": "NY", "street": "70 E MAIN ST", "postcode": "14787"}}},
{"geometry": {"type": "Point", "coordinates": [-78.3780818562, 42.0619829256]}, "type": "Feature", "properties": {"collection_times": [{"days": "Mon-Fri", "time": "4:45pm"}, {"days": "Sat", "time": "11:45am"}, {"days": "Sun", "time": "Closed"}], "id": "1478800001", "name": "USPS COLLECTION BOX - BLUE BOX", "address": {"city": "WESTONS MILLS", "state": "NY", "street": "1319 OLEAN PORTVILLE RD", "postcode": "14788"}}}
]}
