{"type": "FeatureCollection", "features": [
{"geometry": {"type": "Point", "coordinates": [-77.2185037276, 42.1144029007]}, "type": "Feature", "properties": {"collection_times": [{"days": "Mon-Fri", "time": "5:00pm"}, {"days": "Sat", "time": "12:30pm"}, {"days": "Sun", "time": "Closed"}], "id": "1480100005", "name": "USPS COLLECTION BOX - BLUE BOX", "address": {"city": "ADDISON", "state": "NY", "street": "150 FRONT ST", "postcode": "14801"}}},
{"geometry": {"type": "Point", "coordinates": [-77.2185037276, 42.1144029007]}, "type": "Feature", "properties": {"collection_times": [{"days": "Mon-Fri", "time": "5:00pm"}, {"days": "Sat", "time": "12:30pm"}, {"days": "Sun", "time": "Closed"}], "id": "1480100014", "name": "USPS COLLECTION BOX - PO LOBBY", "address": {"city": "ADDISON", "state": "NY", "street": "150 FRONT ST", "postcode": "14801"}}},
{"geometry": {"type": "Point", "coordinates": [-77.7900859056, 42.2553038259]}, "type": "Feature", "properties": {"collection_times": [{"days": "Mon-Fri", "time": "5:00pm"}, {"days": "Sat", "time": "2:45pm"}, {"days": "Sun", "time": "Closed"}], "id": "1480200007", "name": "USPS COLLECTION BOX - PO LOBBY", "address": {"city": "ALFRED", "state": "NY", "street": "63 N MAIN ST", "postcode": "14802"}}},
{"geometry": {"type": "Point", "coordinates": [-77.7900859056, 42.2553038259]}, "type": "Feature", "properties": {"collection_times": [{"days": "Mon-Fri", "time": "5:00pm"}, {"days": "Sat", "time": "2:30pm"}, {"days": "Sun", "time": "Closed"}], "id": "1480200008", "name": "USPS COLLECTION BOX - BLUE BOX", "address": {"city": "ALFRED", "state": "NY", "street": "63 N MAIN ST", "postcode": "14802"}}},
{"geometry": {"type": "Point", "coordinates": [-77.7902774796, 42.2517870231]}, "type": "Feature", "properties": {"collection_times": [{"days": "Mon-Fri", "time": "3:00pm"}, {"days": "Sat", "time": "2:00pm"}, {"days": "Sun", "time": "Closed"}], "id": "1480200010", "name": "USPS COLLECTION BOX - BLUE BOX", "address": {"city": "ALFRED", "state": "NY", "street": "26 MAIN ST", "postcode": "14802"}}},
{"geometry": {"type": "Point", "coordinates": [-77.759907211, 42.2686515613]}, "type": "Feature", "properties": {"collection_times": [{"days": "Mon-Fri", "time": "4:45pm"}, {"days": "Sat", "time": "11:30am"}, {"days": "Sun", "time": "Closed"}], "id": "1480300001", "name": "USPS COLLECTION BOX - BLUE BOX", "address": {"city": "ALFRED STATION", "state": "NY", "street": "623 ROUTE 244", "postcode": "14803"}}},
{"geometry": {"type": "Point", "coordinates": [-77.759907211, 42.2686515613]}, "type": "Feature", "properties": {"collection_times": [{"days": "Mon-Fri", "time": "4:45pm"}, {"days": "Sat", "time": "12:00pm"}, {"days": "Sun", "time": "Closed"}], "id": "1480300002", "name": "USPS COLLECTION BOX - PO LOBBY", "address": {"city": "ALFRED STATION", "state": "NY", "street": "623 ROUTE 244", "postcode": "14803"}}},
{"geometry": {"type": "Point", "coordinates": [-77.7379587535, 42.3198201761]}, "type": "Feature", "properties": {"collection_times": [{"days": "Mon-Fri", "time": "4:45pm"}, {"days": "Sat", "time": "11:45am"}, {"days": "Sun", "time": "Closed"}], "id": "1480400001", "name": "USPS COLLECTION BOX - BLUE BOX", "address": {"city": "ALMOND", "state": "NY", "street": "49 MAIN ST", "postcode": "14804"}}},
{"geometry": {"type": "Point", "coordinates": [-77.7379587535, 42.3198201761]}, "type": "Feature", "properties": {"collection_times": [{"days": "Mon-Fri", "time": "4:45pm"}, {"days": "Sat", "time": "11:45am"}, {"days": "Sun", "time": "Closed"}], "id": "1480400002", "name": "USPS COLLECTION BOX - PO LOBBY", "address": {"city": "ALMOND", "state": "NY", "street": "49 MAIN ST", "postcode": "14804"}}},
{"geometry": {"type": "Point", "coordinates": [-76.7221400607, 42.3108746404]}, "type": "Feature", "properties": {"collection_times": [{"days": "Mon-Fri", "time": "12:30pm"}, {"days": "Sat", "time": "11:45am"}, {"days": "Sun", "time": "Closed"}], "id": "1480500001", "name": "USPS COLLECTION BOX - BLUE BOX", "address": {"city": "ALPINE", "state": "NY", "street": "5908 COUNTY ROAD 11", "postcode": "14805"}}},
{"geometry": {"type": "Point", "coordinates": [-77.7951782109, 42.1582651154]}, "type": "Feature", "properties": {"collection_times": [{"days": "Mon-Fri", "time": "4:30pm"}, {"days": "Sat", "time": "12:00pm"}, {"days": "Sun", "time": "Closed"}], "id": "1480600000", "name": "USPS COLLECTION BOX - BLUE BOX", "address": {"city": "ANDOVER", "state": "NY", "street": "16 MAIN ST", "postcode": "14806"}}},
{"geometry": {"type": "Point", "coordinates": [-77.7951782109, 42.1582651154]}, "type": "Feature", "properties": {"collection_times": [{"days": "Mon-Fri", "time": "4:30pm"}, {"days": "Sat", "time": "12:00pm"}, {"days": "Sun", "time": "Closed"}], "id": "1480600001", "name": "USPS COLLECTION BOX - PO LOBBY", "address": {"city": "ANDOVER", "state": "NY", "street": "16 MAIN ST", "postcode": "14806"}}},
{"geometry": {"type": "Point", "coordinates": [-77.6964992337, 42.3940159445]}, "type": "Feature", "properties": {"collection_times": [{"days": "Mon-Fri", "time": "4:30pm"}, {"days": "Sat", "time": "12:00pm"}, {"days": "Sun", "time": "Closed"}], "id": "1480700001", "name": "USPS COLLECTION BOX - BLUE BOX", "address": {"city": "ARKPORT", "state": "NY", "street": "27 MAIN ST", "postcode": "14807"}}},
{"geometry": {"type": "Point", "coordinates": [-77.6964992337, 42.3940159445]}, "type": "Feature", "properties": {"collection_times": [{"days": "Mon-Fri", "time": "4:30pm"}, {"days": "Sat", "time": "12:00pm"}, {"days": "Sun", "time": "Closed"}], "id": "1480700002", "name": "USPS COLLECTION BOX - PO LOBBY", "address": {"city": "ARKPORT", "state": "NY", "street": "27 MAIN ST", "postcode": "14807"}}},
{"geometry": {"type": "Point", "coordinates": [-77.4777787128, 42.5532693231]}, "type": "Feature", "properties": {"collection_times": [{"days": "Mon-Fri", "time": "12:30pm"}, {"days": "Sat", "time": "11:45am"}, {"days": "Sun", "time": "Closed"}], "id": "1480800001", "name": "USPS COLLECTION BOX - BLUE BOX", "address": {"city": "ATLANTA", "state": "NY", "street": "28 MAIN ST", "postcode": "14808"}}},
{"geometry": {"type": "Point", "coordinates": [-77.4777787128, 42.5532693231]}, "type": "Feature", "properties": {"collection_times": [{"days": "Mon-Fri", "time": "12:30pm"}, {"days": "Sat", "time": "12:00pm"}, {"days": "Sun", "time": "Closed"}], "id": "1480800004", "name": "USPS COLLECTION BOX - PO LOBBY", "address": {"city": "ATLANTA", "state": "NY", "street": "28 MAIN ST", "postcode": "14808"}}},
{"geometry": {"type": "Point", "coordinates": [-77.4211429515, 42.4080678945]}, "type": "Feature", "properties": {"collection_times": [{"days": "Mon-Fri", "time": "4:45pm"}, {"days": "Sat", "time": "11:45am"}, {"days": "Sun", "time": "Closed"}], "id": "1480900001", "name": "USPS COLLECTION BOX - BLUE BOX", "address": {"city": "AVOCA", "state": "NY", "street": "44 S MAIN ST", "postcode": "14809"}}},
{"geometry": {"type": "Point", "coordinates": [-77.4211429515, 42.4080678945]}, "type": "Feature", "properties": {"collection_times": [{"days": "Mon-Fri", "time": "4:45pm"}, {"days": "Sat", "time": "11:45am"}, {"days": "Sun", "time": "Closed"}], "id": "1480900002", "name": "USPS COLLECTION BOX - PO LOBBY", "address": {"city": "AVOCA", "state": "NY", "street": "44 S MAIN ST", "postcode": "14809"}}},
{"geometry": {"type": "Point", "coordinates": [-77.3181727522, 42.3356079465]}, "type": "Feature", "properties": {"collection_times": [{"days": "Mon-Fri", "time": "5:00pm"}, {"days": "Sat", "time": "3:00pm"}, {"days": "Sun", "time": "Closed"}], "id": "1481000001", "name": "USPS COLLECTION BOX - BLUE BOX", "address": {"city": "BATH", "state": "NY", "street": "101 LIBERTY ST", "postcode": "14810"}}},
{"geometry": {"type": "Point", "coordinates": [-77.3176794583, 42.3331249156]}, "type": "Feature", "properties": {"collection_times": [{"days": "Mon-Sat", "time": "10:00am"}, {"days": "Sun", "time": "Closed"}], "id": "1481000002", "name": "USPS COLLECTION BOX - BLUE BOX", "address": {"city": "BATH", "state": "NY", "street": "3 E PULTENEY SQ", "postcode": "14810"}}},
{"geometry": {"type": "Point", "coordinates": [-77.3183785871, 42.3340227814]}, "type": "Feature", "properties": {"collection_times": [{"days": "Mon-Sat", "time": "10:00am"}, {"days": "Sun", "time": "Closed"}], "id": "1481000004", "name": "USPS COLLECTION BOX - BLUE BOX", "address": {"city": "BATH", "state": "NY", "street": "8 LIBERTY ST", "postcode": "14810"}}},
{"geometry": {"type": "Point", "coordinates": [-77.3176794583, 42.3331249156]}, "type": "Feature", "properties": {"collection_times": [{"days": "Mon-Sat", "time": "10:00am"}, {"days": "Sun", "time": "Closed"}], "id": "1481000021", "name": "USPS COLLECTION BOX - BLUE BOX", "address": {"city": "BATH", "state": "NY", "street": "3 E PULTENEY SQ", "postcode": "14810"}}},
{"geometry": {"type": "Point", "coordinates": [-77.3373106624, 42.3421686369]}, "type": "Feature", "properties": {"collection_times": [{"days": "Mon-Sat", "time": "10:00am"}, {"days": "Sun", "time": "Closed"}], "id": "1481000022", "name": "USPS COLLECTION BOX - BLUE BOX", "address": {"city": "BATH", "state": "NY", "street": "404 W MORRIS ST", "postcode": "14810"}}},
{"geometry": {"type": "Point", "coordinates": [-77.3295220605, 42.3361864134]}, "type": "Feature", "properties": {"collection_times": [{"days": "Mon-Sat", "time": "10:00am"}, {"days": "Sun", "time": "Closed"}], "id": "1481000023", "name": "USPS COLLECTION BOX - BLUE BOX", "address": {"city": "BATH", "state": "NY", "street": "309 W MORRIS ST", "postcode": "14810"}}},
{"geometry": {"type": "Point", "coordinates": [-77.3182762097, 42.3353851295]}, "type": "Feature", "properties": {"collection_times": [{"days": "Mon-Fri", "time": "5:00pm"}, {"days": "Sat", "time": "3:00pm"}, {"days": "Sun", "time": "Closed"}], "id": "1481000025", "name": "USPS COLLECTION BOX - BLUE BOX", "address": {"city": "BATH", "state": "NY", "street": "2 W WILLIAM ST", "postcode": "14810"}}},
{"geometry": {"type": "Point", "coordinates": [-77.3181727522, 42.3356079465]}, "type": "Feature", "properties": {"collection_times": [{"days": "Mon-Fri", "time": "5:15pm"}, {"days": "Sat", "time": "3:00pm"}, {"days": "Sun", "time": "Closed"}], "id": "1481000031", "name": "USPS COLLECTION BOX - PO LOBBY", "address": {"city": "BATH", "state": "NY", "street": "101 LIBERTY ST", "postcode": "14810"}}},
{"geometry": {"type": "Point", "coordinates": [-76.9563377154, 42.2914646376]}, "type": "Feature", "properties": {"collection_times": [{"days": "Mon-Fri", "time": "3:45pm"}, {"days": "Sat", "time": "11:45am"}, {"days": "Sun", "time": "Closed"}], "id": "1481200001", "name": "USPS COLLECTION BOX - BLUE BOX", "address": {"city": "BEAVER DAMS", "state": "NY", "street": "2347 COUNTY ROAD 20", "postcode": "14812"}}},
{"geometry": {"type": "Point", "coordinates": [-76.9563377154, 42.2914646376]}, "type": "Feature", "properties": {"collection_times": [{"days": "Mon-Fri", "time": "4:00pm"}, {"days": "Sat", "time": "12:00pm"}, {"days": "Sun", "time": "Closed"}], "id": "1481200002", "name": "USPS COLLECTION BOX - PO LOBBY", "address": {"city": "BEAVER DAMS", "state": "NY", "street": "2347 COUNTY ROAD 20", "postcode": "14812"}}},
{"geometry": {"type": "Point", "coordinates": [-78.0344923708, 42.2231793036]}, "type": "Feature", "properties": {"collection_times": [{"days": "Mon-Fri", "time": "5:00pm"}, {"days": "Sat", "time": "12:00pm"}, {"days": "Sun", "time": "Closed"}], "id": "1481300001", "name": "USPS COLLECTION BOX - BLUE BOX", "address": {"city": "BELMONT", "state": "NY", "street": "3 SCHUYLER ST", "postcode": "14813"}}},
{"geometry": {"type": "Point", "coordinates": [-78.0344923708, 42.2231793036]}, "type": "Feature", "properties": {"collection_times": [{"days": "Mon-Fri", "time": "5:00pm"}, {"days": "Sat", "time": "12:00pm"}, {"days": "Sun", "time": "Closed"}], "id": "1481300004", "name": "USPS COLLECTION BOX - PO LOBBY", "address": {"city": "BELMONT", "state": "NY", "street": "3 SCHUYLER ST", "postcode": "14813"}}},
{"geometry": {"type": "Point", "coordinates": [-76.9346018567, 42.1410963698]}, "type": "Feature", "properties": {"collection_times": [{"days": "Mon-Fri", "time": "5:00pm"}, {"days": "Sat", "time": "12:00pm"}, {"days": "Sun", "time": "Closed"}], "id": "1481400001", "name": "USPS COLLECTION BOX - BLUE BOX", "address": {"city": "BIG FLATS", "state": "NY", "street": "471 MAPLE ST", "postcode": "14814"}}},
{"geometry": {"type": "Point", "coordinates": [-76.9346018567, 42.1410963698]}, "type": "Feature", "properties": {"collection_times": [{"days": "Mon-Fri", "time": "5:00pm"}, {"days": "Sat", "time": "12:00pm"}, {"days": "Sun", "time": "Closed"}], "id": "1481400002", "name": "USPS COLLECTION BOX - PO LOBBY", "address": {"city": "BIG FLATS", "state": "NY", "street": "471 MAPLE ST", "postcode": "14814"}}},
{"geometry": {"type": "Point", "coordinates": [-76.9346018567, 42.1410963698]}, "type": "Feature", "properties": {"collection_times": [{"days": "Mon-Fri", "time": "5:00pm"}, {"days": "Sat", "time": "12:00pm"}, {"days": "Sun", "time": "Closed"}], "id": "1481400003", "name": "USPS COLLECTION BOX - BLUE BOX", "address": {"city": "BIG FLATS", "state": "NY", "street": "471 MAPLE ST", "postcode": "14814"}}},
{"geometry": {"type": "Point", "coordinates": [-76.735247246, 42.1735425683]}, "type": "Feature", "properties": {"collection_times": [{"days": "Mon-Fri", "time": "4:45pm"}, {"days": "Sat", "time": "11:45am"}, {"days": "Sun", "time": "Closed"}], "id": "1481600001", "name": "USPS COLLECTION BOX - BLUE BOX", "address": {"city": "BREESPORT", "state": "NY", "street": "657 MAIN ST", "postcode": "14816"}}},
{"geometry": {"type": "Point", "coordinates": [-76.735247246, 42.1735425683]}, "type": "Feature", "properties": {"collection_times": [{"days": "Mon-Fri", "time": "4:45pm"}, {"days": "Sat", "time": "11:45am"}, {"days": "Sun", "time": "Closed"}], "id": "1481600002", "name": "USPS COLLECTION BOX - PO LOBBY", "address": {"city": "BREESPORT", "state": "NY", "street": "657 MAIN ST", "postcode": "14816"}}},
{"geometry": {"type": "Point", "coordinates": [-76.3995246747, 42.3824779636]}, "type": "Feature", "properties": {"collection_times": [{"days": "Mon-Fri", "time": "4:45pm"}, {"days": "Sat", "time": "11:45am"}, {"days": "Sun", "time": "Closed"}], "id": "1481700003", "name": "USPS COLLECTION BOX - BLUE BOX", "address": {"city": "BROOKTONDALE", "state": "NY", "street": "456 BROOKTONDALE RD", "postcode": "14817"}}},
{"geometry": {"type": "Point", "coordinates": [-76.3995246747, 42.3824779636]}, "type": "Feature", "properties": {"collection_times": [{"days": "Mon-Fri", "time": "4:45pm"}, {"days": "Sat", "time": "11:45am"}, {"days": "Sun", "time": "Closed"}], "id": "1481700004", "name": "USPS COLLECTION BOX - PO LOBBY", "address": {"city": "BROOKTONDALE", "state": "NY", "street": "456 BROOKTONDALE RD", "postcode": "14817"}}},
{"geometry": {"type": "Point", "coordinates": [-76.8479560273, 42.4202533922]}, "type": "Feature", "properties": {"collection_times": [{"days": "Mon-Fri", "time": "3:30pm"}, {"days": "Sat", "time": "11:30am"}, {"days": "Sun", "time": "Closed"}], "id": "1481800001", "name": "USPS COLLECTION BOX - BLUE BOX", "address": {"city": "BURDETT", "state": "NY", "street": "3986 LAKE AVE", "postcode": "14818"}}},
{"geometry": {"type": "Point", "coordinates": [-76.8479560273, 42.4202533922]}, "type": "Feature", "properties": {"collection_times": [{"days": "Mon-Fri", "time": "3:30pm"}, {"days": "Sat", "time": "12:00pm"}, {"days": "Sun", "time": "Closed"}], "id": "1481800002", "name": "USPS COLLECTION BOX - PO LOBBY", "address": {"city": "BURDETT", "state": "NY", "street": "3986 LAKE AVE", "postcode": "14818"}}},
{"geometry": {"type": "Point", "coordinates": [-77.3764528729, 42.1830769221]}, "type": "Feature", "properties": {"collection_times": [{"days": "Mon-Fri", "time": "12:00pm"}, {"days": "Sat", "time": "11:45am"}, {"days": "Sun", "time": "Closed"}], "id": "1482000001", "name": "USPS COLLECTION BOX - BLUE BOX", "address": {"city": "CAMERON MILLS", "state": "NY", "street": "6785 COUNTY ROUTE 119", "postcode": "14820"}}},
{"geometry": {"type": "Point", "coordinates": [-77.3764528729, 42.1830769221]}, "type": "Feature", "properties": {"collection_times": [{"days": "Mon-Fri", "time": "12:00pm"}, {"days": "Sat", "time": "11:45am"}, {"days": "Sun", "time": "Closed"}], "id": "1482000002", "name": "USPS COLLECTION BOX - PO LOBBY", "address": {"city": "CAMERON MILLS", "state": "NY", "street": "6785 COUNTY ROUTE 119", "postcode": "14820"}}},
{"geometry": {"type": "Point", "coordinates": [-77.1799723882, 42.2277410162]}, "type": "Feature", "properties": {"collection_times": [{"days": "Mon-Fri", "time": "5:00pm"}, {"days": "Sat", "time": "12:00pm"}, {"days": "Sun", "time": "Closed"}], "id": "1482100003", "name": "USPS COLLECTION BOX - PO LOBBY", "address": {"city": "CAMPBELL", "state": "NY", "street": "8753 MAIN ST", "postcode": "14821"}}},
{"geometry": {"type": "Point", "coordinates": [-77.1799723882, 42.2277410162]}, "type": "Feature", "properties": {"collection_times": [{"days": "Mon-Fri", "time": "4:45pm"}, {"days": "Sat", "time": "12:00pm"}, {"days": "Sun", "time": "Closed"}], "id": "1482100004", "name": "USPS COLLECTION BOX - BLUE BOX", "address": {"city": "CAMPBELL", "state": "NY", "street": "8753 MAIN ST", "postcode": "14821"}}},
{"geometry": {"type": "Point", "coordinates": [-77.7777487612, 42.4612748603]}, "type": "Feature", "properties": {"collection_times": [{"days": "Mon-Fri", "time": "5:00pm"}, {"days": "Sat", "time": "12:00pm"}, {"days": "Sun", "time": "Closed"}], "id": "1482200001", "name": "USPS COLLECTION BOX - BLUE BOX", "address": {"city": "CANASERAGA", "state": "NY", "street": "59 MAIN ST", "postcode": "14822"}}},
{"geometry": {"type": "Point", "coordinates": [-77.7777487612, 42.4612748603]}, "type": "Feature", "properties": {"collection_times": [{"days": "Mon-Fri", "time": "5:00pm"}, {"days": "Sat", "time": "12:00pm"}, {"days": "Sun", "time": "Closed"}], "id": "1482200002", "name": "USPS COLLECTION BOX - PO LOBBY", "address": {"city": "CANASERAGA", "state": "NY", "street": "59 MAIN ST", "postcode": "14822"}}},
{"geometry": {"type": "Point", "coordinates": [-77.6054697153, 42.2706445719]}, "type": "Feature", "properties": {"collection_times": [{"days": "Mon-Fri", "time": "5:00pm"}, {"days": "Sat", "time": "12:00pm"}, {"days": "Sun", "time": "Closed"}], "id": "1482300010", "name": "USPS COLLECTION BOX - BLUE BOX", "address": {"city": "CANISTEO", "state": "NY", "street": "6 DEPOT ST", "postcode": "14823"}}},
{"geometry": {"type": "Point", "coordinates": [-77.6054697153, 42.2706445719]}, "type": "Feature", "properties": {"collection_times": [{"days": "Mon-Fri", "time": "5:00pm"}, {"days": "Sat", "time": "12:00pm"}, {"days": "Sun", "time": "Closed"}], "id": "1482300012", "name": "USPS COLLECTION BOX - PO LOBBY", "address": {"city": "CANISTEO", "state": "NY", "street": "6 DEPOT ST", "postcode": "14823"}}},
{"geometry": {"type": "Point", "coordinates": [-76.69459841, 42.2797001228]}, "type": "Feature", "properties": {"collection_times": [{"days": "Mon-Fri", "time": "12:30pm"}, {"days": "Sat", "time": "11:45am"}, {"days": "Sun", "time": "Closed"}], "id": "1482400001", "name": "USPS COLLECTION BOX - BLUE BOX", "address": {"city": "CAYUTA", "state": "NY", "street": "6338 ROUTE 224", "postcode": "14824"}}},
{"geometry": {"type": "Point", "coordinates": [-76.69459841, 42.2797001228]}, "type": "Feature", "properties": {"collection_times": [{"days": "Mon-Fri", "time": "12:30pm"}, {"days": "Sat", "time": "11:45am"}, {"days": "Sun", "time": "Closed"}], "id": "1482400002", "name": "USPS COLLECTION BOX - PO LOBBY", "address": {"city": "CAYUTA", "state": "NY", "street": "6338 ROUTE 224", "postcode": "14824"}}},
{"geometry": {"type": "Point", "coordinates": [-76.6172546835, 42.0607141645]}, "type": "Feature", "properties": {"collection_times": [{"days": "Mon-Fri", "time": "4:45pm"}, {"days": "Sat", "time": "11:45am"}, {"days": "Sun", "time": "Closed"}], "id": "1482500001", "name": "USPS COLLECTION BOX - BLUE BOX", "address": {"city": "CHEMUNG", "state": "NY", "street": "733 MAIN ST", "postcode": "14825"}}},
{"geometry": {"type": "Point", "coordinates": [-76.6172546835, 42.0607141645]}, "type": "Feature", "properties": {"collection_times": [{"days": "Mon-Fri", "time": "4:45pm"}, {"days": "Sat", "time": "11:45am"}, {"days": "Sun", "time": "Closed"}], "id": "1482500002", "name": "USPS COLLECTION BOX - PO LOBBY", "address": {"city": "CHEMUNG", "state": "NY", "street": "733 MAIN ST", "postcode": "14825"}}},
{"geometry": {"type": "Point", "coordinates": [-77.4949565059, 42.5004934988]}, "type": "Feature", "properties": {"collection_times": [{"days": "Mon-Fri", "time": "4:30pm"}, {"days": "Sat", "time": "12:00pm"}, {"days": "Sun", "time": "Closed"}], "id": "1482600001", "name": "USPS COLLECTION BOX - BLUE BOX", "address": {"city": "COHOCTON", "state": "NY", "street": "28 MAPLE AVE", "postcode": "14826"}}},
{"geometry": {"type": "Point", "coordinates": [-77.4949565059, 42.5004934988]}, "type": "Feature", "properties": {"collection_times": [{"days": "Mon-Fri", "time": "4:45pm"}, {"days": "Sat", "time": "12:00pm"}, {"days": "Sun", "time": "Closed"}], "id": "1482600002", "name": "USPS COLLECTION BOX - PO LOBBY", "address": {"city": "COHOCTON", "state": "NY", "street": "28 MAPLE AVE", "postcode": "14826"}}},
{"geometry": {"type": "Point", "coordinates": [-77.0931480442, 42.1580066806]}, "type": "Feature", "properties": {"collection_times": [{"days": "Mon-Fri", "time": "4:45pm"}, {"days": "Sat", "time": "12:00pm"}, {"days": "Sun", "time": "Closed"}], "id": "1482700001", "name": "USPS COLLECTION BOX - BLUE BOX", "address": {"city": "COOPERS PLAINS", "state": "NY", "street": "158 MAIN ST", "postcode": "14827"}}},
{"geometry": {"type": "Point", "coordinates": [-77.0931480442, 42.1580066806]}, "type": "Feature", "properties": {"collection_times": [{"days": "Mon-Fri", "time": "4:45pm"}, {"days": "Sat", "time": "12:00pm"}, {"days": "Sun", "time": "Closed"}], "id": "1482700002", "name": "USPS COLLECTION BOX - PO LOBBY", "address": {"city": "COOPERS PLAINS", "state": "NY", "street": "158 MAIN ST", "postcode": "14827"}}},
{"geometry": {"type": "Point", "coordinates": [-77.0526173919, 42.1430636305]}, "type": "Feature", "properties": {"collection_times": [{"days": "Mon-Sat", "time": "10:00am"}, {"days": "Sun", "time": "Closed"}], "id": "1483000005", "name": "USPS COLLECTION BOX - BLUE BOX", "address": {"city": "CORNING", "state": "NY", "street": "48 E MARKET ST", "postcode": "14830"}}},
{"geometry": {"type": "Point", "coordinates": [-77.0647403554, 42.1513597217]}, "type": "Feature", "properties": {"collection_times": [{"days": "Mon-Fri", "time": "9:30am"}, {"days": "Sat", "time": "9:00am"}, {"days": "Sun", "time": "Closed"}], "id": "1483000023", "name": "USPS COLLECTION BOX - BLUE BOX", "address": {"city": "CORNING", "state": "NY", "street": "98 W PULTENEY ST", "postcode": "14830"}}},
{"geometry": {"type": "Point", "coordinates": [-77.0608176635, 42.1458648773]}, "type": "Feature", "properties": {"collection_times": [{"days": "Mon-Sat", "time": "10:00am"}, {"days": "Sun", "time": "Closed"}], "id": "1483000042", "name": "USPS COLLECTION BOX - BLUE BOX", "address": {"city": "CORNING", "state": "NY", "street": "1 BRIDGE ST", "postcode": "14830"}}},
{"geometry": {"type": "Point", "coordinates": [-77.0325060983, 42.1302786403]}, "type": "Feature", "properties": {"collection_times": [{"days": "Mon-Sat", "time": "10:00am"}, {"days": "Sun", "time": "Closed"}], "id": "1483000046", "name": "USPS COLLECTION BOX - BLUE BOX", "address": {"city": "CORNING", "state": "NY", "street": "1 NASSER CIVIC CENTER PLZ STE 1", "postcode": "14830"}}},
{"geometry": {"type": "Point", "coordinates": [-77.0541173839, 42.1433345281]}, "type": "Feature", "properties": {"collection_times": [{"days": "Mon-Sat", "time": "10:00am"}, {"days": "Sun", "time": "Closed"}], "id": "1483000050", "name": "USPS COLLECTION BOX - BLUE BOX", "address": {"city": "CORNING", "state": "NY", "street": "5 E MARKET ST", "postcode": "14830"}}},
{"geometry": {"type": "Point", "coordinates": [-77.0568512021, 42.1427643419]}, "type": "Feature", "properties": {"collection_times": [{"days": "Mon-Fri", "time": "5:00pm"}, {"days": "Sat", "time": "11:30am"}, {"days": "Sun", "time": "Closed"}], "id": "1483000051", "name": "USPS COLLECTION BOX - BLUE BOX", "address": {"city": "CORNING", "state": "NY", "street": "129 WALNUT ST", "postcode": "14830"}}},
{"geometry": {"type": "Point", "coordinates": [-77.0566654704, 42.1551738094]}, "type": "Feature", "properties": {"collection_times": [{"days": "Mon-Sat", "time": "5:30pm"}, {"days": "Sun", "time": "Closed"}], "id": "1483000054", "name": "USPS COLLECTION BOX - BLUE BOX", "address": {"city": "CORNING", "state": "NY", "street": "198 BAKER ST", "postcode": "14830"}}},
{"geometry": {"type": "Point", "coordinates": [-77.0566654704, 42.1551738094]}, "type": "Feature", "properties": {"collection_times": [{"days": "Mon-Sat", "time": "5:30pm"}, {"days": "Sun", "time": "Closed"}], "id": "1483000055", "name": "USPS COLLECTION BOX - PO LOBBY", "address": {"city": "CORNING", "state": "NY", "street": "198 BAKER ST", "postcode": "14830"}}},
{"geometry": {"type": "Point", "coordinates": [-77.0568512021, 42.1427643419]}, "type": "Feature", "properties": {"collection_times": [{"days": "Mon-Fri", "time": "4:45pm"}, {"days": "Sat", "time": "11:15am"}, {"days": "Sun", "time": "Closed"}], "id": "1483000056", "name": "USPS COLLECTION BOX - PO LOBBY", "address": {"city": "CORNING", "state": "NY", "street": "129 WALNUT ST", "postcode": "14830"}}},
{"geometry": {"type": "Point", "coordinates": [-77.0589316948, 42.1511327761]}, "type": "Feature", "properties": {"collection_times": [{"days": "Mon-Sat", "time": "10:00am"}, {"days": "Sun", "time": "Closed"}], "id": "1483000058", "name": "USPS COLLECTION BOX - BLUE BOX", "address": {"city": "CORNING", "state": "NY", "street": "1 CREDIT UNION PLZ", "postcode": "14830"}}},
{"geometry": {"type": "Point", "coordinates": [-77.051490032, 42.151640083]}, "type": "Feature", "properties": {"collection_times": [{"days": "Mon-Sat", "time": "10:00am"}, {"days": "Sun", "time": "Closed"}], "id": "1483000062", "name": "USPS COLLECTION BOX - BLUE BOX", "address": {"city": "CORNING", "state": "NY", "street": "207 E PULTENEY ST", "postcode": "14830"}}},
{"geometry": {"type": "Point", "coordinates": [-77.0566654704, 42.1551738094]}, "type": "Feature", "properties": {"collection_times": [{"days": "Mon-Sat", "time": "5:30pm"}, {"days": "Sun", "time": "Closed"}], "id": "1483000063", "name": "USPS COLLECTION BOX - BLUE BOX", "address": {"city": "CORNING", "state": "NY", "street": "198 BAKER ST", "postcode": "14830"}}},
{"geometry": {"type": "Point", "coordinates": [-77.9491583323, 42.5448106905]}, "type": "Feature", "properties": {"collection_times": [{"days": "Mon-Fri", "time": "12:30pm"}, {"days": "Sat", "time": "11:45am"}, {"days": "Sun", "time": "Closed"}], "id": "1483600001", "name": "USPS COLLECTION BOX - BLUE BOX", "address": {"city": "DALTON", "state": "NY", "street": "9959 STATE ST", "postcode": "14836"}}},
{"geometry": {"type": "Point", "coordinates": [-77.9491583323, 42.5448106905]}, "type": "Feature", "properties": {"collection_times": [{"days": "Mon-Fri", "time": "12:15pm"}, {"days": "Sat", "time": "11:45am"}, {"days": "Sun", "time": "Closed"}], "id": "1483600002", "name": "USPS COLLECTION BOX - PO LOBBY", "address": {"city": "DALTON", "state": "NY", "street": "9959 STATE ST", "postcode": "14836"}}},
{"geometry": {"type": "Point", "coordinates": [-76.9766513161, 42.5226893579]}, "type": "Feature", "properties": {"collection_times": [{"days": "Mon-Fri", "time": "5:00pm"}, {"days": "Sat", "time": "1:15pm"}, {"days": "Sun", "time": "Closed"}], "id": "1483700001", "name": "USPS COLLECTION BOX - BLUE BOX", "address": {"city": "DUNDEE", "state": "NY", "street": "26 MAIN ST", "postcode": "14837"}}},
{"geometry": {"type": "Point", "coordinates": [-76.9766513161, 42.5226893579]}, "type": "Feature", "properties": {"collection_times": [{"days": "Mon-Fri", "time": "5:00pm"}, {"days": "Sat", "time": "1:15pm"}, {"days": "Sun", "time": "Closed"}], "id": "1483700006", "name": "USPS COLLECTION BOX - PO LOBBY", "address": {"city": "DUNDEE", "state": "NY", "street": "26 MAIN ST", "postcode": "14837"}}},
{"geometry": {"type": "Point", "coordinates": [-76.6732862213, 42.1846304426]}, "type": "Feature", "properties": {"collection_times": [{"days": "Mon-Fri", "time": "12:00pm"}, {"days": "Sat", "time": "11:45am"}, {"days": "Sun", "time": "Closed"}], "id": "1483800002", "name": "USPS COLLECTION BOX - BLUE BOX", "address": {"city": "ERIN", "state": "NY", "street": "336 WHEATON RD", "postcode": "14838"}}},
{"geometry": {"type": "Point", "coordinates": [-76.6732862213, 42.1846304426]}, "type": "Feature", "properties": {"collection_times": [{"days": "Mon-Fri", "time": "12:00pm"}, {"days": "Sat", "time": "11:45am"}, {"days": "Sun", "time": "Closed"}], "id": "1483800003", "name": "USPS COLLECTION BOX - PO LOBBY", "address": {"city": "ERIN", "state": "NY", "street": "336 WHEATON RD", "postcode": "14838"}}},
{"geometry": {"type": "Point", "coordinates": [-77.6483040858, 42.1356608369]}, "type": "Feature", "properties": {"collection_times": [{"days": "Mon-Fri", "time": "12:00pm"}, {"days": "Sat", "time": "11:45am"}, {"days": "Sun", "time": "Closed"}], "id": "1483900001", "name": "USPS COLLECTION BOX - BLUE BOX", "address": {"city": "GREENWOOD", "state": "NY", "street": "2698 MAIN ST", "postcode": "14839"}}},
{"geometry": {"type": "Point", "coordinates": [-77.6483040858, 42.1356608369]}, "type": "Feature", "properties": {"collection_times": [{"days": "Mon-Fri", "time": "12:00pm"}, {"days": "Sat", "time": "11:45am"}, {"days": "Sun", "time": "Closed"}], "id": "1483900002", "name": "USPS COLLECTION BOX - PO LOBBY", "address": {"city": "GREENWOOD", "state": "NY", "street": "2698 MAIN ST", "postcode": "14839"}}},
{"geometry": {"type": "Point", "coordinates": [-77.2225884849, 42.4098977695]}, "type": "Feature", "properties": {"collection_times": [{"days": "Mon-Fri", "time": "4:30pm"}, {"days": "Sat", "time": "12:15pm"}, {"days": "Sun", "time": "Closed"}], "id": "1484000001", "name": "USPS COLLECTION BOX - BLUE BOX", "address": {"city": "HAMMONDSPORT", "state": "NY", "street": "76 PULTENEY ST", "postcode": "14840"}}},
{"geometry": {"type": "Point", "coordinates": [-77.2225884849, 42.4098977695]}, "type": "Feature", "properties": {"collection_times": [{"days": "Mon-Fri", "time": "5:00pm"}, {"days": "Sat", "time": "12:15pm"}, {"days": "Sun", "time": "Closed"}], "id": "1484000002", "name": "USPS COLLECTION BOX - PO LOBBY", "address": {"city": "HAMMONDSPORT", "state": "NY", "street": "76 PULTENEY ST", "postcode": "14840"}}},
{"geometry": {"type": "Point", "coordinates": [-77.2225884849, 42.4098977695]}, "type": "Feature", "properties": {"collection_times": [{"days": "Mon-Fri", "time": "4:30pm"}, {"days": "Sat", "time": "12:15pm"}, {"days": "Sun", "time": "Closed"}], "id": "1484000004", "name": "USPS COLLECTION BOX - BLUE BOX", "address": {"city": "HAMMONDSPORT", "state": "NY", "street": "76 PULTENEY ST", "postcode": "14840"}}},
{"geometry": {"type": "Point", "coordinates": [-76.876332847, 42.5066484343]}, "type": "Feature", "properties": {"collection_times": [{"days": "Mon-Fri", "time": "4:30pm"}, {"days": "Sat", "time": "11:30am"}, {"days": "Sun", "time": "Closed"}], "id": "1484100001", "name": "USPS COLLECTION BOX - BLUE BOX", "address": {"city": "HECTOR", "state": "NY", "street": "5640 STATE ROUTE 414", "postcode": "14841"}}},
{"geometry": {"type": "Point", "coordinates": [-76.876332847, 42.5066484343]}, "type": "Feature", "properties": {"collection_times": [{"days": "Mon-Fri", "time": "4:30pm"}, {"days": "Sat", "time": "11:30am"}, {"days": "Sun", "time": "Closed"}], "id": "1484100002", "name": "USPS COLLECTION BOX - PO LOBBY", "address": {"city": "HECTOR", "state": "NY", "street": "5640 STATE ROUTE 414", "postcode": "14841"}}},
{"geometry": {"type": "Point", "coordinates": [-76.9801743239, 42.5922184714]}, "type": "Feature", "properties": {"collection_times": [{"days": "Mon-Fri", "time": "1:00pm"}, {"days": "Sat", "time": "12:15pm"}, {"days": "Sun", "time": "Closed"}], "id": "1484200001", "name": "USPS COLLECTION BOX - BLUE BOX", "address": {"city": "HIMROD", "state": "NY", "street": "3619 HIMROD RD", "postcode": "14842"}}},
{"geometry": {"type": "Point", "coordinates": [-77.6621204372, 42.329366655]}, "type": "Feature", "properties": {"collection_times": [{"days": "Mon-Fri", "time": "5:00pm"}, {"days": "Sat", "time": "3:45pm"}, {"days": "Sun", "time": "Closed"}], "id": "1484300011", "name": "USPS COLLECTION BOX - BLUE BOX", "address": {"city": "HORNELL", "state": "NY", "street": "23 GENESEE ST", "postcode": "14843"}}},
{"geometry": {"type": "Point", "coordinates": [-77.658261515, 42.326058977]}, "type": "Feature", "properties": {"collection_times": [{"days": "Mon-Sat", "time": "11:00am"}, {"days": "Sun", "time": "Closed"}], "id": "1484300018", "name": "USPS COLLECTION BOX - BLUE BOX", "address": {"city": "HORNELL", "state": "NY", "street": "6 CENTER ST", "postcode": "14843"}}},
{"geometry": {"type": "Point", "coordinates": [-77.6599792815, 42.3140638978]}, "type": "Feature", "properties": {"collection_times": [{"days": "Mon-Sat", "time": "2:30pm"}, {"days": "Sun", "time": "Closed"}], "id": "1484300033", "name": "USPS COLLECTION BOX - BLUE BOX", "address": {"city": "HORNELL", "state": "NY", "street": "411 CANISTEO ST", "postcode": "14843"}}},
{"geometry": {"type": "Point", "coordinates": [-77.6621204372, 42.329366655]}, "type": "Feature", "properties": {"collection_times": [{"days": "Mon-Fri", "time": "5:00pm"}, {"days": "Sat", "time": "3:45pm"}, {"days": "Sun", "time": "Closed"}], "id": "1484300043", "name": "USPS COLLECTION BOX - PO LOBBY", "address": {"city": "HORNELL", "state": "NY", "street": "23 GENESEE ST", "postcode": "14843"}}},
{"geometry": {"type": "Point", "coordinates": [-77.6921352814, 42.3824808558]}, "type": "Feature", "properties": {"collection_times": [{"days": "Mon-Fri", "time": "11:30am"}, {"days": "Sat-Sun", "time": "Closed"}], "id": "1484300046", "name": "USPS COLLECTION BOX - BLUE BOX", "address": {"city": "HORNELL", "state": "NY", "street": "1000 STATE ROUTE 36", "postcode": "14843"}}},
{"geometry": {"type": "Point", "coordinates": [-77.6610351786, 42.3550619453]}, "type": "Feature", "properties": {"collection_times": [{"days": "Mon-Sat", "time": "1:30pm"}, {"days": "Sun", "time": "Closed"}], "id": "1484300047", "name": "USPS COLLECTION BOX - BLUE BOX", "address": {"city": "HORNELL", "state": "NY", "street": "7279 SENECA RD N", "postcode": "14843"}}},
{"geometry": {"type": "Point", "coordinates": [-77.6612604734, 42.3250415034]}, "type": "Feature", "properties": {"collection_times": [{"days": "Mon-Sat", "time": "3:00pm"}, {"days": "Sun", "time": "Closed"}], "id": "1484300049", "name": "USPS COLLECTION BOX - BLUE BOX", "address": {"city": "HORNELL", "state": "NY", "street": "107 BROADWAY", "postcode": "14843"}}},
{"geometry": {"type": "Point", "coordinates": [-77.6621204372, 42.329366655]}, "type": "Feature", "properties": {"collection_times": [{"days": "Mon-Fri", "time": "5:00pm"}, {"days": "Sat", "time": "3:45pm"}, {"days": "Sun", "time": "Closed"}], "id": "1484300052", "name": "USPS COLLECTION BOX - BLUE BOX", "address": {"city": "HORNELL", "state": "NY", "street": "23 GENESEE ST", "postcode": "14843"}}},
{"geometry": {"type": "Point", "coordinates": [-76.8157724457, 42.1621873451]}, "type": "Feature", "properties": {"collection_times": [{"days": "Mon-Fri", "time": "5:00pm"}, {"days": "Sat", "time": "12:45pm"}, {"days": "Sun", "time": "Closed"}], "id": "1484500002", "name": "USPS COLLECTION BOX - BLUE BOX", "address": {"city": "HORSEHEADS", "state": "NY", "street": "624 TUTTLE AVE", "postcode": "14845"}}},
{"geometry": {"type": "Point", "coordinates": [-76.8373141285, 42.1767117153]}, "type": "Feature", "properties": {"collection_times": [{"days": "Mon-Fri", "time": "2:30pm"}, {"days": "Sat", "time": "9:00am"}, {"days": "Sun", "time": "Closed"}], "id": "1484500004", "name": "USPS COLLECTION BOX - BLUE BOX", "address": {"city": "HORSEHEADS", "state": "NY", "street": "2898 WESTINGHOUSE RD", "postcode": "14845"}}},
{"geometry": {"type": "Point", "coordinates": [-76.9011246874, 42.205468004]}, "type": "Feature", "properties": {"collection_times": [{"days": "Mon-Fri", "time": "2:30pm"}, {"days": "Sat", "time": "9:00am"}, {"days": "Sun", "time": "Closed"}], "id": "1484500015", "name": "USPS COLLECTION BOX - BLUE BOX", "address": {"city": "HORSEHEADS", "state": "NY", "street": "35 ARNOT RD", "postcode": "14845"}}},
{"geometry": {"type": "Point", "coordinates": [-76.8324687285, 42.1810342474]}, "type": "Feature", "properties": {"collection_times": [{"days": "Mon-Fri", "time": "2:30pm"}, {"days": "Sat", "time": "9:00am"}, {"days": "Sun", "time": "Closed"}], "id": "1484500016", "name": "USPS COLLECTION BOX - BLUE BOX", "address": {"city": "HORSEHEADS", "state": "NY", "street": "2977 WESTINGHOUSE RD", "postcode": "14845"}}},
{"geometry": {"type": "Point", "coordinates": [-76.8991932975, 42.1617230916]}, "type": "Feature", "properties": {"collection_times": [{"days": "Mon-Fri", "time": "9:00am"}, {"days": "Sat-Sun", "time": "Closed"}], "id": "1484500017", "name": "USPS COLLECTION BOX - BLUE BOX", "address": {"city": "HORSEHEADS", "state": "NY", "street": "276 SING SING RD", "postcode": "14845"}}},
{"geometry": {"type": "Point", "coordinates": [-76.8228776981, 42.1568380873]}, "type": "Feature", "properties": {"collection_times": [{"days": "Mon-Sat", "time": "9:00am"}, {"days": "Sun", "time": "Closed"}], "id": "1484500022", "name": "USPS COLLECTION BOX - BLUE BOX", "address": {"city": "HORSEHEADS", "state": "NY", "street": "1020 CENTER ST", "postcode": "14845"}}},
{"geometry": {"type": "Point", "coordinates": [-76.8570896535, 42.1625327692]}, "type": "Feature", "properties": {"collection_times": [{"days": "Mon-Fri", "time": "2:30pm"}, {"days": "Sat", "time": "9:00am"}, {"days": "Sun", "time": "Closed"}], "id": "1484500028", "name": "USPS COLLECTION BOX - BLUE BOX", "address": {"city": "HORSEHEADS", "state": "NY", "street": "100 JOHN ROEMMELT DR", "postcode": "14845"}}},
{"geometry": {"type": "Point", "coordinates": [-76.8157724457, 42.1621873451]}, "type": "Feature", "properties": {"collection_times": [{"days": "Mon-Fri", "time": "5:00pm"}, {"days": "Sat", "time": "12:45pm"}, {"days": "Sun", "time": "Closed"}], "id": "1484500029", "name": "USPS COLLECTION BOX - BLUE BOX", "address": {"city": "HORSEHEADS", "state": "NY", "street": "624 TUTTLE AVE", "postcode": "14845"}}},
{"geometry": {"type": "Point", "coordinates": [-76.8781676163, 42.1595812865]}, "type": "Feature", "properties": {"collection_times": [{"days": "Mon-Fri", "time": "2:30pm"}, {"days": "Sat", "time": "9:00am"}, {"days": "Sun", "time": "Closed"}], "id": "1484500030", "name": "USPS COLLECTION BOX - BLUE BOX", "address": {"city": "HORSEHEADS", "state": "NY", "street": "3300 CHAMBERS RD", "postcode": "14845"}}},
{"geometry": {"type": "Point", "coordinates": [-76.8157724457, 42.1621873451]}, "type": "Feature", "properties": {"collection_times": [{"days": "Mon-Fri", "time": "5:00pm"}, {"days": "Sat", "time": "12:45pm"}, {"days": "Sun", "time": "Closed"}], "id": "1484500031", "name": "USPS COLLECTION BOX - PO LOBBY", "address": {"city": "HORSEHEADS", "state": "NY", "street": "624 TUTTLE AVE", "postcode": "14845"}}},
{"geometry": {"type": "Point", "coordinates": [-77.9914846041, 42.5466158859]}, "type": "Feature", "properties": {"collection_times": [{"days": "Mon-Fri", "time": "12:30pm"}, {"days": "Sat", "time": "11:45am"}, {"days": "Sun", "time": "Closed"}], "id": "1484600001", "name": "USPS COLLECTION BOX - BLUE BOX", "address": {"city": "HUNT", "state": "NY", "street": "9926 SMITH HILL RD", "postcode": "14846"}}},
{"geometry": {"type": "Point", "coordinates": [-77.9914846041, 42.5466158859]}, "type": "Feature", "properties": {"collection_times": [{"days": "Mon-Fri", "time": "12:15pm"}, {"days": "Sat", "time": "11:45am"}, {"days": "Sun", "time": "Closed"}], "id": "1484600002", "name": "USPS COLLECTION BOX - PO LOBBY", "address": {"city": "HUNT", "state": "NY", "street": "9926 SMITH HILL RD", "postcode": "14846"}}},
{"geometry": {"type": "Point", "coordinates": [-76.7247031469, 42.6168149035]}, "type": "Feature", "properties": {"collection_times": [{"days": "Mon-Fri", "time": "4:30pm"}, {"days": "Sat", "time": "12:00pm"}, {"days": "Sun", "time": "Closed"}], "id": "1484700003", "name": "USPS COLLECTION BOX - PO LOBBY", "address": {"city": "INTERLAKEN", "state": "NY", "street": "8409 MAIN ST", "postcode": "14847"}}},
{"geometry": {"type": "Point", "coordinates": [-76.7247031469, 42.6168149035]}, "type": "Feature", "properties": {"collection_times": [{"days": "Mon-Fri", "time": "4:30pm"}, {"days": "Sat", "time": "11:45am"}, {"days": "Sun", "time": "Closed"}], "id": "1484700004", "name": "USPS COLLECTION BOX - BLUE BOX", "address": {"city": "INTERLAKEN", "state": "NY", "street": "8409 MAIN ST", "postcode": "14847"}}},
{"geometry": {"type": "Point", "coordinates": [-76.4810336783, 42.4525495755]}, "type": "Feature", "properties": {"collection_times": [{"days": "Mon-Sat", "time": "11:00am"}, {"days": "Sun", "time": "Closed"}], "id": "1485000004", "name": "USPS COLLECTION BOX - BLUE BOX", "address": {"city": "ITHACA", "state": "NY", "street": "600 THURSTON AVE", "postcode": "14850"}}},
{"geometry": {"type": "Point", "coordinates": [-76.4676148783, 42.4905103928]}, "type": "Feature", "properties": {"collection_times": [{"days": "Mon-Fri", "time": "5:30pm"}, {"days": "Sat", "time": "4:15pm"}, {"days": "Sun", "time": "Closed"}], "id": "1485000011", "name": "USPS COLLECTION BOX - BLUE BOX", "address": {"city": "ITHACA", "state": "NY", "street": "757 WARREN RD", "postcode": "14850"}}},
{"geometry": {"type": "Point", "coordinates": [-76.5061684254, 42.4291646221]}, "type": "Feature", "properties": {"collection_times": [{"days": "Mon-Sat", "time": "11:00am"}, {"days": "Sun", "time": "Closed"}], "id": "1485000039", "name": "USPS COLLECTION BOX - BLUE BOX", "address": {"city": "ITHACA", "state": "NY", "street": "222 ELMIRA RD", "postcode": "14850"}}},
{"geometry": {"type": "Point", "coordinates": [-76.4649216908, 42.4372759532]}, "type": "Feature", "properties": {"collection_times": [{"days": "Mon-Sat", "time": "3:00pm"}, {"days": "Sun", "time": "Closed"}], "id": "1485000040", "name": "USPS COLLECTION BOX - BLUE BOX", "address": {"city": "ITHACA", "state": "NY", "street": "331 PINE TREE RD", "postcode": "14850"}}},
{"geometry": {"type": "Point", "coordinates": [-76.5017817648, 42.439400967]}, "type": "Feature", "properties": {"collection_times": [{"days": "Mon-Fri", "time": "3:00pm"}, {"days": "Sat", "time": "10:00am"}, {"days": "Sun", "time": "Closed"}], "id": "1485000042", "name": "USPS COLLECTION BOX - BLUE BOX", "address": {"city": "ITHACA", "state": "NY", "street": "301 W STATE ST", "postcode": "14850"}}},
{"geometry": {"type": "Point", "coordinates": [-76.5126923616, 42.440836483]}, "type": "Feature", "properties": {"collection_times": [{"days": "Mon-Sat", "time": "10:00am"}, {"days": "Sun", "time": "Closed"}], "id": "1485000047", "name": "USPS COLLECTION BOX - BLUE BOX", "address": {"city": "ITHACA", "state": "NY", "street": "805 W BUFFALO ST", "postcode": "14850"}}},
{"geometry": {"type": "Point", "coordinates": [-76.4991070575, 42.4394870164]}, "type": "Feature", "properties": {"collection_times": [{"days": "Mon-Fri", "time": "4:00pm"}, {"days": "Sat", "time": "12:00pm"}, {"days": "Sun", "time": "Closed"}], "id": "1485000049", "name": "USPS COLLECTION BOX - BLUE BOX", "address": {"city": "ITHACA", "state": "NY", "street": "100 S CAYUGA ST", "postcode": "14850"}}},
{"geometry": {"type": "Point", "coordinates": [-76.4970083754, 42.4416358529]}, "type": "Feature", "properties": {"collection_times": [{"days": "Mon-Fri", "time": "5:00pm"}, {"days": "Sat", "time": "11:30am"}, {"days": "Sun", "time": "Closed"}], "id": "1485000057", "name": "USPS COLLECTION BOX - BLUE BOX", "address": {"city": "ITHACA", "state": "NY", "street": "318 N TIOGA ST", "postcode": "14850"}}},
{"geometry": {"type": "Point", "coordinates": [-76.4834662599, 42.4806008609]}, "type": "Feature", "properties": {"collection_times": [{"days": "Mon-Sat", "time": "12:00pm"}, {"days": "Sun", "time": "Closed"}], "id": "1485000059", "name": "USPS COLLECTION BOX - BLUE BOX", "address": {"city": "ITHACA", "state": "NY", "street": "2250 N TRIPHAMMER RD", "postcode": "14850"}}},
{"geometry": {"type": "Point", "coordinates": [-76.5184262988, 42.4419505654]}, "type": "Feature", "properties": {"collection_times": [{"days": "Mon-Fri", "time": "4:30pm"}, {"days": "Sat", "time": "12:00pm"}, {"days": "Sun", "time": "Closed"}], "id": "1485000060", "name": "USPS COLLECTION BOX - BLUE BOX", "address": {"city": "ITHACA", "state": "NY", "street": "1939 E SHORE DR", "postcode": "14850"}}},
{"geometry": {"type": "Point", "coordinates": [-76.4993451532, 42.4449582935]}, "type": "Feature", "properties": {"collection_times": [{"days": "Mon-Fri", "time": "5:00pm"}, {"days": "Sat", "time": "3:45pm"}, {"days": "Sun", "time": "Closed"}], "id": "1485000061", "name": "USPS COLLECTION BOX - BLUE BOX", "address": {"city": "ITHACA", "state": "NY", "street": "500 N CAYUGA ST", "postcode": "14850"}}},
{"geometry": {"type": "Point", "coordinates": [-76.4825258075, 42.479184859]}, "type": "Feature", "properties": {"collection_times": [{"days": "Mon-Sat", "time": "9:30am"}, {"days": "Sun", "time": "Closed"}], "id": "1485000068", "name": "USPS COLLECTION BOX - BLUE BOX", "address": {"city": "ITHACA", "state": "NY", "street": "2255 N TRIPHAMMER RD", "postcode": "14850"}}},
{"geometry": {"type": "Point", "coordinates": [-76.5184262988, 42.4419505654]}, "type": "Feature", "properties": {"collection_times": [{"days": "Mon-Sat", "time": "10:30am"}, {"days": "Sun", "time": "Closed"}], "id": "1485000069", "name": "USPS COLLECTION BOX - BLUE BOX", "address": {"city": "ITHACA", "state": "NY", "street": "2300 N TRIPHAMMER RD", "postcode": "14850"}}},
{"geometry": {"type": "Point", "coordinates": [-76.5184262988, 42.4419505654]}, "type": "Feature", "properties": {"collection_times": [{"days": "Mon-Sat", "time": "9:30am"}, {"days": "Sun", "time": "Closed"}], "id": "1485000070", "name": "USPS COLLECTION BOX - BLUE BOX", "address": {"city": "ITHACA", "state": "NY", "street": "500 S MEADOW ST", "postcode": "14850"}}},
{"geometry": {"type": "Point", "coordinates": [-76.4790112364, 42.4691107805]}, "type": "Feature", "properties": {"collection_times": [{"days": "Mon-Fri", "time": "3:45pm"}, {"days": "Sat", "time": "11:00am"}, {"days": "Sun", "time": "Closed"}], "id": "1485000071", "name": "USPS COLLECTION BOX - BLUE BOX", "address": {"city": "ITHACA", "state": "NY", "street": "840 HANSHAW RD", "postcode": "14850"}}},
{"geometry": {"type": "Point", "coordinates": [-76.5184262988, 42.4419505654]}, "type": "Feature", "properties": {"collection_times": [{"days": "Mon-Sat", "time": "10:00am"}, {"days": "Sun", "time": "Closed"}], "id": "1485000072", "name": "USPS COLLECTION BOX - BLUE BOX", "address": {"city": "ITHACA", "state": "NY", "street": "2309 N TRIPHAMMER RD", "postcode": "14850"}}},
{"geometry": {"type": "Point", "coordinates": [-76.5184262988, 42.4419505654]}, "type": "Feature", "properties": {"collection_times": [{"days": "Mon-Fri", "time": "4:00pm"}, {"days": "Sat", "time": "11:00am"}, {"days": "Sun", "time": "Closed"}], "id": "1485000073", "name": "USPS COLLECTION BOX - BLUE BOX", "address": {"city": "ITHACA", "state": "NY", "street": "1 COMMUNITY CORS", "postcode": "14850"}}},
{"geometry": {"type": "Point", "coordinates": [-76.5184262988, 42.4419505654]}, "type": "Feature", "properties": {"collection_times": [{"days": "Mon-Sat", "time": "12:00pm"}, {"days": "Sun", "time": "Closed"}], "id": "1485000074", "name": "USPS COLLECTION BOX - BLUE BOX", "address": {"city": "ITHACA", "state": "NY", "street": "40 CATHERWOOD RD", "postcode": "14850"}}},
{"geometry": {"type": "Point", "coordinates": [-76.5184262988, 42.4419505654]}, "type": "Feature", "properties": {"collection_times": [{"days": "Mon-Sat", "time": "12:00pm"}, {"days": "Sun", "time": "Closed"}], "id": "1485000083", "name": "USPS COLLECTION BOX - BLUE BOX", "address": {"city": "ITHACA", "state": "NY", "street": "1 BRADFIELD EMERSON HALL", "postcode": "14850"}}},
{"geometry": {"type": "Point", "coordinates": [-76.5184262988, 42.4419505654]}, "type": "Feature", "properties": {"collection_times": [{"days": "Mon-Sat", "time": "12:00pm"}, {"days": "Sun", "time": "Closed"}], "id": "1485000084", "name": "USPS COLLECTION BOX - BLUE BOX", "address": {"city": "ITHACA", "state": "NY", "street": "1 TOWER RD", "postcode": "14850"}}},
{"geometry": {"type": "Point", "coordinates": [-76.5184262988, 42.4419505654]}, "type": "Feature", "properties": {"collection_times": [{"days": "Mon-Fri", "time": "3:00pm"}, {"days": "Sat", "time": "9:30am"}, {"days": "Sun", "time": "Closed"}], "id": "1485000090", "name": "USPS COLLECTION BOX - BLUE BOX", "address": {"city": "ITHACA", "state": "NY", "street": "1 PHILLIPS HALL", "postcode": "14850"}}},
{"geometry": {"type": "Point", "coordinates": [-76.5184262988, 42.4419505654]}, "type": "Feature", "properties": {"collection_times": [{"days": "Mon-Sat", "time": "2:00pm"}, {"days": "Sun", "time": "Closed"}], "id": "1485000092", "name": "USPS COLLECTION BOX - BLUE BOX", "address": {"city": "ITHACA", "state": "NY", "street": "1 ANABEL TAYLOR HALL", "postcode": "14850"}}},
{"geometry": {"type": "Point", "coordinates": [-76.5089362434, 42.4391837146]}, "type": "Feature", "properties": {"collection_times": [{"days": "Mon-Fri", "time": "4:30pm"}, {"days": "Sat", "time": "9:30am"}, {"days": "Sun", "time": "Closed"}], "id": "1485000099", "name": "USPS COLLECTION BOX - BLUE BOX", "address": {"city": "ITHACA", "state": "NY", "street": "615 W STATE ST", "postcode": "14850"}}},
{"geometry": {"type": "Point", "coordinates": [-76.496760347, 42.4396234204]}, "type": "Feature", "properties": {"collection_times": [{"days": "Mon-Fri", "time": "5:00pm"}, {"days": "Sat", "time": "12:00pm"}, {"days": "Sun", "time": "Closed"}], "id": "1485000103", "name": "USPS COLLECTION BOX - BLUE BOX", "address": {"city": "ITHACA", "state": "NY", "street": "202 E STATE ST", "postcode": "14850"}}},
{"geometry": {"type": "Point", "coordinates": [-76.4676148783, 42.4905103928]}, "type": "Feature", "properties": {"collection_times": [{"days": "Mon-Fri", "time": "5:30pm"}, {"days": "Sat", "time": "4:15pm"}, {"days": "Sun", "time": "Closed"}], "id": "1485000110", "name": "USPS COLLECTION BOX - PO LOBBY", "address": {"city": "ITHACA", "state": "NY", "street": "757 WARREN RD", "postcode": "14850"}}},
{"geometry": {"type": "Point", "coordinates": [-76.4676148783, 42.4905103928]}, "type": "Feature", "properties": {"collection_times": [{"days": "Mon-Fri", "time": "5:30pm"}, {"days": "Sat", "time": "4:15pm"}, {"days": "Sun", "time": "Closed"}], "id": "1485000111", "name": "USPS COLLECTION BOX - PO LOBBY", "address": {"city": "ITHACA", "state": "NY", "street": "757 WARREN RD", "postcode": "14850"}}},
{"geometry": {"type": "Point", "coordinates": [-76.4968234329, 42.4405955854]}, "type": "Feature", "properties": {"collection_times": [{"days": "Mon-Fri", "time": "5:30pm"}, {"days": "Sat", "time": "12:00pm"}, {"days": "Sun", "time": "Closed"}], "id": "1485000115", "name": "USPS COLLECTION BOX - PO LOBBY", "address": {"city": "ITHACA", "state": "NY", "street": "213 N TIOGA ST", "postcode": "14850"}}},
{"geometry": {"type": "Point", "coordinates": [-76.49695, 42.45609]}, "type": "Feature", "properties": {"collection_times": [{"days": "Mon-Fri", "time": "4:30pm"}, {"days": "Sat", "time": "12:00pm"}, {"days": "Sun", "time": "Closed"}], "id": "1485000116", "name": "USPS COLLECTION BOX - PO LOBBY", "address": {"city": "ITHACA", "state": "NY", "street": "1939 E SHORE DR STE 2", "postcode": "14850"}}},
{"geometry": {"type": "Point", "coordinates": [-76.4925868735, 42.4503218432]}, "type": "Feature", "properties": {"collection_times": [{"days": "Mon-Sat", "time": "9:00am"}, {"days": "Sun", "time": "Closed"}], "id": "1485000117", "name": "USPS COLLECTION BOX - BLUE BOX", "address": {"city": "ITHACA", "state": "NY", "street": "210 LAKE ST", "postcode": "14850"}}},
{"geometry": {"type": "Point", "coordinates": [-76.4674903991, 42.4871449899]}, "type": "Feature", "properties": {"collection_times": [{"days": "Mon-Sat", "time": "9:00am"}, {"days": "Sun", "time": "Closed"}], "id": "1485000122", "name": "USPS COLLECTION BOX - BLUE BOX", "address": {"city": "ITHACA", "state": "NY", "street": "700 WARREN RD", "postcode": "14850"}}},
{"geometry": {"type": "Point", "coordinates": [-76.505516615, 42.44689836]}, "type": "Feature", "properties": {"collection_times": [{"days": "Mon-Sat", "time": "9:00am"}, {"days": "Sun", "time": "Closed"}], "id": "1485000124", "name": "USPS COLLECTION BOX - BLUE BOX", "address": {"city": "ITHACA", "state": "NY", "street": "301 3RD ST", "postcode": "14850"}}},
{"geometry": {"type": "Point", "coordinates": [-76.5061623379, 42.4384712742]}, "type": "Feature", "properties": {"collection_times": [{"days": "Mon-Sat", "time": "3:00pm"}, {"days": "Sun", "time": "Closed"}], "id": "1485000129", "name": "USPS COLLECTION BOX - BLUE BOX", "address": {"city": "ITHACA", "state": "NY", "street": "600 W GREEN ST", "postcode": "14850"}}},
{"geometry": {"type": "Point", "coordinates": [-76.4983239038, 42.4387075647]}, "type": "Feature", "properties": {"collection_times": [{"days": "Mon-Fri", "time": "4:30pm"}, {"days": "Sat", "time": "10:30am"}, {"days": "Sun", "time": "Closed"}], "id": "1485000134", "name": "USPS COLLECTION BOX - BLUE BOX", "address": {"city": "ITHACA", "state": "NY", "street": "108 E GREEN ST", "postcode": "14850"}}},
{"geometry": {"type": "Point", "coordinates": [-76.4967952644, 42.4413277804]}, "type": "Feature", "properties": {"collection_times": [{"days": "Mon-Fri", "time": "5:00pm"}, {"days": "Sat", "time": "10:00am"}, {"days": "Sun", "time": "Closed"}], "id": "1485000138", "name": "USPS COLLECTION BOX - BLUE BOX", "address": {"city": "ITHACA", "state": "NY", "street": "209 E BUFFALO ST", "postcode": "14850"}}},
{"geometry": {"type": "Point", "coordinates": [-76.4968234329, 42.4405955854]}, "type": "Feature", "properties": {"collection_times": [{"days": "Mon-Fri", "time": "5:15pm"}, {"days": "Sat", "time": "12:00pm"}, {"days": "Sun", "time": "Closed"}], "id": "1485000139", "name": "USPS COLLECTION BOX - APC", "address": {"city": "ITHACA", "state": "NY", "street": "213 N TIOGA ST", "postcode": "14850"}}},
{"geometry": {"type": "Point", "coordinates": [-76.4676148783, 42.4905103928]}, "type": "Feature", "properties": {"collection_times": [{"days": "Mon-Fri", "time": "5:30pm"}, {"days": "Sat", "time": "4:15pm"}, {"days": "Sun", "time": "Closed"}], "id": "1485000140", "name": "USPS COLLECTION BOX - APC", "address": {"city": "ITHACA", "state": "NY", "street": "757 WARREN RD", "postcode": "14850"}}},
{"geometry": {"type": "Point", "coordinates": [-76.5081583021, 42.4336479747]}, "type": "Feature", "properties": {"collection_times": [{"days": "Mon-Sat", "time": "9:30am"}, {"days": "Sun", "time": "Closed"}], "id": "1485000141", "name": "USPS COLLECTION BOX - BLUE BOX", "address": {"city": "ITHACA", "state": "NY", "street": "614 S MEADOW ST", "postcode": "14850"}}},
{"geometry": {"type": "Point", "coordinates": [-76.4640399198, 42.4875033134]}, "type": "Feature", "properties": {"collection_times": [{"days": "Mon-Sat", "time": "10:00am"}, {"days": "Sun", "time": "Closed"}], "id": "1485000142", "name": "USPS COLLECTION BOX - BLUE BOX", "address": {"city": "ITHACA", "state": "NY", "street": "1 CULLIGAN DR", "postcode": "14850"}}},
{"geometry": {"type": "Point", "coordinates": [-76.4795512122, 42.4497327585]}, "type": "Feature", "properties": {"collection_times": [{"days": "Mon-Sat", "time": "12:00pm"}, {"days": "Sun", "time": "Closed"}], "id": "1485000143", "name": "USPS COLLECTION BOX - BLUE BOX", "address": {"city": "ITHACA", "state": "NY", "street": "245 GARDEN AVE", "postcode": "14850"}}},
{"geometry": {"type": "Point", "coordinates": [-76.4922027837, 42.4392241785]}, "type": "Feature", "properties": {"collection_times": [{"days": "Mon-Sat", "time": "9:30am"}, {"days": "Sun", "time": "Closed"}], "id": "1485000144", "name": "USPS COLLECTION BOX - BLUE BOX", "address": {"city": "ITHACA", "state": "NY", "street": "401 E STATE ST", "postcode": "14850"}}},
{"geometry": {"type": "Point", "coordinates": [-76.5184262988, 42.4419505654]}, "type": "Feature", "properties": {"collection_times": [{"days": "Mon-Sat", "time": "12:00pm"}, {"days": "Sun", "time": "Closed"}], "id": "1485000147", "name": "USPS COLLECTION BOX - BLUE BOX", "address": {"city": "ITHACA", "state": "NY", "street": "1 DAY HILL RD", "postcode": "14850"}}},
{"geometry": {"type": "Point", "coordinates": [-76.4968234329, 42.4405955854]}, "type": "Feature", "properties": {"collection_times": [{"days": "Mon-Fri", "time": "5:00pm"}, {"days": "Sat", "time": "12:00pm"}, {"days": "Sun", "time": "Closed"}], "id": "1485000148", "name": "USPS COLLECTION BOX - BLUE BOX", "address": {"city": "ITHACA", "state": "NY", "street": "213 N TIOGA ST", "postcode": "14850"}}},
{"geometry": {"type": "Point", "coordinates": [-76.6137453445, 42.5075993577]}, "type": "Feature", "properties": {"collection_times": [{"days": "Mon-Fri", "time": "4:30pm"}, {"days": "Sat", "time": "11:30am"}, {"days": "Sun", "time": "Closed"}], "id": "1485400001", "name": "USPS COLLECTION BOX - BLUE BOX", "address": {"city": "JACKSONVILLE", "state": "NY", "street": "1852 TRUMANSBURG RD", "postcode": "14854"}}},
{"geometry": {"type": "Point", "coordinates": [-76.6137453445, 42.5075993577]}, "type": "Feature", "properties": {"collection_times": [{"days": "Mon-Fri", "time": "5:00pm"}, {"days": "Sat", "time": "12:00pm"}, {"days": "Sun", "time": "Closed"}], "id": "1485400002", "name": "USPS COLLECTION BOX - PO LOBBY", "address": {"city": "JACKSONVILLE", "state": "NY", "street": "1852 TRUMANSBURG RD", "postcode": "14854"}}},
{"geometry": {"type": "Point", "coordinates": [-77.4793174106, 42.1412669916]}, "type": "Feature", "properties": {"collection_times": [{"days": "Mon-Fri", "time": "4:30pm"}, {"days": "Sat", "time": "11:30am"}, {"days": "Sun", "time": "Closed"}], "id": "1485500001", "name": "USPS COLLECTION BOX - BLUE BOX", "address": {"city": "JASPER", "state": "NY", "street": "3807 LIBRARY ST", "postcode": "14855"}}},
{"geometry": {"type": "Point", "coordinates": [-77.4793174106, 42.1412669916]}, "type": "Feature", "properties": {"collection_times": [{"days": "Mon-Fri", "time": "4:30pm"}, {"days": "Sat", "time": "11:30am"}, {"days": "Sun", "time": "Closed"}], "id": "1485500002", "name": "USPS COLLECTION BOX - PO LOBBY", "address": {"city": "JASPER", "state": "NY", "street": "3807 LIBRARY ST", "postcode": "14855"}}},
{"geometry": {"type": "Point", "coordinates": [-77.3181918655, 42.3356090695]}, "type": "Feature", "properties": {"collection_times": [{"days": "Mon-Fri", "time": "4:45pm"}, {"days": "Sat", "time": "11:45am"}, {"days": "Sun", "time": "Closed"}], "id": "1485600001", "name": "USPS COLLECTION BOX - BLUE BOX", "address": {"city": "KANONA", "state": "NY", "street": "7662 N MAIN ST", "postcode": "14856"}}},
{"geometry": {"type": "Point", "coordinates": [-77.3181918655, 42.3356090695]}, "type": "Feature", "properties": {"collection_times": [{"days": "Mon-Fri", "time": "4:45pm"}, {"days": "Sat", "time": "11:45am"}, {"days": "Sun", "time": "Closed"}], "id": "1485600002", "name": "USPS COLLECTION BOX - PO LOBBY", "address": {"city": "KANONA", "state": "NY", "street": "7662 N MAIN ST", "postcode": "14856"}}},
{"geometry": {"type": "Point", "coordinates": [-76.9764092436, 42.5220430581]}, "type": "Feature", "properties": {"collection_times": [{"days": "Mon-Fri", "time": "4:45pm"}, {"days": "Sat", "time": "11:45am"}, {"days": "Sun", "time": "Closed"}], "id": "1485700001", "name": "USPS COLLECTION BOX - BLUE BOX", "address": {"city": "LAKEMONT", "state": "NY", "street": "5160 LAKEMONT HIMROD RD", "postcode": "14857"}}},
{"geometry": {"type": "Point", "coordinates": [-76.9764092436, 42.5220430581]}, "type": "Feature", "properties": {"collection_times": [{"days": "Mon-Fri", "time": "4:45pm"}, {"days": "Sat", "time": "11:45am"}, {"days": "Sun", "time": "Closed"}], "id": "1485700002", "name": "USPS COLLECTION BOX - PO LOBBY", "address": {"city": "LAKEMONT", "state": "NY", "street": "5160 LAKEMONT HIMROD RD", "postcode": "14857"}}},
{"geometry": {"type": "Point", "coordinates": [-77.1305966254, 42.0294573699]}, "type": "Feature", "properties": {"collection_times": [{"days": "Mon-Fri", "time": "12:00pm"}, {"days": "Sat", "time": "11:30am"}, {"days": "Sun", "time": "Closed"}], "id": "1485800001", "name": "USPS COLLECTION BOX - BLUE BOX", "address": {"city": "LINDLEY", "state": "NY", "street": "637 COUNTY ROUTE 115", "postcode": "14858"}}},
{"geometry": {"type": "Point", "coordinates": [-77.1305966254, 42.0294573699]}, "type": "Feature", "properties": {"collection_times": [{"days": "Mon-Sat", "time": "12:00pm"}, {"days": "Sun", "time": "Closed"}], "id": "1485800002", "name": "USPS COLLECTION BOX - PO LOBBY", "address": {"city": "LINDLEY", "state": "NY", "street": "637 COUNTY ROUTE 115", "postcode": "14858"}}},
{"geometry": {"type": "Point", "coordinates": [-76.5457457925, 42.1024272075]}, "type": "Feature", "properties": {"collection_times": [{"days": "Mon-Fri", "time": "12:30pm"}, {"days": "Sat", "time": "11:45am"}, {"days": "Sun", "time": "Closed"}], "id": "1485900000", "name": "USPS COLLECTION BOX - PO LOBBY", "address": {"city": "LOCKWOOD", "state": "NY", "street": "1557 STATE ROUTE 34", "postcode": "14859"}}},
{"geometry": {"type": "Point", "coordinates": [-76.5457457925, 42.1024272075]}, "type": "Feature", "properties": {"collection_times": [{"days": "Mon-Fri", "time": "12:30pm"}, {"days": "Sat", "time": "11:45am"}, {"days": "Sun", "time": "Closed"}], "id": "1485900001", "name": "USPS COLLECTION BOX - BLUE BOX", "address": {"city": "LOCKWOOD", "state": "NY", "street": "1557 STATE ROUTE 34", "postcode": "14859"}}},
{"geometry": {"type": "Point", "coordinates": [-76.8228991363, 42.6144316931]}, "type": "Feature", "properties": {"collection_times": [{"days": "Mon-Fri", "time": "12:30pm"}, {"days": "Sat", "time": "11:30am"}, {"days": "Sun", "time": "Closed"}], "id": "1486000001", "name": "USPS COLLECTION BOX - BLUE BOX", "address": {"city": "LODI", "state": "NY", "street": "8455 N MAIN ST", "postcode": "14860"}}},
{"geometry": {"type": "Point", "coordinates": [-76.8228991363, 42.6144316931]}, "type": "Feature", "properties": {"collection_times": [{"days": "Mon-Fri", "time": "12:30pm"}, {"days": "Sat", "time": "11:30am"}, {"days": "Sun", "time": "Closed"}], "id": "1486000002", "name": "USPS COLLECTION BOX - PO LOBBY", "address": {"city": "LODI", "state": "NY", "street": "8455 N MAIN ST", "postcode": "14860"}}},
{"geometry": {"type": "Point", "coordinates": [-76.7229409239, 42.0304802429]}, "type": "Feature", "properties": {"collection_times": [{"days": "Mon-Fri", "time": "12:00pm"}, {"days": "Sat", "time": "11:30am"}, {"days": "Sun", "time": "Closed"}], "id": "1486100001", "name": "USPS COLLECTION BOX - BLUE BOX", "address": {"city": "LOWMAN", "state": "NY", "street": "1931 COUNTY ROAD 60", "postcode": "14861"}}},
{"geometry": {"type": "Point", "coordinates": [-76.7229409239, 42.0304802429]}, "type": "Feature", "properties": {"collection_times": [{"days": "Mon-Fri", "time": "12:00pm"}, {"days": "Sat", "time": "11:30am"}, {"days": "Sun", "time": "Closed"}], "id": "1486100002", "name": "USPS COLLECTION BOX - PO LOBBY", "address": {"city": "LOWMAN", "state": "NY", "street": "1931 COUNTY ROAD 60", "postcode": "14861"}}},
{"geometry": {"type": "Point", "coordinates": [-76.7103530422, 42.4563360136]}, "type": "Feature", "properties": {"collection_times": [{"days": "Mon-Fri", "time": "12:00pm"}, {"days": "Sat", "time": "11:30am"}, {"days": "Sun", "time": "Closed"}], "id": "1486300001", "name": "USPS COLLECTION BOX - BLUE BOX", "address": {"city": "MECKLENBURG", "state": "NY", "street": "6123 MECKLENBURG RD", "postcode": "14863"}}},
{"geometry": {"type": "Point", "coordinates": [-76.7103530422, 42.4563360136]}, "type": "Feature", "properties": {"collection_times": [{"days": "Mon-Fri", "time": "12:00pm"}, {"days": "Sat", "time": "11:45am"}, {"days": "Sun", "time": "Closed"}], "id": "1486300002", "name": "USPS COLLECTION BOX - PO LOBBY", "address": {"city": "MECKLENBURG", "state": "NY", "street": "6123 MECKLENBURG RD", "postcode": "14863"}}},
{"geometry": {"type": "Point", "coordinates": [-76.8363393703, 42.2512842655]}, "type": "Feature", "properties": {"collection_times": [{"days": "Mon-Fri", "time": "12:00pm"}, {"days": "Sat", "time": "11:45am"}, {"days": "Sun", "time": "Closed"}], "id": "1486400001", "name": "USPS COLLECTION BOX - BLUE BOX", "address": {"city": "MILLPORT", "state": "NY", "street": "3 BURCH HILL RD", "postcode": "14864"}}},
{"geometry": {"type": "Point", "coordinates": [-76.8363393703, 42.2512842655]}, "type": "Feature", "properties": {"collection_times": [{"days": "Mon-Fri", "time": "12:00pm"}, {"days": "Sat", "time": "11:45am"}, {"days": "Sun", "time": "Closed"}], "id": "1486400002", "name": "USPS COLLECTION BOX - PO LOBBY", "address": {"city": "MILLPORT", "state": "NY", "street": "3 BURCH HILL RD", "postcode": "14864"}}},
{"geometry": {"type": "Point", "coordinates": [-76.847906516, 42.3461821354]}, "type": "Feature", "properties": {"collection_times": [{"days": "Mon-Fri", "time": "4:30pm"}, {"days": "Sat", "time": "12:00pm"}, {"days": "Sun", "time": "Closed"}], "id": "1486500002", "name": "USPS COLLECTION BOX - BLUE BOX", "address": {"city": "MONTOUR FALLS", "state": "NY", "street": "309 W MAIN ST", "postcode": "14865"}}},
{"geometry": {"type": "Point", "coordinates": [-76.847906516, 42.3461821354]}, "type": "Feature", "properties": {"collection_times": [{"days": "Mon-Fri", "time": "5:00pm"}, {"days": "Sat", "time": "12:00pm"}, {"days": "Sun", "time": "Closed"}], "id": "1486500003", "name": "USPS COLLECTION BOX - PO LOBBY", "address": {"city": "MONTOUR FALLS", "state": "NY", "street": "309 W MAIN ST", "postcode": "14865"}}},
{"geometry": {"type": "Point", "coordinates": [-76.5997481807, 42.3591525552]}, "type": "Feature", "properties": {"collection_times": [{"days": "Mon-Fri", "time": "4:30pm"}, {"days": "Sat", "time": "12:00pm"}, {"days": "Sun", "time": "Closed"}], "id": "1486700001", "name": "USPS COLLECTION BOX - BLUE BOX", "address": {"city": "NEWFIELD", "state": "NY", "street": "298 MAIN ST", "postcode": "14867"}}},
{"geometry": {"type": "Point", "coordinates": [-76.5997481807, 42.3591525552]}, "type": "Feature", "properties": {"collection_times": [{"days": "Mon-Fri", "time": "4:45pm"}, {"days": "Sat", "time": "12:00pm"}, {"days": "Sun", "time": "Closed"}], "id": "1486700004", "name": "USPS COLLECTION BOX - PO LOBBY", "address": {"city": "NEWFIELD", "state": "NY", "street": "298 MAIN ST", "postcode": "14867"}}},
{"geometry": {"type": "Point", "coordinates": [-76.7865064142, 42.3362767905]}, "type": "Feature", "properties": {"collection_times": [{"days": "Mon-Fri", "time": "3:30pm"}, {"days": "Sat", "time": "11:45am"}, {"days": "Sun", "time": "Closed"}], "id": "1486900002", "name": "USPS COLLECTION BOX - BLUE BOX", "address": {"city": "ODESSA", "state": "NY", "street": "223 MAIN ST", "postcode": "14869"}}},
{"geometry": {"type": "Point", "coordinates": [-76.7865064142, 42.3362767905]}, "type": "Feature", "properties": {"collection_times": [{"days": "Mon-Fri", "time": "3:30pm"}, {"days": "Sat", "time": "12:00pm"}, {"days": "Sun", "time": "Closed"}], "id": "1486900003", "name": "USPS COLLECTION BOX - PO LOBBY", "address": {"city": "ODESSA", "state": "NY", "street": "223 MAIN ST", "postcode": "14869"}}},
{"geometry": {"type": "Point", "coordinates": [-77.0925765628, 42.158387681]}, "type": "Feature", "properties": {"collection_times": [{"days": "Mon-Fri", "time": "5:00pm"}, {"days": "Sat", "time": "12:00pm"}, {"days": "Sun", "time": "Closed"}], "id": "1487000001", "name": "USPS COLLECTION BOX - BLUE BOX", "address": {"city": "PAINTED POST", "state": "NY", "street": "135 N HAMILTON ST", "postcode": "14870"}}},
{"geometry": {"type": "Point", "coordinates": [-77.0825722788, 42.155964981]}, "type": "Feature", "properties": {"collection_times": [{"days": "Mon-Sat", "time": "10:00am"}, {"days": "Sun", "time": "Closed"}], "id": "1487000003", "name": "USPS COLLECTION BOX - BLUE BOX", "address": {"city": "PAINTED POST", "state": "NY", "street": "523 E HIGH ST", "postcode": "14870"}}},
{"geometry": {"type": "Point", "coordinates": [-77.136484675, 42.2309400295]}, "type": "Feature", "properties": {"collection_times": [{"days": "Mon-Fri", "time": "10:00am"}, {"days": "Sat-Sun", "time": "Closed"}], "id": "1487000005", "name": "USPS COLLECTION BOX - BLUE BOX", "address": {"city": "PAINTED POST", "state": "NY", "street": "4759 TAFT RD", "postcode": "14870"}}},
{"geometry": {"type": "Point", "coordinates": [-77.1062563003, 42.1513916616]}, "type": "Feature", "properties": {"collection_times": [{"days": "Mon-Fri", "time": "9:30am"}, {"days": "Sat-Sun", "time": "Closed"}], "id": "1487000007", "name": "USPS COLLECTION BOX - BLUE BOX", "address": {"city": "PAINTED POST", "state": "NY", "street": "240 S HAMILTON ST", "postcode": "14870"}}},
{"geometry": {"type": "Point", "coordinates": [-77.0925765628, 42.158387681]}, "type": "Feature", "properties": {"collection_times": [{"days": "Mon-Fri", "time": "5:00pm"}, {"days": "Sat", "time": "12:00pm"}, {"days": "Sun", "time": "Closed"}], "id": "1487000011", "name": "USPS COLLECTION BOX - PO LOBBY", "address": {"city": "PAINTED POST", "state": "NY", "street": "135 N HAMILTON ST", "postcode": "14870"}}},
{"geometry": {"type": "Point", "coordinates": [-77.0925765628, 42.158387681]}, "type": "Feature", "properties": {"collection_times": [{"days": "Mon-Fri", "time": "5:00pm"}, {"days": "Sat", "time": "12:00pm"}, {"days": "Sun", "time": "Closed"}], "id": "1487000013", "name": "USPS COLLECTION BOX - BLUE BOX", "address": {"city": "PAINTED POST", "state": "NY", "street": "135 N HAMILTON ST", "postcode": "14870"}}},
{"geometry": {"type": "Point", "coordinates": [-77.1355414274, 42.1701345015]}, "type": "Feature", "properties": {"collection_times": [{"days": "Mon-Fri", "time": "9:30am"}, {"days": "Sat-Sun", "time": "Closed"}], "id": "1487000015", "name": "USPS COLLECTION BOX - BLUE BOX", "address": {"city": "PAINTED POST", "state": "NY", "street": "3217 SILVERBACK LN", "postcode": "14870"}}},
{"geometry": {"type": "Point", "coordinates": [-77.133218301, 42.1403771307]}, "type": "Feature", "properties": {"collection_times": [{"days": "Mon-Fri", "time": "10:00am"}, {"days": "Sat-Sun", "time": "Closed"}], "id": "1487000017", "name": "USPS COLLECTION BOX - BLUE BOX", "address": {"city": "PAINTED POST", "state": "NY", "street": "2900 WOODS EDGE DR", "postcode": "14870"}}},
{"geometry": {"type": "Point", "coordinates": [-76.8735103069, 42.0356509565]}, "type": "Feature", "properties": {"collection_times": [{"days": "Mon-Fri", "time": "5:00pm"}, {"days": "Sat", "time": "12:00pm"}, {"days": "Sun", "time": "Closed"}], "id": "1487100001", "name": "USPS COLLECTION BOX - BLUE BOX", "address": {"city": "PINE CITY", "state": "NY", "street": "1565 PENNSYLVANIA AVE", "postcode": "14871"}}},
{"geometry": {"type": "Point", "coordinates": [-76.8735103069, 42.0356509565]}, "type": "Feature", "properties": {"collection_times": [{"days": "Mon-Fri", "time": "5:00pm"}, {"days": "Sat", "time": "12:00pm"}, {"days": "Sun", "time": "Closed"}], "id": "1487100002", "name": "USPS COLLECTION BOX - PO LOBBY", "address": {"city": "PINE CITY", "state": "NY", "street": "1565 PENNSYLVANIA AVE", "postcode": "14871"}}},
{"geometry": {"type": "Point", "coordinates": [-76.8442275277, 42.2281048081]}, "type": "Feature", "properties": {"collection_times": [{"days": "Mon-Fri", "time": "4:45pm"}, {"days": "Sat", "time": "11:45am"}, {"days": "Sun", "time": "Closed"}], "id": "1487200001", "name": "USPS COLLECTION BOX - BLUE BOX", "address": {"city": "PINE VALLEY", "state": "NY", "street": "3703 WATKINS RD", "postcode": "14872"}}},
{"geometry": {"type": "Point", "coordinates": [-76.8442275277, 42.2281048081]}, "type": "Feature", "properties": {"collection_times": [{"days": "Mon-Fri", "time": "4:45pm"}, {"days": "Sat", "time": "11:45am"}, {"days": "Sun", "time": "Closed"}], "id": "1487200002", "name": "USPS COLLECTION BOX - PO LOBBY", "address": {"city": "PINE VALLEY", "state": "NY", "street": "3703 WATKINS RD", "postcode": "14872"}}},
{"geometry": {"type": "Point", "coordinates": [-77.2890412047, 42.5232110428]}, "type": "Feature", "properties": {"collection_times": [{"days": "Mon-Fri", "time": "4:30pm"}, {"days": "Sat", "time": "12:00pm"}, {"days": "Sun", "time": "Closed"}], "id": "1487300001", "name": "USPS COLLECTION BOX - BLUE BOX", "address": {"city": "PRATTSBURGH", "state": "NY", "street": "10 MAIN ST", "postcode": "14873"}}},
{"geometry": {"type": "Point", "coordinates": [-77.2890412047, 42.5232110428]}, "type": "Feature", "properties": {"collection_times": [{"days": "Mon-Fri", "time": "4:30pm"}, {"days": "Sat", "time": "12:00pm"}, {"days": "Sun", "time": "Closed"}], "id": "1487300002", "name": "USPS COLLECTION BOX - PO LOBBY", "address": {"city": "PRATTSBURGH", "state": "NY", "street": "10 MAIN ST", "postcode": "14873"}}},
{"geometry": {"type": "Point", "coordinates": [-77.1651120577, 42.5281723727]}, "type": "Feature", "properties": {"collection_times": [{"days": "Mon-Sat", "time": "12:00pm"}, {"days": "Sun", "time": "Closed"}], "id": "1487400001", "name": "USPS COLLECTION BOX - BLUE BOX", "address": {"city": "PULTENEY", "state": "NY", "street": "9256 COUNTY ROUTE 74", "postcode": "14874"}}},
{"geometry": {"type": "Point", "coordinates": [-77.1651120577, 42.5281723727]}, "type": "Feature", "properties": {"collection_times": [{"days": "Mon-Sat", "time": "12:00pm"}, {"days": "Sun", "time": "Closed"}], "id": "1487400002", "name": "USPS COLLECTION BOX - PO LOBBY", "address": {"city": "PULTENEY", "state": "NY", "street": "9256 COUNTY ROUTE 74", "postcode": "14874"}}},
{"geometry": {"type": "Point", "coordinates": [-76.8730925991, 42.3791390808]}, "type": "Feature", "properties": {"collection_times": [{"days": "Mon-Fri", "time": "4:45pm"}, {"days": "Sat", "time": "11:45am"}, {"days": "Sun", "time": "Closed"}], "id": "1487600001", "name": "USPS COLLECTION BOX - BLUE BOX", "address": {"city": "READING CENTER", "state": "NY", "street": "4051 STATE ROUTE 14A", "postcode": "14876"}}},
{"geometry": {"type": "Point", "coordinates": [-76.8730925991, 42.3791390808]}, "type": "Feature", "properties": {"collection_times": [{"days": "Mon-Fri", "time": "4:45pm"}, {"days": "Sat", "time": "11:45am"}, {"days": "Sun", "time": "Closed"}], "id": "1487600002", "name": "USPS COLLECTION BOX - PO LOBBY", "address": {"city": "READING CENTER", "state": "NY", "street": "4051 STATE ROUTE 14A", "postcode": "14876"}}},
{"geometry": {"type": "Point", "coordinates": [-77.6609435353, 42.0832041912]}, "type": "Feature", "properties": {"collection_times": [{"days": "Mon-Fri", "time": "12:00pm"}, {"days": "Sat", "time": "11:45am"}, {"days": "Sun", "time": "Closed"}], "id": "1487700000", "name": "USPS COLLECTION BOX - BLUE BOX", "address": {"city": "REXVILLE", "state": "NY", "street": "881 COUNTY ROUTE 117", "postcode": "14877"}}},
{"geometry": {"type": "Point", "coordinates": [-77.6609435353, 42.0832041912]}, "type": "Feature", "properties": {"collection_times": [{"days": "Mon-Fri", "time": "12:00pm"}, {"days": "Sat", "time": "11:45am"}, {"days": "Sun", "time": "Closed"}], "id": "1487700001", "name": "USPS COLLECTION BOX - PO LOBBY", "address": {"city": "REXVILLE", "state": "NY", "street": "881 COUNTY ROUTE 117", "postcode": "14877"}}},
{"geometry": {"type": "Point", "coordinates": [-76.9273692456, 42.4710188933]}, "type": "Feature", "properties": {"collection_times": [{"days": "Mon-Fri", "time": "12:00pm"}, {"days": "Sat", "time": "11:45am"}, {"days": "Sun", "time": "Closed"}], "id": "1487800001", "name": "USPS COLLECTION BOX - BLUE BOX", "address": {"city": "ROCK STREAM", "state": "NY", "street": "278 ROCK STREAM RD", "postcode": "14878"}}},
{"geometry": {"type": "Point", "coordinates": [-76.9273692456, 42.4710188933]}, "type": "Feature", "properties": {"collection_times": [{"days": "Mon-Fri", "time": "12:00pm"}, {"days": "Sat", "time": "11:45am"}, {"days": "Sun", "time": "Closed"}], "id": "1487800002", "name": "USPS COLLECTION BOX - PO LOBBY", "address": {"city": "ROCK STREAM", "state": "NY", "street": "278 ROCK STREAM RD", "postcode": "14878"}}},
{"geometry": {"type": "Point", "coordinates": [-77.2197262045, 42.2849476913]}, "type": "Feature", "properties": {"collection_times": [{"days": "Mon-Fri", "time": "4:30pm"}, {"days": "Sat", "time": "12:00pm"}, {"days": "Sun", "time": "Closed"}], "id": "1487900002", "name": "USPS COLLECTION BOX - BLUE BOX", "address": {"city": "SAVONA", "state": "NY", "street": "47 MAIN ST", "postcode": "14879"}}},
{"geometry": {"type": "Point", "coordinates": [-77.2197262045, 42.2849476913]}, "type": "Feature", "properties": {"collection_times": [{"days": "Mon-Fri", "time": "4:30pm"}, {"days": "Sat", "time": "12:00pm"}, {"days": "Sun", "time": "Closed"}], "id": "1487900003", "name": "USPS COLLECTION BOX - PO LOBBY", "address": {"city": "SAVONA", "state": "NY", "street": "47 MAIN ST", "postcode": "14879"}}},
{"geometry": {"type": "Point", "coordinates": [-77.983487824, 42.173395229]}, "type": "Feature", "properties": {"collection_times": [{"days": "Mon-Fri", "time": "4:45pm"}, {"days": "Sat", "time": "11:45am"}, {"days": "Sun", "time": "Closed"}], "id": "1488000001", "name": "USPS COLLECTION BOX - BLUE BOX", "address": {"city": "SCIO", "state": "NY", "street": "4422 W SCIOTA ST", "postcode": "14880"}}},
{"geometry": {"type": "Point", "coordinates": [-77.983487824, 42.173395229]}, "type": "Feature", "properties": {"collection_times": [{"days": "Mon-Fri", "time": "5:00pm"}, {"days": "Sat", "time": "12:00pm"}, {"days": "Sun", "time": "Closed"}], "id": "1488000002", "name": "USPS COLLECTION BOX - PO LOBBY", "address": {"city": "SCIO", "state": "NY", "street": "4422 W SCIOTA ST", "postcode": "14880"}}},
{"geometry": {"type": "Point", "coordinates": [-76.3467197524, 42.393997618]}, "type": "Feature", "properties": {"collection_times": [{"days": "Mon-Fri", "time": "12:30pm"}, {"days": "Sat", "time": "11:45am"}, {"days": "Sun", "time": "Closed"}], "id": "1488100001", "name": "USPS COLLECTION BOX - BLUE BOX", "address": {"city": "SLATERVLE SPG", "state": "NY", "street": "2706 SLATERVILLE RD", "postcode": "14881"}}},
{"geometry": {"type": "Point", "coordinates": [-76.3467197524, 42.393997618]}, "type": "Feature", "properties": {"collection_times": [{"days": "Mon-Fri", "time": "12:30pm"}, {"days": "Sat", "time": "11:45am"}, {"days": "Sun", "time": "Closed"}], "id": "1488100002", "name": "USPS COLLECTION BOX - PO LOBBY", "address": {"city": "SLATERVLE SPG", "state": "NY", "street": "2706 SLATERVILLE RD", "postcode": "14881"}}},
{"geometry": {"type": "Point", "coordinates": [-76.4938074812, 42.2214122188]}, "type": "Feature", "properties": {"collection_times": [{"days": "Mon-Fri", "time": "4:45pm"}, {"days": "Sat", "time": "11:45am"}, {"days": "Sun", "time": "Closed"}], "id": "1488300001", "name": "USPS COLLECTION BOX - BLUE BOX", "address": {"city": "SPENCER", "state": "NY", "street": "196 N MAIN ST", "postcode": "14883"}}},
{"geometry": {"type": "Point", "coordinates": [-76.4938074812, 42.2214122188]}, "type": "Feature", "properties": {"collection_times": [{"days": "Mon-Fri", "time": "5:00pm"}, {"days": "Sat", "time": "12:00pm"}, {"days": "Sun", "time": "Closed"}], "id": "1488300004", "name": "USPS COLLECTION BOX - PO LOBBY", "address": {"city": "SPENCER", "state": "NY", "street": "196 N MAIN ST", "postcode": "14883"}}},
{"geometry": {"type": "Point", "coordinates": [-76.4929998924, 42.209784344]}, "type": "Feature", "properties": {"collection_times": [{"days": "Mon-Fri", "time": "11:00am"}, {"days": "Sat-Sun", "time": "Closed"}], "id": "1488300005", "name": "USPS COLLECTION BOX - BLUE BOX", "address": {"city": "SPENCER", "state": "NY", "street": "1 N MAIN ST", "postcode": "14883"}}},
{"geometry": {"type": "Point", "coordinates": [-76.4929982553, 42.2095732501]}, "type": "Feature", "properties": {"collection_times": [{"days": "Mon-Fri", "time": "9:00am"}, {"days": "Sat-Sun", "time": "Closed"}], "id": "1488300007", "name": "USPS COLLECTION BOX - BLUE BOX", "address": {"city": "SPENCER", "state": "NY", "street": "3 S MAIN ST", "postcode": "14883"}}},
{"geometry": {"type": "Point", "coordinates": [-77.5458661304, 42.0428125249]}, "type": "Feature", "properties": {"collection_times": [{"days": "Mon-Fri", "time": "12:00pm"}, {"days": "Sat", "time": "11:45am"}, {"days": "Sun", "time": "Closed"}], "id": "1488500001", "name": "USPS COLLECTION BOX - BLUE BOX", "address": {"city": "TROUPSBURG", "state": "NY", "street": "878 MAIN ST", "postcode": "14885"}}},
{"geometry": {"type": "Point", "coordinates": [-77.5458661304, 42.0428125249]}, "type": "Feature", "properties": {"collection_times": [{"days": "Mon-Fri", "time": "12:00pm"}, {"days": "Sat", "time": "11:45am"}, {"days": "Sun", "time": "Closed"}], "id": "1488500002", "name": "USPS COLLECTION BOX - PO LOBBY", "address": {"city": "TROUPSBURG", "state": "NY", "street": "878 MAIN ST", "postcode": "14885"}}},
{"geometry": {"type": "Point", "coordinates": [-76.6657595577, 42.5421695317]}, "type": "Feature", "properties": {"collection_times": [{"days": "Mon-Fri", "time": "4:30pm"}, {"days": "Sat", "time": "12:00pm"}, {"days": "Sun", "time": "Closed"}], "id": "1488600001", "name": "USPS COLLECTION BOX - BLUE BOX", "address": {"city": "TRUMANSBURG", "state": "NY", "street": "67 W MAIN ST", "postcode": "14886"}}},
{"geometry": {"type": "Point", "coordinates": [-76.6388801258, 42.5323357669]}, "type": "Feature", "properties": {"collection_times": [{"days": "Mon-Fri", "time": "9:00am"}, {"days": "Sat-Sun", "time": "Closed"}], "id": "1488600003", "name": "USPS COLLECTION BOX - BLUE BOX", "address": {"city": "TRUMANSBURG", "state": "NY", "street": "2085 STATE ROUTE 96", "postcode": "14886"}}},
{"geometry": {"type": "Point", "coordinates": [-76.6657595577, 42.5421695317]}, "type": "Feature", "properties": {"collection_times": [{"days": "Mon-Fri", "time": "5:00pm"}, {"days": "Sat", "time": "12:00pm"}, {"days": "Sun", "time": "Closed"}], "id": "1488600004", "name": "USPS COLLECTION BOX - PO LOBBY", "address": {"city": "TRUMANSBURG", "state": "NY", "street": "67 W MAIN ST", "postcode": "14886"}}},
{"geometry": {"type": "Point", "coordinates": [-77.0529540362, 42.4140221944]}, "type": "Feature", "properties": {"collection_times": [{"days": "Mon-Fri", "time": "4:15pm"}, {"days": "Sat", "time": "11:30am"}, {"days": "Sun", "time": "Closed"}], "id": "1488700001", "name": "USPS COLLECTION BOX - BLUE BOX", "address": {"city": "TYRONE", "state": "NY", "street": "815 COUNTY ROAD 23", "postcode": "14887"}}},
{"geometry": {"type": "Point", "coordinates": [-77.0529540362, 42.4140221944]}, "type": "Feature", "properties": {"collection_times": [{"days": "Mon-Fri", "time": "4:15pm"}, {"days": "Sat", "time": "11:30am"}, {"days": "Sun", "time": "Closed"}], "id": "1488700002", "name": "USPS COLLECTION BOX - PO LOBBY", "address": {"city": "TYRONE", "state": "NY", "street": "815 COUNTY ROAD 23", "postcode": "14887"}}},
{"geometry": {"type": "Point", "coordinates": [-76.552851535, 42.1988874641]}, "type": "Feature", "properties": {"collection_times": [{"days": "Mon-Fri", "time": "12:30pm"}, {"days": "Sat", "time": "11:45am"}, {"days": "Sun", "time": "Closed"}], "id": "1488900001", "name": "USPS COLLECTION BOX - BLUE BOX", "address": {"city": "VAN ETTEN", "state": "NY", "street": "3 MAIN ST", "postcode": "14889"}}},
{"geometry": {"type": "Point", "coordinates": [-76.552851535, 42.1988874641]}, "type": "Feature", "properties": {"collection_times": [{"days": "Mon-Fri", "time": "12:30pm"}, {"days": "Sat", "time": "12:00pm"}, {"days": "Sun", "time": "Closed"}], "id": "1488900002", "name": "USPS COLLECTION BOX - PO LOBBY", "address": {"city": "VAN ETTEN", "state": "NY", "street": "3 MAIN ST", "postcode": "14889"}}},
{"geometry": {"type": "Point", "coordinates": [-76.8726407974, 42.3792310019]}, "type": "Feature", "properties": {"collection_times": [{"days": "Mon-Fri", "time": "5:15pm"}, {"days": "Sat", "time": "12:00pm"}, {"days": "Sun", "time": "Closed"}], "id": "1489100009", "name": "USPS COLLECTION BOX - PO LOBBY", "address": {"city": "WATKINS GLEN", "state": "NY", "street": "600 N FRANKLIN ST", "postcode": "14891"}}},
{"geometry": {"type": "Point", "coordinates": [-76.8726407974, 42.3792310019]}, "type": "Feature", "properties": {"collection_times": [{"days": "Mon-Fri", "time": "5:15pm"}, {"days": "Sat", "time": "1:00pm"}, {"days": "Sun", "time": "Closed"}], "id": "1489100010", "name": "USPS COLLECTION BOX - BLUE BOX", "address": {"city": "WATKINS GLEN", "state": "NY", "street": "600 N FRANKLIN ST", "postcode": "14891"}}},
{"geometry": {"type": "Point", "coordinates": [-76.864655304, 42.3831086405]}, "type": "Feature", "properties": {"collection_times": [{"days": "Mon-Sat", "time": "11:00am"}, {"days": "Sun", "time": "Closed"}], "id": "1489100013", "name": "USPS COLLECTION BOX - BLUE BOX", "address": {"city": "WATKINS GLEN", "state": "NY", "street": "515 E 4TH ST", "postcode": "14891"}}},
{"geometry": {"type": "Point", "coordinates": [-76.8737835704, 42.3811577814]}, "type": "Feature", "properties": {"collection_times": [{"days": "Mon-Fri", "time": "2:30pm"}, {"days": "Sat", "time": "12:00pm"}, {"days": "Sun", "time": "Closed"}], "id": "1489100014", "name": "USPS COLLECTION BOX - BLUE BOX", "address": {"city": "WATKINS GLEN", "state": "NY", "street": "300 N FRANKLIN ST", "postcode": "14891"}}},
{"geometry": {"type": "Point", "coordinates": [-76.8726407974, 42.3792310019]}, "type": "Feature", "properties": {"collection_times": [{"days": "Mon-Fri", "time": "5:15pm"}, {"days": "Sat", "time": "1:00pm"}, {"days": "Sun", "time": "Closed"}], "id": "1489100015", "name": "USPS COLLECTION BOX - BLUE BOX", "address": {"city": "WATKINS GLEN", "state": "NY", "street": "600 N FRANKLIN ST", "postcode": "14891"}}},
{"geometry": {"type": "Point", "coordinates": [-76.5404226679, 42.0021639966]}, "type": "Feature", "properties": {"collection_times": [{"days": "Mon-Fri", "time": "5:00pm"}, {"days": "Sat", "time": "3:45pm"}, {"days": "Sun", "time": "Closed"}], "id": "1489200001", "name": "USPS COLLECTION BOX - BLUE BOX", "address": {"city": "WAVERLY", "state": "NY", "street": "434 WAVERLY ST", "postcode": "14892"}}},
{"geometry": {"type": "Point", "coordinates": [-76.5469192527, 42.0019226358]}, "type": "Feature", "properties": {"collection_times": [{"days": "Mon-Sat", "time": "9:00am"}, {"days": "Sun", "time": "Closed"}], "id": "1489200002", "name": "USPS COLLECTION BOX - BLUE BOX", "address": {"city": "WAVERLY", "state": "NY", "street": "16 PINE ST", "postcode": "14892"}}},
{"geometry": {"type": "Point", "coordinates": [-76.5424128145, 42.0038094665]}, "type": "Feature", "properties": {"collection_times": [{"days": "Mon-Sat", "time": "9:00am"}, {"days": "Sun", "time": "Closed"}], "id": "1489200003", "name": "USPS COLLECTION BOX - BLUE BOX", "address": {"city": "WAVERLY", "state": "NY", "street": "152 CHEMUNG ST", "postcode": "14892"}}},
{"geometry": {"type": "Point", "coordinates": [-76.5390991578, 42.0074027204]}, "type": "Feature", "properties": {"collection_times": [{"days": "Mon-Sat", "time": "9:00am"}, {"days": "Sun", "time": "Closed"}], "id": "1489200005", "name": "USPS COLLECTION BOX - BLUE BOX", "address": {"city": "WAVERLY", "state": "NY", "street": "30 LINCOLN ST", "postcode": "14892"}}},
{"geometry": {"type": "Point", "coordinates": [-76.5427211198, 42.007070231]}, "type": "Feature", "properties": {"collection_times": [{"days": "Mon-Sat", "time": "9:00am"}, {"days": "Sun", "time": "Closed"}], "id": "1489200006", "name": "USPS COLLECTION BOX - BLUE BOX", "address": {"city": "WAVERLY", "state": "NY", "street": "201 CLINTON AVE", "postcode": "14892"}}},
{"geometry": {"type": "Point", "coordinates": [-76.5377836748, 42.0113231353]}, "type": "Feature", "properties": {"collection_times": [{"days": "Mon-Sat", "time": "9:00am"}, {"days": "Sun", "time": "Closed"}], "id": "1489200007", "name": "USPS COLLECTION BOX - BLUE BOX", "address": {"city": "WAVERLY", "state": "NY", "street": "77 LINCOLN ST", "postcode": "14892"}}},
{"geometry": {"type": "Point", "coordinates": [-76.5372606136, 42.0091414034]}, "type": "Feature", "properties": {"collection_times": [{"days": "Mon-Sat", "time": "9:00am"}, {"days": "Sun", "time": "Closed"}], "id": "1489200009", "name": "USPS COLLECTION BOX - BLUE BOX", "address": {"city": "WAVERLY", "state": "NY", "street": "128 CENTER ST", "postcode": "14892"}}},
{"geometry": {"type": "Point", "coordinates": [-76.5350829082, 42.007083354]}, "type": "Feature", "properties": {"collection_times": [{"days": "Mon-Sat", "time": "9:00am"}, {"days": "Sun", "time": "Closed"}], "id": "1489200010", "name": "USPS COLLECTION BOX - BLUE BOX", "address": {"city": "WAVERLY", "state": "NY", "street": "405 CHEMUNG ST", "postcode": "14892"}}},
{"geometry": {"type": "Point", "coordinates": [-76.5267404022, 42.0064689647]}, "type": "Feature", "properties": {"collection_times": [{"days": "Mon-Sat", "time": "9:00am"}, {"days": "Sun", "time": "Closed"}], "id": "1489200011", "name": "USPS COLLECTION BOX - BLUE BOX", "address": {"city": "WAVERLY", "state": "NY", "street": "483 CAYUTA AVE", "postcode": "14892"}}},
{"geometry": {"type": "Point", "coordinates": [-76.5422134913, 42.0009875059]}, "type": "Feature", "properties": {"collection_times": [{"days": "Mon-Sat", "time": "9:00am"}, {"days": "Sun", "time": "Closed"}], "id": "1489200012", "name": "USPS COLLECTION BOX - BLUE BOX", "address": {"city": "WAVERLY", "state": "NY", "street": "245 BROAD ST", "postcode": "14892"}}},
{"geometry": {"type": "Point", "coordinates": [-76.5392109119, 42.001141682]}, "type": "Feature", "properties": {"collection_times": [{"days": "Mon-Sat", "time": "9:00am"}, {"days": "Sun", "time": "Closed"}], "id": "1489200013", "name": "USPS COLLECTION BOX - BLUE BOX", "address": {"city": "WAVERLY", "state": "NY", "street": "359 BROAD ST", "postcode": "14892"}}},
{"geometry": {"type": "Point", "coordinates": [-76.5404226679, 42.0021639966]}, "type": "Feature", "properties": {"collection_times": [{"days": "Mon-Fri", "time": "5:00pm"}, {"days": "Sat", "time": "3:45pm"}, {"days": "Sun", "time": "Closed"}], "id": "1489200014", "name": "USPS COLLECTION BOX - BLUE BOX", "address": {"city": "WAVERLY", "state": "NY", "street": "434 WAVERLY ST", "postcode": "14892"}}},
{"geometry": {"type": "Point", "coordinates": [-76.5404226679, 42.0021639966]}, "type": "Feature", "properties": {"collection_times": [{"days": "Mon-Fri", "time": "5:00pm"}, {"days": "Sat", "time": "3:45pm"}, {"days": "Sun", "time": "Closed"}], "id": "1489200015", "name": "USPS COLLECTION BOX - BLUE BOX", "address": {"city": "WAVERLY", "state": "NY", "street": "434 WAVERLY ST", "postcode": "14892"}}},
{"geometry": {"type": "Point", "coordinates": [-76.5372288078, 42.0030712111]}, "type": "Feature", "properties": {"collection_times": [{"days": "Mon-Sat", "time": "9:00am"}, {"days": "Sun", "time": "Closed"}], "id": "1489200016", "name": "USPS COLLECTION BOX - BLUE BOX", "address": {"city": "WAVERLY", "state": "NY", "street": "436 PENNSYLVANIA AVE", "postcode": "14892"}}},
{"geometry": {"type": "Point", "coordinates": [-76.5404226679, 42.0021639966]}, "type": "Feature", "properties": {"collection_times": [{"days": "Mon-Fri", "time": "4:45pm"}, {"days": "Sat", "time": "3:45pm"}, {"days": "Sun", "time": "Closed"}], "id": "1489200017", "name": "USPS COLLECTION BOX - PO LOBBY", "address": {"city": "WAVERLY", "state": "NY", "street": "434 WAVERLY ST", "postcode": "14892"}}},
{"geometry": {"type": "Point", "coordinates": [-76.547041288, 42.0065092778]}, "type": "Feature", "properties": {"collection_times": [{"days": "Mon-Sat", "time": "9:00am"}, {"days": "Sun", "time": "Closed"}], "id": "1489200018", "name": "USPS COLLECTION BOX - BLUE BOX", "address": {"city": "WAVERLY", "state": "NY", "street": "67 CLINTON AVE", "postcode": "14892"}}},
{"geometry": {"type": "Point", "coordinates": [-77.1058527038, 42.4707441944]}, "type": "Feature", "properties": {"collection_times": [{"days": "Mon-Fri", "time": "4:30pm"}, {"days": "Sat", "time": "11:45am"}, {"days": "Sun", "time": "Closed"}], "id": "1489300000", "name": "USPS COLLECTION BOX - BLUE BOX", "address": {"city": "WAYNE", "state": "NY", "street": "4894 COUNTY ROUTE 26", "postcode": "14893"}}},
{"geometry": {"type": "Point", "coordinates": [-77.1058527038, 42.4707441944]}, "type": "Feature", "properties": {"collection_times": [{"days": "Mon-Fri", "time": "4:30pm"}, {"days": "Sat", "time": "11:45am"}, {"days": "Sun", "time": "Closed"}], "id": "1489300001", "name": "USPS COLLECTION BOX - PO LOBBY", "address": {"city": "WAYNE", "state": "NY", "street": "4894 COUNTY ROUTE 26", "postcode": "14893"}}},
{"geometry": {"type": "Point", "coordinates": [-76.7269683634, 42.0162935327]}, "type": "Feature", "properties": {"collection_times": [{"days": "Mon-Fri", "time": "4:30pm"}, {"days": "Sat", "time": "12:00pm"}, {"days": "Sun", "time": "Closed"}], "id": "1489400000", "name": "USPS COLLECTION BOX - BLUE BOX", "address": {"city": "WELLSBURG", "state": "NY", "street": "3685 FRONT ST", "postcode": "14894"}}},
{"geometry": {"type": "Point", "coordinates": [-76.7269683634, 42.0162935327]}, "type": "Feature", "properties": {"collection_times": [{"days": "Mon-Fri", "time": "4:30pm"}, {"days": "Sat", "time": "12:00pm"}, {"days": "Sun", "time": "Closed"}], "id": "1489400003", "name": "USPS COLLECTION BOX - PO LOBBY", "address": {"city": "WELLSBURG", "state": "NY", "street": "3685 FRONT ST", "postcode": "14894"}}},
{"geometry": {"type": "Point", "coordinates": [-77.9487026095, 42.1236763185]}, "type": "Feature", "properties": {"collection_times": [{"days": "Mon-Sat", "time": "5:00pm"}, {"days": "Sun", "time": "Closed"}], "id": "1489500006", "name": "USPS COLLECTION BOX - BLUE BOX", "address": {"city": "WELLSVILLE", "state": "NY", "street": "40 E PEARL ST", "postcode": "14895"}}},
{"geometry": {"type": "Point", "coordinates": [-77.9487026095, 42.1236763185]}, "type": "Feature", "properties": {"collection_times": [{"days": "Mon-Sat", "time": "5:00pm"}, {"days": "Sun", "time": "Closed"}], "id": "1489500008", "name": "USPS COLLECTION BOX - BLUE BOX", "address": {"city": "WELLSVILLE", "state": "NY", "street": "40 E PEARL ST", "postcode": "14895"}}},
{"geometry": {"type": "Point", "coordinates": [-77.9470834223, 42.1213149299]}, "type": "Feature", "properties": {"collection_times": [{"days": "Mon-Fri", "time": "3:45pm"}, {"days": "Sat", "time": "11:00am"}, {"days": "Sun", "time": "Closed"}], "id": "1489500016", "name": "USPS COLLECTION BOX - BLUE BOX", "address": {"city": "WELLSVILLE", "state": "NY", "street": "95 N MAIN ST", "postcode": "14895"}}},
{"geometry": {"type": "Point", "coordinates": [-77.9487859992, 42.1223676715]}, "type": "Feature", "properties": {"collection_times": [{"days": "Mon-Fri", "time": "3:45pm"}, {"days": "Sat", "time": "10:00am"}, {"days": "Sun", "time": "Closed"}], "id": "1489500017", "name": "USPS COLLECTION BOX - BLUE BOX", "address": {"city": "WELLSVILLE", "state": "NY", "street": "156 N MAIN ST", "postcode": "14895"}}},
{"geometry": {"type": "Point", "coordinates": [-77.9459318247, 42.1206921399]}, "type": "Feature", "properties": {"collection_times": [{"days": "Mon-Fri", "time": "3:45pm"}, {"days": "Sat", "time": "11:00am"}, {"days": "Sun", "time": "Closed"}], "id": "1489500018", "name": "USPS COLLECTION BOX - BLUE BOX", "address": {"city": "WELLSVILLE", "state": "NY", "street": "56 N MAIN ST", "postcode": "14895"}}},
{"geometry": {"type": "Point", "coordinates": [-77.9474363724, 42.1215971111]}, "type": "Feature", "properties": {"collection_times": [{"days": "Mon-Fri", "time": "3:45pm"}, {"days": "Sat", "time": "11:00am"}, {"days": "Sun", "time": "Closed"}], "id": "1489500019", "name": "USPS COLLECTION BOX - BLUE BOX", "address": {"city": "WELLSVILLE", "state": "NY", "street": "108 N MAIN ST", "postcode": "14895"}}},
{"geometry": {"type": "Point", "coordinates": [-77.9468153487, 42.119906755]}, "type": "Feature", "properties": {"collection_times": [{"days": "Mon-Sat", "time": "1:00pm"}, {"days": "Sun", "time": "Closed"}], "id": "1489500033", "name": "USPS COLLECTION BOX - BLUE BOX", "address": {"city": "WELLSVILLE", "state": "NY", "street": "44 PARK AVE", "postcode": "14895"}}},
{"geometry": {"type": "Point", "coordinates": [-77.9627647263, 42.1277100061]}, "type": "Feature", "properties": {"collection_times": [{"days": "Mon-Sat", "time": "11:00am"}, {"days": "Sun", "time": "Closed"}], "id": "1489500034", "name": "USPS COLLECTION BOX - BLUE BOX", "address": {"city": "WELLSVILLE", "state": "NY", "street": "111 BOLIVAR RD", "postcode": "14895"}}},
{"geometry": {"type": "Point", "coordinates": [-77.9393281545, 42.1030417982]}, "type": "Feature", "properties": {"collection_times": [{"days": "Mon-Sat", "time": "5:00pm"}, {"days": "Sun", "time": "Closed"}], "id": "1489500037", "name": "USPS COLLECTION BOX - EXPRESS", "address": {"city": "WELLSVILLE", "state": "NY", "street": "40 E PEARL ST", "postcode": "14895"}}},
{"geometry": {"type": "Point", "coordinates": [-77.9487026095, 42.1236763185]}, "type": "Feature", "properties": {"collection_times": [{"days": "Mon-Sat", "time": "5:00pm"}, {"days": "Sun", "time": "Closed"}], "id": "1489500038", "name": "USPS COLLECTION BOX - PO LOBBY", "address": {"city": "WELLSVILLE", "state": "NY", "street": "40 E PEARL ST", "postcode": "14895"}}},
{"geometry": {"type": "Point", "coordinates": [-77.7662185477, 42.0377014166]}, "type": "Feature", "properties": {"collection_times": [{"days": "Mon-Fri", "time": "4:45pm"}, {"days": "Sat", "time": "11:45am"}, {"days": "Sun", "time": "Closed"}], "id": "1489700000", "name": "USPS COLLECTION BOX - BLUE BOX", "address": {"city": "WHITESVILLE", "state": "NY", "street": "479 MAIN ST", "postcode": "14897"}}},
{"geometry": {"type": "Point", "coordinates": [-77.7662185477, 42.0377014166]}, "type": "Feature", "properties": {"collection_times": [{"days": "Mon-Fri", "time": "12:00pm"}, {"days": "Sat", "time": "11:45am"}, {"days": "Sun", "time": "Closed"}], "id": "1489700001", "name": "USPS COLLECTION BOX - PO LOBBY", "address": {"city": "WHITESVILLE", "state": "NY", "street": "479 MAIN ST", "postcode": "14897"}}},
{"geometry": {"type": "Point", "coordinates": [-77.4093175835, 42.0797841609]}, "type": "Feature", "properties": {"collection_times": [{"days": "Mon-Fri", "time": "4:50pm"}, {"days": "Sat", "time": "11:50am"}, {"days": "Sun", "time": "Closed"}], "id": "1489800000", "name": "USPS COLLECTION BOX - BLUE BOX", "address": {"city": "WOODHULL", "state": "NY", "street": "1617 MAIN ST", "postcode": "14898"}}},
{"geometry": {"type": "Point", "coordinates": [-77.4093175835, 42.0797841609]}, "type": "Feature", "properties": {"collection_times": [{"days": "Mon-Fri", "time": "12:00pm"}, {"days": "Sat", "time": "11:50am"}, {"days": "Sun", "time": "Closed"}], "id": "1489800001", "name": "USPS COLLECTION BOX - PO LOBBY", "address": {"city": "WOODHULL", "state": "NY", "street": "1617 MAIN ST", "postcode": "14898"}}}
]}
