{"type": "FeatureCollection", "features": [
{"geometry": {"type": "Point", "coordinates": [-76.674125866, 42.0286186311]}, "type": "Feature", "properties": {"collection_times": [{"days": "Mon-Fri", "time": "12:00pm"}, {"days": "Sat-Sun", "time": "Closed"}], "id": "1490100005", "name": "USPS COLLECTION BOX - BLUE BOX", "address": {"city": "ELMIRA", "state": "NY", "street": "555 SAINT JOSEPHS BLVD", "postcode": "14901"}}},
{"geometry": {"type": "Point", "coordinates": [-76.8103326009, 42.0937315107]}, "type": "Feature", "properties": {"collection_times": [{"days": "Mon-Sat", "time": "10:00am"}, {"days": "Sun", "time": "Closed"}], "id": "1490100060", "name": "USPS COLLECTION BOX - BLUE BOX", "address": {"city": "ELMIRA", "state": "NY", "street": "205 W CLINTON ST", "postcode": "14901"}}},
{"geometry": {"type": "Point", "coordinates": [-76.7970340666, 42.0891377331]}, "type": "Feature", "properties": {"collection_times": [{"days": "Mon-Sat", "time": "10:00am"}, {"days": "Sun", "time": "Closed"}], "id": "1490100064", "name": "USPS COLLECTION BOX - BLUE BOX", "address": {"city": "ELMIRA", "state": "NY", "street": "115 DEWITT AVE", "postcode": "14901"}}},
{"geometry": {"type": "Point", "coordinates": [-76.674125866, 42.0286186311]}, "type": "Feature", "properties": {"collection_times": [{"days": "Mon-Fri", "time": "5:00pm"}, {"days": "Sat", "time": "12:00pm"}, {"days": "Sun", "time": "Closed"}], "id": "1490100073", "name": "USPS COLLECTION BOX - BLUE BOX", "address": {"city": "ELMIRA", "state": "NY", "street": "255 CLEMENS CENTER PKWY", "postcode": "14901"}}},
{"geometry": {"type": "Point", "coordinates": [-76.8081538261, 42.0874998198]}, "type": "Feature", "properties": {"collection_times": [{"days": "Mon-Sat", "time": "10:00am"}, {"days": "Sun", "time": "Closed"}], "id": "1490100074", "name": "USPS COLLECTION BOX - BLUE BOX", "address": {"city": "ELMIRA", "state": "NY", "street": "252 W WATER ST", "postcode": "14901"}}},
{"geometry": {"type": "Point", "coordinates": [-76.674125866, 42.0286186311]}, "type": "Feature", "properties": {"collection_times": [{"days": "Mon-Fri", "time": "5:00pm"}, {"days": "Sat", "time": "12:00pm"}, {"days": "Sun", "time": "Closed"}], "id": "1490100087", "name": "USPS COLLECTION BOX - BLUE BOX", "address": {"city": "ELMIRA", "state": "NY", "street": "255 CLEMENS CENTER PKWY", "postcode": "14901"}}},
{"geometry": {"type": "Point", "coordinates": [-76.8020713637, 42.0883139167]}, "type": "Feature", "properties": {"collection_times": [{"days": "Mon-Sat", "time": "10:00am"}, {"days": "Sun", "time": "Closed"}], "id": "1490100093", "name": "USPS COLLECTION BOX - BLUE BOX", "address": {"city": "ELMIRA", "state": "NY", "street": "333 E WATER ST", "postcode": "14901"}}},
{"geometry": {"type": "Point", "coordinates": [-76.8190539739, 42.0971896648]}, "type": "Feature", "properties": {"collection_times": [{"days": "Mon-Sat", "time": "10:00am"}, {"days": "Sun", "time": "Closed"}], "id": "1490100095", "name": "USPS COLLECTION BOX - BLUE BOX", "address": {"city": "ELMIRA", "state": "NY", "street": "865 DAVIS ST", "postcode": "14901"}}},
{"geometry": {"type": "Point", "coordinates": [-76.8065499207, 42.0903864656]}, "type": "Feature", "properties": {"collection_times": [{"days": "Mon-Fri", "time": "12:00pm"}, {"days": "Sat", "time": "10:00am"}, {"days": "Sun", "time": "Closed"}], "id": "1490100097", "name": "USPS COLLECTION BOX - BLUE BOX", "address": {"city": "ELMIRA", "state": "NY", "street": "100 W CHURCH ST", "postcode": "14901"}}},
{"geometry": {"type": "Point", "coordinates": [-76.8031377032, 42.0886568021]}, "type": "Feature", "properties": {"collection_times": [{"days": "Mon-Fri", "time": "12:00pm"}, {"days": "Sat-Sun", "time": "Closed"}], "id": "1490100098", "name": "USPS COLLECTION BOX - BLUE BOX", "address": {"city": "ELMIRA", "state": "NY", "street": "1 CHEMUNG CANAL PLZ", "postcode": "14901"}}},
{"geometry": {"type": "Point", "coordinates": [-76.8267136332, 42.1299694577]}, "type": "Feature", "properties": {"collection_times": [{"days": "Mon-Sat", "time": "10:00am"}, {"days": "Sun", "time": "Closed"}], "id": "1490100099", "name": "USPS COLLECTION BOX - BLUE BOX", "address": {"city": "ELMIRA", "state": "NY", "street": "252 OAKWOOD AVE", "postcode": "14901"}}},
{"geometry": {"type": "Point", "coordinates": [-76.8227377081, 42.1291189102]}, "type": "Feature", "properties": {"collection_times": [{"days": "Mon-Fri", "time": "5:00pm"}, {"days": "Sat", "time": "12:00pm"}, {"days": "Sun", "time": "Closed"}], "id": "1490100101", "name": "USPS COLLECTION BOX - BLUE BOX", "address": {"city": "ELMIRA", "state": "NY", "street": "207 E 14TH ST", "postcode": "14901"}}},
{"geometry": {"type": "Point", "coordinates": [-76.8001641652, 42.0862445032]}, "type": "Feature", "properties": {"collection_times": [{"days": "Mon-Fri", "time": "3:00pm"}, {"days": "Sat", "time": "10:00am"}, {"days": "Sun", "time": "Closed"}], "id": "1490100113", "name": "USPS COLLECTION BOX - BLUE BOX", "address": {"city": "ELMIRA", "state": "NY", "street": "75 PENNSYLVANIA AVE", "postcode": "14901"}}},
{"geometry": {"type": "Point", "coordinates": [-76.7924534938, 42.0892925045]}, "type": "Feature", "properties": {"collection_times": [{"days": "Mon-Sat", "time": "10:00am"}, {"days": "Sun", "time": "Closed"}], "id": "1490100116", "name": "USPS COLLECTION BOX - BLUE BOX", "address": {"city": "ELMIRA", "state": "NY", "street": "722 W WATER ST FRNT", "postcode": "14901"}}},
{"geometry": {"type": "Point", "coordinates": [-76.8006586331, 42.0949209829]}, "type": "Feature", "properties": {"collection_times": [{"days": "Mon-Fri", "time": "5:00pm"}, {"days": "Sat", "time": "12:00pm"}, {"days": "Sun", "time": "Closed"}], "id": "1490100117", "name": "USPS COLLECTION BOX - PO LOBBY", "address": {"city": "ELMIRA", "state": "NY", "street": "255 CLEMENS CENTER PKWY", "postcode": "14901"}}},
{"geometry": {"type": "Point", "coordinates": [-76.8006586331, 42.0949209829]}, "type": "Feature", "properties": {"collection_times": [{"days": "Mon-Fri", "time": "5:00pm"}, {"days": "Sat", "time": "12:00pm"}, {"days": "Sun", "time": "Closed"}], "id": "1490100122", "name": "USPS COLLECTION BOX - PO LOBBY", "address": {"city": "ELMIRA", "state": "NY", "street": "209 E 14TH ST", "postcode": "14901"}}},
{"geometry": {"type": "Point", "coordinates": [-76.8006586331, 42.0949209829]}, "type": "Feature", "properties": {"collection_times": [{"days": "Mon-Sat", "time": "12:00pm"}, {"days": "Sun", "time": "Closed"}], "id": "1490100123", "name": "USPS COLLECTION BOX - BLUE BOX", "address": {"city": "ELMIRA", "state": "NY", "street": "722 W WATER ST FRNT", "postcode": "14901"}}},
{"geometry": {"type": "Point", "coordinates": [-76.8271572428, 42.0991190709]}, "type": "Feature", "properties": {"collection_times": [{"days": "Mon-Fri", "time": "12:00pm"}, {"days": "Sat", "time": "10:00am"}, {"days": "Sun", "time": "Closed"}], "id": "1490100128", "name": "USPS COLLECTION BOX - BLUE BOX", "address": {"city": "ELMIRA", "state": "NY", "street": "600 ROE AVE", "postcode": "14901"}}},
{"geometry": {"type": "Point", "coordinates": [-76.8095227378, 42.0924242461]}, "type": "Feature", "properties": {"collection_times": [{"days": "Mon-Fri", "time": "5:00pm"}, {"days": "Sat", "time": "12:00pm"}, {"days": "Sun", "time": "Closed"}], "id": "1490100129", "name": "USPS COLLECTION BOX - BLUE BOX", "address": {"city": "ELMIRA", "state": "NY", "street": "418 S MAIN ST", "postcode": "14901"}}},
{"geometry": {"type": "Point", "coordinates": [-76.855172077, 42.0807749262]}, "type": "Feature", "properties": {"collection_times": [{"days": "Mon-Sat", "time": "10:00am"}, {"days": "Sun", "time": "Closed"}], "id": "1490100131", "name": "USPS COLLECTION BOX - BLUE BOX", "address": {"city": "ELMIRA", "state": "NY", "street": "1727 W CHURCH ST", "postcode": "14901"}}},
{"geometry": {"type": "Point", "coordinates": [-76.7945416532, 42.0900748188]}, "type": "Feature", "properties": {"collection_times": [{"days": "Mon-Fri", "time": "12:00pm"}, {"days": "Sat", "time": "10:00am"}, {"days": "Sun", "time": "Closed"}], "id": "1490100133", "name": "USPS COLLECTION BOX - BLUE BOX", "address": {"city": "ELMIRA", "state": "NY", "street": "100 WASHINGTON ST", "postcode": "14901"}}},
{"geometry": {"type": "Point", "coordinates": [-76.674125866, 42.0286186311]}, "type": "Feature", "properties": {"collection_times": [{"days": "Mon-Sat", "time": "10:00am"}, {"days": "Sun", "time": "Closed"}], "id": "1490100134", "name": "USPS COLLECTION BOX - BLUE BOX", "address": {"city": "ELMIRA", "state": "NY", "street": "1100 CLEMENS CENTER PKWY", "postcode": "14901"}}},
{"geometry": {"type": "Point", "coordinates": [-76.8068225335, 42.0892044728]}, "type": "Feature", "properties": {"collection_times": [{"days": "Mon-Fri", "time": "3:00pm"}, {"days": "Sat", "time": "10:00am"}, {"days": "Sun", "time": "Closed"}], "id": "1490100138", "name": "USPS COLLECTION BOX - BLUE BOX", "address": {"city": "ELMIRA", "state": "NY", "street": "147 W GRAY ST", "postcode": "14901"}}},
{"geometry": {"type": "Point", "coordinates": [-76.805808947, 42.116433326]}, "type": "Feature", "properties": {"collection_times": [{"days": "Mon-Sat", "time": "5:00pm"}, {"days": "Sun", "time": "Closed"}], "id": "1490100140", "name": "USPS COLLECTION BOX - BLUE BOX", "address": {"city": "ELMIRA", "state": "NY", "street": "1580 SULLIVAN ST", "postcode": "14901"}}},
{"geometry": {"type": "Point", "coordinates": [-76.805808947, 42.116433326]}, "type": "Feature", "properties": {"collection_times": [{"days": "Mon-Sat", "time": "5:00pm"}, {"days": "Sun", "time": "Closed"}], "id": "1490100142", "name": "USPS COLLECTION BOX - BLUE BOX", "address": {"city": "ELMIRA", "state": "NY", "street": "1580 SULLIVAN ST", "postcode": "14901"}}},
{"geometry": {"type": "Point", "coordinates": [-76.8006586331, 42.0949209829]}, "type": "Feature", "properties": {"collection_times": [{"days": "Mon-Sat", "time": "5:00pm"}, {"days": "Sun", "time": "Closed"}], "id": "1490100143", "name": "USPS COLLECTION BOX - EXPRESS", "address": {"city": "ELMIRA", "state": "NY", "street": "1580 SULLIVAN ST", "postcode": "14901"}}},
{"geometry": {"type": "Point", "coordinates": [-76.8006586331, 42.0949209829]}, "type": "Feature", "properties": {"collection_times": [{"days": "Mon-Sat", "time": "9:00am"}, {"days": "Sun", "time": "Closed"}], "id": "1490100144", "name": "USPS COLLECTION BOX - BLUE BOX", "address": {"city": "ELMIRA", "state": "NY", "street": "830 COUNTY ROAD 64", "postcode": "14901"}}},
{"geometry": {"type": "Point", "coordinates": [-76.674125866, 42.0286186311]}, "type": "Feature", "properties": {"collection_times": [{"days": "Mon-Fri", "time": "5:00pm"}, {"days": "Sat", "time": "12:00pm"}, {"days": "Sun", "time": "Closed"}], "id": "1490100145", "name": "USPS COLLECTION BOX - BLUE BOX", "address": {"city": "ELMIRA", "state": "NY", "street": "255 CLEMENS CENTER PKWY", "postcode": "14901"}}},
{"geometry": {"type": "Point", "coordinates": [-76.8058545177, 42.1164813596]}, "type": "Feature", "properties": {"collection_times": [{"days": "Mon-Sat", "time": "5:00pm"}, {"days": "Sun", "time": "Closed"}], "id": "1490100147", "name": "USPS COLLECTION BOX - BLUE BOX", "address": {"city": "ELMIRA", "state": "NY", "street": "1580 SULLIVAN ST", "postcode": "14901"}}},
{"geometry": {"type": "Point", "coordinates": [-76.8006586331, 42.0949209829]}, "type": "Feature", "properties": {"collection_times": [{"days": "Mon-Fri", "time": "5:00pm"}, {"days": "Sat", "time": "12:00pm"}, {"days": "Sun", "time": "Closed"}], "id": "1490100148", "name": "USPS COLLECTION BOX - PO LOBBY", "address": {"city": "ELMIRA", "state": "NY", "street": "418 S MAIN ST", "postcode": "14901"}}}
]}
