{"type": "FeatureCollection", "features": [
{"geometry": {"type": "Point", "coordinates": [-70.8643803436, 43.2658369859]}, "type": "Feature", "properties": {"collection_times": [{"days": "Mon-Fri", "time": "10:00am"}, {"days": "Sat-Sun", "time": "Closed"}], "id": "0390100001", "name": "USPS COLLECTION BOX - BLUE BOX", "address": {"city": "BERWICK", "state": "ME", "street": "1 SULLIVAN ST", "postcode": "03901"}}},
{"geometry": {"type": "Point", "coordinates": [-69.2039438735, 45.3152487683]}, "type": "Feature", "properties": {"collection_times": [{"days": "Mon-Fri", "time": "4:15pm"}, {"days": "Sat", "time": "1:00pm"}, {"days": "Sun", "time": "Closed"}], "id": "0390100002", "name": "USPS COLLECTION BOX - BLUE BOX", "address": {"city": "BERWICK", "state": "ME", "street": "43 ROUTE 236", "postcode": "03901"}}},
{"geometry": {"type": "Point", "coordinates": [-69.2039438735, 45.3152487683]}, "type": "Feature", "properties": {"collection_times": [{"days": "Mon-Fri", "time": "4:30pm"}, {"days": "Sat", "time": "1:00pm"}, {"days": "Sun", "time": "Closed"}], "id": "0390100004", "name": "USPS COLLECTION BOX - PO LOBBY", "address": {"city": "BERWICK", "state": "ME", "street": "43 ROUTE 236", "postcode": "03901"}}},
{"geometry": {"type": "Point", "coordinates": [-69.2039438735, 45.3152487683]}, "type": "Feature", "properties": {"collection_times": [{"days": "Mon-Fri", "time": "4:30pm"}, {"days": "Sat", "time": "1:00pm"}, {"days": "Sun", "time": "Closed"}], "id": "0390100005", "name": "USPS COLLECTION BOX - PO LOBBY", "address": {"city": "BERWICK", "state": "ME", "street": "43 ROUTE 236", "postcode": "03901"}}},
{"geometry": {"type": "Point", "coordinates": [-70.6198491365, 43.1908224996]}, "type": "Feature", "properties": {"collection_times": [{"days": "Mon-Fri", "time": "4:30pm"}, {"days": "Sat", "time": "11:30am"}, {"days": "Sun", "time": "Closed"}], "id": "0390200001", "name": "USPS COLLECTION BOX - BLUE BOX", "address": {"city": "CAPE NEDDICK", "state": "ME", "street": "1268 US ROUTE 1", "postcode": "03902"}}},
{"geometry": {"type": "Point", "coordinates": [-70.6198491365, 43.1908224996]}, "type": "Feature", "properties": {"collection_times": [{"days": "Mon-Fri", "time": "4:30pm"}, {"days": "Sat", "time": "11:30am"}, {"days": "Sun", "time": "Closed"}], "id": "0390200003", "name": "USPS COLLECTION BOX - PO LOBBY", "address": {"city": "CAPE NEDDICK", "state": "ME", "street": "1268 US ROUTE 1", "postcode": "03902"}}},
{"geometry": {"type": "Point", "coordinates": [-70.7697776689, 43.1083343505]}, "type": "Feature", "properties": {"collection_times": [{"days": "Mon-Sat", "time": "12:00pm"}, {"days": "Sun", "time": "Closed"}], "id": "0390300002", "name": "USPS COLLECTION BOX - BLUE BOX", "address": {"city": "ELIOT", "state": "ME", "street": "1293 STATE RD", "postcode": "03903"}}},
{"geometry": {"type": "Point", "coordinates": [-70.7755886048, 43.0988487727]}, "type": "Feature", "properties": {"collection_times": [{"days": "Mon-Sat", "time": "11:30am"}, {"days": "Sun", "time": "Closed"}], "id": "0390300004", "name": "USPS COLLECTION BOX - BLUE BOX", "address": {"city": "ELIOT", "state": "ME", "street": "138 PLEASANT ST", "postcode": "03903"}}},
{"geometry": {"type": "Point", "coordinates": [-70.7717448686, 43.1292293839]}, "type": "Feature", "properties": {"collection_times": [{"days": "Mon-Fri", "time": "5:00pm"}, {"days": "Sat", "time": "3:00pm"}, {"days": "Sun", "time": "Closed"}], "id": "0390300008", "name": "USPS COLLECTION BOX - BLUE BOX", "address": {"city": "ELIOT", "state": "ME", "street": "33 LEVESQUE DR", "postcode": "03903"}}},
{"geometry": {"type": "Point", "coordinates": [-70.7717448686, 43.1292293839]}, "type": "Feature", "properties": {"collection_times": [{"days": "Mon-Fri", "time": "5:00pm"}, {"days": "Sat", "time": "3:00pm"}, {"days": "Sun", "time": "Closed"}], "id": "0390300013", "name": "USPS COLLECTION BOX - PO LOBBY", "address": {"city": "ELIOT", "state": "ME", "street": "33 LEVESQUE DR", "postcode": "03903"}}},
{"geometry": {"type": "Point", "coordinates": [-70.7440397015, 43.0856209928]}, "type": "Feature", "properties": {"collection_times": [{"days": "Mon-Sat", "time": "1:30pm"}, {"days": "Sun", "time": "Closed"}], "id": "0390400002", "name": "USPS COLLECTION BOX - BLUE BOX", "address": {"city": "KITTERY", "state": "ME", "street": "68 WALLINGFORD SQ", "postcode": "03904"}}},
{"geometry": {"type": "Point", "coordinates": [-70.7365879616, 43.0894680981]}, "type": "Feature", "properties": {"collection_times": [{"days": "Mon-Sat", "time": "3:30pm"}, {"days": "Sun", "time": "Closed"}], "id": "0390400004", "name": "USPS COLLECTION BOX - BLUE BOX", "address": {"city": "KITTERY", "state": "ME", "street": "10 SHAPLEIGH RD", "postcode": "03904"}}},
{"geometry": {"type": "Point", "coordinates": [-70.7365879616, 43.0894680981]}, "type": "Feature", "properties": {"collection_times": [{"days": "Mon-Fri", "time": "5:15pm"}, {"days": "Sat", "time": "3:30pm"}, {"days": "Sun", "time": "Closed"}], "id": "0390400006", "name": "USPS COLLECTION BOX - BLUE BOX", "address": {"city": "KITTERY", "state": "ME", "street": "10 SHAPLEIGH RD", "postcode": "03904"}}},
{"geometry": {"type": "Point", "coordinates": [-70.7292245529, 43.115251086]}, "type": "Feature", "properties": {"collection_times": [{"days": "Mon-Sat", "time": "10:00am"}, {"days": "Sun", "time": "Closed"}], "id": "0390400017", "name": "USPS COLLECTION BOX - BLUE BOX", "address": {"city": "KITTERY", "state": "ME", "street": "345 US ROUTE 1", "postcode": "03904"}}},
{"geometry": {"type": "Point", "coordinates": [-70.7358138362, 43.1108099643]}, "type": "Feature", "properties": {"collection_times": [{"days": "Mon-Sat", "time": "10:00am"}, {"days": "Sun", "time": "Closed"}], "id": "0390400018", "name": "USPS COLLECTION BOX - BLUE BOX", "address": {"city": "KITTERY", "state": "ME", "street": "283 US ROUTE 1", "postcode": "03904"}}},
{"geometry": {"type": "Point", "coordinates": [-70.7365879616, 43.0894680981]}, "type": "Feature", "properties": {"collection_times": [{"days": "Mon-Fri", "time": "5:00pm"}, {"days": "Sat", "time": "3:30pm"}, {"days": "Sun", "time": "Closed"}], "id": "0390400020", "name": "USPS COLLECTION BOX - PO LOBBY", "address": {"city": "KITTERY", "state": "ME", "street": "10 SHAPLEIGH RD", "postcode": "03904"}}},
{"geometry": {"type": "Point", "coordinates": [-70.6927276177, 43.0852312923]}, "type": "Feature", "properties": {"collection_times": [{"days": "Mon-Fri", "time": "4:00pm"}, {"days": "Sat", "time": "11:00am"}, {"days": "Sun", "time": "Closed"}], "id": "0390500003", "name": "USPS COLLECTION BOX - PO LOBBY", "address": {"city": "KITTERY POINT", "state": "ME", "street": "91 PEPPERRELL RD", "postcode": "03905"}}},
{"geometry": {"type": "Point", "coordinates": [-70.6927276177, 43.0852312923]}, "type": "Feature", "properties": {"collection_times": [{"days": "Mon-Fri", "time": "4:00pm"}, {"days": "Sat", "time": "11:00am"}, {"days": "Sun", "time": "Closed"}], "id": "0390500004", "name": "USPS COLLECTION BOX - BLUE BOX", "address": {"city": "KITTERY POINT", "state": "ME", "street": "91 PEPPERRELL RD", "postcode": "03905"}}},
{"geometry": {"type": "Point", "coordinates": [-70.7099585939, 43.3044424305]}, "type": "Feature", "properties": {"collection_times": [{"days": "Mon-Fri", "time": "4:30pm"}, {"days": "Sat", "time": "12:30pm"}, {"days": "Sun", "time": "Closed"}], "id": "0390600001", "name": "USPS COLLECTION BOX - BLUE BOX", "address": {"city": "NORTH BERWICK", "state": "ME", "street": "36 WELLS ST", "postcode": "03906"}}},
{"geometry": {"type": "Point", "coordinates": [-70.7099585939, 43.3044424305]}, "type": "Feature", "properties": {"collection_times": [{"days": "Mon-Fri", "time": "4:45pm"}, {"days": "Sat", "time": "12:30pm"}, {"days": "Sun", "time": "Closed"}], "id": "0390600004", "name": "USPS COLLECTION BOX - PO LOBBY", "address": {"city": "NORTH BERWICK", "state": "ME", "street": "36 WELLS ST", "postcode": "03906"}}},
{"geometry": {"type": "Point", "coordinates": [-70.600382196, 43.2474639362]}, "type": "Feature", "properties": {"collection_times": [{"days": "Mon-Fri", "time": "4:30pm"}, {"days": "Sat", "time": "12:30pm"}, {"days": "Sun", "time": "Closed"}], "id": "0390700003", "name": "USPS COLLECTION BOX - BLUE BOX", "address": {"city": "OGUNQUIT", "state": "ME", "street": "172 MAIN ST", "postcode": "03907"}}},
{"geometry": {"type": "Point", "coordinates": [-70.6010092606, 43.2500841909]}, "type": "Feature", "properties": {"collection_times": [{"days": "Mon-Fri", "time": "9:30am"}, {"days": "Sat-Sun", "time": "Closed"}], "id": "0390700004", "name": "USPS COLLECTION BOX - BLUE BOX", "address": {"city": "OGUNQUIT", "state": "ME", "street": "189 SHORE RD", "postcode": "03907"}}},
{"geometry": {"type": "Point", "coordinates": [-70.600382196, 43.2474639362]}, "type": "Feature", "properties": {"collection_times": [{"days": "Mon-Fri", "time": "4:55pm"}, {"days": "Sat", "time": "1:00pm"}, {"days": "Sun", "time": "Closed"}], "id": "0390700005", "name": "USPS COLLECTION BOX - PO LOBBY", "address": {"city": "OGUNQUIT", "state": "ME", "street": "172 MAIN ST", "postcode": "03907"}}},
{"geometry": {"type": "Point", "coordinates": [-70.8097183862, 43.2354806118]}, "type": "Feature", "properties": {"collection_times": [{"days": "Mon-Fri", "time": "5:00pm"}, {"days": "Sat", "time": "3:00pm"}, {"days": "Sun", "time": "Closed"}], "id": "0390800002", "name": "USPS COLLECTION BOX - BLUE BOX", "address": {"city": "SOUTH BERWICK", "state": "ME", "street": "300 MAIN ST", "postcode": "03908"}}},
{"geometry": {"type": "Point", "coordinates": [-70.8097183862, 43.2354806118]}, "type": "Feature", "properties": {"collection_times": [{"days": "Mon-Fri", "time": "5:00pm"}, {"days": "Sat", "time": "3:00pm"}, {"days": "Sun", "time": "Closed"}], "id": "0390800003", "name": "USPS COLLECTION BOX - PO LOBBY", "address": {"city": "SOUTH BERWICK", "state": "ME", "street": "300 MAIN ST", "postcode": "03908"}}},
{"geometry": {"type": "Point", "coordinates": [-70.8097183862, 43.2354806118]}, "type": "Feature", "properties": {"collection_times": [{"days": "Mon-Fri", "time": "5:00pm"}, {"days": "Sat", "time": "3:00pm"}, {"days": "Sun", "time": "Closed"}], "id": "0390800004", "name": "USPS COLLECTION BOX - PO LOBBY", "address": {"city": "SOUTH BERWICK", "state": "ME", "street": "300 MAIN ST", "postcode": "03908"}}},
{"geometry": {"type": "Point", "coordinates": [-70.6472067591, 43.144349464]}, "type": "Feature", "properties": {"collection_times": [{"days": "Mon-Fri", "time": "5:00pm"}, {"days": "Sat", "time": "3:45pm"}, {"days": "Sun", "time": "Closed"}], "id": "0390900001", "name": "USPS COLLECTION BOX - BLUE BOX", "address": {"city": "YORK", "state": "ME", "street": "10 WOODBRIDGE RD", "postcode": "03909"}}},
{"geometry": {"type": "Point", "coordinates": [-70.7024479958, 43.1325622276]}, "type": "Feature", "properties": {"collection_times": [{"days": "Mon-Fri", "time": "10:30am"}, {"days": "Sat", "time": "10:00am"}, {"days": "Sun", "time": "Closed"}], "id": "0390900004", "name": "USPS COLLECTION BOX - BLUE BOX", "address": {"city": "YORK", "state": "ME", "street": "647 US ROUTE 1", "postcode": "03909"}}},
{"geometry": {"type": "Point", "coordinates": [-70.7024479958, 43.1325622276]}, "type": "Feature", "properties": {"collection_times": [{"days": "Mon-Fri", "time": "10:30am"}, {"days": "Sat", "time": "10:00am"}, {"days": "Sun", "time": "Closed"}], "id": "0390900005", "name": "USPS COLLECTION BOX - BLUE BOX", "address": {"city": "YORK", "state": "ME", "street": "519 US ROUTE 1", "postcode": "03909"}}},
{"geometry": {"type": "Point", "coordinates": [-70.6508088008, 43.1423613855]}, "type": "Feature", "properties": {"collection_times": [{"days": "Mon-Fri", "time": "1:30pm"}, {"days": "Sat", "time": "1:00pm"}, {"days": "Sun", "time": "Closed"}], "id": "0390900008", "name": "USPS COLLECTION BOX - BLUE BOX", "address": {"city": "YORK", "state": "ME", "street": "15 HOSPITAL DR", "postcode": "03909"}}},
{"geometry": {"type": "Point", "coordinates": [-70.6724589311, 43.1503752152]}, "type": "Feature", "properties": {"collection_times": [{"days": "Mon-Fri", "time": "11:00am"}, {"days": "Sat", "time": "10:30am"}, {"days": "Sun", "time": "Closed"}], "id": "0390900009", "name": "USPS COLLECTION BOX - BLUE BOX", "address": {"city": "YORK", "state": "ME", "street": "5 HANNAFORD DR", "postcode": "03909"}}},
{"geometry": {"type": "Point", "coordinates": [-70.6447069806, 43.1568620981]}, "type": "Feature", "properties": {"collection_times": [{"days": "Mon-Fri", "time": "1:30pm"}, {"days": "Sat", "time": "12:00pm"}, {"days": "Sun", "time": "Closed"}], "id": "0390900010", "name": "USPS COLLECTION BOX - BLUE BOX", "address": {"city": "YORK", "state": "ME", "street": "226 YORK ST", "postcode": "03909"}}},
{"geometry": {"type": "Point", "coordinates": [-70.6472067591, 43.144349464]}, "type": "Feature", "properties": {"collection_times": [{"days": "Mon-Fri", "time": "5:00pm"}, {"days": "Sat", "time": "12:00pm"}, {"days": "Sun", "time": "Closed"}], "id": "0390900014", "name": "USPS COLLECTION BOX - PO LOBBY", "address": {"city": "YORK", "state": "ME", "street": "10 WOODBRIDGE RD", "postcode": "03909"}}},
{"geometry": {"type": "Point", "coordinates": [-70.6420619322, 43.1482800125]}, "type": "Feature", "properties": {"collection_times": [{"days": "Mon-Sat", "time": "10:30am"}, {"days": "Sun", "time": "Closed"}], "id": "0390900015", "name": "USPS COLLECTION BOX - BLUE BOX", "address": {"city": "YORK", "state": "ME", "street": "127 LONG SANDS RD", "postcode": "03909"}}},
{"geometry": {"type": "Point", "coordinates": [-70.6123096697, 43.1732982298]}, "type": "Feature", "properties": {"collection_times": [{"days": "Mon-Fri", "time": "4:30pm"}, {"days": "Sat", "time": "1:00pm"}, {"days": "Sun", "time": "Closed"}], "id": "0391000001", "name": "USPS COLLECTION BOX - BLUE BOX", "address": {"city": "YORK BEACH", "state": "ME", "street": "420 RIDGE RD", "postcode": "03910"}}},
{"geometry": {"type": "Point", "coordinates": [-70.6123096697, 43.1732982298]}, "type": "Feature", "properties": {"collection_times": [{"days": "Mon-Fri", "time": "4:30pm"}, {"days": "Sat", "time": "1:00pm"}, {"days": "Sun", "time": "Closed"}], "id": "0391000002", "name": "USPS COLLECTION BOX - PO LOBBY", "address": {"city": "YORK BEACH", "state": "ME", "street": "420 RIDGE RD", "postcode": "03910"}}},
{"geometry": {"type": "Point", "coordinates": [-70.6123096697, 43.1732982298]}, "type": "Feature", "properties": {"collection_times": [{"days": "Mon-Fri", "time": "4:30pm"}, {"days": "Sat", "time": "1:00pm"}, {"days": "Sun", "time": "Closed"}], "id": "0391000003", "name": "USPS COLLECTION BOX - BLUE BOX", "address": {"city": "YORK BEACH", "state": "ME", "street": "420 RIDGE RD", "postcode": "03910"}}},
{"geometry": {"type": "Point", "coordinates": [-70.6409600452, 43.134302676]}, "type": "Feature", "properties": {"collection_times": [{"days": "Mon-Fri", "time": "4:30pm"}, {"days": "Sat", "time": "11:30am"}, {"days": "Sun", "time": "Closed"}], "id": "0391100001", "name": "USPS COLLECTION BOX - BLUE BOX", "address": {"city": "YORK HARBOR", "state": "ME", "street": "445 YORK ST", "postcode": "03911"}}},
{"geometry": {"type": "Point", "coordinates": [-70.6409600452, 43.134302676]}, "type": "Feature", "properties": {"collection_times": [{"days": "Mon-Fri", "time": "4:30pm"}, {"days": "Sat", "time": "11:30am"}, {"days": "Sun", "time": "Closed"}], "id": "0391100002", "name": "USPS COLLECTION BOX - PO LOBBY", "address": {"city": "YORK HARBOR", "state": "ME", "street": "445 YORK ST", "postcode": "03911"}}}
]}
