{"type": "FeatureCollection", "features": [
{"geometry": {"type": "Point", "coordinates": [-70.914098922, 43.5336704982]}, "type": "Feature", "properties": {"collection_times": [{"days": "Mon-Fri", "time": "3:15pm"}, {"days": "Sat", "time": "11:45am"}, {"days": "Sun", "time": "Closed"}], "id": "0400100002", "name": "USPS COLLECTION BOX - PO LOBBY", "address": {"city": "ACTON", "state": "ME", "street": "179 SAM PAGE RD", "postcode": "04001"}}},
{"geometry": {"type": "Point", "coordinates": [-70.914098922, 43.5336704982]}, "type": "Feature", "properties": {"collection_times": [{"days": "Mon-Fri", "time": "3:15pm"}, {"days": "Sat", "time": "11:30am"}, {"days": "Sun", "time": "Closed"}], "id": "0400100004", "name": "USPS COLLECTION BOX - BLUE BOX", "address": {"city": "ACTON", "state": "ME", "street": "179 SAM PAGE RD", "postcode": "04001"}}},
{"geometry": {"type": "Point", "coordinates": [-70.7135102038, 43.4746505897]}, "type": "Feature", "properties": {"collection_times": [{"days": "Mon-Fri", "time": "4:45pm"}, {"days": "Sat", "time": "11:45am"}, {"days": "Sun", "time": "Closed"}], "id": "0400200002", "name": "USPS COLLECTION BOX - BLUE BOX", "address": {"city": "LYMAN", "state": "ME", "street": "50 KENNEBUNK RD", "postcode": "04002"}}},
{"geometry": {"type": "Point", "coordinates": [-70.5819732671, 43.5078894454]}, "type": "Feature", "properties": {"collection_times": [{"days": "Mon-Fri", "time": "10:30am"}, {"days": "Sat-Sun", "time": "Closed"}], "id": "0400200003", "name": "USPS COLLECTION BOX - BLUE BOX", "address": {"city": "LYMAN", "state": "ME", "street": "480 GOODWINS MILLS RD", "postcode": "04002"}}},
{"geometry": {"type": "Point", "coordinates": [-70.7135102038, 43.4746505897]}, "type": "Feature", "properties": {"collection_times": [{"days": "Mon-Fri", "time": "4:45pm"}, {"days": "Sat", "time": "11:45am"}, {"days": "Sun", "time": "Closed"}], "id": "0400200005", "name": "USPS COLLECTION BOX - PO LOBBY", "address": {"city": "LYMAN", "state": "ME", "street": "50 KENNEBUNK RD", "postcode": "04002"}}},
{"geometry": {"type": "Point", "coordinates": [-69.9951844623, 43.7359847178]}, "type": "Feature", "properties": {"collection_times": [{"days": "Mon-Fri", "time": "4:00pm"}, {"days": "Sat", "time": "11:45am"}, {"days": "Sun", "time": "Closed"}], "id": "0400300001", "name": "USPS COLLECTION BOX - BLUE BOX", "address": {"city": "BAILEY ISLAND", "state": "ME", "street": "2120 HARPSWELL ISLANDS RD", "postcode": "04003"}}},
{"geometry": {"type": "Point", "coordinates": [-69.2039438735, 45.3152487683]}, "type": "Feature", "properties": {"collection_times": [{"days": "Mon-Fri", "time": "4:30pm"}, {"days": "Sat", "time": "12:00pm"}, {"days": "Sun", "time": "Closed"}], "id": "0400400001", "name": "USPS COLLECTION BOX - BLUE BOX", "address": {"city": "BAR MILLS", "state": "ME", "street": "59 MAIN ST", "postcode": "04004"}}},
{"geometry": {"type": "Point", "coordinates": [-69.2039438735, 45.3152487683]}, "type": "Feature", "properties": {"collection_times": [{"days": "Mon-Fri", "time": "4:30pm"}, {"days": "Sat", "time": "12:00pm"}, {"days": "Sun", "time": "Closed"}], "id": "0400400002", "name": "USPS COLLECTION BOX - PO LOBBY", "address": {"city": "BAR MILLS", "state": "ME", "street": "59 MAIN ST", "postcode": "04004"}}},
{"geometry": {"type": "Point", "coordinates": [-70.4568855696, 43.4937609663]}, "type": "Feature", "properties": {"collection_times": [{"days": "Mon-Fri", "time": "4:15pm"}, {"days": "Sat", "time": "3:30pm"}, {"days": "Sun", "time": "Closed"}], "id": "0400500008", "name": "USPS COLLECTION BOX - BLUE BOX", "address": {"city": "BIDDEFORD", "state": "ME", "street": "265 MAIN ST", "postcode": "04005"}}},
{"geometry": {"type": "Point", "coordinates": [-70.4665399762, 43.4877688373]}, "type": "Feature", "properties": {"collection_times": [{"days": "Mon-Fri", "time": "4:15pm"}, {"days": "Sat", "time": "3:30pm"}, {"days": "Sun", "time": "Closed"}], "id": "0400500011", "name": "USPS COLLECTION BOX - BLUE BOX", "address": {"city": "BIDDEFORD", "state": "ME", "street": "313 ELM ST", "postcode": "04005"}}},
{"geometry": {"type": "Point", "coordinates": [-70.4889258576, 43.4785567313]}, "type": "Feature", "properties": {"collection_times": [{"days": "Mon-Sat", "time": "9:30am"}, {"days": "Sun", "time": "Closed"}], "id": "0400500015", "name": "USPS COLLECTION BOX - BLUE BOX", "address": {"city": "BIDDEFORD", "state": "ME", "street": "420 ALFRED ST", "postcode": "04005"}}},
{"geometry": {"type": "Point", "coordinates": [-70.4734750931, 43.4858962812]}, "type": "Feature", "properties": {"collection_times": [{"days": "Mon-Sat", "time": "2:00pm"}, {"days": "Sun", "time": "Closed"}], "id": "0400500017", "name": "USPS COLLECTION BOX - BLUE BOX", "address": {"city": "BIDDEFORD", "state": "ME", "street": "130 MAY ST", "postcode": "04005"}}},
{"geometry": {"type": "Point", "coordinates": [-70.4693295238, 43.4899414837]}, "type": "Feature", "properties": {"collection_times": [{"days": "Mon-Fri", "time": "5:00pm"}, {"days": "Sat", "time": "3:30pm"}, {"days": "Sun", "time": "Closed"}], "id": "0400500021", "name": "USPS COLLECTION BOX - EXPRESS", "address": {"city": "BIDDEFORD", "state": "ME", "street": "100 ALFRED ST", "postcode": "04005"}}},
{"geometry": {"type": "Point", "coordinates": [-70.4563593892, 43.4907099077]}, "type": "Feature", "properties": {"collection_times": [{"days": "Mon-Fri", "time": "5:00pm"}, {"days": "Sat", "time": "3:30pm"}, {"days": "Sun", "time": "Closed"}], "id": "0400500022", "name": "USPS COLLECTION BOX - BLUE BOX", "address": {"city": "BIDDEFORD", "state": "ME", "street": "100 ALFRED ST", "postcode": "04005"}}},
{"geometry": {"type": "Point", "coordinates": [-70.4563593892, 43.4907099077]}, "type": "Feature", "properties": {"collection_times": [{"days": "Mon-Fri", "time": "5:00pm"}, {"days": "Sat", "time": "3:30pm"}, {"days": "Sun", "time": "Closed"}], "id": "0400500024", "name": "USPS COLLECTION BOX - BLUE BOX", "address": {"city": "BIDDEFORD", "state": "ME", "street": "100 ALFRED ST", "postcode": "04005"}}},
{"geometry": {"type": "Point", "coordinates": [-70.4563593892, 43.4907099077]}, "type": "Feature", "properties": {"collection_times": [{"days": "Mon-Fri", "time": "5:00pm"}, {"days": "Sat", "time": "3:30pm"}, {"days": "Sun", "time": "Closed"}], "id": "0400500025", "name": "USPS COLLECTION BOX - BLUE BOX", "address": {"city": "BIDDEFORD", "state": "ME", "street": "100 ALFRED ST", "postcode": "04005"}}},
{"geometry": {"type": "Point", "coordinates": [-70.4563593892, 43.4907099077]}, "type": "Feature", "properties": {"collection_times": [{"days": "Mon-Fri", "time": "5:00pm"}, {"days": "Sat", "time": "3:30pm"}, {"days": "Sun", "time": "Closed"}], "id": "0400500026", "name": "USPS COLLECTION BOX - BLUE BOX", "address": {"city": "BIDDEFORD", "state": "ME", "street": "100 ALFRED ST", "postcode": "04005"}}},
{"geometry": {"type": "Point", "coordinates": [-70.496607227, 43.4777391398]}, "type": "Feature", "properties": {"collection_times": [{"days": "Mon-Sat", "time": "10:00am"}, {"days": "Sun", "time": "Closed"}], "id": "0400500032", "name": "USPS COLLECTION BOX - BLUE BOX", "address": {"city": "BIDDEFORD", "state": "ME", "street": "517 ALFRED ST", "postcode": "04005"}}},
{"geometry": {"type": "Point", "coordinates": [-70.4693295238, 43.4899415294]}, "type": "Feature", "properties": {"collection_times": [{"days": "Mon-Sat", "time": "10:00am"}, {"days": "Sun", "time": "Closed"}], "id": "0400500034", "name": "USPS COLLECTION BOX - BLUE BOX", "address": {"city": "BIDDEFORD", "state": "ME", "street": "26 W COLE RD", "postcode": "04005"}}},
{"geometry": {"type": "Point", "coordinates": [-70.4568855696, 43.4937609663]}, "type": "Feature", "properties": {"collection_times": [{"days": "Mon-Fri", "time": "4:15pm"}, {"days": "Sat", "time": "3:30pm"}, {"days": "Sun", "time": "Closed"}], "id": "0400500035", "name": "USPS COLLECTION BOX - BLUE BOX", "address": {"city": "BIDDEFORD", "state": "ME", "street": "265 MAIN ST", "postcode": "04005"}}},
{"geometry": {"type": "Point", "coordinates": [-70.4562539802, 43.493497065]}, "type": "Feature", "properties": {"collection_times": [{"days": "Mon-Fri", "time": "4:15pm"}, {"days": "Sat", "time": "3:30pm"}, {"days": "Sun", "time": "Closed"}], "id": "0400500036", "name": "USPS COLLECTION BOX - BLUE BOX", "address": {"city": "BIDDEFORD", "state": "ME", "street": "205 MAIN ST", "postcode": "04005"}}},
{"geometry": {"type": "Point", "coordinates": [-70.4563593892, 43.4907099077]}, "type": "Feature", "properties": {"collection_times": [{"days": "Mon-Fri", "time": "5:00pm"}, {"days": "Sat", "time": "2:30pm"}, {"days": "Sun", "time": "Closed"}], "id": "0400500037", "name": "USPS COLLECTION BOX - PO LOBBY", "address": {"city": "BIDDEFORD", "state": "ME", "street": "100 ALFRED ST", "postcode": "04005"}}},
{"geometry": {"type": "Point", "coordinates": [-70.3445584717, 43.4461003185]}, "type": "Feature", "properties": {"collection_times": [{"days": "Mon-Fri", "time": "4:30pm"}, {"days": "Sat", "time": "11:30am"}, {"days": "Sun", "time": "Closed"}], "id": "0400600002", "name": "USPS COLLECTION BOX - BLUE BOX", "address": {"city": "BIDDEFORD POOL", "state": "ME", "street": "8 LESTER B ORCUTT BLVD", "postcode": "04006"}}},
{"geometry": {"type": "Point", "coordinates": [-70.3445584717, 43.4461003185]}, "type": "Feature", "properties": {"collection_times": [{"days": "Mon-Fri", "time": "4:30pm"}, {"days": "Sat", "time": "12:00pm"}, {"days": "Sun", "time": "Closed"}], "id": "0400600004", "name": "USPS COLLECTION BOX - PO LOBBY", "address": {"city": "BIDDEFORD POOL", "state": "ME", "street": "8 LESTER B ORCUTT BLVD", "postcode": "04006"}}},
{"geometry": {"type": "Point", "coordinates": [-69.9228293698, 44.0176037824]}, "type": "Feature", "properties": {"collection_times": [{"days": "Mon-Fri", "time": "4:15pm"}, {"days": "Sat", "time": "12:00pm"}, {"days": "Sun", "time": "Closed"}], "id": "0400800001", "name": "USPS COLLECTION BOX - BLUE BOX", "address": {"city": "BOWDOINHAM", "state": "ME", "street": "49 POND RD", "postcode": "04008"}}},
{"geometry": {"type": "Point", "coordinates": [-69.8961647899, 44.0093251633]}, "type": "Feature", "properties": {"collection_times": [{"days": "Mon-Fri", "time": "1:00pm"}, {"days": "Sat-Sun", "time": "Closed"}], "id": "0400800002", "name": "USPS COLLECTION BOX - BLUE BOX", "address": {"city": "BOWDOINHAM", "state": "ME", "street": "23 MAIN ST", "postcode": "04008"}}},
{"geometry": {"type": "Point", "coordinates": [-69.9228293698, 44.0176037824]}, "type": "Feature", "properties": {"collection_times": [{"days": "Mon-Fri", "time": "4:15pm"}, {"days": "Sat", "time": "12:00pm"}, {"days": "Sun", "time": "Closed"}], "id": "0400800003", "name": "USPS COLLECTION BOX - PO LOBBY", "address": {"city": "BOWDOINHAM", "state": "ME", "street": "49 POND RD", "postcode": "04008"}}},
{"geometry": {"type": "Point", "coordinates": [-69.9228293698, 44.0176037824]}, "type": "Feature", "properties": {"collection_times": [{"days": "Mon-Fri", "time": "4:15pm"}, {"days": "Sat", "time": "12:00pm"}, {"days": "Sun", "time": "Closed"}], "id": "0400800004", "name": "USPS COLLECTION BOX - PO LOBBY", "address": {"city": "BOWDOINHAM", "state": "ME", "street": "49 POND RD", "postcode": "04008"}}},
{"geometry": {"type": "Point", "coordinates": [-70.7291478178, 44.0603321268]}, "type": "Feature", "properties": {"collection_times": [{"days": "Mon-Sat", "time": "10:00am"}, {"days": "Sun", "time": "Closed"}], "id": "0400900001", "name": "USPS COLLECTION BOX - BLUE BOX", "address": {"city": "BRIDGTON", "state": "ME", "street": "295 MAIN ST", "postcode": "04009"}}},
{"geometry": {"type": "Point", "coordinates": [-69.2039438735, 45.3152487683]}, "type": "Feature", "properties": {"collection_times": [{"days": "Mon-Sat", "time": "10:00am"}, {"days": "Sun", "time": "Closed"}], "id": "0400900003", "name": "USPS COLLECTION BOX - BLUE BOX", "address": {"city": "BRIDGTON", "state": "ME", "street": "19 PORTLAND RD", "postcode": "04009"}}},
{"geometry": {"type": "Point", "coordinates": [-69.2039438735, 45.3152487683]}, "type": "Feature", "properties": {"collection_times": [{"days": "Mon-Fri", "time": "9:00am"}, {"days": "Sat-Sun", "time": "Closed"}], "id": "0400900005", "name": "USPS COLLECTION BOX - BLUE BOX", "address": {"city": "BRIDGTON", "state": "ME", "street": "109 PORTLAND RD", "postcode": "04009"}}},
{"geometry": {"type": "Point", "coordinates": [-70.7291478178, 44.0603321268]}, "type": "Feature", "properties": {"collection_times": [{"days": "Mon-Fri", "time": "5:00pm"}, {"days": "Sat", "time": "4:15pm"}, {"days": "Sun", "time": "Closed"}], "id": "0400900006", "name": "USPS COLLECTION BOX - BLUE BOX", "address": {"city": "BRIDGTON", "state": "ME", "street": "6 ELM ST", "postcode": "04009"}}},
{"geometry": {"type": "Point", "coordinates": [-70.7291478178, 44.0603321268]}, "type": "Feature", "properties": {"collection_times": [{"days": "Mon-Fri", "time": "5:00pm"}, {"days": "Sat", "time": "4:15pm"}, {"days": "Sun", "time": "Closed"}], "id": "0400900008", "name": "USPS COLLECTION BOX - BLUE BOX", "address": {"city": "BRIDGTON", "state": "ME", "street": "6 ELM ST", "postcode": "04009"}}},
{"geometry": {"type": "Point", "coordinates": [-70.7291478178, 44.0603321268]}, "type": "Feature", "properties": {"collection_times": [{"days": "Mon-Fri", "time": "5:00pm"}, {"days": "Sat", "time": "12:00pm"}, {"days": "Sun", "time": "Closed"}], "id": "0400900009", "name": "USPS COLLECTION BOX - PO LOBBY", "address": {"city": "BRIDGTON", "state": "ME", "street": "6 ELM ST", "postcode": "04009"}}},
{"geometry": {"type": "Point", "coordinates": [-70.7291478178, 44.0603321268]}, "type": "Feature", "properties": {"collection_times": [{"days": "Mon-Fri", "time": "5:00pm"}, {"days": "Sat", "time": "12:00pm"}, {"days": "Sun", "time": "Closed"}], "id": "0400900010", "name": "USPS COLLECTION BOX - PO LOBBY", "address": {"city": "BRIDGTON", "state": "ME", "street": "6 ELM ST", "postcode": "04009"}}},
{"geometry": {"type": "Point", "coordinates": [-70.9245863184, 43.9346107935]}, "type": "Feature", "properties": {"collection_times": [{"days": "Mon-Fri", "time": "3:00pm"}, {"days": "Sat", "time": "11:45am"}, {"days": "Sun", "time": "Closed"}], "id": "0401000001", "name": "USPS COLLECTION BOX - BLUE BOX", "address": {"city": "BROWNFIELD", "state": "ME", "street": "106 MAIN ST", "postcode": "04010"}}},
{"geometry": {"type": "Point", "coordinates": [-70.9245863184, 43.9346107935]}, "type": "Feature", "properties": {"collection_times": [{"days": "Mon-Fri", "time": "3:00pm"}, {"days": "Sat", "time": "12:00pm"}, {"days": "Sun", "time": "Closed"}], "id": "0401000002", "name": "USPS COLLECTION BOX - PO LOBBY", "address": {"city": "BROWNFIELD", "state": "ME", "street": "106 MAIN ST", "postcode": "04010"}}},
{"geometry": {"type": "Point", "coordinates": [-69.9044729901, 43.916628692]}, "type": "Feature", "properties": {"collection_times": [{"days": "Mon-Sat", "time": "9:30am"}, {"days": "Sun", "time": "Closed"}], "id": "0401100001", "name": "USPS COLLECTION BOX - BLUE BOX", "address": {"city": "BRUNSWICK", "state": "ME", "street": "108 OLD BATH RD", "postcode": "04011"}}},
{"geometry": {"type": "Point", "coordinates": [-69.963474178, 43.9104901851]}, "type": "Feature", "properties": {"collection_times": [{"days": "Mon-Sat", "time": "3:45pm"}, {"days": "Sun", "time": "Closed"}], "id": "0401100002", "name": "USPS COLLECTION BOX - BLUE BOX", "address": {"city": "BRUNSWICK", "state": "ME", "street": "128 MAINE ST", "postcode": "04011"}}},
{"geometry": {"type": "Point", "coordinates": [-69.9646788598, 43.9021913066]}, "type": "Feature", "properties": {"collection_times": [{"days": "Mon-Sat", "time": "3:45pm"}, {"days": "Sun", "time": "Closed"}], "id": "0401100004", "name": "USPS COLLECTION BOX - BLUE BOX", "address": {"city": "BRUNSWICK", "state": "ME", "street": "186 MAINE ST", "postcode": "04011"}}},
{"geometry": {"type": "Point", "coordinates": [-70.0300975457, 43.9135172758]}, "type": "Feature", "properties": {"collection_times": [{"days": "Mon-Sat", "time": "10:00am"}, {"days": "Sun", "time": "Closed"}], "id": "0401100005", "name": "USPS COLLECTION BOX - BLUE BOX", "address": {"city": "BRUNSWICK", "state": "ME", "street": "2 MARION ST", "postcode": "04011"}}},
{"geometry": {"type": "Point", "coordinates": [-69.9646788598, 43.9021913066]}, "type": "Feature", "properties": {"collection_times": [{"days": "Mon-Sat", "time": "10:00am"}, {"days": "Sun", "time": "Closed"}], "id": "0401100006", "name": "USPS COLLECTION BOX - BLUE BOX", "address": {"city": "BRUNSWICK", "state": "ME", "street": "26 RIVERVIEW DR", "postcode": "04011"}}},
{"geometry": {"type": "Point", "coordinates": [-69.9641870617, 43.9171018985]}, "type": "Feature", "properties": {"collection_times": [{"days": "Mon-Sat", "time": "3:45pm"}, {"days": "Sun", "time": "Closed"}], "id": "0401100007", "name": "USPS COLLECTION BOX - BLUE BOX", "address": {"city": "BRUNSWICK", "state": "ME", "street": "22 STATION AVE", "postcode": "04011"}}},
{"geometry": {"type": "Point", "coordinates": [-69.967881507, 43.9139999699]}, "type": "Feature", "properties": {"collection_times": [{"days": "Mon-Sat", "time": "5:00pm"}, {"days": "Sun", "time": "Closed"}], "id": "0401100008", "name": "USPS COLLECTION BOX - BLUE BOX", "address": {"city": "BRUNSWICK", "state": "ME", "street": "30 PLEASANT ST", "postcode": "04011"}}},
{"geometry": {"type": "Point", "coordinates": [-69.9685193115, 43.8980091144]}, "type": "Feature", "properties": {"collection_times": [{"days": "Mon-Sat", "time": "2:00pm"}, {"days": "Sun", "time": "Closed"}], "id": "0401100011", "name": "USPS COLLECTION BOX - BLUE BOX", "address": {"city": "BRUNSWICK", "state": "ME", "street": "301 MAINE ST", "postcode": "04011"}}},
{"geometry": {"type": "Point", "coordinates": [-69.9609139977, 43.9070038338]}, "type": "Feature", "properties": {"collection_times": [{"days": "Mon-Sat", "time": "9:00am"}, {"days": "Sun", "time": "Closed"}], "id": "0401100012", "name": "USPS COLLECTION BOX - BLUE BOX", "address": {"city": "BRUNSWICK", "state": "ME", "street": "33 COLLEGE ST", "postcode": "04011"}}},
{"geometry": {"type": "Point", "coordinates": [-69.9646788598, 43.9021913066]}, "type": "Feature", "properties": {"collection_times": [{"days": "Mon-Sat", "time": "2:00pm"}, {"days": "Sun", "time": "Closed"}], "id": "0401100013", "name": "USPS COLLECTION BOX - BLUE BOX", "address": {"city": "BRUNSWICK", "state": "ME", "street": "329 MAINE ST", "postcode": "04011"}}},
{"geometry": {"type": "Point", "coordinates": [-69.9646788598, 43.9021913066]}, "type": "Feature", "properties": {"collection_times": [{"days": "Mon-Sat", "time": "12:00pm"}, {"days": "Sun", "time": "Closed"}], "id": "0401100016", "name": "USPS COLLECTION BOX - BLUE BOX", "address": {"city": "BRUNSWICK", "state": "ME", "street": "46 FEDERAL ST", "postcode": "04011"}}},
{"geometry": {"type": "Point", "coordinates": [-69.9787172833, 43.8985723832]}, "type": "Feature", "properties": {"collection_times": [{"days": "Mon-Sat", "time": "11:00am"}, {"days": "Sun", "time": "Closed"}], "id": "0401100017", "name": "USPS COLLECTION BOX - BLUE BOX", "address": {"city": "BRUNSWICK", "state": "ME", "street": "57 BARIBEAU DR", "postcode": "04011"}}},
{"geometry": {"type": "Point", "coordinates": [-69.9664846276, 43.9123969051]}, "type": "Feature", "properties": {"collection_times": [{"days": "Mon-Sat", "time": "3:45pm"}, {"days": "Sun", "time": "Closed"}], "id": "0401100019", "name": "USPS COLLECTION BOX - BLUE BOX", "address": {"city": "BRUNSWICK", "state": "ME", "street": "35 ELM ST", "postcode": "04011"}}},
{"geometry": {"type": "Point", "coordinates": [-69.9610850311, 43.9103899754]}, "type": "Feature", "properties": {"collection_times": [{"days": "Mon-Sat", "time": "2:00pm"}, {"days": "Sun", "time": "Closed"}], "id": "0401100020", "name": "USPS COLLECTION BOX - BLUE BOX", "address": {"city": "BRUNSWICK", "state": "ME", "street": "7 BATH RD", "postcode": "04011"}}},
{"geometry": {"type": "Point", "coordinates": [-69.9646788598, 43.9021913066]}, "type": "Feature", "properties": {"collection_times": [{"days": "Mon-Sat", "time": "3:45pm"}, {"days": "Sun", "time": "Closed"}], "id": "0401100021", "name": "USPS COLLECTION BOX - BLUE BOX", "address": {"city": "BRUNSWICK", "state": "ME", "street": "94 MAINE ST", "postcode": "04011"}}},
{"geometry": {"type": "Point", "coordinates": [-69.9646788598, 43.9021913066]}, "type": "Feature", "properties": {"collection_times": [{"days": "Mon-Sat", "time": "3:45pm"}, {"days": "Sun", "time": "Closed"}], "id": "0401100022", "name": "USPS COLLECTION BOX - BLUE BOX", "address": {"city": "BRUNSWICK", "state": "ME", "street": "99 MAINE ST", "postcode": "04011"}}},
{"geometry": {"type": "Point", "coordinates": [-69.2039438735, 45.3152487683]}, "type": "Feature", "properties": {"collection_times": [{"days": "Mon-Sat", "time": "12:00pm"}, {"days": "Sun", "time": "Closed"}], "id": "0401100024", "name": "USPS COLLECTION BOX - BLUE BOX", "address": {"city": "BRUNSWICK", "state": "ME", "street": "191 COLUMBIA AVE", "postcode": "04011"}}},
{"geometry": {"type": "Point", "coordinates": [-69.9156603791, 43.9063567531]}, "type": "Feature", "properties": {"collection_times": [{"days": "Mon-Sat", "time": "9:30am"}, {"days": "Sun", "time": "Closed"}], "id": "0401100025", "name": "USPS COLLECTION BOX - BLUE BOX", "address": {"city": "BRUNSWICK", "state": "ME", "street": "8 GURNET RD", "postcode": "04011"}}},
{"geometry": {"type": "Point", "coordinates": [-69.9568259781, 43.9053925636]}, "type": "Feature", "properties": {"collection_times": [{"days": "Mon-Sat", "time": "10:00am"}, {"days": "Sun", "time": "Closed"}], "id": "0401100027", "name": "USPS COLLECTION BOX - BLUE BOX", "address": {"city": "BRUNSWICK", "state": "ME", "street": "51 HARPSWELL RD", "postcode": "04011"}}},
{"geometry": {"type": "Point", "coordinates": [-69.9489594404, 43.9142018876]}, "type": "Feature", "properties": {"collection_times": [{"days": "Mon-Sat", "time": "10:00am"}, {"days": "Sun", "time": "Closed"}], "id": "0401100028", "name": "USPS COLLECTION BOX - BLUE BOX", "address": {"city": "BRUNSWICK", "state": "ME", "street": "2 PEJEPSCOT TER", "postcode": "04011"}}},
{"geometry": {"type": "Point", "coordinates": [-69.9281631319, 43.9065431178]}, "type": "Feature", "properties": {"collection_times": [{"days": "Mon-Fri", "time": "3:00pm"}, {"days": "Sat", "time": "12:00pm"}, {"days": "Sun", "time": "Closed"}], "id": "0401100032", "name": "USPS COLLECTION BOX - BLUE BOX", "address": {"city": "BRUNSWICK", "state": "ME", "street": "147 BATH RD", "postcode": "04011"}}},
{"geometry": {"type": "Point", "coordinates": [-69.9107375113, 43.9087680806]}, "type": "Feature", "properties": {"collection_times": [{"days": "Mon-Sat", "time": "11:00am"}, {"days": "Sun", "time": "Closed"}], "id": "0401100035", "name": "USPS COLLECTION BOX - BLUE BOX", "address": {"city": "BRUNSWICK", "state": "ME", "street": "228 BATH RD", "postcode": "04011"}}},
{"geometry": {"type": "Point", "coordinates": [-69.9718109663, 43.9134283292]}, "type": "Feature", "properties": {"collection_times": [{"days": "Mon-Sat", "time": "4:00pm"}, {"days": "Sun", "time": "Closed"}], "id": "0401100036", "name": "USPS COLLECTION BOX - BLUE BOX", "address": {"city": "BRUNSWICK", "state": "ME", "street": "52 PLEASANT ST", "postcode": "04011"}}},
{"geometry": {"type": "Point", "coordinates": [-69.967881507, 43.9139999699]}, "type": "Feature", "properties": {"collection_times": [{"days": "Mon-Sat", "time": "5:15pm"}, {"days": "Sun", "time": "Closed"}], "id": "0401100038", "name": "USPS COLLECTION BOX - PO LOBBY", "address": {"city": "BRUNSWICK", "state": "ME", "street": "30 PLEASANT ST", "postcode": "04011"}}},
{"geometry": {"type": "Point", "coordinates": [-69.967881507, 43.9139999699]}, "type": "Feature", "properties": {"collection_times": [{"days": "Mon-Sat", "time": "5:15pm"}, {"days": "Sun", "time": "Closed"}], "id": "0401100039", "name": "USPS COLLECTION BOX - PO LOBBY", "address": {"city": "BRUNSWICK", "state": "ME", "street": "30 PLEASANT ST", "postcode": "04011"}}},
{"geometry": {"type": "Point", "coordinates": [-69.9663792352, 43.9172784386]}, "type": "Feature", "properties": {"collection_times": [{"days": "Mon-Fri", "time": "3:45pm"}, {"days": "Sat", "time": "11:00am"}, {"days": "Sun", "time": "Closed"}], "id": "0401100040", "name": "USPS COLLECTION BOX - BLUE BOX", "address": {"city": "BRUNSWICK", "state": "ME", "street": "14 MAINE ST", "postcode": "04011"}}},
{"geometry": {"type": "Point", "coordinates": [-69.8917290373, 43.9089606907]}, "type": "Feature", "properties": {"collection_times": [{"days": "Mon-Sat", "time": "11:00am"}, {"days": "Sun", "time": "Closed"}], "id": "0401100041", "name": "USPS COLLECTION BOX - BLUE BOX", "address": {"city": "BRUNSWICK", "state": "ME", "street": "121 MEDICAL CENTER DR", "postcode": "04011"}}},
{"geometry": {"type": "Point", "coordinates": [-69.877474795, 43.9126033113]}, "type": "Feature", "properties": {"collection_times": [{"days": "Mon-Sat", "time": "12:00pm"}, {"days": "Sun", "time": "Closed"}], "id": "0401100042", "name": "USPS COLLECTION BOX - BLUE BOX", "address": {"city": "BRUNSWICK", "state": "ME", "street": "430 BATH RD", "postcode": "04011"}}},
{"geometry": {"type": "Point", "coordinates": [-70.5291776298, 43.9640815652]}, "type": "Feature", "properties": {"collection_times": [{"days": "Mon-Fri", "time": "4:30pm"}, {"days": "Sat", "time": "11:00am"}, {"days": "Sun", "time": "Closed"}], "id": "0401500001", "name": "USPS COLLECTION BOX - BLUE BOX", "address": {"city": "CASCO", "state": "ME", "street": "942 MEADOW RD", "postcode": "04015"}}},
{"geometry": {"type": "Point", "coordinates": [-70.5291776298, 43.9640815652]}, "type": "Feature", "properties": {"collection_times": [{"days": "Mon-Fri", "time": "4:30pm"}, {"days": "Sat", "time": "11:00am"}, {"days": "Sun", "time": "Closed"}], "id": "0401500002", "name": "USPS COLLECTION BOX - PO LOBBY", "address": {"city": "CASCO", "state": "ME", "street": "942 MEADOW RD", "postcode": "04015"}}},
{"geometry": {"type": "Point", "coordinates": [-70.8914044152, 44.1819362427]}, "type": "Feature", "properties": {"collection_times": [{"days": "Mon-Fri", "time": "4:30pm"}, {"days": "Sat", "time": "12:00pm"}, {"days": "Sun", "time": "Closed"}], "id": "0401600001", "name": "USPS COLLECTION BOX - BLUE BOX", "address": {"city": "CENTER LOVELL", "state": "ME", "street": "11 OLD STAGE RD", "postcode": "04016"}}},
{"geometry": {"type": "Point", "coordinates": [-70.8914044152, 44.1819362427]}, "type": "Feature", "properties": {"collection_times": [{"days": "Mon-Fri", "time": "4:30pm"}, {"days": "Sat", "time": "12:15pm"}, {"days": "Sun", "time": "Closed"}], "id": "0401600002", "name": "USPS COLLECTION BOX - PO LOBBY", "address": {"city": "CENTER LOVELL", "state": "ME", "street": "11 OLD STAGE RD", "postcode": "04016"}}},
{"geometry": {"type": "Point", "coordinates": [-70.1114584137, 43.7294973661]}, "type": "Feature", "properties": {"collection_times": [{"days": "Mon-Fri", "time": "1:00pm"}, {"days": "Sat", "time": "11:00am"}, {"days": "Sun", "time": "Closed"}], "id": "0401700001", "name": "USPS COLLECTION BOX - BLUE BOX", "address": {"city": "CHEBEAGUE IS", "state": "ME", "street": "24 NIBLIC CIR", "postcode": "04017"}}},
{"geometry": {"type": "Point", "coordinates": [-70.1114584137, 43.7294973661]}, "type": "Feature", "properties": {"collection_times": [{"days": "Mon-Fri", "time": "1:00pm"}, {"days": "Sat", "time": "11:00am"}, {"days": "Sun", "time": "Closed"}], "id": "0401700003", "name": "USPS COLLECTION BOX - PO LOBBY", "address": {"city": "CHEBEAGUE IS", "state": "ME", "street": "24 NIBLIC CIR", "postcode": "04017"}}},
{"geometry": {"type": "Point", "coordinates": [-70.1030946381, 43.6990938225]}, "type": "Feature", "properties": {"collection_times": [{"days": "Mon-Fri", "time": "3:00pm"}, {"days": "Sat", "time": "12:00pm"}, {"days": "Sun", "time": "Closed"}], "id": "0401900002", "name": "USPS COLLECTION BOX - PO LOBBY", "address": {"city": "CLIFF ISLAND", "state": "ME", "street": "11 SUNSET RD   UNIT 1", "postcode": "04019"}}},
{"geometry": {"type": "Point", "coordinates": [-70.1030946381, 43.6990938225]}, "type": "Feature", "properties": {"collection_times": [{"days": "Mon-Fri", "time": "3:00pm"}, {"days": "Sat", "time": "12:00pm"}, {"days": "Sun", "time": "Closed"}], "id": "0401900003", "name": "USPS COLLECTION BOX - PO LOBBY", "address": {"city": "CLIFF ISLAND", "state": "ME", "street": "11 SUNSET RD   UNIT 1", "postcode": "04019"}}},
{"geometry": {"type": "Point", "coordinates": [-70.8233225423, 43.803176191]}, "type": "Feature", "properties": {"collection_times": [{"days": "Mon-Fri", "time": "4:30pm"}, {"days": "Sat", "time": "11:30am"}, {"days": "Sun", "time": "Closed"}], "id": "0402000001", "name": "USPS COLLECTION BOX - BLUE BOX", "address": {"city": "CORNISH", "state": "ME", "street": "202 MAPLE ST  STE 1", "postcode": "04020"}}},
{"geometry": {"type": "Point", "coordinates": [-70.8233225423, 43.803176191]}, "type": "Feature", "properties": {"collection_times": [{"days": "Mon-Fri", "time": "4:45pm"}, {"days": "Sat", "time": "11:30am"}, {"days": "Sun", "time": "Closed"}], "id": "0402000002", "name": "USPS COLLECTION BOX - PO LOBBY", "address": {"city": "CORNISH", "state": "ME", "street": "202 MAPLE ST STE 1", "postcode": "04020"}}},
{"geometry": {"type": "Point", "coordinates": [-70.8233225423, 43.803176191]}, "type": "Feature", "properties": {"collection_times": [{"days": "Mon-Fri", "time": "4:45pm"}, {"days": "Sat", "time": "11:30am"}, {"days": "Sun", "time": "Closed"}], "id": "0402000003", "name": "USPS COLLECTION BOX - PO LOBBY", "address": {"city": "CORNISH", "state": "ME", "street": "202 MAPLE ST STE 1", "postcode": "04020"}}},
{"geometry": {"type": "Point", "coordinates": [-70.2547638668, 43.8005891512]}, "type": "Feature", "properties": {"collection_times": [{"days": "Mon-Fri", "time": "4:30pm"}, {"days": "Sat", "time": "11:30am"}, {"days": "Sun", "time": "Closed"}], "id": "0402100001", "name": "USPS COLLECTION BOX - BLUE BOX", "address": {"city": "CUMBERLND CTR", "state": "ME", "street": "1 FARWELL AVE", "postcode": "04021"}}},
{"geometry": {"type": "Point", "coordinates": [-70.2547638668, 43.8005891512]}, "type": "Feature", "properties": {"collection_times": [{"days": "Mon-Fri", "time": "5:00pm"}, {"days": "Sat", "time": "12:00pm"}, {"days": "Sun", "time": "Closed"}], "id": "0402100002", "name": "USPS COLLECTION BOX - PO LOBBY", "address": {"city": "CUMBERLND CTR", "state": "ME", "street": "1 FARWELL AVE", "postcode": "04021"}}},
{"geometry": {"type": "Point", "coordinates": [-70.7992786273, 43.9712819116]}, "type": "Feature", "properties": {"collection_times": [{"days": "Mon-Fri", "time": "2:30pm"}, {"days": "Sat", "time": "11:45am"}, {"days": "Sun", "time": "Closed"}], "id": "0402200001", "name": "USPS COLLECTION BOX - BLUE BOX", "address": {"city": "DENMARK", "state": "ME", "street": "39 E MAIN ST", "postcode": "04022"}}},
{"geometry": {"type": "Point", "coordinates": [-70.7992786273, 43.9712819116]}, "type": "Feature", "properties": {"collection_times": [{"days": "Mon-Fri", "time": "2:30pm"}, {"days": "Sat", "time": "11:45am"}, {"days": "Sun", "time": "Closed"}], "id": "0402200002", "name": "USPS COLLECTION BOX - PO LOBBY", "address": {"city": "DENMARK", "state": "ME", "street": "39 E MAIN ST", "postcode": "04022"}}},
{"geometry": {"type": "Point", "coordinates": [-70.6798339759, 43.8038256367]}, "type": "Feature", "properties": {"collection_times": [{"days": "Mon-Fri", "time": "4:45pm"}, {"days": "Sat", "time": "11:45am"}, {"days": "Sun", "time": "Closed"}], "id": "0402400001", "name": "USPS COLLECTION BOX - BLUE BOX", "address": {"city": "EAST BALDWIN", "state": "ME", "street": "213 PEQUAWKET TRL", "postcode": "04024"}}},
{"geometry": {"type": "Point", "coordinates": [-70.6798339759, 43.8038256367]}, "type": "Feature", "properties": {"collection_times": [{"days": "Mon-Fri", "time": "4:45pm"}, {"days": "Sat", "time": "11:45am"}, {"days": "Sun", "time": "Closed"}], "id": "0402400002", "name": "USPS COLLECTION BOX - PO LOBBY", "address": {"city": "EAST BALDWIN", "state": "ME", "street": "213 PEQUAWKET TRL", "postcode": "04024"}}},
{"geometry": {"type": "Point", "coordinates": [-70.8680046364, 43.4120698141]}, "type": "Feature", "properties": {"collection_times": [{"days": "Mon-Fri", "time": "4:45pm"}, {"days": "Sat", "time": "11:25am"}, {"days": "Sun", "time": "Closed"}], "id": "0402700001", "name": "USPS COLLECTION BOX - BLUE BOX", "address": {"city": "LEBANON", "state": "ME", "street": "5 LITTLE RIVER RD", "postcode": "04027"}}},
{"geometry": {"type": "Point", "coordinates": [-70.8680046364, 43.4120698141]}, "type": "Feature", "properties": {"collection_times": [{"days": "Mon-Fri", "time": "4:45pm"}, {"days": "Sat", "time": "11:25am"}, {"days": "Sun", "time": "Closed"}], "id": "0402700003", "name": "USPS COLLECTION BOX - PO LOBBY", "address": {"city": "LEBANON", "state": "ME", "street": "5 LITTLE RIVER RD", "postcode": "04027"}}},
{"geometry": {"type": "Point", "coordinates": [-69.2039438735, 45.3152487683]}, "type": "Feature", "properties": {"collection_times": [{"days": "Mon-Fri", "time": "4:45pm"}, {"days": "Sat", "time": "11:45am"}, {"days": "Sun", "time": "Closed"}], "id": "0402800001", "name": "USPS COLLECTION BOX - BLUE BOX", "address": {"city": "E PARSONFIELD", "state": "ME", "street": "1682 NORTH RD", "postcode": "04028"}}},
{"geometry": {"type": "Point", "coordinates": [-69.2039438735, 45.3152487683]}, "type": "Feature", "properties": {"collection_times": [{"days": "Mon-Fri", "time": "4:45pm"}, {"days": "Sat", "time": "11:45am"}, {"days": "Sun", "time": "Closed"}], "id": "0402800002", "name": "USPS COLLECTION BOX - PO LOBBY", "address": {"city": "E PARSONFIELD", "state": "ME", "street": "1682 NORTH RD", "postcode": "04028"}}},
{"geometry": {"type": "Point", "coordinates": [-70.634115432, 43.8518261208]}, "type": "Feature", "properties": {"collection_times": [{"days": "Mon-Fri", "time": "2:45pm"}, {"days": "Sat", "time": "11:45am"}, {"days": "Sun", "time": "Closed"}], "id": "0402900001", "name": "USPS COLLECTION BOX - BLUE BOX", "address": {"city": "SEBAGO", "state": "ME", "street": "222 SEBAGO RD", "postcode": "04029"}}},
{"geometry": {"type": "Point", "coordinates": [-70.634115432, 43.8518261208]}, "type": "Feature", "properties": {"collection_times": [{"days": "Mon-Fri", "time": "2:45pm"}, {"days": "Sat", "time": "11:45am"}, {"days": "Sun", "time": "Closed"}], "id": "0402900002", "name": "USPS COLLECTION BOX - PO LOBBY", "address": {"city": "SEBAGO", "state": "ME", "street": "222 SEBAGO RD", "postcode": "04029"}}},
{"geometry": {"type": "Point", "coordinates": [-70.6755484174, 43.5705074024]}, "type": "Feature", "properties": {"collection_times": [{"days": "Mon-Fri", "time": "4:30pm"}, {"days": "Sat", "time": "11:45am"}, {"days": "Sun", "time": "Closed"}], "id": "0403000001", "name": "USPS COLLECTION BOX - BLUE BOX", "address": {"city": "EAST WATERBORO", "state": "ME", "street": "171 MAIN ST", "postcode": "04030"}}},
{"geometry": {"type": "Point", "coordinates": [-70.6755484174, 43.5705074024]}, "type": "Feature", "properties": {"collection_times": [{"days": "Mon-Fri", "time": "4:45pm"}, {"days": "Sat", "time": "11:45am"}, {"days": "Sun", "time": "Closed"}], "id": "0403000002", "name": "USPS COLLECTION BOX - PO LOBBY", "address": {"city": "EAST WATERBORO", "state": "ME", "street": "171 MAIN ST", "postcode": "04030"}}},
{"geometry": {"type": "Point", "coordinates": [-70.1019110958, 43.859092242]}, "type": "Feature", "properties": {"collection_times": [{"days": "Mon-Fri", "time": "5:00pm"}, {"days": "Sat", "time": "3:00pm"}, {"days": "Sun", "time": "Closed"}], "id": "0403200002", "name": "USPS COLLECTION BOX - BLUE BOX", "address": {"city": "FREEPORT", "state": "ME", "street": "141 MAIN ST", "postcode": "04032"}}},
{"geometry": {"type": "Point", "coordinates": [-70.1021429851, 43.8586532455]}, "type": "Feature", "properties": {"collection_times": [{"days": "Mon-Fri", "time": "5:00pm"}, {"days": "Sat", "time": "3:00pm"}, {"days": "Sun", "time": "Closed"}], "id": "0403200004", "name": "USPS COLLECTION BOX - BLUE BOX", "address": {"city": "FREEPORT", "state": "ME", "street": "135 MAIN ST", "postcode": "04032"}}},
{"geometry": {"type": "Point", "coordinates": [-70.1182345115, 43.8430122362]}, "type": "Feature", "properties": {"collection_times": [{"days": "Mon-Sat", "time": "12:30pm"}, {"days": "Sun", "time": "Closed"}], "id": "0403200005", "name": "USPS COLLECTION BOX - BLUE BOX", "address": {"city": "FREEPORT", "state": "ME", "street": "200 LOWER MAIN ST", "postcode": "04032"}}},
{"geometry": {"type": "Point", "coordinates": [-70.1016880546, 43.8593601481]}, "type": "Feature", "properties": {"collection_times": [{"days": "Mon-Sat", "time": "10:00am"}, {"days": "Sun", "time": "Closed"}], "id": "0403200006", "name": "USPS COLLECTION BOX - BLUE BOX", "address": {"city": "FREEPORT", "state": "ME", "street": "95 MAIN ST", "postcode": "04032"}}},
{"geometry": {"type": "Point", "coordinates": [-70.1059834933, 43.8553902583]}, "type": "Feature", "properties": {"collection_times": [{"days": "Mon-Sat", "time": "10:30am"}, {"days": "Sun", "time": "Closed"}], "id": "0403200008", "name": "USPS COLLECTION BOX - BLUE BOX", "address": {"city": "FREEPORT", "state": "ME", "street": "30 MAIN ST", "postcode": "04032"}}},
{"geometry": {"type": "Point", "coordinates": [-70.0984997288, 43.8571040893]}, "type": "Feature", "properties": {"collection_times": [{"days": "Mon-Sat", "time": "11:00am"}, {"days": "Sun", "time": "Closed"}], "id": "0403200009", "name": "USPS COLLECTION BOX - BLUE BOX", "address": {"city": "FREEPORT", "state": "ME", "street": "55 SCHOOL ST", "postcode": "04032"}}},
{"geometry": {"type": "Point", "coordinates": [-70.1019766884, 43.8559039626]}, "type": "Feature", "properties": {"collection_times": [{"days": "Mon-Sat", "time": "1:00pm"}, {"days": "Sun", "time": "Closed"}], "id": "0403200010", "name": "USPS COLLECTION BOX - BLUE BOX", "address": {"city": "FREEPORT", "state": "ME", "street": "189 LOWER MAIN ST", "postcode": "04032"}}},
{"geometry": {"type": "Point", "coordinates": [-70.105135575, 43.8620334106]}, "type": "Feature", "properties": {"collection_times": [{"days": "Mon-Sat", "time": "11:15am"}, {"days": "Sun", "time": "Closed"}], "id": "0403200012", "name": "USPS COLLECTION BOX - BLUE BOX", "address": {"city": "FREEPORT", "state": "ME", "street": "41 MALLETT DR", "postcode": "04032"}}},
{"geometry": {"type": "Point", "coordinates": [-70.1019110958, 43.859092242]}, "type": "Feature", "properties": {"collection_times": [{"days": "Mon-Fri", "time": "5:00pm"}, {"days": "Sat", "time": "3:00pm"}, {"days": "Sun", "time": "Closed"}], "id": "0403200014", "name": "USPS COLLECTION BOX - PO LOBBY", "address": {"city": "FREEPORT", "state": "ME", "street": "141 MAIN ST", "postcode": "04032"}}},
{"geometry": {"type": "Point", "coordinates": [-70.946231088, 44.0788881265]}, "type": "Feature", "properties": {"collection_times": [{"days": "Mon-Fri", "time": "5:00pm"}, {"days": "Sat", "time": "3:30pm"}, {"days": "Sun", "time": "Closed"}], "id": "0403700002", "name": "USPS COLLECTION BOX - BLUE BOX", "address": {"city": "FRYEBURG", "state": "ME", "street": "488 MAIN ST", "postcode": "04037"}}},
{"geometry": {"type": "Point", "coordinates": [-70.9795304221, 44.016426162]}, "type": "Feature", "properties": {"collection_times": [{"days": "Mon-Sat", "time": "3:30pm"}, {"days": "Sun", "time": "Closed"}], "id": "0403700004", "name": "USPS COLLECTION BOX - BLUE BOX", "address": {"city": "FRYEBURG", "state": "ME", "street": "24 PORTLAND ST", "postcode": "04037"}}},
{"geometry": {"type": "Point", "coordinates": [-70.9462310881, 44.0788881264]}, "type": "Feature", "properties": {"collection_times": [{"days": "Mon-Sat", "time": "3:30pm"}, {"days": "Sun", "time": "Closed"}], "id": "0403700007", "name": "USPS COLLECTION BOX - BLUE BOX", "address": {"city": "FRYEBURG", "state": "ME", "street": "557 MAIN ST", "postcode": "04037"}}},
{"geometry": {"type": "Point", "coordinates": [-70.946231088, 44.0788881265]}, "type": "Feature", "properties": {"collection_times": [{"days": "Mon-Fri", "time": "5:00pm"}, {"days": "Sat", "time": "4:00pm"}, {"days": "Sun", "time": "Closed"}], "id": "0403700010", "name": "USPS COLLECTION BOX - PO LOBBY", "address": {"city": "FRYEBURG", "state": "ME", "street": "488 MAIN ST", "postcode": "04037"}}},
{"geometry": {"type": "Point", "coordinates": [-70.946231088, 44.0788881265]}, "type": "Feature", "properties": {"collection_times": [{"days": "Mon-Fri", "time": "5:00pm"}, {"days": "Sat", "time": "4:00pm"}, {"days": "Sun", "time": "Closed"}], "id": "0403700011", "name": "USPS COLLECTION BOX - PO LOBBY", "address": {"city": "FRYEBURG", "state": "ME", "street": "488 MAIN ST", "postcode": "04037"}}},
{"geometry": {"type": "Point", "coordinates": [-70.4408373611, 43.6803662303]}, "type": "Feature", "properties": {"collection_times": [{"days": "Mon-Sat", "time": "9:00am"}, {"days": "Sun", "time": "Closed"}], "id": "0403800003", "name": "USPS COLLECTION BOX - BLUE BOX", "address": {"city": "GORHAM", "state": "ME", "street": "57 MAIN ST", "postcode": "04038"}}},
{"geometry": {"type": "Point", "coordinates": [-70.4429161089, 43.6796800324]}, "type": "Feature", "properties": {"collection_times": [{"days": "Mon-Fri", "time": "9:00am"}, {"days": "Sat", "time": "1:00pm"}, {"days": "Sun", "time": "Closed"}], "id": "0403800008", "name": "USPS COLLECTION BOX - BLUE BOX", "address": {"city": "GORHAM", "state": "ME", "street": "99 MAIN ST", "postcode": "04038"}}},
{"geometry": {"type": "Point", "coordinates": [-70.4582624755, 43.7030961739]}, "type": "Feature", "properties": {"collection_times": [{"days": "Mon-Fri", "time": "5:15pm"}, {"days": "Sat", "time": "3:00pm"}, {"days": "Sun", "time": "Closed"}], "id": "0403800014", "name": "USPS COLLECTION BOX - BLUE BOX", "address": {"city": "GORHAM", "state": "ME", "street": "1 POST OFFICE SQ", "postcode": "04038"}}},
{"geometry": {"type": "Point", "coordinates": [-70.4582624755, 43.7030961739]}, "type": "Feature", "properties": {"collection_times": [{"days": "Mon-Fri", "time": "5:15pm"}, {"days": "Sat", "time": "3:00pm"}, {"days": "Sun", "time": "Closed"}], "id": "0403800015", "name": "USPS COLLECTION BOX - PO LOBBY", "address": {"city": "GORHAM", "state": "ME", "street": "1 POST OFFICE SQ", "postcode": "04038"}}},
{"geometry": {"type": "Point", "coordinates": [-70.4582624755, 43.7030961739]}, "type": "Feature", "properties": {"collection_times": [{"days": "Mon-Fri", "time": "5:15pm"}, {"days": "Sat", "time": "3:00pm"}, {"days": "Sun", "time": "Closed"}], "id": "0403800016", "name": "USPS COLLECTION BOX - PO LOBBY", "address": {"city": "GORHAM", "state": "ME", "street": "1 POST OFFICE SQ", "postcode": "04038"}}},
{"geometry": {"type": "Point", "coordinates": [-70.3302768124, 43.8785519711]}, "type": "Feature", "properties": {"collection_times": [{"days": "Mon-Fri", "time": "4:30pm"}, {"days": "Sat", "time": "11:30am"}, {"days": "Sun", "time": "Closed"}], "id": "0403900001", "name": "USPS COLLECTION BOX - BLUE BOX", "address": {"city": "GRAY", "state": "ME", "street": "10 TURNPIKE ACRES RD", "postcode": "04039"}}},
{"geometry": {"type": "Point", "coordinates": [-70.3297661996, 43.8824603491]}, "type": "Feature", "properties": {"collection_times": [{"days": "Mon-Fri", "time": "9:00am"}, {"days": "Sat-Sun", "time": "Closed"}], "id": "0403900004", "name": "USPS COLLECTION BOX - BLUE BOX", "address": {"city": "GRAY", "state": "ME", "street": "19 PORTLAND RD", "postcode": "04039"}}},
{"geometry": {"type": "Point", "coordinates": [-70.3302768124, 43.8785519711]}, "type": "Feature", "properties": {"collection_times": [{"days": "Mon-Fri", "time": "4:45pm"}, {"days": "Sat", "time": "12:30pm"}, {"days": "Sun", "time": "Closed"}], "id": "0403900005", "name": "USPS COLLECTION BOX - PO LOBBY", "address": {"city": "GRAY", "state": "ME", "street": "10 TURNPIKE ACRES RD", "postcode": "04039"}}},
{"geometry": {"type": "Point", "coordinates": [-70.3302768124, 43.8785519711]}, "type": "Feature", "properties": {"collection_times": [{"days": "Mon-Fri", "time": "4:45pm"}, {"days": "Sat", "time": "12:30pm"}, {"days": "Sun", "time": "Closed"}], "id": "0403900006", "name": "USPS COLLECTION BOX - PO LOBBY", "address": {"city": "GRAY", "state": "ME", "street": "10 TURNPIKE ACRES RD", "postcode": "04039"}}},
{"geometry": {"type": "Point", "coordinates": [-70.3466960883, 43.8841421541]}, "type": "Feature", "properties": {"collection_times": [{"days": "Mon-Fri", "time": "11:00am"}, {"days": "Sat-Sun", "time": "Closed"}], "id": "0403900007", "name": "USPS COLLECTION BOX - BLUE BOX", "address": {"city": "GRAY", "state": "ME", "street": "68 LEWISTON RD", "postcode": "04039"}}},
{"geometry": {"type": "Point", "coordinates": [-70.3556240742, 43.9185797536]}, "type": "Feature", "properties": {"collection_times": [{"days": "Mon-Fri", "time": "1:00pm"}, {"days": "Sat-Sun", "time": "Closed"}], "id": "0403900008", "name": "USPS COLLECTION BOX - BLUE BOX", "address": {"city": "GRAY", "state": "ME", "street": "253 SHAKER RD", "postcode": "04039"}}},
{"geometry": {"type": "Point", "coordinates": [-70.679940394, 44.1098520386]}, "type": "Feature", "properties": {"collection_times": [{"days": "Mon-Fri", "time": "4:30pm"}, {"days": "Sat", "time": "11:45am"}, {"days": "Sun", "time": "Closed"}], "id": "0404000001", "name": "USPS COLLECTION BOX - BLUE BOX", "address": {"city": "HARRISON", "state": "ME", "street": "5 FRONT ST", "postcode": "04040"}}},
{"geometry": {"type": "Point", "coordinates": [-70.6811080431, 44.1104725813]}, "type": "Feature", "properties": {"collection_times": [{"days": "Mon-Fri", "time": "4:30pm"}, {"days": "Sat", "time": "11:45am"}, {"days": "Sun", "time": "Closed"}], "id": "0404000002", "name": "USPS COLLECTION BOX - BLUE BOX", "address": {"city": "HARRISON", "state": "ME", "street": "5 FRONT ST", "postcode": "04040"}}},
{"geometry": {"type": "Point", "coordinates": [-70.679940394, 44.1098520386]}, "type": "Feature", "properties": {"collection_times": [{"days": "Mon-Fri", "time": "4:45pm"}, {"days": "Sat", "time": "11:45am"}, {"days": "Sun", "time": "Closed"}], "id": "0404000003", "name": "USPS COLLECTION BOX - PO LOBBY", "address": {"city": "HARRISON", "state": "ME", "street": "5 FRONT ST", "postcode": "04040"}}},
{"geometry": {"type": "Point", "coordinates": [-70.679940394, 44.1098520386]}, "type": "Feature", "properties": {"collection_times": [{"days": "Mon-Fri", "time": "4:45pm"}, {"days": "Sat", "time": "11:45am"}, {"days": "Sun", "time": "Closed"}], "id": "0404000004", "name": "USPS COLLECTION BOX - PO LOBBY", "address": {"city": "HARRISON", "state": "ME", "street": "5 FRONT ST", "postcode": "04040"}}},
{"geometry": {"type": "Point", "coordinates": [-70.8008776995, 43.8819133717]}, "type": "Feature", "properties": {"collection_times": [{"days": "Mon-Fri", "time": "4:45pm"}, {"days": "Sat", "time": "11:45am"}, {"days": "Sun", "time": "Closed"}], "id": "0404100001", "name": "USPS COLLECTION BOX - BLUE BOX", "address": {"city": "HIRAM", "state": "ME", "street": "17 SCHOOLHOUSE RD", "postcode": "04041"}}},
{"geometry": {"type": "Point", "coordinates": [-70.8779503232, 43.8123945591]}, "type": "Feature", "properties": {"collection_times": [{"days": "Mon-Fri", "time": "10:30am"}, {"days": "Sat-Sun", "time": "Closed"}], "id": "0404100002", "name": "USPS COLLECTION BOX - BLUE BOX", "address": {"city": "HIRAM", "state": "ME", "street": "25 ALLARD CIR", "postcode": "04041"}}},
{"geometry": {"type": "Point", "coordinates": [-70.8008776995, 43.8819133717]}, "type": "Feature", "properties": {"collection_times": [{"days": "Mon-Fri", "time": "4:45pm"}, {"days": "Sat", "time": "12:00pm"}, {"days": "Sun", "time": "Closed"}], "id": "0404100004", "name": "USPS COLLECTION BOX - PO LOBBY", "address": {"city": "HIRAM", "state": "ME", "street": "17 SCHOOLHOUSE RD", "postcode": "04041"}}},
{"geometry": {"type": "Point", "coordinates": [-70.5923710474, 43.6038910545]}, "type": "Feature", "properties": {"collection_times": [{"days": "Mon-Fri", "time": "4:30pm"}, {"days": "Sat", "time": "12:00pm"}, {"days": "Sun", "time": "Closed"}], "id": "0404200001", "name": "USPS COLLECTION BOX - BLUE BOX", "address": {"city": "HOLLIS CENTER", "state": "ME", "street": "14 BAR MILLS RD", "postcode": "04042"}}},
{"geometry": {"type": "Point", "coordinates": [-70.5923710474, 43.6038910545]}, "type": "Feature", "properties": {"collection_times": [{"days": "Mon-Fri", "time": "4:30pm"}, {"days": "Sat", "time": "12:00pm"}, {"days": "Sun", "time": "Closed"}], "id": "0404200003", "name": "USPS COLLECTION BOX - PO LOBBY", "address": {"city": "HOLLIS CENTER", "state": "ME", "street": "14 BAR MILLS RD", "postcode": "04042"}}},
{"geometry": {"type": "Point", "coordinates": [-70.5332564646, 43.392803787]}, "type": "Feature", "properties": {"collection_times": [{"days": "Mon-Fri", "time": "5:00pm"}, {"days": "Sat", "time": "4:00pm"}, {"days": "Sun", "time": "Closed"}], "id": "0404300001", "name": "USPS COLLECTION BOX - BLUE BOX", "address": {"city": "KENNEBUNK", "state": "ME", "street": "3 POST OFFICE SQ", "postcode": "04043"}}},
{"geometry": {"type": "Point", "coordinates": [-70.5367792961, 43.3877036774]}, "type": "Feature", "properties": {"collection_times": [{"days": "Mon-Fri", "time": "4:15pm"}, {"days": "Sat", "time": "3:00pm"}, {"days": "Sun", "time": "Closed"}], "id": "0404300003", "name": "USPS COLLECTION BOX - BLUE BOX", "address": {"city": "KENNEBUNK", "state": "ME", "street": "2 GREEN ST", "postcode": "04043"}}},
{"geometry": {"type": "Point", "coordinates": [-70.5711779436, 43.3964154666]}, "type": "Feature", "properties": {"collection_times": [{"days": "Mon-Fri", "time": "4:15pm"}, {"days": "Sat", "time": "3:00pm"}, {"days": "Sun", "time": "Closed"}], "id": "0404300004", "name": "USPS COLLECTION BOX - BLUE BOX", "address": {"city": "KENNEBUNK", "state": "ME", "street": "45 PORTLAND RD", "postcode": "04043"}}},
{"geometry": {"type": "Point", "coordinates": [-70.5370864253, 43.3877631216]}, "type": "Feature", "properties": {"collection_times": [{"days": "Mon-Fri", "time": "4:15pm"}, {"days": "Sat", "time": "3:00pm"}, {"days": "Sun", "time": "Closed"}], "id": "0404300005", "name": "USPS COLLECTION BOX - BLUE BOX", "address": {"city": "KENNEBUNK", "state": "ME", "street": "62 PORTLAND RD", "postcode": "04043"}}},
{"geometry": {"type": "Point", "coordinates": [-70.5442591436, 43.3868302045]}, "type": "Feature", "properties": {"collection_times": [{"days": "Mon-Sat", "time": "10:00am"}, {"days": "Sun", "time": "Closed"}], "id": "0404300008", "name": "USPS COLLECTION BOX - BLUE BOX", "address": {"city": "KENNEBUNK", "state": "ME", "street": "19 STORER ST", "postcode": "04043"}}},
{"geometry": {"type": "Point", "coordinates": [-70.5418773367, 43.385406433]}, "type": "Feature", "properties": {"collection_times": [{"days": "Mon-Fri", "time": "4:15pm"}, {"days": "Sat", "time": "3:00pm"}, {"days": "Sun", "time": "Closed"}], "id": "0404300012", "name": "USPS COLLECTION BOX - BLUE BOX", "address": {"city": "KENNEBUNK", "state": "ME", "street": "10 MAIN ST", "postcode": "04043"}}},
{"geometry": {"type": "Point", "coordinates": [-70.5398566794, 43.3864682921]}, "type": "Feature", "properties": {"collection_times": [{"days": "Mon-Fri", "time": "4:15pm"}, {"days": "Sat", "time": "3:00pm"}, {"days": "Sun", "time": "Closed"}], "id": "0404300013", "name": "USPS COLLECTION BOX - BLUE BOX", "address": {"city": "KENNEBUNK", "state": "ME", "street": "72 MAIN ST", "postcode": "04043"}}},
{"geometry": {"type": "Point", "coordinates": [-70.5411647523, 43.3856465838]}, "type": "Feature", "properties": {"collection_times": [{"days": "Mon-Fri", "time": "4:15pm"}, {"days": "Sat", "time": "3:00pm"}, {"days": "Sun", "time": "Closed"}], "id": "0404300014", "name": "USPS COLLECTION BOX - BLUE BOX", "address": {"city": "KENNEBUNK", "state": "ME", "street": "33 MAIN ST", "postcode": "04043"}}},
{"geometry": {"type": "Point", "coordinates": [-70.5441765886, 43.3867519481]}, "type": "Feature", "properties": {"collection_times": [{"days": "Mon-Fri", "time": "5:00pm"}, {"days": "Sat", "time": "4:00pm"}, {"days": "Sun", "time": "Closed"}], "id": "0404300020", "name": "USPS COLLECTION BOX - EXPRESS", "address": {"city": "KENNEBUNK", "state": "ME", "street": "3 POST OFFICE SQ", "postcode": "04043"}}},
{"geometry": {"type": "Point", "coordinates": [-70.5332564646, 43.392803787]}, "type": "Feature", "properties": {"collection_times": [{"days": "Mon-Fri", "time": "5:00pm"}, {"days": "Sat", "time": "4:00pm"}, {"days": "Sun", "time": "Closed"}], "id": "0404300022", "name": "USPS COLLECTION BOX - PO LOBBY", "address": {"city": "KENNEBUNK", "state": "ME", "street": "3 POST OFFICE SQ", "postcode": "04043"}}},
{"geometry": {"type": "Point", "coordinates": [-70.5332564646, 43.392803787]}, "type": "Feature", "properties": {"collection_times": [{"days": "Mon-Fri", "time": "5:00pm"}, {"days": "Sat", "time": "4:00pm"}, {"days": "Sun", "time": "Closed"}], "id": "0404300023", "name": "USPS COLLECTION BOX - PO LOBBY", "address": {"city": "KENNEBUNK", "state": "ME", "street": "3 POST OFFICE SQ", "postcode": "04043"}}},
{"geometry": {"type": "Point", "coordinates": [-70.5332564646, 43.392803787]}, "type": "Feature", "properties": {"collection_times": [{"days": "Mon-Fri", "time": "5:00pm"}, {"days": "Sat", "time": "4:00pm"}, {"days": "Sun", "time": "Closed"}], "id": "0404300024", "name": "USPS COLLECTION BOX - BLUE BOX", "address": {"city": "KENNEBUNK", "state": "ME", "street": "3 POST OFFICE SQ", "postcode": "04043"}}},
{"geometry": {"type": "Point", "coordinates": [-70.4806039795, 43.3600019161]}, "type": "Feature", "properties": {"collection_times": [{"days": "Mon-Sat", "time": "10:00am"}, {"days": "Sun", "time": "Closed"}], "id": "0404300025", "name": "USPS COLLECTION BOX - BLUE BOX", "address": {"city": "KENNEBUNK", "state": "ME", "street": "15 WESTERN AVE", "postcode": "04043"}}},
{"geometry": {"type": "Point", "coordinates": [-70.4769510409, 43.3617390375]}, "type": "Feature", "properties": {"collection_times": [{"days": "Mon-Fri", "time": "4:15pm"}, {"days": "Sat", "time": "2:15pm"}, {"days": "Sun", "time": "Closed"}], "id": "0404600001", "name": "USPS COLLECTION BOX - BLUE BOX", "address": {"city": "KENNEBUNKPORT", "state": "ME", "street": "5 DOCK SQ", "postcode": "04046"}}},
{"geometry": {"type": "Point", "coordinates": [-70.4764464383, 43.3621954706]}, "type": "Feature", "properties": {"collection_times": [{"days": "Mon-Fri", "time": "4:15pm"}, {"days": "Sat", "time": "3:00pm"}, {"days": "Sun", "time": "Closed"}], "id": "0404600002", "name": "USPS COLLECTION BOX - BLUE BOX", "address": {"city": "KENNEBUNKPORT", "state": "ME", "street": "5 TEMPLE ST", "postcode": "04046"}}},
{"geometry": {"type": "Point", "coordinates": [-70.4764464383, 43.3621954706]}, "type": "Feature", "properties": {"collection_times": [{"days": "Mon-Fri", "time": "4:15pm"}, {"days": "Sat", "time": "3:00pm"}, {"days": "Sun", "time": "Closed"}], "id": "0404600004", "name": "USPS COLLECTION BOX - BLUE BOX", "address": {"city": "KENNEBUNKPORT", "state": "ME", "street": "5 TEMPLE ST", "postcode": "04046"}}},
{"geometry": {"type": "Point", "coordinates": [-69.2039438735, 45.3152487683]}, "type": "Feature", "properties": {"collection_times": [{"days": "Mon-Fri", "time": "3:45pm"}, {"days": "Sat", "time": "11:45am"}, {"days": "Sun", "time": "Closed"}], "id": "0404600006", "name": "USPS COLLECTION BOX - BLUE BOX", "address": {"city": "KENNEBUNKPORT", "state": "ME", "street": "167 MAIN ST", "postcode": "04046"}}},
{"geometry": {"type": "Point", "coordinates": [-70.5228756306, 43.4077220033]}, "type": "Feature", "properties": {"collection_times": [{"days": "Mon-Fri", "time": "12:00pm"}, {"days": "Sat-Sun", "time": "Closed"}], "id": "0404600007", "name": "USPS COLLECTION BOX - BLUE BOX", "address": {"city": "KENNEBUNKPORT", "state": "ME", "street": "468 LIMERICK RD", "postcode": "04046"}}},
{"geometry": {"type": "Point", "coordinates": [-70.4764464383, 43.3621954706]}, "type": "Feature", "properties": {"collection_times": [{"days": "Mon-Fri", "time": "4:15pm"}, {"days": "Sat", "time": "3:00pm"}, {"days": "Sun", "time": "Closed"}], "id": "0404600010", "name": "USPS COLLECTION BOX - PO LOBBY", "address": {"city": "KENNEBUNKPORT", "state": "ME", "street": "5 TEMPLE ST", "postcode": "04046"}}},
{"geometry": {"type": "Point", "coordinates": [-70.4764464383, 43.3621954706]}, "type": "Feature", "properties": {"collection_times": [{"days": "Mon-Fri", "time": "4:15pm"}, {"days": "Sat", "time": "3:00pm"}, {"days": "Sun", "time": "Closed"}], "id": "0404600011", "name": "USPS COLLECTION BOX - PO LOBBY", "address": {"city": "KENNEBUNKPORT", "state": "ME", "street": "5 TEMPLE ST", "postcode": "04046"}}},
{"geometry": {"type": "Point", "coordinates": [-70.8872540471, 43.8064077121]}, "type": "Feature", "properties": {"collection_times": [{"days": "Mon-Fri", "time": "4:30pm"}, {"days": "Sat", "time": "12:00pm"}, {"days": "Sun", "time": "Closed"}], "id": "0404700001", "name": "USPS COLLECTION BOX - BLUE BOX", "address": {"city": "PARSONSFIELD", "state": "ME", "street": "15 FEDERAL RD", "postcode": "04047"}}},
{"geometry": {"type": "Point", "coordinates": [-70.8872540471, 43.8064077121]}, "type": "Feature", "properties": {"collection_times": [{"days": "Mon-Fri", "time": "4:45pm"}, {"days": "Sat", "time": "12:00pm"}, {"days": "Sun", "time": "Closed"}], "id": "0404700002", "name": "USPS COLLECTION BOX - PO LOBBY", "address": {"city": "PARSONSFIELD", "state": "ME", "street": "15 FEDERAL RD", "postcode": "04047"}}},
{"geometry": {"type": "Point", "coordinates": [-70.7726978081, 43.6855927826]}, "type": "Feature", "properties": {"collection_times": [{"days": "Mon-Fri", "time": "4:15pm"}, {"days": "Sat", "time": "12:00pm"}, {"days": "Sun", "time": "Closed"}], "id": "0404800001", "name": "USPS COLLECTION BOX - BLUE BOX", "address": {"city": "LIMERICK", "state": "ME", "street": "19 MAIN ST", "postcode": "04048"}}},
{"geometry": {"type": "Point", "coordinates": [-70.7726978081, 43.6855927826]}, "type": "Feature", "properties": {"collection_times": [{"days": "Mon-Fri", "time": "4:30pm"}, {"days": "Sat", "time": "12:00pm"}, {"days": "Sun", "time": "Closed"}], "id": "0404800002", "name": "USPS COLLECTION BOX - PO LOBBY", "address": {"city": "LIMERICK", "state": "ME", "street": "19 MAIN ST", "postcode": "04048"}}},
{"geometry": {"type": "Point", "coordinates": [-70.7726978081, 43.6855927826]}, "type": "Feature", "properties": {"collection_times": [{"days": "Mon-Fri", "time": "4:30pm"}, {"days": "Sat", "time": "12:00pm"}, {"days": "Sun", "time": "Closed"}], "id": "0404800003", "name": "USPS COLLECTION BOX - PO LOBBY", "address": {"city": "LIMERICK", "state": "ME", "street": "19 MAIN ST", "postcode": "04048"}}},
{"geometry": {"type": "Point", "coordinates": [-70.6976899778, 43.7334312934]}, "type": "Feature", "properties": {"collection_times": [{"days": "Mon-Fri", "time": "4:45pm"}, {"days": "Sat", "time": "12:15pm"}, {"days": "Sun", "time": "Closed"}], "id": "0404900001", "name": "USPS COLLECTION BOX - BLUE BOX", "address": {"city": "LIMINGTON", "state": "ME", "street": "189 OSSIPEE TRL", "postcode": "04049"}}},
{"geometry": {"type": "Point", "coordinates": [-70.6976899778, 43.7334312934]}, "type": "Feature", "properties": {"collection_times": [{"days": "Mon-Fri", "time": "4:45pm"}, {"days": "Sat", "time": "12:15pm"}, {"days": "Sun", "time": "Closed"}], "id": "0404900003", "name": "USPS COLLECTION BOX - PO LOBBY", "address": {"city": "LIMINGTON", "state": "ME", "street": "189 OSSIPEE TRL", "postcode": "04049"}}},
{"geometry": {"type": "Point", "coordinates": [-70.1468810376, 43.6974355858]}, "type": "Feature", "properties": {"collection_times": [{"days": "Mon-Fri", "time": "3:30pm"}, {"days": "Sat", "time": "11:30am"}, {"days": "Sun", "time": "Closed"}], "id": "0405000001", "name": "USPS COLLECTION BOX - BLUE BOX", "address": {"city": "LONG ISLAND", "state": "ME", "street": "280 ISLAND AVE", "postcode": "04050"}}},
{"geometry": {"type": "Point", "coordinates": [-70.1468810376, 43.6974355858]}, "type": "Feature", "properties": {"collection_times": [{"days": "Mon-Fri", "time": "3:30pm"}, {"days": "Sat", "time": "11:30am"}, {"days": "Sun", "time": "Closed"}], "id": "0405000002", "name": "USPS COLLECTION BOX - PO LOBBY", "address": {"city": "LONG ISLAND", "state": "ME", "street": "280 ISLAND AVE", "postcode": "04050"}}},
{"geometry": {"type": "Point", "coordinates": [-70.889899986, 44.1859332011]}, "type": "Feature", "properties": {"collection_times": [{"days": "Mon-Fri", "time": "3:15pm"}, {"days": "Sat", "time": "12:00pm"}, {"days": "Sun", "time": "Closed"}], "id": "0405100001", "name": "USPS COLLECTION BOX - BLUE BOX", "address": {"city": "LOVELL", "state": "ME", "street": "216 MAIN ST", "postcode": "04051"}}},
{"geometry": {"type": "Point", "coordinates": [-70.889899986, 44.1859332011]}, "type": "Feature", "properties": {"collection_times": [{"days": "Mon-Fri", "time": "3:15pm"}, {"days": "Sat", "time": "12:15pm"}, {"days": "Sun", "time": "Closed"}], "id": "0405100002", "name": "USPS COLLECTION BOX - PO LOBBY", "address": {"city": "LOVELL", "state": "ME", "street": "216 MAIN ST", "postcode": "04051"}}},
{"geometry": {"type": "Point", "coordinates": [-70.5977736182, 43.2713579698]}, "type": "Feature", "properties": {"collection_times": [{"days": "Mon-Fri", "time": "4:00pm"}, {"days": "Sat", "time": "11:00am"}, {"days": "Sun", "time": "Closed"}], "id": "0405400001", "name": "USPS COLLECTION BOX - BLUE BOX", "address": {"city": "MOODY", "state": "ME", "street": "243 POST RD", "postcode": "04054"}}},
{"geometry": {"type": "Point", "coordinates": [-70.5977736182, 43.2713579698]}, "type": "Feature", "properties": {"collection_times": [{"days": "Mon-Fri", "time": "4:45pm"}, {"days": "Sat", "time": "11:45am"}, {"days": "Sun", "time": "Closed"}], "id": "0405400002", "name": "USPS COLLECTION BOX - PO LOBBY", "address": {"city": "MOODY", "state": "ME", "street": "243 POST RD", "postcode": "04054"}}},
{"geometry": {"type": "Point", "coordinates": [-70.6038899986, 43.964572551]}, "type": "Feature", "properties": {"collection_times": [{"days": "Mon-Fri", "time": "9:30am"}, {"days": "Sat-Sun", "time": "Closed"}], "id": "0405500002", "name": "USPS COLLECTION BOX - BLUE BOX", "address": {"city": "NAPLES", "state": "ME", "street": "651 ROOSEVELT TRL", "postcode": "04055"}}},
{"geometry": {"type": "Point", "coordinates": [-70.6096965863, 43.9710407944]}, "type": "Feature", "properties": {"collection_times": [{"days": "Mon-Fri", "time": "4:15pm"}, {"days": "Sat", "time": "12:00pm"}, {"days": "Sun", "time": "Closed"}], "id": "0405500003", "name": "USPS COLLECTION BOX - BLUE BOX", "address": {"city": "NAPLES", "state": "ME", "street": "17 VILLAGE GREEN LN", "postcode": "04055"}}},
{"geometry": {"type": "Point", "coordinates": [-70.6096965863, 43.9710407944]}, "type": "Feature", "properties": {"collection_times": [{"days": "Mon-Fri", "time": "4:15pm"}, {"days": "Sat", "time": "12:00pm"}, {"days": "Sun", "time": "Closed"}], "id": "0405500004", "name": "USPS COLLECTION BOX - PO LOBBY", "address": {"city": "NAPLES", "state": "ME", "street": "17 VILLAGE GREEN LN", "postcode": "04055"}}},
{"geometry": {"type": "Point", "coordinates": [-70.6096965863, 43.9710407944]}, "type": "Feature", "properties": {"collection_times": [{"days": "Mon-Fri", "time": "4:15pm"}, {"days": "Sat", "time": "12:00pm"}, {"days": "Sun", "time": "Closed"}], "id": "0405500005", "name": "USPS COLLECTION BOX - PO LOBBY", "address": {"city": "NAPLES", "state": "ME", "street": "17 VILLAGE GREEN LN", "postcode": "04055"}}},
{"geometry": {"type": "Point", "coordinates": [-70.8494469092, 43.6485935153]}, "type": "Feature", "properties": {"collection_times": [{"days": "Mon-Fri", "time": "4:30pm"}, {"days": "Sat", "time": "11:30am"}, {"days": "Sun", "time": "Closed"}], "id": "0405600001", "name": "USPS COLLECTION BOX - BLUE BOX", "address": {"city": "NEWFIELD", "state": "ME", "street": "68 ELM ST", "postcode": "04056"}}},
{"geometry": {"type": "Point", "coordinates": [-70.8494469092, 43.6485935153]}, "type": "Feature", "properties": {"collection_times": [{"days": "Mon-Fri", "time": "4:45pm"}, {"days": "Sat", "time": "11:30am"}, {"days": "Sun", "time": "Closed"}], "id": "0405600002", "name": "USPS COLLECTION BOX - PO LOBBY", "address": {"city": "NEWFIELD", "state": "ME", "street": "68 ELM ST", "postcode": "04056"}}},
{"geometry": {"type": "Point", "coordinates": [-70.7003443506, 44.1017528197]}, "type": "Feature", "properties": {"collection_times": [{"days": "Mon-Fri", "time": "4:00pm"}, {"days": "Sat", "time": "11:30am"}, {"days": "Sun", "time": "Closed"}], "id": "0405700001", "name": "USPS COLLECTION BOX - BLUE BOX", "address": {"city": "NORTH BRIDGTON", "state": "ME", "street": "101 N BRIDGTON RD", "postcode": "04057"}}},
{"geometry": {"type": "Point", "coordinates": [-70.7003443506, 44.1017528197]}, "type": "Feature", "properties": {"collection_times": [{"days": "Mon-Fri", "time": "4:40pm"}, {"days": "Sat", "time": "11:45am"}, {"days": "Sun", "time": "Closed"}], "id": "0405700002", "name": "USPS COLLECTION BOX - PO LOBBY", "address": {"city": "NORTH BRIDGTON", "state": "ME", "street": "101 N BRIDGTON RD", "postcode": "04057"}}},
{"geometry": {"type": "Point", "coordinates": [-70.7183681598, 43.6127533455]}, "type": "Feature", "properties": {"collection_times": [{"days": "Mon-Fri", "time": "4:15pm"}, {"days": "Sat", "time": "11:30am"}, {"days": "Sun", "time": "Closed"}], "id": "0406100001", "name": "USPS COLLECTION BOX - BLUE BOX", "address": {"city": "NORTH WATERBORO", "state": "ME", "street": "977 SOKOKIS TRL", "postcode": "04061"}}},
{"geometry": {"type": "Point", "coordinates": [-70.7183681598, 43.6127533455]}, "type": "Feature", "properties": {"collection_times": [{"days": "Mon-Fri", "time": "4:45pm"}, {"days": "Sat", "time": "11:30am"}, {"days": "Sun", "time": "Closed"}], "id": "0406100002", "name": "USPS COLLECTION BOX - PO LOBBY", "address": {"city": "NORTH WATERBORO", "state": "ME", "street": "977 SOKOKIS TRL", "postcode": "04061"}}},
{"geometry": {"type": "Point", "coordinates": [-70.3614774947, 43.753182921]}, "type": "Feature", "properties": {"collection_times": [{"days": "Mon-Fri", "time": "4:30pm"}, {"days": "Sat", "time": "3:00pm"}, {"days": "Sun", "time": "Closed"}], "id": "0406200001", "name": "USPS COLLECTION BOX - BLUE BOX", "address": {"city": "WINDHAM", "state": "ME", "street": "765 ROOSEVELT TRL", "postcode": "04062"}}},
{"geometry": {"type": "Point", "coordinates": [-70.4260486108, 43.7398309878]}, "type": "Feature", "properties": {"collection_times": [{"days": "Mon-Fri", "time": "4:45pm"}, {"days": "Sat", "time": "12:00pm"}, {"days": "Sun", "time": "Closed"}], "id": "0406200006", "name": "USPS COLLECTION BOX - BLUE BOX", "address": {"city": "WINDHAM", "state": "ME", "street": "57 MAIN ST", "postcode": "04062"}}},
{"geometry": {"type": "Point", "coordinates": [-70.4407682351, 43.8369308792]}, "type": "Feature", "properties": {"collection_times": [{"days": "Mon-Fri", "time": "3:00pm"}, {"days": "Sat", "time": "12:00pm"}, {"days": "Sun", "time": "Closed"}], "id": "0406200008", "name": "USPS COLLECTION BOX - BLUE BOX", "address": {"city": "WINDHAM", "state": "ME", "street": "770 ROOSEVELT TRL", "postcode": "04062"}}},
{"geometry": {"type": "Point", "coordinates": [-70.4413792074, 43.8376281766]}, "type": "Feature", "properties": {"collection_times": [{"days": "Mon-Fri", "time": "3:00pm"}, {"days": "Sat", "time": "12:00pm"}, {"days": "Sun", "time": "Closed"}], "id": "0406200009", "name": "USPS COLLECTION BOX - BLUE BOX", "address": {"city": "WINDHAM", "state": "ME", "street": "778 ROOSEVELT TRL", "postcode": "04062"}}},
{"geometry": {"type": "Point", "coordinates": [-70.3614774947, 43.753182921]}, "type": "Feature", "properties": {"collection_times": [{"days": "Mon-Fri", "time": "3:00pm"}, {"days": "Sat", "time": "12:00pm"}, {"days": "Sun", "time": "Closed"}], "id": "0406200010", "name": "USPS COLLECTION BOX - BLUE BOX", "address": {"city": "WINDHAM", "state": "ME", "street": "795 ROOSEVELT TRL", "postcode": "04062"}}},
{"geometry": {"type": "Point", "coordinates": [-70.3614774947, 43.753182921]}, "type": "Feature", "properties": {"collection_times": [{"days": "Mon-Fri", "time": "4:45pm"}, {"days": "Sat", "time": "3:45pm"}, {"days": "Sun", "time": "Closed"}], "id": "0406200013", "name": "USPS COLLECTION BOX - PO LOBBY", "address": {"city": "WINDHAM", "state": "ME", "street": "765 ROOSEVELT TRL", "postcode": "04062"}}},
{"geometry": {"type": "Point", "coordinates": [-69.2039438735, 45.3152487683]}, "type": "Feature", "properties": {"collection_times": [{"days": "Mon-Sat", "time": "11:00am"}, {"days": "Sun", "time": "Closed"}], "id": "0406400001", "name": "USPS COLLECTION BOX - BLUE BOX", "address": {"city": "OLD ORCHD BCH", "state": "ME", "street": "198 SACO AVE", "postcode": "04064"}}},
{"geometry": {"type": "Point", "coordinates": [-70.3765394268, 43.5169983919]}, "type": "Feature", "properties": {"collection_times": [{"days": "Mon-Sat", "time": "1:30pm"}, {"days": "Sun", "time": "Closed"}], "id": "0406400015", "name": "USPS COLLECTION BOX - BLUE BOX", "address": {"city": "OLD ORCHD BCH", "state": "ME", "street": "50 OLD ORCHARD ST", "postcode": "04064"}}},
{"geometry": {"type": "Point", "coordinates": [-70.3789777626, 43.5218408324]}, "type": "Feature", "properties": {"collection_times": [{"days": "Mon-Fri", "time": "4:45pm"}, {"days": "Sat", "time": "12:15pm"}, {"days": "Sun", "time": "Closed"}], "id": "0406400017", "name": "USPS COLLECTION BOX - BLUE BOX", "address": {"city": "OLD ORCHD BCH", "state": "ME", "street": "2 CASCADE RD", "postcode": "04064"}}},
{"geometry": {"type": "Point", "coordinates": [-70.3855502251, 43.5011543047]}, "type": "Feature", "properties": {"collection_times": [{"days": "Mon-Fri", "time": "4:15pm"}, {"days": "Sat", "time": "3:30pm"}, {"days": "Sun", "time": "Closed"}], "id": "0406400018", "name": "USPS COLLECTION BOX - BLUE BOX", "address": {"city": "OLD ORCHD BCH", "state": "ME", "street": "15 COLBY AVE", "postcode": "04064"}}},
{"geometry": {"type": "Point", "coordinates": [-70.3789777626, 43.5218408324]}, "type": "Feature", "properties": {"collection_times": [{"days": "Mon-Fri", "time": "4:45pm"}, {"days": "Sat", "time": "12:15pm"}, {"days": "Sun", "time": "Closed"}], "id": "0406400022", "name": "USPS COLLECTION BOX - BLUE BOX", "address": {"city": "OLD ORCHD BCH", "state": "ME", "street": "2 CASCADE RD", "postcode": "04064"}}},
{"geometry": {"type": "Point", "coordinates": [-70.3789777626, 43.5218408324]}, "type": "Feature", "properties": {"collection_times": [{"days": "Mon-Fri", "time": "5:00pm"}, {"days": "Sat", "time": "12:30pm"}, {"days": "Sun", "time": "Closed"}], "id": "0406400023", "name": "USPS COLLECTION BOX - PO LOBBY", "address": {"city": "OLD ORCHD BCH", "state": "ME", "street": "2 CASCADE RD", "postcode": "04064"}}},
{"geometry": {"type": "Point", "coordinates": [-70.3789777626, 43.5218408324]}, "type": "Feature", "properties": {"collection_times": [{"days": "Mon-Fri", "time": "5:00pm"}, {"days": "Sat", "time": "12:30pm"}, {"days": "Sun", "time": "Closed"}], "id": "0406400024", "name": "USPS COLLECTION BOX - PO LOBBY", "address": {"city": "OLD ORCHD BCH", "state": "ME", "street": "2 CASCADE RD", "postcode": "04064"}}},
{"geometry": {"type": "Point", "coordinates": [-69.9713875487, 43.7685910775]}, "type": "Feature", "properties": {"collection_times": [{"days": "Mon-Fri", "time": "4:00pm"}, {"days": "Sat", "time": "11:30am"}, {"days": "Sun", "time": "Closed"}], "id": "0406600001", "name": "USPS COLLECTION BOX - BLUE BOX", "address": {"city": "ORRS ISLAND", "state": "ME", "street": "1729 HARPSWELL ISLANDS RD", "postcode": "04066"}}},
{"geometry": {"type": "Point", "coordinates": [-69.9713875487, 43.7685910775]}, "type": "Feature", "properties": {"collection_times": [{"days": "Mon-Fri", "time": "4:00pm"}, {"days": "Sat", "time": "11:30am"}, {"days": "Sun", "time": "Closed"}], "id": "0406600002", "name": "USPS COLLECTION BOX - PO LOBBY", "address": {"city": "ORRS ISLAND", "state": "ME", "street": "1729 HARPSWELL ISLANDS RD", "postcode": "04066"}}},
{"geometry": {"type": "Point", "coordinates": [-70.9335313789, 43.7957392916]}, "type": "Feature", "properties": {"collection_times": [{"days": "Mon-Fri", "time": "4:30pm"}, {"days": "Sat", "time": "11:30am"}, {"days": "Sun", "time": "Closed"}], "id": "0406800001", "name": "USPS COLLECTION BOX - BLUE BOX", "address": {"city": "PORTER", "state": "ME", "street": "548 OSSIPEE TRL", "postcode": "04068"}}},
{"geometry": {"type": "Point", "coordinates": [-70.9335313789, 43.7957392916]}, "type": "Feature", "properties": {"collection_times": [{"days": "Mon-Fri", "time": "4:45pm"}, {"days": "Sat", "time": "11:45am"}, {"days": "Sun", "time": "Closed"}], "id": "0406800002", "name": "USPS COLLECTION BOX - PO LOBBY", "address": {"city": "PORTER", "state": "ME", "street": "548 OSSIPEE TRL", "postcode": "04068"}}},
{"geometry": {"type": "Point", "coordinates": [-70.1891070839, 43.8944528517]}, "type": "Feature", "properties": {"collection_times": [{"days": "Mon-Fri", "time": "3:30pm"}, {"days": "Sat", "time": "11:45am"}, {"days": "Sun", "time": "Closed"}], "id": "0406900001", "name": "USPS COLLECTION BOX - BLUE BOX", "address": {"city": "POWNAL", "state": "ME", "street": "195 ALLEN RD", "postcode": "04069"}}},
{"geometry": {"type": "Point", "coordinates": [-70.1839363277, 43.8929473984]}, "type": "Feature", "properties": {"collection_times": [{"days": "Mon-Fri", "time": "12:30pm"}, {"days": "Sat-Sun", "time": "Closed"}], "id": "0406900002", "name": "USPS COLLECTION BOX - BLUE BOX", "address": {"city": "POWNAL", "state": "ME", "street": "413 HALLOWELL RD", "postcode": "04069"}}},
{"geometry": {"type": "Point", "coordinates": [-70.1891070839, 43.8944528517]}, "type": "Feature", "properties": {"collection_times": [{"days": "Mon-Fri", "time": "3:30pm"}, {"days": "Sat", "time": "11:30am"}, {"days": "Sun", "time": "Closed"}], "id": "0406900003", "name": "USPS COLLECTION BOX - PO LOBBY", "address": {"city": "POWNAL", "state": "ME", "street": "195 ALLEN RD", "postcode": "04069"}}},
{"geometry": {"type": "Point", "coordinates": [-70.3354232909, 43.5950138558]}, "type": "Feature", "properties": {"collection_times": [{"days": "Mon-Fri", "time": "5:00pm"}, {"days": "Sat", "time": "3:00pm"}, {"days": "Sun", "time": "Closed"}], "id": "0407000001", "name": "USPS COLLECTION BOX - BLUE BOX", "address": {"city": "SCARBOROUGH", "state": "ME", "street": "31 GORHAM RD", "postcode": "04070"}}},
{"geometry": {"type": "Point", "coordinates": [-70.3354232909, 43.5950138558]}, "type": "Feature", "properties": {"collection_times": [{"days": "Mon-Fri", "time": "5:00pm"}, {"days": "Sat", "time": "3:00pm"}, {"days": "Sun", "time": "Closed"}], "id": "0407000002", "name": "USPS COLLECTION BOX - BLUE BOX", "address": {"city": "SCARBOROUGH", "state": "ME", "street": "31 GORHAM RD", "postcode": "04070"}}},
{"geometry": {"type": "Point", "coordinates": [-70.3354232909, 43.5950138558]}, "type": "Feature", "properties": {"collection_times": [{"days": "Mon-Fri", "time": "5:15pm"}, {"days": "Sat", "time": "3:00pm"}, {"days": "Sun", "time": "Closed"}], "id": "0407000004", "name": "USPS COLLECTION BOX - PO LOBBY", "address": {"city": "SCARBOROUGH", "state": "ME", "street": "31 GORHAM RD", "postcode": "04070"}}},
{"geometry": {"type": "Point", "coordinates": [-70.3354232909, 43.5950138558]}, "type": "Feature", "properties": {"collection_times": [{"days": "Mon-Fri", "time": "5:15pm"}, {"days": "Sat", "time": "3:00pm"}, {"days": "Sun", "time": "Closed"}], "id": "0407000005", "name": "USPS COLLECTION BOX - APC", "address": {"city": "SCARBOROUGH", "state": "ME", "street": "31 GORHAM RD", "postcode": "04070"}}},
{"geometry": {"type": "Point", "coordinates": [-70.4656290927, 43.8807005988]}, "type": "Feature", "properties": {"collection_times": [{"days": "Mon-Fri", "time": "4:15pm"}, {"days": "Sat", "time": "12:00pm"}, {"days": "Sun", "time": "Closed"}], "id": "0407100001", "name": "USPS COLLECTION BOX - BLUE BOX", "address": {"city": "RAYMOND", "state": "ME", "street": "1235 ROOSEVELT TRL", "postcode": "04071"}}},
{"geometry": {"type": "Point", "coordinates": [-70.4656290927, 43.8807005988]}, "type": "Feature", "properties": {"collection_times": [{"days": "Mon-Fri", "time": "4:45pm"}, {"days": "Sat", "time": "12:00pm"}, {"days": "Sun", "time": "Closed"}], "id": "0407100003", "name": "USPS COLLECTION BOX - PO LOBBY", "address": {"city": "RAYMOND", "state": "ME", "street": "1235 ROOSEVELT TRL", "postcode": "04071"}}},
{"geometry": {"type": "Point", "coordinates": [-70.4656290927, 43.8807005988]}, "type": "Feature", "properties": {"collection_times": [{"days": "Mon-Fri", "time": "4:45pm"}, {"days": "Sat", "time": "12:00pm"}, {"days": "Sun", "time": "Closed"}], "id": "0407100004", "name": "USPS COLLECTION BOX - PO LOBBY", "address": {"city": "RAYMOND", "state": "ME", "street": "1235 ROOSEVELT TRL", "postcode": "04071"}}},
{"geometry": {"type": "Point", "coordinates": [-70.4460151969, 43.4975607791]}, "type": "Feature", "properties": {"collection_times": [{"days": "Mon-Fri", "time": "4:45pm"}, {"days": "Sat", "time": "12:30pm"}, {"days": "Sun", "time": "Closed"}], "id": "0407200001", "name": "USPS COLLECTION BOX - BLUE BOX", "address": {"city": "SACO", "state": "ME", "street": "225 MAIN ST", "postcode": "04072"}}},
{"geometry": {"type": "Point", "coordinates": [-70.4483923119, 43.508819864]}, "type": "Feature", "properties": {"collection_times": [{"days": "Mon-Sat", "time": "12:00pm"}, {"days": "Sun", "time": "Closed"}], "id": "0407200005", "name": "USPS COLLECTION BOX - BLUE BOX", "address": {"city": "SACO", "state": "ME", "street": "213 NORTH ST", "postcode": "04072"}}},
{"geometry": {"type": "Point", "coordinates": [-70.4456642689, 43.498124023]}, "type": "Feature", "properties": {"collection_times": [{"days": "Mon-Sat", "time": "10:00am"}, {"days": "Sun", "time": "Closed"}], "id": "0407200008", "name": "USPS COLLECTION BOX - BLUE BOX", "address": {"city": "SACO", "state": "ME", "street": "247 MAIN ST", "postcode": "04072"}}},
{"geometry": {"type": "Point", "coordinates": [-70.4447744817, 43.4990377012]}, "type": "Feature", "properties": {"collection_times": [{"days": "Mon-Fri", "time": "4:30pm"}, {"days": "Sat", "time": "3:30pm"}, {"days": "Sun", "time": "Closed"}], "id": "0407200009", "name": "USPS COLLECTION BOX - BLUE BOX", "address": {"city": "SACO", "state": "ME", "street": "300 MAIN ST", "postcode": "04072"}}},
{"geometry": {"type": "Point", "coordinates": [-70.4460151972, 43.4975607793]}, "type": "Feature", "properties": {"collection_times": [{"days": "Mon-Fri", "time": "4:45pm"}, {"days": "Sat", "time": "12:30pm"}, {"days": "Sun", "time": "Closed"}], "id": "0407200011", "name": "USPS COLLECTION BOX - BLUE BOX", "address": {"city": "SACO", "state": "ME", "street": "225 MAIN ST", "postcode": "04072"}}},
{"geometry": {"type": "Point", "coordinates": [-70.4474129153, 43.5002141989]}, "type": "Feature", "properties": {"collection_times": [{"days": "Mon-Fri", "time": "4:30pm"}, {"days": "Sat", "time": "3:30pm"}, {"days": "Sun", "time": "Closed"}], "id": "0407200014", "name": "USPS COLLECTION BOX - BLUE BOX", "address": {"city": "SACO", "state": "ME", "street": "4 SCAMMON ST", "postcode": "04072"}}},
{"geometry": {"type": "Point", "coordinates": [-70.4334921864, 43.5107231213]}, "type": "Feature", "properties": {"collection_times": [{"days": "Mon-Fri", "time": "4:30pm"}, {"days": "Sat", "time": "3:30pm"}, {"days": "Sun", "time": "Closed"}], "id": "0407200016", "name": "USPS COLLECTION BOX - BLUE BOX", "address": {"city": "SACO", "state": "ME", "street": "532 MAIN ST", "postcode": "04072"}}},
{"geometry": {"type": "Point", "coordinates": [-70.4385364699, 43.5090421737]}, "type": "Feature", "properties": {"collection_times": [{"days": "Mon-Fri", "time": "4:45pm"}, {"days": "Sat", "time": "3:30pm"}, {"days": "Sun", "time": "Closed"}], "id": "0407200018", "name": "USPS COLLECTION BOX - BLUE BOX", "address": {"city": "SACO", "state": "ME", "street": "60 INDUSTRIAL PARK RD", "postcode": "04072"}}},
{"geometry": {"type": "Point", "coordinates": [-70.4482259251, 43.4948438268]}, "type": "Feature", "properties": {"collection_times": [{"days": "Mon-Fri", "time": "4:15pm"}, {"days": "Sat", "time": "3:30pm"}, {"days": "Sun", "time": "Closed"}], "id": "0407200019", "name": "USPS COLLECTION BOX - BLUE BOX", "address": {"city": "SACO", "state": "ME", "street": "110 MAIN ST", "postcode": "04072"}}},
{"geometry": {"type": "Point", "coordinates": [-70.4460151972, 43.4975607793]}, "type": "Feature", "properties": {"collection_times": [{"days": "Mon-Fri", "time": "4:45pm"}, {"days": "Sat", "time": "12:30pm"}, {"days": "Sun", "time": "Closed"}], "id": "0407200021", "name": "USPS COLLECTION BOX - PO LOBBY", "address": {"city": "SACO", "state": "ME", "street": "225 MAIN ST", "postcode": "04072"}}},
{"geometry": {"type": "Point", "coordinates": [-70.4460151972, 43.4975607793]}, "type": "Feature", "properties": {"collection_times": [{"days": "Mon-Fri", "time": "4:45pm"}, {"days": "Sat", "time": "12:30pm"}, {"days": "Sun", "time": "Closed"}], "id": "0407200022", "name": "USPS COLLECTION BOX - PO LOBBY", "address": {"city": "SACO", "state": "ME", "street": "225 MAIN ST", "postcode": "04072"}}},
{"geometry": {"type": "Point", "coordinates": [-70.7709234428, 43.4329598807]}, "type": "Feature", "properties": {"collection_times": [{"days": "Mon-Sat", "time": "1:00pm"}, {"days": "Sun", "time": "Closed"}], "id": "0407300012", "name": "USPS COLLECTION BOX - BLUE BOX", "address": {"city": "SANFORD", "state": "ME", "street": "1003 MAIN ST", "postcode": "04073"}}},
{"geometry": {"type": "Point", "coordinates": [-70.697784418, 43.3994423853]}, "type": "Feature", "properties": {"collection_times": [{"days": "Mon-Fri", "time": "1:00pm"}, {"days": "Sat-Sun", "time": "Closed"}], "id": "0407300018", "name": "USPS COLLECTION BOX - BLUE BOX", "address": {"city": "SANFORD", "state": "ME", "street": "22 SMADA DR", "postcode": "04073"}}},
{"geometry": {"type": "Point", "coordinates": [-70.7723075365, 43.4375321153]}, "type": "Feature", "properties": {"collection_times": [{"days": "Mon-Sat", "time": "2:00pm"}, {"days": "Sun", "time": "Closed"}], "id": "0407300021", "name": "USPS COLLECTION BOX - BLUE BOX", "address": {"city": "SANFORD", "state": "ME", "street": "1364 MAIN ST", "postcode": "04073"}}},
{"geometry": {"type": "Point", "coordinates": [-70.756585719, 43.4198542871]}, "type": "Feature", "properties": {"collection_times": [{"days": "Mon-Sat", "time": "2:00pm"}, {"days": "Sun", "time": "Closed"}], "id": "0407300022", "name": "USPS COLLECTION BOX - BLUE BOX", "address": {"city": "SANFORD", "state": "ME", "street": "1237 MAIN ST", "postcode": "04073"}}},
{"geometry": {"type": "Point", "coordinates": [-70.7757914588, 43.439472935]}, "type": "Feature", "properties": {"collection_times": [{"days": "Mon-Sat", "time": "2:00pm"}, {"days": "Sun", "time": "Closed"}], "id": "0407300023", "name": "USPS COLLECTION BOX - BLUE BOX", "address": {"city": "SANFORD", "state": "ME", "street": "900 MAIN ST", "postcode": "04073"}}},
{"geometry": {"type": "Point", "coordinates": [-70.7726409283, 43.4378178058]}, "type": "Feature", "properties": {"collection_times": [{"days": "Mon-Fri", "time": "4:45pm"}, {"days": "Sat", "time": "12:00pm"}, {"days": "Sun", "time": "Closed"}], "id": "0407300028", "name": "USPS COLLECTION BOX - BLUE BOX", "address": {"city": "SANFORD", "state": "ME", "street": "30 SCHOOL ST", "postcode": "04073"}}},
{"geometry": {"type": "Point", "coordinates": [-70.7723075365, 43.4375321153]}, "type": "Feature", "properties": {"collection_times": [{"days": "Mon-Sat", "time": "2:00pm"}, {"days": "Sun", "time": "Closed"}], "id": "0407300031", "name": "USPS COLLECTION BOX - BLUE BOX", "address": {"city": "SANFORD", "state": "ME", "street": "917 MAIN ST", "postcode": "04073"}}},
{"geometry": {"type": "Point", "coordinates": [-70.7726409283, 43.4378178058]}, "type": "Feature", "properties": {"collection_times": [{"days": "Mon-Fri", "time": "5:00pm"}, {"days": "Sat", "time": "4:00pm"}, {"days": "Sun", "time": "Closed"}], "id": "0407300033", "name": "USPS COLLECTION BOX - PO LOBBY", "address": {"city": "SANFORD", "state": "ME", "street": "30 SCHOOL ST", "postcode": "04073"}}},
{"geometry": {"type": "Point", "coordinates": [-70.7726409283, 43.4378178058]}, "type": "Feature", "properties": {"collection_times": [{"days": "Mon-Fri", "time": "5:00pm"}, {"days": "Sat", "time": "4:00pm"}, {"days": "Sun", "time": "Closed"}], "id": "0407300034", "name": "USPS COLLECTION BOX - PO LOBBY", "address": {"city": "SANFORD", "state": "ME", "street": "30 SCHOOL ST", "postcode": "04073"}}},
{"geometry": {"type": "Point", "coordinates": [-70.3223358834, 43.598616632]}, "type": "Feature", "properties": {"collection_times": [{"days": "Mon-Fri", "time": "4:30pm"}, {"days": "Sat", "time": "1:00pm"}, {"days": "Sun", "time": "Closed"}], "id": "0407400007", "name": "USPS COLLECTION BOX - BLUE BOX", "address": {"city": "SCARBOROUGH", "state": "ME", "street": "152 US ROUTE 1", "postcode": "04074"}}},
{"geometry": {"type": "Point", "coordinates": [-70.3681989136, 43.5899903206]}, "type": "Feature", "properties": {"collection_times": [{"days": "Mon-Fri", "time": "3:30pm"}, {"days": "Sat", "time": "1:00pm"}, {"days": "Sun", "time": "Closed"}], "id": "0407400008", "name": "USPS COLLECTION BOX - BLUE BOX", "address": {"city": "SCARBOROUGH", "state": "ME", "street": "31 HANNAFORD DR", "postcode": "04074"}}},
{"geometry": {"type": "Point", "coordinates": [-70.4007177098, 43.5589702044]}, "type": "Feature", "properties": {"collection_times": [{"days": "Mon-Fri", "time": "3:30pm"}, {"days": "Sat-Sun", "time": "Closed"}], "id": "0407400011", "name": "USPS COLLECTION BOX - BLUE BOX", "address": {"city": "SCARBOROUGH", "state": "ME", "street": "259 US ROUTE 1", "postcode": "04074"}}},
{"geometry": {"type": "Point", "coordinates": [-70.3453969321, 43.5842933245]}, "type": "Feature", "properties": {"collection_times": [{"days": "Mon-Fri", "time": "2:00pm"}, {"days": "Sat-Sun", "time": "Closed"}], "id": "0407400015", "name": "USPS COLLECTION BOX - BLUE BOX", "address": {"city": "SCARBOROUGH", "state": "ME", "street": "600 ROUNDWOOD DR", "postcode": "04074"}}},
{"geometry": {"type": "Point", "coordinates": [-70.350640381, 43.6213266282]}, "type": "Feature", "properties": {"collection_times": [{"days": "Mon-Fri", "time": "2:00pm"}, {"days": "Sat", "time": "1:00pm"}, {"days": "Sun", "time": "Closed"}], "id": "0407400019", "name": "USPS COLLECTION BOX - BLUE BOX", "address": {"city": "SCARBOROUGH", "state": "ME", "street": "244 GORHAM RD", "postcode": "04074"}}},
{"geometry": {"type": "Point", "coordinates": [-70.3681989136, 43.5899903206]}, "type": "Feature", "properties": {"collection_times": [{"days": "Mon-Fri", "time": "2:00pm"}, {"days": "Sat-Sun", "time": "Closed"}], "id": "0407400021", "name": "USPS COLLECTION BOX - BLUE BOX", "address": {"city": "SCARBOROUGH", "state": "ME", "street": "500 GALLERY BLVD", "postcode": "04074"}}},
{"geometry": {"type": "Point", "coordinates": [-70.3656877503, 43.5815360356]}, "type": "Feature", "properties": {"collection_times": [{"days": "Mon-Fri", "time": "4:15pm"}, {"days": "Sat-Sun", "time": "Closed"}], "id": "0407400022", "name": "USPS COLLECTION BOX - BLUE BOX", "address": {"city": "SCARBOROUGH", "state": "ME", "street": "10 SOUTHGATE RD", "postcode": "04074"}}},
{"geometry": {"type": "Point", "coordinates": [-70.3172079586, 43.6039632639]}, "type": "Feature", "properties": {"collection_times": [{"days": "Mon-Fri", "time": "4:45pm"}, {"days": "Sat-Sun", "time": "Closed"}], "id": "0407400023", "name": "USPS COLLECTION BOX - BLUE BOX", "address": {"city": "SCARBOROUGH", "state": "ME", "street": "100 US ROUTE 1", "postcode": "04074"}}},
{"geometry": {"type": "Point", "coordinates": [-70.4007177098, 43.5589702044]}, "type": "Feature", "properties": {"collection_times": [{"days": "Mon-Fri", "time": "3:30pm"}, {"days": "Sat", "time": "1:00pm"}, {"days": "Sun", "time": "Closed"}], "id": "0407400025", "name": "USPS COLLECTION BOX - BLUE BOX", "address": {"city": "SCARBOROUGH", "state": "ME", "street": "613 US ROUTE 1", "postcode": "04074"}}},
{"geometry": {"type": "Point", "coordinates": [-69.2039438735, 45.3152487683]}, "type": "Feature", "properties": {"collection_times": [{"days": "Mon-Fri", "time": "4:45pm"}, {"days": "Sat-Sun", "time": "Closed"}], "id": "0407400028", "name": "USPS COLLECTION BOX - BLUE BOX", "address": {"city": "SCARBOROUGH", "state": "ME", "street": "96 CAMPUS DR", "postcode": "04074"}}},
{"geometry": {"type": "Point", "coordinates": [-70.3134158266, 43.6095542899]}, "type": "Feature", "properties": {"collection_times": [{"days": "Mon-Fri", "time": "3:30pm"}, {"days": "Sat", "time": "1:00pm"}, {"days": "Sun", "time": "Closed"}], "id": "0407400036", "name": "USPS COLLECTION BOX - BLUE BOX", "address": {"city": "SCARBOROUGH", "state": "ME", "street": "51 US ROUTE 1", "postcode": "04074"}}},
{"geometry": {"type": "Point", "coordinates": [-70.838776651, 43.5548037722]}, "type": "Feature", "properties": {"collection_times": [{"days": "Mon-Fri", "time": "3:00pm"}, {"days": "Sat", "time": "11:30am"}, {"days": "Sun", "time": "Closed"}], "id": "0407600001", "name": "USPS COLLECTION BOX - BLUE BOX", "address": {"city": "SHAPLEIGH", "state": "ME", "street": "994 SHAPLEIGH CORNER RD", "postcode": "04076"}}},
{"geometry": {"type": "Point", "coordinates": [-70.838776651, 43.5548037722]}, "type": "Feature", "properties": {"collection_times": [{"days": "Mon-Fri", "time": "3:00pm"}, {"days": "Sat", "time": "11:35am"}, {"days": "Sun", "time": "Closed"}], "id": "0407600002", "name": "USPS COLLECTION BOX - PO LOBBY", "address": {"city": "SHAPLEIGH", "state": "ME", "street": "994 SHAPLEIGH CORNER RD", "postcode": "04076"}}},
{"geometry": {"type": "Point", "coordinates": [-70.5320192627, 43.9261627015]}, "type": "Feature", "properties": {"collection_times": [{"days": "Mon-Fri", "time": "4:30pm"}, {"days": "Sat", "time": "11:30am"}, {"days": "Sun", "time": "Closed"}], "id": "0407700001", "name": "USPS COLLECTION BOX - BLUE BOX", "address": {"city": "SOUTH CASCO", "state": "ME", "street": "326 ROOSEVELT TRL", "postcode": "04077"}}},
{"geometry": {"type": "Point", "coordinates": [-70.5320192627, 43.9261627015]}, "type": "Feature", "properties": {"collection_times": [{"days": "Mon-Fri", "time": "4:30pm"}, {"days": "Sat", "time": "11:30am"}, {"days": "Sun", "time": "Closed"}], "id": "0407700002", "name": "USPS COLLECTION BOX - PO LOBBY", "address": {"city": "SOUTH CASCO", "state": "ME", "street": "326 ROOSEVELT TRL", "postcode": "04077"}}},
{"geometry": {"type": "Point", "coordinates": [-70.1097499038, 43.8211917144]}, "type": "Feature", "properties": {"collection_times": [{"days": "Mon-Fri", "time": "4:45pm"}, {"days": "Sat", "time": "11:45am"}, {"days": "Sun", "time": "Closed"}], "id": "0407800002", "name": "USPS COLLECTION BOX - PO LOBBY", "address": {"city": "SOUTH FREEPORT", "state": "ME", "street": "95 S FREEPORT RD", "postcode": "04078"}}},
{"geometry": {"type": "Point", "coordinates": [-69.9978615432, 43.7839835978]}, "type": "Feature", "properties": {"collection_times": [{"days": "Mon-Fri", "time": "4:00pm"}, {"days": "Sat", "time": "12:00pm"}, {"days": "Sun", "time": "Closed"}], "id": "0407900001", "name": "USPS COLLECTION BOX - BLUE BOX", "address": {"city": "SOUTH HARPSWELL", "state": "ME", "street": "1212 HARPSWELL NECK RD", "postcode": "04079"}}},
{"geometry": {"type": "Point", "coordinates": [-69.9978615432, 43.7839835978]}, "type": "Feature", "properties": {"collection_times": [{"days": "Mon-Fri", "time": "4:30pm"}, {"days": "Sat", "time": "12:00pm"}, {"days": "Sun", "time": "Closed"}], "id": "0407900002", "name": "USPS COLLECTION BOX - PO LOBBY", "address": {"city": "SOUTH HARPSWELL", "state": "ME", "street": "1212 HARPSWELL NECK RD", "postcode": "04079"}}},
{"geometry": {"type": "Point", "coordinates": [-69.9978615432, 43.7839835978]}, "type": "Feature", "properties": {"collection_times": [{"days": "Mon-Fri", "time": "4:30pm"}, {"days": "Sat", "time": "12:00pm"}, {"days": "Sun", "time": "Closed"}], "id": "0407900003", "name": "USPS COLLECTION BOX - PO LOBBY", "address": {"city": "SOUTH HARPSWELL", "state": "ME", "street": "1212 HARPSWELL NECK RD", "postcode": "04079"}}},
{"geometry": {"type": "Point", "coordinates": [-70.4259282502, 43.7377420164]}, "type": "Feature", "properties": {"collection_times": [{"days": "Mon-Fri", "time": "5:00pm"}, {"days": "Sat", "time": "11:45am"}, {"days": "Sun", "time": "Closed"}], "id": "0408200001", "name": "USPS COLLECTION BOX - PO LOBBY", "address": {"city": "SOUTH WINDHAM", "state": "ME", "street": "57 MAIN ST", "postcode": "04082"}}},
{"geometry": {"type": "Point", "coordinates": [-70.7885763047, 43.4526040235]}, "type": "Feature", "properties": {"collection_times": [{"days": "Mon-Fri", "time": "4:30pm"}, {"days": "Sat", "time": "11:30am"}, {"days": "Sun", "time": "Closed"}], "id": "0408300009", "name": "USPS COLLECTION BOX - BLUE BOX", "address": {"city": "SPRINGVALE", "state": "ME", "street": "492 MAIN ST", "postcode": "04083"}}},
{"geometry": {"type": "Point", "coordinates": [-70.7885763047, 43.4526040235]}, "type": "Feature", "properties": {"collection_times": [{"days": "Mon-Fri", "time": "4:30pm"}, {"days": "Sat", "time": "11:30am"}, {"days": "Sun", "time": "Closed"}], "id": "0408300011", "name": "USPS COLLECTION BOX - PO LOBBY", "address": {"city": "SPRINGVALE", "state": "ME", "street": "492 MAIN ST", "postcode": "04083"}}},
{"geometry": {"type": "Point", "coordinates": [-70.7885763047, 43.4526040235]}, "type": "Feature", "properties": {"collection_times": [{"days": "Mon-Fri", "time": "4:30pm"}, {"days": "Sat", "time": "11:30am"}, {"days": "Sun", "time": "Closed"}], "id": "0408300012", "name": "USPS COLLECTION BOX - PO LOBBY", "address": {"city": "SPRINGVALE", "state": "ME", "street": "492 MAIN ST", "postcode": "04083"}}},
{"geometry": {"type": "Point", "coordinates": [-70.5420286119, 43.7310145293]}, "type": "Feature", "properties": {"collection_times": [{"days": "Mon-Fri", "time": "4:30pm"}, {"days": "Sat", "time": "1:00pm"}, {"days": "Sun", "time": "Closed"}], "id": "0408400001", "name": "USPS COLLECTION BOX - BLUE BOX", "address": {"city": "STANDISH", "state": "ME", "street": "111 OSSIPEE TRL E", "postcode": "04084"}}},
{"geometry": {"type": "Point", "coordinates": [-70.5420286119, 43.7310145293]}, "type": "Feature", "properties": {"collection_times": [{"days": "Mon-Fri", "time": "4:30pm"}, {"days": "Sat", "time": "1:00pm"}, {"days": "Sun", "time": "Closed"}], "id": "0408400003", "name": "USPS COLLECTION BOX - BLUE BOX", "address": {"city": "STANDISH", "state": "ME", "street": "111 OSSIPEE TRL E", "postcode": "04084"}}},
{"geometry": {"type": "Point", "coordinates": [-70.5420286119, 43.7310145293]}, "type": "Feature", "properties": {"collection_times": [{"days": "Mon-Fri", "time": "4:45pm"}, {"days": "Sat", "time": "1:00pm"}, {"days": "Sun", "time": "Closed"}], "id": "0408400005", "name": "USPS COLLECTION BOX - PO LOBBY", "address": {"city": "STANDISH", "state": "ME", "street": "111 OSSIPEE TRL E", "postcode": "04084"}}},
{"geometry": {"type": "Point", "coordinates": [-70.6364297455, 43.7660101447]}, "type": "Feature", "properties": {"collection_times": [{"days": "Mon-Fri", "time": "4:45pm"}, {"days": "Sat", "time": "11:45am"}, {"days": "Sun", "time": "Closed"}], "id": "0408500001", "name": "USPS COLLECTION BOX - BLUE BOX", "address": {"city": "STEEP FALLS", "state": "ME", "street": "1090 PEQUAWKET TRL", "postcode": "04085"}}},
{"geometry": {"type": "Point", "coordinates": [-70.6364297455, 43.7660101447]}, "type": "Feature", "properties": {"collection_times": [{"days": "Mon-Fri", "time": "4:45pm"}, {"days": "Sat", "time": "11:45am"}, {"days": "Sun", "time": "Closed"}], "id": "0408500003", "name": "USPS COLLECTION BOX - PO LOBBY", "address": {"city": "STEEP FALLS", "state": "ME", "street": "1090 PEQUAWKET TRL", "postcode": "04085"}}},
{"geometry": {"type": "Point", "coordinates": [-69.9782687392, 43.9273304739]}, "type": "Feature", "properties": {"collection_times": [{"days": "Mon-Fri", "time": "2:00pm"}, {"days": "Sat", "time": "9:00am"}, {"days": "Sun", "time": "Closed"}], "id": "0408600010", "name": "USPS COLLECTION BOX - BLUE BOX", "address": {"city": "TOPSHAM", "state": "ME", "street": "49 TOPSHAM FAIR MALL RD", "postcode": "04086"}}},
{"geometry": {"type": "Point", "coordinates": [-69.9660346472, 43.9357352384]}, "type": "Feature", "properties": {"collection_times": [{"days": "Mon-Fri", "time": "4:15pm"}, {"days": "Sat", "time": "2:45pm"}, {"days": "Sun", "time": "Closed"}], "id": "0408600012", "name": "USPS COLLECTION BOX - BLUE BOX", "address": {"city": "TOPSHAM", "state": "ME", "street": "101 MAIN ST", "postcode": "04086"}}},
{"geometry": {"type": "Point", "coordinates": [-69.958821024, 43.9623993842]}, "type": "Feature", "properties": {"collection_times": [{"days": "Mon-Sat", "time": "10:00am"}, {"days": "Sun", "time": "Closed"}], "id": "0408600013", "name": "USPS COLLECTION BOX - BLUE BOX", "address": {"city": "TOPSHAM", "state": "ME", "street": "14 PEJEPSCOT VILLAGE MAIN ST", "postcode": "04086"}}},
{"geometry": {"type": "Point", "coordinates": [-69.9743992854, 43.9393207571]}, "type": "Feature", "properties": {"collection_times": [{"days": "Mon-Sat", "time": "11:30am"}, {"days": "Sun", "time": "Closed"}], "id": "0408600014", "name": "USPS COLLECTION BOX - BLUE BOX", "address": {"city": "TOPSHAM", "state": "ME", "street": "211 LEWISTON RD", "postcode": "04086"}}},
{"geometry": {"type": "Point", "coordinates": [-69.9660346472, 43.9357352384]}, "type": "Feature", "properties": {"collection_times": [{"days": "Mon-Fri", "time": "4:45pm"}, {"days": "Sat", "time": "11:45am"}, {"days": "Sun", "time": "Closed"}], "id": "0408600016", "name": "USPS COLLECTION BOX - PO LOBBY", "address": {"city": "TOPSHAM", "state": "ME", "street": "101 MAIN ST", "postcode": "04086"}}},
{"geometry": {"type": "Point", "coordinates": [-69.9660346472, 43.9357352384]}, "type": "Feature", "properties": {"collection_times": [{"days": "Mon-Fri", "time": "4:45pm"}, {"days": "Sat", "time": "11:45am"}, {"days": "Sun", "time": "Closed"}], "id": "0408600017", "name": "USPS COLLECTION BOX - PO LOBBY", "address": {"city": "TOPSHAM", "state": "ME", "street": "101 MAIN ST", "postcode": "04086"}}},
{"geometry": {"type": "Point", "coordinates": [-69.9651339307, 43.9224731166]}, "type": "Feature", "properties": {"collection_times": [{"days": "Mon-Sat", "time": "3:45pm"}, {"days": "Sun", "time": "Closed"}], "id": "0408600018", "name": "USPS COLLECTION BOX - BLUE BOX", "address": {"city": "TOPSHAM", "state": "ME", "street": "1 MAIN ST", "postcode": "04086"}}},
{"geometry": {"type": "Point", "coordinates": [-70.7172079147, 43.5124939542]}, "type": "Feature", "properties": {"collection_times": [{"days": "Mon-Fri", "time": "4:15pm"}, {"days": "Sat", "time": "11:00am"}, {"days": "Sun", "time": "Closed"}], "id": "0408700001", "name": "USPS COLLECTION BOX - BLUE BOX", "address": {"city": "WATERBORO", "state": "ME", "street": "997 MAIN ST", "postcode": "04087"}}},
{"geometry": {"type": "Point", "coordinates": [-70.7172079147, 43.5124939542]}, "type": "Feature", "properties": {"collection_times": [{"days": "Mon-Fri", "time": "4:15pm"}, {"days": "Sat", "time": "11:15am"}, {"days": "Sun", "time": "Closed"}], "id": "0408700003", "name": "USPS COLLECTION BOX - PO LOBBY", "address": {"city": "WATERBORO", "state": "ME", "street": "997 MAIN ST", "postcode": "04087"}}},
{"geometry": {"type": "Point", "coordinates": [-70.7124890667, 44.1918033036]}, "type": "Feature", "properties": {"collection_times": [{"days": "Mon-Fri", "time": "4:00pm"}, {"days": "Sat", "time": "11:00am"}, {"days": "Sun", "time": "Closed"}], "id": "0408800001", "name": "USPS COLLECTION BOX - BLUE BOX", "address": {"city": "WATERFORD", "state": "ME", "street": "965 WATERFORD RD", "postcode": "04088"}}},
{"geometry": {"type": "Point", "coordinates": [-70.7124890667, 44.1918033036]}, "type": "Feature", "properties": {"collection_times": [{"days": "Mon-Fri", "time": "2:30pm"}, {"days": "Sat", "time": "11:15am"}, {"days": "Sun", "time": "Closed"}], "id": "0408800003", "name": "USPS COLLECTION BOX - PO LOBBY", "address": {"city": "WATERFORD", "state": "ME", "street": "965 WATERFORD RD", "postcode": "04088"}}},
{"geometry": {"type": "Point", "coordinates": [-70.5833779721, 43.3017984718]}, "type": "Feature", "properties": {"collection_times": [{"days": "Mon-Fri", "time": "10:00am"}, {"days": "Sat-Sun", "time": "Closed"}], "id": "0409000005", "name": "USPS COLLECTION BOX - BLUE BOX", "address": {"city": "WELLS", "state": "ME", "street": "107 WELLS PLZ", "postcode": "04090"}}},
{"geometry": {"type": "Point", "coordinates": [-70.6169684659, 43.3239232146]}, "type": "Feature", "properties": {"collection_times": [{"days": "Mon-Fri", "time": "4:30pm"}, {"days": "Sat", "time": "1:45pm"}, {"days": "Sun", "time": "Closed"}], "id": "0409000007", "name": "USPS COLLECTION BOX - BLUE BOX", "address": {"city": "WELLS", "state": "ME", "street": "1886 POST RD", "postcode": "04090"}}},
{"geometry": {"type": "Point", "coordinates": [-70.6169684659, 43.3239232146]}, "type": "Feature", "properties": {"collection_times": [{"days": "Mon-Fri", "time": "10:00am"}, {"days": "Sat-Sun", "time": "Closed"}], "id": "0409000011", "name": "USPS COLLECTION BOX - BLUE BOX", "address": {"city": "WELLS", "state": "ME", "street": "1662 POST RD", "postcode": "04090"}}},
{"geometry": {"type": "Point", "coordinates": [-70.6169684659, 43.3239232146]}, "type": "Feature", "properties": {"collection_times": [{"days": "Mon-Fri", "time": "4:30pm"}, {"days": "Sat", "time": "1:45pm"}, {"days": "Sun", "time": "Closed"}], "id": "0409000012", "name": "USPS COLLECTION BOX - PO LOBBY", "address": {"city": "WELLS", "state": "ME", "street": "1886 POST RD", "postcode": "04090"}}},
{"geometry": {"type": "Point", "coordinates": [-70.6169684659, 43.3239232146]}, "type": "Feature", "properties": {"collection_times": [{"days": "Mon-Fri", "time": "4:30pm"}, {"days": "Sat", "time": "1:45pm"}, {"days": "Sun", "time": "Closed"}], "id": "0409000013", "name": "USPS COLLECTION BOX - PO LOBBY", "address": {"city": "WELLS", "state": "ME", "street": "1886 POST RD", "postcode": "04090"}}},
{"geometry": {"type": "Point", "coordinates": [-70.7019962978, 43.8106017935]}, "type": "Feature", "properties": {"collection_times": [{"days": "Mon-Fri", "time": "4:15pm"}, {"days": "Sat", "time": "11:30am"}, {"days": "Sun", "time": "Closed"}], "id": "0409100001", "name": "USPS COLLECTION BOX - BLUE BOX", "address": {"city": "WEST BALDWIN", "state": "ME", "street": "932 PEQUAWKET TRL", "postcode": "04091"}}},
{"geometry": {"type": "Point", "coordinates": [-70.7019962978, 43.8106017935]}, "type": "Feature", "properties": {"collection_times": [{"days": "Mon-Fri", "time": "4:15pm"}, {"days": "Sat", "time": "11:30am"}, {"days": "Sun", "time": "Closed"}], "id": "0409100002", "name": "USPS COLLECTION BOX - PO LOBBY", "address": {"city": "WEST BALDWIN", "state": "ME", "street": "932 PEQUAWKET TRL", "postcode": "04091"}}},
{"geometry": {"type": "Point", "coordinates": [-70.3673435483, 43.6767756094]}, "type": "Feature", "properties": {"collection_times": [{"days": "Mon-Fri", "time": "4:00pm"}, {"days": "Sat-Sun", "time": "Closed"}], "id": "0409200015", "name": "USPS COLLECTION BOX - BLUE BOX", "address": {"city": "WESTBROOK", "state": "ME", "street": "870 MAIN ST", "postcode": "04092"}}},
{"geometry": {"type": "Point", "coordinates": [-70.3655675621, 43.6765461991]}, "type": "Feature", "properties": {"collection_times": [{"days": "Mon-Fri", "time": "4:00pm"}, {"days": "Sat", "time": "1:00pm"}, {"days": "Sun", "time": "Closed"}], "id": "0409200017", "name": "USPS COLLECTION BOX - BLUE BOX", "address": {"city": "WESTBROOK", "state": "ME", "street": "835 MAIN ST", "postcode": "04092"}}},
{"geometry": {"type": "Point", "coordinates": [-70.3550609145, 43.6926306715]}, "type": "Feature", "properties": {"collection_times": [{"days": "Mon-Sat", "time": "1:00pm"}, {"days": "Sun", "time": "Closed"}], "id": "0409200020", "name": "USPS COLLECTION BOX - BLUE BOX", "address": {"city": "WESTBROOK", "state": "ME", "street": "7 HANNAFORD DR", "postcode": "04092"}}},
{"geometry": {"type": "Point", "coordinates": [-70.3573065919, 43.6834202795]}, "type": "Feature", "properties": {"collection_times": [{"days": "Mon-Sat", "time": "1:00pm"}, {"days": "Sun", "time": "Closed"}], "id": "0409200022", "name": "USPS COLLECTION BOX - BLUE BOX", "address": {"city": "WESTBROOK", "state": "ME", "street": "26 CUMBERLAND ST", "postcode": "04092"}}},
{"geometry": {"type": "Point", "coordinates": [-70.3345636358, 43.6778202921]}, "type": "Feature", "properties": {"collection_times": [{"days": "Mon-Fri", "time": "4:15pm"}, {"days": "Sat-Sun", "time": "Closed"}], "id": "0409200023", "name": "USPS COLLECTION BOX - BLUE BOX", "address": {"city": "WESTBROOK", "state": "ME", "street": "104 MAIN ST", "postcode": "04092"}}},
{"geometry": {"type": "Point", "coordinates": [-70.331917239, 43.6810082034]}, "type": "Feature", "properties": {"collection_times": [{"days": "Mon-Fri", "time": "4:15pm"}, {"days": "Sat-Sun", "time": "Closed"}], "id": "0409200036", "name": "USPS COLLECTION BOX - BLUE BOX", "address": {"city": "WESTBROOK", "state": "ME", "street": "207 LARRABEE RD", "postcode": "04092"}}},
{"geometry": {"type": "Point", "coordinates": [-70.3626596032, 43.6766208619]}, "type": "Feature", "properties": {"collection_times": [{"days": "Mon-Fri", "time": "5:30pm"}, {"days": "Sat", "time": "1:00pm"}, {"days": "Sun", "time": "Closed"}], "id": "0409200039", "name": "USPS COLLECTION BOX - BLUE BOX", "address": {"city": "WESTBROOK", "state": "ME", "street": "775 MAIN ST", "postcode": "04092"}}},
{"geometry": {"type": "Point", "coordinates": [-70.3673435483, 43.6767756094]}, "type": "Feature", "properties": {"collection_times": [{"days": "Mon-Fri", "time": "4:00pm"}, {"days": "Sat-Sun", "time": "Closed"}], "id": "0409200040", "name": "USPS COLLECTION BOX - BLUE BOX", "address": {"city": "WESTBROOK", "state": "ME", "street": "870 MAIN ST", "postcode": "04092"}}},
{"geometry": {"type": "Point", "coordinates": [-70.3626596032, 43.6766208619]}, "type": "Feature", "properties": {"collection_times": [{"days": "Mon-Fri", "time": "5:30pm"}, {"days": "Sat", "time": "1:00pm"}, {"days": "Sun", "time": "Closed"}], "id": "0409200041", "name": "USPS COLLECTION BOX - BLUE BOX", "address": {"city": "WESTBROOK", "state": "ME", "street": "775 MAIN ST", "postcode": "04092"}}},
{"geometry": {"type": "Point", "coordinates": [-70.3324631945, 43.6777021806]}, "type": "Feature", "properties": {"collection_times": [{"days": "Mon-Sat", "time": "1:00pm"}, {"days": "Sun", "time": "Closed"}], "id": "0409200043", "name": "USPS COLLECTION BOX - BLUE BOX", "address": {"city": "WESTBROOK", "state": "ME", "street": "31 MAIN ST", "postcode": "04092"}}},
{"geometry": {"type": "Point", "coordinates": [-70.3626596032, 43.6766208619]}, "type": "Feature", "properties": {"collection_times": [{"days": "Mon-Fri", "time": "5:30pm"}, {"days": "Sat", "time": "1:00pm"}, {"days": "Sun", "time": "Closed"}], "id": "0409200044", "name": "USPS COLLECTION BOX - PO LOBBY", "address": {"city": "WESTBROOK", "state": "ME", "street": "775 MAIN ST", "postcode": "04092"}}},
{"geometry": {"type": "Point", "coordinates": [-70.3626596032, 43.6766208619]}, "type": "Feature", "properties": {"collection_times": [{"days": "Mon-Fri", "time": "5:30pm"}, {"days": "Sat", "time": "1:00pm"}, {"days": "Sun", "time": "Closed"}], "id": "0409200045", "name": "USPS COLLECTION BOX - PO LOBBY", "address": {"city": "WESTBROOK", "state": "ME", "street": "775 MAIN ST", "postcode": "04092"}}},
{"geometry": {"type": "Point", "coordinates": [-70.4791095719, 43.6207643543]}, "type": "Feature", "properties": {"collection_times": [{"days": "Mon-Fri", "time": "4:00pm"}, {"days": "Sat", "time": "11:45am"}, {"days": "Sun", "time": "Closed"}], "id": "0409300001", "name": "USPS COLLECTION BOX - BLUE BOX", "address": {"city": "BUXTON", "state": "ME", "street": "379 LONG PLAINS RD", "postcode": "04093"}}},
{"geometry": {"type": "Point", "coordinates": [-70.4791095719, 43.6207643543]}, "type": "Feature", "properties": {"collection_times": [{"days": "Mon-Fri", "time": "4:45pm"}, {"days": "Sat", "time": "12:00pm"}, {"days": "Sun", "time": "Closed"}], "id": "0409300004", "name": "USPS COLLECTION BOX - PO LOBBY", "address": {"city": "BUXTON", "state": "ME", "street": "379 LONG PLAINS RD", "postcode": "04093"}}},
{"geometry": {"type": "Point", "coordinates": [-70.5736878658, 43.4066303945]}, "type": "Feature", "properties": {"collection_times": [{"days": "Mon-Fri", "time": "3:00pm"}, {"days": "Sat", "time": "12:00pm"}, {"days": "Sun", "time": "Closed"}], "id": "0409400001", "name": "USPS COLLECTION BOX - BLUE BOX", "address": {"city": "WEST KENNEBUNK", "state": "ME", "street": "116 ALFRED RD", "postcode": "04094"}}},
{"geometry": {"type": "Point", "coordinates": [-70.5736878658, 43.4066303945]}, "type": "Feature", "properties": {"collection_times": [{"days": "Mon-Fri", "time": "3:00pm"}, {"days": "Sat", "time": "11:30am"}, {"days": "Sun", "time": "Closed"}], "id": "0409400004", "name": "USPS COLLECTION BOX - PO LOBBY", "address": {"city": "WEST KENNEBUNK", "state": "ME", "street": "116 ALFRED RD", "postcode": "04094"}}},
{"geometry": {"type": "Point", "coordinates": [-70.925649174, 43.6452153423]}, "type": "Feature", "properties": {"collection_times": [{"days": "Mon-Fri", "time": "3:45pm"}, {"days": "Sat", "time": "11:00am"}, {"days": "Sun", "time": "Closed"}], "id": "0409500001", "name": "USPS COLLECTION BOX - BLUE BOX", "address": {"city": "WEST NEWFIELD", "state": "ME", "street": "24 S EFFINGHAM RD", "postcode": "04095"}}},
{"geometry": {"type": "Point", "coordinates": [-70.925649174, 43.6452153423]}, "type": "Feature", "properties": {"collection_times": [{"days": "Mon-Fri", "time": "3:45pm"}, {"days": "Sat", "time": "11:00am"}, {"days": "Sun", "time": "Closed"}], "id": "0409500002", "name": "USPS COLLECTION BOX - PO LOBBY", "address": {"city": "WEST NEWFIELD", "state": "ME", "street": "24 S EFFINGHAM RD", "postcode": "04095"}}},
{"geometry": {"type": "Point", "coordinates": [-70.1841868094, 43.8047703754]}, "type": "Feature", "properties": {"collection_times": [{"days": "Mon-Fri", "time": "5:15pm"}, {"days": "Sat", "time": "3:00pm"}, {"days": "Sun", "time": "Closed"}], "id": "0409600002", "name": "USPS COLLECTION BOX - BLUE BOX", "address": {"city": "YARMOUTH", "state": "ME", "street": "36 FOREST FALLS DR", "postcode": "04096"}}},
{"geometry": {"type": "Point", "coordinates": [-70.1935872438, 43.8035755523]}, "type": "Feature", "properties": {"collection_times": [{"days": "Mon-Sat", "time": "1:00pm"}, {"days": "Sun", "time": "Closed"}], "id": "0409600003", "name": "USPS COLLECTION BOX - BLUE BOX", "address": {"city": "YARMOUTH", "state": "ME", "street": "367 MAIN ST", "postcode": "04096"}}},
{"geometry": {"type": "Point", "coordinates": [-70.1829570177, 43.7990547628]}, "type": "Feature", "properties": {"collection_times": [{"days": "Mon-Sat", "time": "11:00am"}, {"days": "Sun", "time": "Closed"}], "id": "0409600007", "name": "USPS COLLECTION BOX - BLUE BOX", "address": {"city": "YARMOUTH", "state": "ME", "street": "108 MAIN ST", "postcode": "04096"}}},
{"geometry": {"type": "Point", "coordinates": [-70.1833568578, 43.8039344685]}, "type": "Feature", "properties": {"collection_times": [{"days": "Mon-Sat", "time": "12:00pm"}, {"days": "Sun", "time": "Closed"}], "id": "0409600013", "name": "USPS COLLECTION BOX - BLUE BOX", "address": {"city": "YARMOUTH", "state": "ME", "street": "10 FOREST FALLS DR", "postcode": "04096"}}},
{"geometry": {"type": "Point", "coordinates": [-70.1841868094, 43.8047703754]}, "type": "Feature", "properties": {"collection_times": [{"days": "Mon-Fri", "time": "5:15pm"}, {"days": "Sat", "time": "3:15pm"}, {"days": "Sun", "time": "Closed"}], "id": "0409600020", "name": "USPS COLLECTION BOX - PO LOBBY", "address": {"city": "YARMOUTH", "state": "ME", "street": "36 FOREST FALLS DR", "postcode": "04096"}}},
{"geometry": {"type": "Point", "coordinates": [-70.1841868094, 43.8047703754]}, "type": "Feature", "properties": {"collection_times": [{"days": "Mon-Sat", "time": "11:00am"}, {"days": "Sun", "time": "Closed"}], "id": "0409600022", "name": "USPS COLLECTION BOX - BLUE BOX", "address": {"city": "YARMOUTH", "state": "ME", "street": "106 LAFAYETTE ST", "postcode": "04096"}}}
]}
