{"type": "FeatureCollection", "features": [
{"geometry": {"type": "Point", "coordinates": [-70.257561487, 43.6586522892]}, "type": "Feature", "properties": {"collection_times": [{"days": "Mon-Fri", "time": "5:15pm"}, {"days": "Sat", "time": "1:00pm"}, {"days": "Sun", "time": "Closed"}], "id": "0410100002", "name": "USPS COLLECTION BOX - BLUE BOX", "address": {"city": "PORTLAND", "state": "ME", "street": "415 CONGRESS ST", "postcode": "04101"}}},
{"geometry": {"type": "Point", "coordinates": [-70.2521097381, 43.6575921439]}, "type": "Feature", "properties": {"collection_times": [{"days": "Mon-Fri", "time": "4:50pm"}, {"days": "Sat-Sun", "time": "Closed"}], "id": "0410100003", "name": "USPS COLLECTION BOX - BLUE BOX", "address": {"city": "PORTLAND", "state": "ME", "street": "27 PEARL ST", "postcode": "04101"}}},
{"geometry": {"type": "Point", "coordinates": [-70.2538920943, 43.6552500479]}, "type": "Feature", "properties": {"collection_times": [{"days": "Mon-Fri", "time": "5:00pm"}, {"days": "Sat-Sun", "time": "Closed"}], "id": "0410100009", "name": "USPS COLLECTION BOX - BLUE BOX", "address": {"city": "PORTLAND", "state": "ME", "street": "215 COMMERCIAL ST", "postcode": "04101"}}},
{"geometry": {"type": "Point", "coordinates": [-70.2518564501, 43.6591559857]}, "type": "Feature", "properties": {"collection_times": [{"days": "Mon-Fri", "time": "5:30pm"}, {"days": "Sat-Sun", "time": "Closed"}], "id": "0410100010", "name": "USPS COLLECTION BOX - BLUE BOX", "address": {"city": "PORTLAND", "state": "ME", "street": "100 MIDDLE ST", "postcode": "04101"}}},
{"geometry": {"type": "Point", "coordinates": [-69.2039438735, 45.3152487683]}, "type": "Feature", "properties": {"collection_times": [{"days": "Mon-Fri", "time": "5:15pm"}, {"days": "Sat", "time": "1:00pm"}, {"days": "Sun", "time": "Closed"}], "id": "0410100011", "name": "USPS COLLECTION BOX - BLUE BOX", "address": {"city": "PORTLAND", "state": "ME", "street": "465 CONGRESS ST", "postcode": "04101"}}},
{"geometry": {"type": "Point", "coordinates": [-70.2598437852, 43.6569800649]}, "type": "Feature", "properties": {"collection_times": [{"days": "Mon-Fri", "time": "5:15pm"}, {"days": "Sat-Sun", "time": "Closed"}], "id": "0410100012", "name": "USPS COLLECTION BOX - BLUE BOX", "address": {"city": "PORTLAND", "state": "ME", "street": "477 CONGRESS ST", "postcode": "04101"}}},
{"geometry": {"type": "Point", "coordinates": [-70.2598437852, 43.6569800649]}, "type": "Feature", "properties": {"collection_times": [{"days": "Mon-Fri", "time": "5:15pm"}, {"days": "Sat-Sun", "time": "Closed"}], "id": "0410100013", "name": "USPS COLLECTION BOX - BLUE BOX", "address": {"city": "PORTLAND", "state": "ME", "street": "477 CONGRESS ST", "postcode": "04101"}}},
{"geometry": {"type": "Point", "coordinates": [-70.2598093627, 43.6568483381]}, "type": "Feature", "properties": {"collection_times": [{"days": "Mon-Fri", "time": "4:15pm"}, {"days": "Sat", "time": "1:00pm"}, {"days": "Sun", "time": "Closed"}], "id": "0410100016", "name": "USPS COLLECTION BOX - BLUE BOX", "address": {"city": "PORTLAND", "state": "ME", "street": "480 CONGRESS ST", "postcode": "04101"}}},
{"geometry": {"type": "Point", "coordinates": [-70.2613912734, 43.6556229303]}, "type": "Feature", "properties": {"collection_times": [{"days": "Mon-Fri", "time": "4:15pm"}, {"days": "Sat", "time": "1:00pm"}, {"days": "Sun", "time": "Closed"}], "id": "0410100017", "name": "USPS COLLECTION BOX - BLUE BOX", "address": {"city": "PORTLAND", "state": "ME", "street": "534 CONGRESS ST", "postcode": "04101"}}},
{"geometry": {"type": "Point", "coordinates": [-69.2039438735, 45.3152487683]}, "type": "Feature", "properties": {"collection_times": [{"days": "Mon-Fri", "time": "4:15pm"}, {"days": "Sat", "time": "1:00pm"}, {"days": "Sun", "time": "Closed"}], "id": "0410100018", "name": "USPS COLLECTION BOX - BLUE BOX", "address": {"city": "PORTLAND", "state": "ME", "street": "562 CONGRESS ST", "postcode": "04101"}}},
{"geometry": {"type": "Point", "coordinates": [-70.2572188178, 43.6547751435]}, "type": "Feature", "properties": {"collection_times": [{"days": "Mon-Fri", "time": "4:00pm"}, {"days": "Sat", "time": "1:00pm"}, {"days": "Sun", "time": "Closed"}], "id": "0410100022", "name": "USPS COLLECTION BOX - BLUE BOX", "address": {"city": "PORTLAND", "state": "ME", "street": "70 CENTER ST", "postcode": "04101"}}},
{"geometry": {"type": "Point", "coordinates": [-69.2039438735, 45.3152487683]}, "type": "Feature", "properties": {"collection_times": [{"days": "Mon-Sat", "time": "5:00pm"}, {"days": "Sun", "time": "Closed"}], "id": "0410100023", "name": "USPS COLLECTION BOX - BLUE BOX", "address": {"city": "PORTLAND", "state": "ME", "street": "156 HIGH ST", "postcode": "04101"}}},
{"geometry": {"type": "Point", "coordinates": [-70.252993777, 43.6585238588]}, "type": "Feature", "properties": {"collection_times": [{"days": "Mon-Fri", "time": "5:00pm"}, {"days": "Sat-Sun", "time": "Closed"}], "id": "0410100024", "name": "USPS COLLECTION BOX - BLUE BOX", "address": {"city": "PORTLAND", "state": "ME", "street": "130 MIDDLE ST", "postcode": "04101"}}},
{"geometry": {"type": "Point", "coordinates": [-70.2508115834, 43.6608560618]}, "type": "Feature", "properties": {"collection_times": [{"days": "Mon-Fri", "time": "5:00pm"}, {"days": "Sat", "time": "1:00pm"}, {"days": "Sun", "time": "Closed"}], "id": "0410100036", "name": "USPS COLLECTION BOX - BLUE BOX", "address": {"city": "PORTLAND", "state": "ME", "street": "70 INDIA ST", "postcode": "04101"}}},
{"geometry": {"type": "Point", "coordinates": [-70.251393229, 43.6573462358]}, "type": "Feature", "properties": {"collection_times": [{"days": "Mon-Fri", "time": "3:30pm"}, {"days": "Sat-Sun", "time": "Closed"}], "id": "0410100039", "name": "USPS COLLECTION BOX - BLUE BOX", "address": {"city": "PORTLAND", "state": "ME", "street": "312 FORE ST", "postcode": "04101"}}},
{"geometry": {"type": "Point", "coordinates": [-69.2039438735, 45.3152487683]}, "type": "Feature", "properties": {"collection_times": [{"days": "Mon-Fri", "time": "3:45pm"}, {"days": "Sat", "time": "1:00pm"}, {"days": "Sun", "time": "Closed"}], "id": "0410100041", "name": "USPS COLLECTION BOX - BLUE BOX", "address": {"city": "PORTLAND", "state": "ME", "street": "449 FOREST AVE", "postcode": "04101"}}},
{"geometry": {"type": "Point", "coordinates": [-70.2619846179, 43.6459039983]}, "type": "Feature", "properties": {"collection_times": [{"days": "Mon-Fri", "time": "3:30pm"}, {"days": "Sat-Sun", "time": "Closed"}], "id": "0410100042", "name": "USPS COLLECTION BOX - BLUE BOX", "address": {"city": "PORTLAND", "state": "ME", "street": "75 W COMMERCIAL ST", "postcode": "04101"}}},
{"geometry": {"type": "Point", "coordinates": [-69.2039438735, 45.3152487683]}, "type": "Feature", "properties": {"collection_times": [{"days": "Mon-Fri", "time": "3:45pm"}, {"days": "Sat-Sun", "time": "Closed"}], "id": "0410100044", "name": "USPS COLLECTION BOX - BLUE BOX", "address": {"city": "PORTLAND", "state": "ME", "street": "509 FOREST AVE", "postcode": "04101"}}},
{"geometry": {"type": "Point", "coordinates": [-70.2806644244, 43.6684074022]}, "type": "Feature", "properties": {"collection_times": [{"days": "Mon-Fri", "time": "5:15pm"}, {"days": "Sat-Sun", "time": "Closed"}], "id": "0410100048", "name": "USPS COLLECTION BOX - BLUE BOX", "address": {"city": "PORTLAND", "state": "ME", "street": "550 FOREST AVE", "postcode": "04101"}}},
{"geometry": {"type": "Point", "coordinates": [-69.2039438735, 45.3152487683]}, "type": "Feature", "properties": {"collection_times": [{"days": "Mon-Fri", "time": "4:30pm"}, {"days": "Sat", "time": "1:00pm"}, {"days": "Sun", "time": "Closed"}], "id": "0410100051", "name": "USPS COLLECTION BOX - BLUE BOX", "address": {"city": "PORTLAND", "state": "ME", "street": "622 CONGRESS ST", "postcode": "04101"}}},
{"geometry": {"type": "Point", "coordinates": [-70.2607692608, 43.655140471]}, "type": "Feature", "properties": {"collection_times": [{"days": "Mon-Fri", "time": "3:00pm"}, {"days": "Sat", "time": "1:00pm"}, {"days": "Sun", "time": "Closed"}], "id": "0410100054", "name": "USPS COLLECTION BOX - BLUE BOX", "address": {"city": "PORTLAND", "state": "ME", "street": "94 FREE ST", "postcode": "04101"}}},
{"geometry": {"type": "Point", "coordinates": [-69.2039438735, 45.3152487683]}, "type": "Feature", "properties": {"collection_times": [{"days": "Mon-Fri", "time": "3:45pm"}, {"days": "Sat-Sun", "time": "Closed"}], "id": "0410100056", "name": "USPS COLLECTION BOX - BLUE BOX", "address": {"city": "PORTLAND", "state": "ME", "street": "95 COMMERCIAL ST", "postcode": "04101"}}},
{"geometry": {"type": "Point", "coordinates": [-70.25475685, 43.654649501]}, "type": "Feature", "properties": {"collection_times": [{"days": "Mon-Fri", "time": "5:00pm"}, {"days": "Sat-Sun", "time": "Closed"}], "id": "0410100059", "name": "USPS COLLECTION BOX - BLUE BOX", "address": {"city": "PORTLAND", "state": "ME", "street": "245 COMMERCIAL ST", "postcode": "04101"}}},
{"geometry": {"type": "Point", "coordinates": [-70.2482653966, 43.6656584606]}, "type": "Feature", "properties": {"collection_times": [{"days": "Mon-Sat", "time": "1:00pm"}, {"days": "Sun", "time": "Closed"}], "id": "0410100060", "name": "USPS COLLECTION BOX - BLUE BOX", "address": {"city": "PORTLAND", "state": "ME", "street": "131 CONGRESS ST", "postcode": "04101"}}},
{"geometry": {"type": "Point", "coordinates": [-70.2590095326, 43.6594922883]}, "type": "Feature", "properties": {"collection_times": [{"days": "Mon-Fri", "time": "5:00pm"}, {"days": "Sat", "time": "1:00pm"}, {"days": "Sun", "time": "Closed"}], "id": "0410100065", "name": "USPS COLLECTION BOX - EXPRESS", "address": {"city": "PORTLAND", "state": "ME", "street": "1 CANAL PLZ", "postcode": "04101"}}},
{"geometry": {"type": "Point", "coordinates": [-70.2585526718, 43.6618649928]}, "type": "Feature", "properties": {"collection_times": [{"days": "Mon-Fri", "time": "5:00pm"}, {"days": "Sat", "time": "1:00pm"}, {"days": "Sun", "time": "Closed"}], "id": "0410100066", "name": "USPS COLLECTION BOX - BLUE BOX", "address": {"city": "PORTLAND", "state": "ME", "street": "1 CANAL PLZ", "postcode": "04101"}}},
{"geometry": {"type": "Point", "coordinates": [-70.2535323067, 43.6592789813]}, "type": "Feature", "properties": {"collection_times": [{"days": "Mon-Fri", "time": "5:00pm"}, {"days": "Sat-Sun", "time": "Closed"}], "id": "0410100073", "name": "USPS COLLECTION BOX - BLUE BOX", "address": {"city": "PORTLAND", "state": "ME", "street": "205 NEWBURY ST", "postcode": "04101"}}},
{"geometry": {"type": "Point", "coordinates": [-70.2535323067, 43.6592789813]}, "type": "Feature", "properties": {"collection_times": [{"days": "Mon-Fri", "time": "5:00pm"}, {"days": "Sat-Sun", "time": "Closed"}], "id": "0410100074", "name": "USPS COLLECTION BOX - BLUE BOX", "address": {"city": "PORTLAND", "state": "ME", "street": "205 NEWBURY ST", "postcode": "04101"}}},
{"geometry": {"type": "Point", "coordinates": [-70.2535323067, 43.6592789813]}, "type": "Feature", "properties": {"collection_times": [{"days": "Mon-Fri", "time": "5:00pm"}, {"days": "Sat-Sun", "time": "Closed"}], "id": "0410100075", "name": "USPS COLLECTION BOX - BLUE BOX", "address": {"city": "PORTLAND", "state": "ME", "street": "205 NEWBURY ST", "postcode": "04101"}}},
{"geometry": {"type": "Point", "coordinates": [-70.2533596415, 43.6564167754]}, "type": "Feature", "properties": {"collection_times": [{"days": "Mon-Fri", "time": "3:30pm"}, {"days": "Sat", "time": "1:00pm"}, {"days": "Sun", "time": "Closed"}], "id": "0410100076", "name": "USPS COLLECTION BOX - BLUE BOX", "address": {"city": "PORTLAND", "state": "ME", "street": "2 EXCHANGE ST", "postcode": "04101"}}},
{"geometry": {"type": "Point", "coordinates": [-70.2566208576, 43.6574902171]}, "type": "Feature", "properties": {"collection_times": [{"days": "Mon-Fri", "time": "5:15pm"}, {"days": "Sat-Sun", "time": "Closed"}], "id": "0410100080", "name": "USPS COLLECTION BOX - BLUE BOX", "address": {"city": "PORTLAND", "state": "ME", "street": "1 FREE ST", "postcode": "04101"}}},
{"geometry": {"type": "Point", "coordinates": [-70.2566208576, 43.6574902171]}, "type": "Feature", "properties": {"collection_times": [{"days": "Mon-Fri", "time": "5:15pm"}, {"days": "Sat-Sun", "time": "Closed"}], "id": "0410100081", "name": "USPS COLLECTION BOX - BLUE BOX", "address": {"city": "PORTLAND", "state": "ME", "street": "1 FREE ST", "postcode": "04101"}}},
{"geometry": {"type": "Point", "coordinates": [-70.2621061629, 43.6602891451]}, "type": "Feature", "properties": {"collection_times": [{"days": "Mon-Fri", "time": "5:00pm"}, {"days": "Sat-Sun", "time": "Closed"}], "id": "0410100087", "name": "USPS COLLECTION BOX - BLUE BOX", "address": {"city": "PORTLAND", "state": "ME", "street": "185 LANCASTER ST", "postcode": "04101"}}},
{"geometry": {"type": "Point", "coordinates": [-70.2590095326, 43.6594922883]}, "type": "Feature", "properties": {"collection_times": [{"days": "Mon-Fri", "time": "5:30pm"}, {"days": "Sat", "time": "1:00pm"}, {"days": "Sun", "time": "Closed"}], "id": "0410100088", "name": "USPS COLLECTION BOX - EXPRESS", "address": {"city": "PORTLAND", "state": "ME", "street": "170 MIDDLE ST", "postcode": "04101"}}},
{"geometry": {"type": "Point", "coordinates": [-70.2546426581, 43.6576464866]}, "type": "Feature", "properties": {"collection_times": [{"days": "Mon-Fri", "time": "5:30pm"}, {"days": "Sat", "time": "1:00pm"}, {"days": "Sun", "time": "Closed"}], "id": "0410100092", "name": "USPS COLLECTION BOX - BLUE BOX", "address": {"city": "PORTLAND", "state": "ME", "street": "170 MIDDLE ST", "postcode": "04101"}}},
{"geometry": {"type": "Point", "coordinates": [-70.2523597009, 43.6659335538]}, "type": "Feature", "properties": {"collection_times": [{"days": "Mon-Fri", "time": "1:00pm"}, {"days": "Sat-Sun", "time": "Closed"}], "id": "0410100097", "name": "USPS COLLECTION BOX - BLUE BOX", "address": {"city": "PORTLAND", "state": "ME", "street": "75 WASHINGTON AVE", "postcode": "04101"}}},
{"geometry": {"type": "Point", "coordinates": [-70.2585797237, 43.6579434921]}, "type": "Feature", "properties": {"collection_times": [{"days": "Mon-Fri", "time": "5:15pm"}, {"days": "Sat", "time": "1:00pm"}, {"days": "Sun", "time": "Closed"}], "id": "0410100100", "name": "USPS COLLECTION BOX - BLUE BOX", "address": {"city": "PORTLAND", "state": "ME", "street": "443 CONGRESS ST", "postcode": "04101"}}},
{"geometry": {"type": "Point", "coordinates": [-70.25475685, 43.654649501]}, "type": "Feature", "properties": {"collection_times": [{"days": "Mon-Fri", "time": "5:00pm"}, {"days": "Sat-Sun", "time": "Closed"}], "id": "0410100103", "name": "USPS COLLECTION BOX - BLUE BOX", "address": {"city": "PORTLAND", "state": "ME", "street": "245 COMMERCIAL ST", "postcode": "04101"}}},
{"geometry": {"type": "Point", "coordinates": [-70.2590095326, 43.6594922883]}, "type": "Feature", "properties": {"collection_times": [{"days": "Mon-Fri", "time": "4:30pm"}, {"days": "Sat-Sun", "time": "Closed"}], "id": "0410100105", "name": "USPS COLLECTION BOX - EXPRESS", "address": {"city": "PORTLAND", "state": "ME", "street": "1 MONUMENT SQ", "postcode": "04101"}}},
{"geometry": {"type": "Point", "coordinates": [-69.2039438735, 45.3152487683]}, "type": "Feature", "properties": {"collection_times": [{"days": "Mon-Sat", "time": "1:00pm"}, {"days": "Sun", "time": "Closed"}], "id": "0410100107", "name": "USPS COLLECTION BOX - BLUE BOX", "address": {"city": "PORTLAND", "state": "ME", "street": "56 COMMERCIAL ST", "postcode": "04101"}}},
{"geometry": {"type": "Point", "coordinates": [-70.2676494794, 43.6595874515]}, "type": "Feature", "properties": {"collection_times": [{"days": "Mon-Sat", "time": "7:00pm"}, {"days": "Sun", "time": "Closed"}], "id": "0410100112", "name": "USPS COLLECTION BOX - BLUE BOX", "address": {"city": "PORTLAND", "state": "ME", "street": "125 FOREST AVE", "postcode": "04101"}}},
{"geometry": {"type": "Point", "coordinates": [-70.2676494794, 43.6595874515]}, "type": "Feature", "properties": {"collection_times": [{"days": "Mon-Sat", "time": "5:00pm"}, {"days": "Sun", "time": "Closed"}], "id": "0410100114", "name": "USPS COLLECTION BOX - BLUE BOX", "address": {"city": "PORTLAND", "state": "ME", "street": "125 FOREST AVE", "postcode": "04101"}}},
{"geometry": {"type": "Point", "coordinates": [-70.2676494794, 43.6595874515]}, "type": "Feature", "properties": {"collection_times": [{"days": "Mon-Sat", "time": "5:00pm"}, {"days": "Sun", "time": "Closed"}], "id": "0410100115", "name": "USPS COLLECTION BOX - BLUE BOX", "address": {"city": "PORTLAND", "state": "ME", "street": "125 FOREST AVE", "postcode": "04101"}}},
{"geometry": {"type": "Point", "coordinates": [-70.2676494794, 43.6595874515]}, "type": "Feature", "properties": {"collection_times": [{"days": "Mon-Sat", "time": "7:00pm"}, {"days": "Sun", "time": "Closed"}], "id": "0410100116", "name": "USPS COLLECTION BOX - BLUE BOX", "address": {"city": "PORTLAND", "state": "ME", "street": "125 FOREST AVE", "postcode": "04101"}}},
{"geometry": {"type": "Point", "coordinates": [-70.2676494794, 43.6595874515]}, "type": "Feature", "properties": {"collection_times": [{"days": "Mon-Sat", "time": "7:00pm"}, {"days": "Sun", "time": "Closed"}], "id": "0410100117", "name": "USPS COLLECTION BOX - BLUE BOX", "address": {"city": "PORTLAND", "state": "ME", "street": "125 FOREST AVE", "postcode": "04101"}}},
{"geometry": {"type": "Point", "coordinates": [-70.2549432516, 43.6578175189]}, "type": "Feature", "properties": {"collection_times": [{"days": "Mon-Fri", "time": "2:00pm"}, {"days": "Sat-Sun", "time": "Closed"}], "id": "0410100118", "name": "USPS COLLECTION BOX - BLUE BOX", "address": {"city": "PORTLAND", "state": "ME", "street": "110 EXCHANGE ST", "postcode": "04101"}}},
{"geometry": {"type": "Point", "coordinates": [-70.2508947374, 43.6567668148]}, "type": "Feature", "properties": {"collection_times": [{"days": "Mon-Fri", "time": "5:00pm"}, {"days": "Sat-Sun", "time": "Closed"}], "id": "0410100119", "name": "USPS COLLECTION BOX - BLUE BOX", "address": {"city": "PORTLAND", "state": "ME", "street": "100 COMMERCIAL ST", "postcode": "04101"}}},
{"geometry": {"type": "Point", "coordinates": [-70.252993777, 43.6585238588]}, "type": "Feature", "properties": {"collection_times": [{"days": "Mon-Fri", "time": "5:00pm"}, {"days": "Sat-Sun", "time": "Closed"}], "id": "0410100120", "name": "USPS COLLECTION BOX - BLUE BOX", "address": {"city": "PORTLAND", "state": "ME", "street": "130 MIDDLE ST", "postcode": "04101"}}},
{"geometry": {"type": "Point", "coordinates": [-69.2039438735, 45.3152487683]}, "type": "Feature", "properties": {"collection_times": [{"days": "Mon-Fri", "time": "3:00pm"}, {"days": "Sat", "time": "1:00pm"}, {"days": "Sun", "time": "Closed"}], "id": "0410100122", "name": "USPS COLLECTION BOX - BLUE BOX", "address": {"city": "PORTLAND", "state": "ME", "street": "389 CONGRESS ST", "postcode": "04101"}}},
{"geometry": {"type": "Point", "coordinates": [-70.2676494794, 43.6595874515]}, "type": "Feature", "properties": {"collection_times": [{"days": "Mon-Sat", "time": "7:00pm"}, {"days": "Sun", "time": "Closed"}], "id": "0410100123", "name": "USPS COLLECTION BOX - BLUE BOX", "address": {"city": "PORTLAND", "state": "ME", "street": "125 FOREST AVE", "postcode": "04101"}}},
{"geometry": {"type": "Point", "coordinates": [-70.2676494794, 43.6595874515]}, "type": "Feature", "properties": {"collection_times": [{"days": "Mon-Sat", "time": "7:00pm"}, {"days": "Sun", "time": "Closed"}], "id": "0410100124", "name": "USPS COLLECTION BOX - BLUE BOX", "address": {"city": "PORTLAND", "state": "ME", "street": "125 FOREST AVE", "postcode": "04101"}}},
{"geometry": {"type": "Point", "coordinates": [-70.2676494794, 43.6595874515]}, "type": "Feature", "properties": {"collection_times": [{"days": "Mon-Sat", "time": "5:00pm"}, {"days": "Sun", "time": "Closed"}], "id": "0410100126", "name": "USPS COLLECTION BOX - BLUE BOX", "address": {"city": "PORTLAND", "state": "ME", "street": "125 FOREST AVE", "postcode": "04101"}}},
{"geometry": {"type": "Point", "coordinates": [-70.2566208576, 43.6574902171]}, "type": "Feature", "properties": {"collection_times": [{"days": "Mon-Fri", "time": "5:15pm"}, {"days": "Sat-Sun", "time": "Closed"}], "id": "0410100127", "name": "USPS COLLECTION BOX - BLUE BOX", "address": {"city": "PORTLAND", "state": "ME", "street": "1 FREE ST", "postcode": "04101"}}},
{"geometry": {"type": "Point", "coordinates": [-70.2590095326, 43.6594922883]}, "type": "Feature", "properties": {"collection_times": [{"days": "Mon-Fri", "time": "5:15pm"}, {"days": "Sat-Sun", "time": "Closed"}], "id": "0410100128", "name": "USPS COLLECTION BOX - EXPRESS", "address": {"city": "PORTLAND", "state": "ME", "street": "1 FREE ST", "postcode": "04101"}}},
{"geometry": {"type": "Point", "coordinates": [-70.257561487, 43.6586522892]}, "type": "Feature", "properties": {"collection_times": [{"days": "Mon-Fri", "time": "5:15pm"}, {"days": "Sat", "time": "1:00pm"}, {"days": "Sun", "time": "Closed"}], "id": "0410100129", "name": "USPS COLLECTION BOX - BLUE BOX", "address": {"city": "PORTLAND", "state": "ME", "street": "415 CONGRESS ST", "postcode": "04101"}}},
{"geometry": {"type": "Point", "coordinates": [-70.2601633875, 43.6588093733]}, "type": "Feature", "properties": {"collection_times": [{"days": "Mon-Fri", "time": "4:30pm"}, {"days": "Sat-Sun", "time": "Closed"}], "id": "0410100130", "name": "USPS COLLECTION BOX - BLUE BOX", "address": {"city": "PORTLAND", "state": "ME", "street": "307 CUMBERLAND AVE", "postcode": "04101"}}},
{"geometry": {"type": "Point", "coordinates": [-70.2707486049, 43.6648420176]}, "type": "Feature", "properties": {"collection_times": [{"days": "Mon-Fri", "time": "5:15pm"}, {"days": "Sat", "time": "1:00pm"}, {"days": "Sun", "time": "Closed"}], "id": "0410100131", "name": "USPS COLLECTION BOX - BLUE BOX", "address": {"city": "PORTLAND", "state": "ME", "street": "51 BAXTER BLVD", "postcode": "04101"}}},
{"geometry": {"type": "Point", "coordinates": [-70.2566208576, 43.6574902171]}, "type": "Feature", "properties": {"collection_times": [{"days": "Mon-Fri", "time": "5:15pm"}, {"days": "Sat-Sun", "time": "Closed"}], "id": "0410100133", "name": "USPS COLLECTION BOX - BLUE BOX", "address": {"city": "PORTLAND", "state": "ME", "street": "1 FREE ST", "postcode": "04101"}}},
{"geometry": {"type": "Point", "coordinates": [-70.2561041743, 43.6531385657]}, "type": "Feature", "properties": {"collection_times": [{"days": "Mon-Fri", "time": "3:30pm"}, {"days": "Sat", "time": "1:00pm"}, {"days": "Sun", "time": "Closed"}], "id": "0410100135", "name": "USPS COLLECTION BOX - BLUE BOX", "address": {"city": "PORTLAND", "state": "ME", "street": "315 COMMERCIAL ST", "postcode": "04101"}}},
{"geometry": {"type": "Point", "coordinates": [-70.2552701899, 43.658564654]}, "type": "Feature", "properties": {"collection_times": [{"days": "Mon-Fri", "time": "5:00pm"}, {"days": "Sat", "time": "1:00pm"}, {"days": "Sun", "time": "Closed"}], "id": "0410100136", "name": "USPS COLLECTION BOX - BLUE BOX", "address": {"city": "PORTLAND", "state": "ME", "street": "113 MARKET ST", "postcode": "04101"}}},
{"geometry": {"type": "Point", "coordinates": [-70.2535323067, 43.6592789813]}, "type": "Feature", "properties": {"collection_times": [{"days": "Mon-Fri", "time": "5:00pm"}, {"days": "Sat-Sun", "time": "Closed"}], "id": "0410100137", "name": "USPS COLLECTION BOX - BLUE BOX", "address": {"city": "PORTLAND", "state": "ME", "street": "205 NEWBURY ST", "postcode": "04101"}}},
{"geometry": {"type": "Point", "coordinates": [-70.2508947374, 43.6567668148]}, "type": "Feature", "properties": {"collection_times": [{"days": "Mon-Fri", "time": "5:00pm"}, {"days": "Sat-Sun", "time": "Closed"}], "id": "0410100138", "name": "USPS COLLECTION BOX - BLUE BOX", "address": {"city": "PORTLAND", "state": "ME", "street": "100 COMMERCIAL ST", "postcode": "04101"}}},
{"geometry": {"type": "Point", "coordinates": [-70.2538920943, 43.6552500479]}, "type": "Feature", "properties": {"collection_times": [{"days": "Mon-Fri", "time": "5:00pm"}, {"days": "Sat-Sun", "time": "Closed"}], "id": "0410100139", "name": "USPS COLLECTION BOX - BLUE BOX", "address": {"city": "PORTLAND", "state": "ME", "street": "215 COMMERCIAL ST", "postcode": "04101"}}},
{"geometry": {"type": "Point", "coordinates": [-70.2590095326, 43.6594922883]}, "type": "Feature", "properties": {"collection_times": [{"days": "Mon-Fri", "time": "5:00pm"}, {"days": "Sat-Sun", "time": "Closed"}], "id": "0410100141", "name": "USPS COLLECTION BOX - EXPRESS", "address": {"city": "PORTLAND", "state": "ME", "street": "100 COMMERCIAL ST", "postcode": "04101"}}},
{"geometry": {"type": "Point", "coordinates": [-70.2590095322, 43.6594923344]}, "type": "Feature", "properties": {"collection_times": [{"days": "Mon-Fri", "time": "4:00pm"}, {"days": "Sat-Sun", "time": "Closed"}], "id": "0410100143", "name": "USPS COLLECTION BOX - BLUE BOX", "address": {"city": "PORTLAND", "state": "ME", "street": "36 DANFORTH ST", "postcode": "04101"}}},
{"geometry": {"type": "Point", "coordinates": [-70.2585947425, 43.6669703686]}, "type": "Feature", "properties": {"collection_times": [{"days": "Mon-Fri", "time": "5:00pm"}, {"days": "Sat-Sun", "time": "Closed"}], "id": "0410100144", "name": "USPS COLLECTION BOX - BLUE BOX", "address": {"city": "PORTLAND", "state": "ME", "street": "315 MARGINAL WAY", "postcode": "04101"}}},
{"geometry": {"type": "Point", "coordinates": [-70.2585526718, 43.6618649928]}, "type": "Feature", "properties": {"collection_times": [{"days": "Mon-Fri", "time": "5:15pm"}, {"days": "Sat", "time": "1:00pm"}, {"days": "Sun", "time": "Closed"}], "id": "0410100145", "name": "USPS COLLECTION BOX - BLUE BOX", "address": {"city": "PORTLAND", "state": "ME", "street": "400 CONGRESS ST", "postcode": "04101"}}},
{"geometry": {"type": "Point", "coordinates": [-70.2538920943, 43.6552500479]}, "type": "Feature", "properties": {"collection_times": [{"days": "Mon-Fri", "time": "5:00pm"}, {"days": "Sat-Sun", "time": "Closed"}], "id": "0410100146", "name": "USPS COLLECTION BOX - BLUE BOX", "address": {"city": "PORTLAND", "state": "ME", "street": "215 COMMERCIAL ST", "postcode": "04101"}}},
{"geometry": {"type": "Point", "coordinates": [-70.261235198, 43.659472391]}, "type": "Feature", "properties": {"collection_times": [{"days": "Mon-Fri", "time": "5:00pm"}, {"days": "Sat-Sun", "time": "Closed"}], "id": "0410100147", "name": "USPS COLLECTION BOX - BLUE BOX", "address": {"city": "PORTLAND", "state": "ME", "street": "221 OXFORD ST", "postcode": "04101"}}},
{"geometry": {"type": "Point", "coordinates": [-69.2039438735, 45.3152487683]}, "type": "Feature", "properties": {"collection_times": [{"days": "Mon-Fri", "time": "5:00pm"}, {"days": "Sat", "time": "1:00pm"}, {"days": "Sun", "time": "Closed"}], "id": "0410100149", "name": "USPS COLLECTION BOX - BLUE BOX", "address": {"city": "PORTLAND", "state": "ME", "street": "290 CONGRESS ST", "postcode": "04101"}}},
{"geometry": {"type": "Point", "coordinates": [-70.2598093627, 43.6568483381]}, "type": "Feature", "properties": {"collection_times": [{"days": "Mon-Fri", "time": "4:15pm"}, {"days": "Sat", "time": "1:00pm"}, {"days": "Sun", "time": "Closed"}], "id": "0410100150", "name": "USPS COLLECTION BOX - BLUE BOX", "address": {"city": "PORTLAND", "state": "ME", "street": "480 CONGRESS ST", "postcode": "04101"}}},
{"geometry": {"type": "Point", "coordinates": [-70.2736230417, 43.6627187853]}, "type": "Feature", "properties": {"collection_times": [{"days": "Mon-Sat", "time": "1:00pm"}, {"days": "Sun", "time": "Closed"}], "id": "0410100152", "name": "USPS COLLECTION BOX - BLUE BOX", "address": {"city": "PORTLAND", "state": "ME", "street": "35 BEDFORD ST", "postcode": "04101"}}},
{"geometry": {"type": "Point", "coordinates": [-69.2039438735, 45.3152487683]}, "type": "Feature", "properties": {"collection_times": [{"days": "Mon-Sat", "time": "1:00pm"}, {"days": "Sun", "time": "Closed"}], "id": "0410100153", "name": "USPS COLLECTION BOX - BLUE BOX", "address": {"city": "PORTLAND", "state": "ME", "street": "295 FOREST AVE", "postcode": "04101"}}},
{"geometry": {"type": "Point", "coordinates": [-70.2496873336, 43.6580243872]}, "type": "Feature", "properties": {"collection_times": [{"days": "Mon-Fri", "time": "2:30pm"}, {"days": "Sat-Sun", "time": "Closed"}], "id": "0410100154", "name": "USPS COLLECTION BOX - BLUE BOX", "address": {"city": "PORTLAND", "state": "ME", "street": "40 COMMERCIAL ST", "postcode": "04101"}}},
{"geometry": {"type": "Point", "coordinates": [-70.2590095326, 43.6594922883]}, "type": "Feature", "properties": {"collection_times": [{"days": "Mon-Sat", "time": "7:00pm"}, {"days": "Sun", "time": "Closed"}], "id": "0410100155", "name": "USPS COLLECTION BOX - EXPRESS", "address": {"city": "PORTLAND", "state": "ME", "street": "125 FOREST AVE", "postcode": "04101"}}},
{"geometry": {"type": "Point", "coordinates": [-70.2590095326, 43.6594922883]}, "type": "Feature", "properties": {"collection_times": [{"days": "Mon-Sat", "time": "5:00pm"}, {"days": "Sun", "time": "Closed"}], "id": "0410100156", "name": "USPS COLLECTION BOX - EXPRESS", "address": {"city": "PORTLAND", "state": "ME", "street": "125 FOREST AVE", "postcode": "04101"}}},
{"geometry": {"type": "Point", "coordinates": [-70.2676494794, 43.6595874515]}, "type": "Feature", "properties": {"collection_times": [{"days": "Mon-Fri", "time": "7:00pm"}, {"days": "Sat", "time": "5:00pm"}, {"days": "Sun", "time": "Closed"}], "id": "0410100157", "name": "USPS COLLECTION BOX - APC", "address": {"city": "PORTLAND", "state": "ME", "street": "125 FOREST AVE", "postcode": "04101"}}},
{"geometry": {"type": "Point", "coordinates": [-70.1884142715, 43.6699161653]}, "type": "Feature", "properties": {"collection_times": [{"days": "Mon-Fri", "time": "5:00pm"}, {"days": "Sat", "time": "12:00pm"}, {"days": "Sun", "time": "Closed"}], "id": "0410100158", "name": "USPS COLLECTION BOX - APC", "address": {"city": "PORTLAND", "state": "ME", "street": "15 COTTAGE RD", "postcode": "04101"}}},
{"geometry": {"type": "Point", "coordinates": [-70.2676494794, 43.6595874515]}, "type": "Feature", "properties": {"collection_times": [{"days": "Mon-Fri", "time": "7:00pm"}, {"days": "Sat", "time": "5:00pm"}, {"days": "Sun", "time": "Closed"}], "id": "0410100159", "name": "USPS COLLECTION BOX - PO LOBBY", "address": {"city": "PORTLAND", "state": "ME", "street": "125 FOREST AVE", "postcode": "04101"}}},
{"geometry": {"type": "Point", "coordinates": [-69.2039438735, 45.3152487683]}, "type": "Feature", "properties": {"collection_times": [{"days": "Mon-Fri", "time": "5:00pm"}, {"days": "Sat", "time": "12:00pm"}, {"days": "Sun", "time": "Closed"}], "id": "0410100160", "name": "USPS COLLECTION BOX - PO LOBBY", "address": {"city": "PORTLAND", "state": "ME", "street": "622 CONGRESS ST", "postcode": "04101"}}},
{"geometry": {"type": "Point", "coordinates": [-70.256803791, 43.658975032]}, "type": "Feature", "properties": {"collection_times": [{"days": "Mon-Fri", "time": "5:30pm"}, {"days": "Sat", "time": "1:00pm"}, {"days": "Sun", "time": "Closed"}], "id": "0410100161", "name": "USPS COLLECTION BOX - PO LOBBY", "address": {"city": "PORTLAND", "state": "ME", "street": "400 CONGRESS ST", "postcode": "04101"}}},
{"geometry": {"type": "Point", "coordinates": [-70.256803791, 43.658975032]}, "type": "Feature", "properties": {"collection_times": [{"days": "Mon-Fri", "time": "5:30pm"}, {"days": "Sat", "time": "1:00pm"}, {"days": "Sun", "time": "Closed"}], "id": "0410100162", "name": "USPS COLLECTION BOX - PO LOBBY", "address": {"city": "PORTLAND", "state": "ME", "street": "400 CONGRESS ST", "postcode": "04101"}}},
{"geometry": {"type": "Point", "coordinates": [-70.256803791, 43.658975032]}, "type": "Feature", "properties": {"collection_times": [{"days": "Mon-Fri", "time": "5:30pm"}, {"days": "Sat", "time": "1:00pm"}, {"days": "Sun", "time": "Closed"}], "id": "0410100163", "name": "USPS COLLECTION BOX - PO LOBBY", "address": {"city": "PORTLAND", "state": "ME", "street": "400 CONGRESS ST", "postcode": "04101"}}},
{"geometry": {"type": "Point", "coordinates": [-70.256803791, 43.658975032]}, "type": "Feature", "properties": {"collection_times": [{"days": "Mon-Fri", "time": "5:30pm"}, {"days": "Sat", "time": "1:00pm"}, {"days": "Sun", "time": "Closed"}], "id": "0410100164", "name": "USPS COLLECTION BOX - PO LOBBY", "address": {"city": "PORTLAND", "state": "ME", "street": "400 CONGRESS ST", "postcode": "04101"}}},
{"geometry": {"type": "Point", "coordinates": [-70.2744363203, 43.6513976744]}, "type": "Feature", "properties": {"collection_times": [{"days": "Mon-Sat", "time": "12:00pm"}, {"days": "Sun", "time": "Closed"}], "id": "0410200002", "name": "USPS COLLECTION BOX - BLUE BOX", "address": {"city": "PORTLAND", "state": "ME", "street": "131 CHADWICK ST", "postcode": "04102"}}},
{"geometry": {"type": "Point", "coordinates": [-70.2838854732, 43.654885497]}, "type": "Feature", "properties": {"collection_times": [{"days": "Mon-Fri", "time": "5:15pm"}, {"days": "Sat-Sun", "time": "Closed"}], "id": "0410200003", "name": "USPS COLLECTION BOX - BLUE BOX", "address": {"city": "PORTLAND", "state": "ME", "street": "15 LOWELL ST", "postcode": "04102"}}},
{"geometry": {"type": "Point", "coordinates": [-70.2875996689, 43.6581410374]}, "type": "Feature", "properties": {"collection_times": [{"days": "Mon-Fri", "time": "4:30pm"}, {"days": "Sat-Sun", "time": "Closed"}], "id": "0410200006", "name": "USPS COLLECTION BOX - BLUE BOX", "address": {"city": "PORTLAND", "state": "ME", "street": "229 VAUGHAN ST", "postcode": "04102"}}},
{"geometry": {"type": "Point", "coordinates": [-70.2791642009, 43.6514542422]}, "type": "Feature", "properties": {"collection_times": [{"days": "Mon-Fri", "time": "5:00pm"}, {"days": "Sat", "time": "1:00pm"}, {"days": "Sun", "time": "Closed"}], "id": "0410200007", "name": "USPS COLLECTION BOX - BLUE BOX", "address": {"city": "PORTLAND", "state": "ME", "street": "242 SAINT JOHN ST", "postcode": "04102"}}},
{"geometry": {"type": "Point", "coordinates": [-70.278678189, 43.6557926638]}, "type": "Feature", "properties": {"collection_times": [{"days": "Mon-Fri", "time": "2:00pm"}, {"days": "Sat", "time": "1:00pm"}, {"days": "Sun", "time": "Closed"}], "id": "0410200011", "name": "USPS COLLECTION BOX - BLUE BOX", "address": {"city": "PORTLAND", "state": "ME", "street": "272 PARK AVE", "postcode": "04102"}}},
{"geometry": {"type": "Point", "coordinates": [-70.2915905332, 43.665476016]}, "type": "Feature", "properties": {"collection_times": [{"days": "Mon-Sat", "time": "1:00pm"}, {"days": "Sun", "time": "Closed"}], "id": "0410200013", "name": "USPS COLLECTION BOX - BLUE BOX", "address": {"city": "PORTLAND", "state": "ME", "street": "335 BRIGHTON AVE", "postcode": "04102"}}},
{"geometry": {"type": "Point", "coordinates": [-70.2875996689, 43.6581410374]}, "type": "Feature", "properties": {"collection_times": [{"days": "Mon-Fri", "time": "4:30pm"}, {"days": "Sat-Sun", "time": "Closed"}], "id": "0410200014", "name": "USPS COLLECTION BOX - BLUE BOX", "address": {"city": "PORTLAND", "state": "ME", "street": "696 CONGRESS ST", "postcode": "04102"}}},
{"geometry": {"type": "Point", "coordinates": [-70.287535397, 43.6642098951]}, "type": "Feature", "properties": {"collection_times": [{"days": "Mon-Sat", "time": "1:00pm"}, {"days": "Sun", "time": "Closed"}], "id": "0410200020", "name": "USPS COLLECTION BOX - BLUE BOX", "address": {"city": "PORTLAND", "state": "ME", "street": "242 BRIGHTON AVE", "postcode": "04102"}}},
{"geometry": {"type": "Point", "coordinates": [-70.3022890575, 43.6689248173]}, "type": "Feature", "properties": {"collection_times": [{"days": "Mon-Fri", "time": "10:00am"}, {"days": "Sat-Sun", "time": "Closed"}], "id": "0410200021", "name": "USPS COLLECTION BOX - BLUE BOX", "address": {"city": "PORTLAND", "state": "ME", "street": "580 BRIGHTON AVE", "postcode": "04102"}}},
{"geometry": {"type": "Point", "coordinates": [-70.2875996689, 43.6581410374]}, "type": "Feature", "properties": {"collection_times": [{"days": "Mon-Sat", "time": "10:00am"}, {"days": "Sun", "time": "Closed"}], "id": "0410200026", "name": "USPS COLLECTION BOX - BLUE BOX", "address": {"city": "PORTLAND", "state": "ME", "street": "46 PINE ST", "postcode": "04102"}}},
{"geometry": {"type": "Point", "coordinates": [-70.2875996689, 43.6581410374]}, "type": "Feature", "properties": {"collection_times": [{"days": "Mon-Fri", "time": "10:00am"}, {"days": "Sat-Sun", "time": "Closed"}], "id": "0410200028", "name": "USPS COLLECTION BOX - BLUE BOX", "address": {"city": "PORTLAND", "state": "ME", "street": "161 PINE ST", "postcode": "04102"}}},
{"geometry": {"type": "Point", "coordinates": [-70.2875996689, 43.6581410374]}, "type": "Feature", "properties": {"collection_times": [{"days": "Mon-Sat", "time": "1:00pm"}, {"days": "Sun", "time": "Closed"}], "id": "0410200029", "name": "USPS COLLECTION BOX - BLUE BOX", "address": {"city": "PORTLAND", "state": "ME", "street": "236 SPRING ST", "postcode": "04102"}}},
{"geometry": {"type": "Point", "coordinates": [-70.2649002267, 43.6507861116]}, "type": "Feature", "properties": {"collection_times": [{"days": "Mon-Sat", "time": "10:00am"}, {"days": "Sun", "time": "Closed"}], "id": "0410200031", "name": "USPS COLLECTION BOX - BLUE BOX", "address": {"city": "PORTLAND", "state": "ME", "street": "187 SPRING ST", "postcode": "04102"}}},
{"geometry": {"type": "Point", "coordinates": [-70.2718618357, 43.6508622197]}, "type": "Feature", "properties": {"collection_times": [{"days": "Mon-Sat", "time": "1:00pm"}, {"days": "Sun", "time": "Closed"}], "id": "0410200033", "name": "USPS COLLECTION BOX - BLUE BOX", "address": {"city": "PORTLAND", "state": "ME", "street": "53 WEST ST", "postcode": "04102"}}},
{"geometry": {"type": "Point", "coordinates": [-70.2973680031, 43.6589814105]}, "type": "Feature", "properties": {"collection_times": [{"days": "Mon-Fri", "time": "5:00pm"}, {"days": "Sat", "time": "1:00pm"}, {"days": "Sun", "time": "Closed"}], "id": "0410200034", "name": "USPS COLLECTION BOX - BLUE BOX", "address": {"city": "PORTLAND", "state": "ME", "street": "1400 CONGRESS ST", "postcode": "04102"}}},
{"geometry": {"type": "Point", "coordinates": [-70.2875996689, 43.6581410374]}, "type": "Feature", "properties": {"collection_times": [{"days": "Mon-Fri", "time": "3:30pm"}, {"days": "Sat-Sun", "time": "Closed"}], "id": "0410200042", "name": "USPS COLLECTION BOX - BLUE BOX", "address": {"city": "PORTLAND", "state": "ME", "street": "1685 CONGRESS ST", "postcode": "04102"}}},
{"geometry": {"type": "Point", "coordinates": [-70.274604741, 43.6561090292]}, "type": "Feature", "properties": {"collection_times": [{"days": "Mon-Fri", "time": "2:00pm"}, {"days": "Sat-Sun", "time": "Closed"}], "id": "0410200043", "name": "USPS COLLECTION BOX - BLUE BOX", "address": {"city": "PORTLAND", "state": "ME", "street": "180 PARK AVE", "postcode": "04102"}}},
{"geometry": {"type": "Point", "coordinates": [-70.2875996689, 43.6581410374]}, "type": "Feature", "properties": {"collection_times": [{"days": "Mon-Fri", "time": "5:00pm"}, {"days": "Sat-Sun", "time": "Closed"}], "id": "0410200044", "name": "USPS COLLECTION BOX - BLUE BOX", "address": {"city": "PORTLAND", "state": "ME", "street": "16 HUTCHINS DR", "postcode": "04102"}}},
{"geometry": {"type": "Point", "coordinates": [-70.2913471879, 43.656141992]}, "type": "Feature", "properties": {"collection_times": [{"days": "Mon-Fri", "time": "5:00pm"}, {"days": "Sat-Sun", "time": "Closed"}], "id": "0410200046", "name": "USPS COLLECTION BOX - BLUE BOX", "address": {"city": "PORTLAND", "state": "ME", "street": "51 SEWALL ST", "postcode": "04102"}}},
{"geometry": {"type": "Point", "coordinates": [-70.2891147491, 43.6569574009]}, "type": "Feature", "properties": {"collection_times": [{"days": "Mon-Fri", "time": "5:00pm"}, {"days": "Sat", "time": "1:00pm"}, {"days": "Sun", "time": "Closed"}], "id": "0410200047", "name": "USPS COLLECTION BOX - BLUE BOX", "address": {"city": "PORTLAND", "state": "ME", "street": "1200 CONGRESS ST", "postcode": "04102"}}},
{"geometry": {"type": "Point", "coordinates": [-70.3244600469, 43.6650020861]}, "type": "Feature", "properties": {"collection_times": [{"days": "Mon-Sat", "time": "1:00pm"}, {"days": "Sun", "time": "Closed"}], "id": "0410200050", "name": "USPS COLLECTION BOX - BLUE BOX", "address": {"city": "PORTLAND", "state": "ME", "street": "100 SEWALL ST", "postcode": "04102"}}},
{"geometry": {"type": "Point", "coordinates": [-70.2875996689, 43.6581410374]}, "type": "Feature", "properties": {"collection_times": [{"days": "Mon-Fri", "time": "1:00pm"}, {"days": "Sat-Sun", "time": "Closed"}], "id": "0410200051", "name": "USPS COLLECTION BOX - BLUE BOX", "address": {"city": "PORTLAND", "state": "ME", "street": "195 FORE RIVER PKWY", "postcode": "04102"}}},
{"geometry": {"type": "Point", "coordinates": [-70.2791642009, 43.6514542422]}, "type": "Feature", "properties": {"collection_times": [{"days": "Mon-Fri", "time": "5:00pm"}, {"days": "Sat", "time": "1:00pm"}, {"days": "Sun", "time": "Closed"}], "id": "0410200052", "name": "USPS COLLECTION BOX - BLUE BOX", "address": {"city": "PORTLAND", "state": "ME", "street": "242 SAINT JOHN ST", "postcode": "04102"}}},
{"geometry": {"type": "Point", "coordinates": [-70.3097440212, 43.6512923275]}, "type": "Feature", "properties": {"collection_times": [{"days": "Mon-Fri", "time": "2:00pm"}, {"days": "Sat", "time": "1:00pm"}, {"days": "Sun", "time": "Closed"}], "id": "0410200053", "name": "USPS COLLECTION BOX - BLUE BOX", "address": {"city": "PORTLAND", "state": "ME", "street": "1001 WESTBROOK ST", "postcode": "04102"}}},
{"geometry": {"type": "Point", "coordinates": [-69.2039438735, 45.3152487683]}, "type": "Feature", "properties": {"collection_times": [{"days": "Mon-Fri", "time": "4:00pm"}, {"days": "Sat", "time": "1:00pm"}, {"days": "Sun", "time": "Closed"}], "id": "0410300004", "name": "USPS COLLECTION BOX - BLUE BOX", "address": {"city": "PORTLAND", "state": "ME", "street": "190 RIVERSIDE ST", "postcode": "04103"}}},
{"geometry": {"type": "Point", "coordinates": [-70.2880993439, 43.6887211867]}, "type": "Feature", "properties": {"collection_times": [{"days": "Mon-Fri", "time": "4:00pm"}, {"days": "Sat", "time": "1:00pm"}, {"days": "Sun", "time": "Closed"}], "id": "0410300009", "name": "USPS COLLECTION BOX - BLUE BOX", "address": {"city": "PORTLAND", "state": "ME", "street": "459 STEVENS AVE", "postcode": "04103"}}},
{"geometry": {"type": "Point", "coordinates": [-70.2936869327, 43.6849694066]}, "type": "Feature", "properties": {"collection_times": [{"days": "Mon-Fri", "time": "4:00pm"}, {"days": "Sat-Sun", "time": "Closed"}], "id": "0410300012", "name": "USPS COLLECTION BOX - BLUE BOX", "address": {"city": "PORTLAND", "state": "ME", "street": "772 STEVENS AVE", "postcode": "04103"}}},
{"geometry": {"type": "Point", "coordinates": [-70.3147474342, 43.6997646981]}, "type": "Feature", "properties": {"collection_times": [{"days": "Mon-Fri", "time": "5:00pm"}, {"days": "Sat", "time": "1:00pm"}, {"days": "Sun", "time": "Closed"}], "id": "0410300023", "name": "USPS COLLECTION BOX - BLUE BOX", "address": {"city": "PORTLAND", "state": "ME", "street": "10 RIVERSIDE INDUSTRIAL PKWY", "postcode": "04103"}}},
{"geometry": {"type": "Point", "coordinates": [-70.2881080344, 43.6887211403]}, "type": "Feature", "properties": {"collection_times": [{"days": "Mon-Fri", "time": "5:00pm"}, {"days": "Sat", "time": "1:00pm"}, {"days": "Sun", "time": "Closed"}], "id": "0410300024", "name": "USPS COLLECTION BOX - EXPRESS", "address": {"city": "PORTLAND", "state": "ME", "street": "10 RIVERSIDE INDUSTRIAL PKWY", "postcode": "04103"}}},
{"geometry": {"type": "Point", "coordinates": [-69.2039438735, 45.3152487683]}, "type": "Feature", "properties": {"collection_times": [{"days": "Mon-Sat", "time": "1:00pm"}, {"days": "Sun", "time": "Closed"}], "id": "0410300028", "name": "USPS COLLECTION BOX - BLUE BOX", "address": {"city": "PORTLAND", "state": "ME", "street": "1566 FOREST AVE", "postcode": "04103"}}},
{"geometry": {"type": "Point", "coordinates": [-69.2039438735, 45.3152487683]}, "type": "Feature", "properties": {"collection_times": [{"days": "Mon-Sat", "time": "1:00pm"}, {"days": "Sun", "time": "Closed"}], "id": "0410300030", "name": "USPS COLLECTION BOX - BLUE BOX", "address": {"city": "PORTLAND", "state": "ME", "street": "79 AUBURN ST", "postcode": "04103"}}},
{"geometry": {"type": "Point", "coordinates": [-69.2039438735, 45.3152487683]}, "type": "Feature", "properties": {"collection_times": [{"days": "Mon-Fri", "time": "5:00pm"}, {"days": "Sat", "time": "1:00pm"}, {"days": "Sun", "time": "Closed"}], "id": "0410300033", "name": "USPS COLLECTION BOX - BLUE BOX", "address": {"city": "PORTLAND", "state": "ME", "street": "89 AUBURN ST", "postcode": "04103"}}},
{"geometry": {"type": "Point", "coordinates": [-70.2599869073, 43.6862112233]}, "type": "Feature", "properties": {"collection_times": [{"days": "Mon-Sat", "time": "1:00pm"}, {"days": "Sun", "time": "Closed"}], "id": "0410300037", "name": "USPS COLLECTION BOX - BLUE BOX", "address": {"city": "PORTLAND", "state": "ME", "street": "125 PRESUMPSCOT ST", "postcode": "04103"}}},
{"geometry": {"type": "Point", "coordinates": [-70.2689626967, 43.6862610432]}, "type": "Feature", "properties": {"collection_times": [{"days": "Mon-Sat", "time": "1:00pm"}, {"days": "Sun", "time": "Closed"}], "id": "0410300044", "name": "USPS COLLECTION BOX - BLUE BOX", "address": {"city": "PORTLAND", "state": "ME", "street": "811 WASHINGTON AVE", "postcode": "04103"}}},
{"geometry": {"type": "Point", "coordinates": [-70.2864991085, 43.6979852585]}, "type": "Feature", "properties": {"collection_times": [{"days": "Mon-Fri", "time": "5:00pm"}, {"days": "Sat", "time": "1:00pm"}, {"days": "Sun", "time": "Closed"}], "id": "0410300052", "name": "USPS COLLECTION BOX - BLUE BOX", "address": {"city": "PORTLAND", "state": "ME", "street": "1321 WASHINGTON AVE", "postcode": "04103"}}},
{"geometry": {"type": "Point", "coordinates": [-70.3147474342, 43.6997646981]}, "type": "Feature", "properties": {"collection_times": [{"days": "Mon-Fri", "time": "5:00pm"}, {"days": "Sat", "time": "1:00pm"}, {"days": "Sun", "time": "Closed"}], "id": "0410300054", "name": "USPS COLLECTION BOX - BLUE BOX", "address": {"city": "PORTLAND", "state": "ME", "street": "10 RIVERSIDE INDUSTRIAL PKWY", "postcode": "04103"}}},
{"geometry": {"type": "Point", "coordinates": [-70.3147474342, 43.6997646981]}, "type": "Feature", "properties": {"collection_times": [{"days": "Mon-Fri", "time": "5:00pm"}, {"days": "Sat", "time": "1:00pm"}, {"days": "Sun", "time": "Closed"}], "id": "0410300057", "name": "USPS COLLECTION BOX - BLUE BOX", "address": {"city": "PORTLAND", "state": "ME", "street": "10 RIVERSIDE INDUSTRIAL PKWY", "postcode": "04103"}}},
{"geometry": {"type": "Point", "coordinates": [-70.3162293407, 43.7080204643]}, "type": "Feature", "properties": {"collection_times": [{"days": "Mon-Fri", "time": "3:45pm"}, {"days": "Sat", "time": "1:00pm"}, {"days": "Sun", "time": "Closed"}], "id": "0410300059", "name": "USPS COLLECTION BOX - BLUE BOX", "address": {"city": "PORTLAND", "state": "ME", "street": "2 EVERGREEN DR", "postcode": "04103"}}},
{"geometry": {"type": "Point", "coordinates": [-70.3128312475, 43.6874519764]}, "type": "Feature", "properties": {"collection_times": [{"days": "Mon-Fri", "time": "4:00pm"}, {"days": "Sat", "time": "1:00pm"}, {"days": "Sun", "time": "Closed"}], "id": "0410300060", "name": "USPS COLLECTION BOX - BLUE BOX", "address": {"city": "PORTLAND", "state": "ME", "street": "343 WARREN AVE", "postcode": "04103"}}},
{"geometry": {"type": "Point", "coordinates": [-70.2847169883, 43.6720395359]}, "type": "Feature", "properties": {"collection_times": [{"days": "Mon-Fri", "time": "3:45pm"}, {"days": "Sat", "time": "1:00pm"}, {"days": "Sun", "time": "Closed"}], "id": "0410300061", "name": "USPS COLLECTION BOX - BLUE BOX", "address": {"city": "PORTLAND", "state": "ME", "street": "701 FOREST AVE", "postcode": "04103"}}},
{"geometry": {"type": "Point", "coordinates": [-69.2039438735, 45.3152487683]}, "type": "Feature", "properties": {"collection_times": [{"days": "Mon-Fri", "time": "3:00pm"}, {"days": "Sat", "time": "1:00pm"}, {"days": "Sun", "time": "Closed"}], "id": "0410300063", "name": "USPS COLLECTION BOX - BLUE BOX", "address": {"city": "PORTLAND", "state": "ME", "street": "985 FOREST AVE", "postcode": "04103"}}},
{"geometry": {"type": "Point", "coordinates": [-70.2961825044, 43.7312665896]}, "type": "Feature", "properties": {"collection_times": [{"days": "Mon-Sat", "time": "1:00pm"}, {"days": "Sun", "time": "Closed"}], "id": "0410500001", "name": "USPS COLLECTION BOX - BLUE BOX", "address": {"city": "PORTLAND", "state": "ME", "street": "50 GRAY RD", "postcode": "04105"}}},
{"geometry": {"type": "Point", "coordinates": [-70.2634892333, 43.7363815518]}, "type": "Feature", "properties": {"collection_times": [{"days": "Mon-Fri", "time": "4:30pm"}, {"days": "Sat-Sun", "time": "Closed"}], "id": "0410500002", "name": "USPS COLLECTION BOX - BLUE BOX", "address": {"city": "PORTLAND", "state": "ME", "street": "366 US ROUTE 1", "postcode": "04105"}}},
{"geometry": {"type": "Point", "coordinates": [-70.2634892333, 43.7363815518]}, "type": "Feature", "properties": {"collection_times": [{"days": "Mon-Fri", "time": "4:30pm"}, {"days": "Sat-Sun", "time": "Closed"}], "id": "0410500003", "name": "USPS COLLECTION BOX - BLUE BOX", "address": {"city": "PORTLAND", "state": "ME", "street": "366 US ROUTE 1", "postcode": "04105"}}},
{"geometry": {"type": "Point", "coordinates": [-70.2321157566, 43.7247337935]}, "type": "Feature", "properties": {"collection_times": [{"days": "Mon-Fri", "time": "4:15pm"}, {"days": "Sat", "time": "1:00pm"}, {"days": "Sun", "time": "Closed"}], "id": "0410500004", "name": "USPS COLLECTION BOX - BLUE BOX", "address": {"city": "PORTLAND", "state": "ME", "street": "251 US ROUTE 1", "postcode": "04105"}}},
{"geometry": {"type": "Point", "coordinates": [-70.2321157566, 43.7247337935]}, "type": "Feature", "properties": {"collection_times": [{"days": "Mon-Fri", "time": "4:15pm"}, {"days": "Sat", "time": "1:00pm"}, {"days": "Sun", "time": "Closed"}], "id": "0410500005", "name": "USPS COLLECTION BOX - BLUE BOX", "address": {"city": "PORTLAND", "state": "ME", "street": "251 US ROUTE 1", "postcode": "04105"}}},
{"geometry": {"type": "Point", "coordinates": [-70.2634892333, 43.7363815518]}, "type": "Feature", "properties": {"collection_times": [{"days": "Mon-Fri", "time": "2:00pm"}, {"days": "Sat", "time": "1:00pm"}, {"days": "Sun", "time": "Closed"}], "id": "0410500011", "name": "USPS COLLECTION BOX - BLUE BOX", "address": {"city": "PORTLAND", "state": "ME", "street": "206 US ROUTE 1", "postcode": "04105"}}},
{"geometry": {"type": "Point", "coordinates": [-70.2634892333, 43.7363815518]}, "type": "Feature", "properties": {"collection_times": [{"days": "Mon-Sat", "time": "1:00pm"}, {"days": "Sun", "time": "Closed"}], "id": "0410500012", "name": "USPS COLLECTION BOX - BLUE BOX", "address": {"city": "PORTLAND", "state": "ME", "street": "269 FORESIDE RD", "postcode": "04105"}}},
{"geometry": {"type": "Point", "coordinates": [-70.2335113626, 43.7147025566]}, "type": "Feature", "properties": {"collection_times": [{"days": "Mon-Fri", "time": "4:45pm"}, {"days": "Sat-Sun", "time": "Closed"}], "id": "0410500016", "name": "USPS COLLECTION BOX - BLUE BOX", "address": {"city": "PORTLAND", "state": "ME", "street": "170 US ROUTE 1", "postcode": "04105"}}},
{"geometry": {"type": "Point", "coordinates": [-70.2634892333, 43.7363815518]}, "type": "Feature", "properties": {"collection_times": [{"days": "Mon-Sat", "time": "1:00pm"}, {"days": "Sun", "time": "Closed"}], "id": "0410500017", "name": "USPS COLLECTION BOX - BLUE BOX", "address": {"city": "PORTLAND", "state": "ME", "street": "65 GRAY RD", "postcode": "04105"}}},
{"geometry": {"type": "Point", "coordinates": [-70.3280210376, 43.6367047387]}, "type": "Feature", "properties": {"collection_times": [{"days": "Mon-Fri", "time": "5:15pm"}, {"days": "Sat-Sun", "time": "Closed"}], "id": "0410600003", "name": "USPS COLLECTION BOX - BLUE BOX", "address": {"city": "PORTLAND", "state": "ME", "street": "100 FODEN RD", "postcode": "04106"}}},
{"geometry": {"type": "Point", "coordinates": [-70.2560882989, 43.6353126505]}, "type": "Feature", "properties": {"collection_times": [{"days": "Mon-Sat", "time": "1:00pm"}, {"days": "Sun", "time": "Closed"}], "id": "0410600004", "name": "USPS COLLECTION BOX - BLUE BOX", "address": {"city": "PORTLAND", "state": "ME", "street": "220 WATERMAN DR", "postcode": "04106"}}},
{"geometry": {"type": "Point", "coordinates": [-70.2521775189, 43.6377711847]}, "type": "Feature", "properties": {"collection_times": [{"days": "Mon-Fri", "time": "5:00pm"}, {"days": "Sat", "time": "1:00pm"}, {"days": "Sun", "time": "Closed"}], "id": "0410600006", "name": "USPS COLLECTION BOX - BLUE BOX", "address": {"city": "PORTLAND", "state": "ME", "street": "15 COTTAGE RD", "postcode": "04106"}}},
{"geometry": {"type": "Point", "coordinates": [-70.2505619242, 43.6371207643]}, "type": "Feature", "properties": {"collection_times": [{"days": "Mon-Sat", "time": "1:00pm"}, {"days": "Sun", "time": "Closed"}], "id": "0410600010", "name": "USPS COLLECTION BOX - BLUE BOX", "address": {"city": "PORTLAND", "state": "ME", "street": "50 COTTAGE RD", "postcode": "04106"}}},
{"geometry": {"type": "Point", "coordinates": [-69.2039438735, 45.3152487683]}, "type": "Feature", "properties": {"collection_times": [{"days": "Mon-Sat", "time": "1:00pm"}, {"days": "Sun", "time": "Closed"}], "id": "0410600016", "name": "USPS COLLECTION BOX - BLUE BOX", "address": {"city": "PORTLAND", "state": "ME", "street": "29 WESTERN AVE", "postcode": "04106"}}},
{"geometry": {"type": "Point", "coordinates": [-69.2039438735, 45.3152487683]}, "type": "Feature", "properties": {"collection_times": [{"days": "Mon-Sat", "time": "1:00pm"}, {"days": "Sun", "time": "Closed"}], "id": "0410600018", "name": "USPS COLLECTION BOX - BLUE BOX", "address": {"city": "PORTLAND", "state": "ME", "street": "366 COTTAGE RD", "postcode": "04106"}}},
{"geometry": {"type": "Point", "coordinates": [-70.3279427042, 43.6414694659]}, "type": "Feature", "properties": {"collection_times": [{"days": "Mon-Fri", "time": "5:00pm"}, {"days": "Sat-Sun", "time": "Closed"}], "id": "0410600021", "name": "USPS COLLECTION BOX - BLUE BOX", "address": {"city": "PORTLAND", "state": "ME", "street": "405 WESTERN AVE", "postcode": "04106"}}},
{"geometry": {"type": "Point", "coordinates": [-70.2736087511, 43.6311411275]}, "type": "Feature", "properties": {"collection_times": [{"days": "Mon-Fri", "time": "5:00pm"}, {"days": "Sat-Sun", "time": "Closed"}], "id": "0410600022", "name": "USPS COLLECTION BOX - EXPRESS", "address": {"city": "PORTLAND", "state": "ME", "street": "405 WESTERN AVE", "postcode": "04106"}}},
{"geometry": {"type": "Point", "coordinates": [-70.3098695272, 43.6164059127]}, "type": "Feature", "properties": {"collection_times": [{"days": "Mon-Fri", "time": "5:00pm"}, {"days": "Sat", "time": "1:00pm"}, {"days": "Sun", "time": "Closed"}], "id": "0410600033", "name": "USPS COLLECTION BOX - BLUE BOX", "address": {"city": "PORTLAND", "state": "ME", "street": "778 MAIN ST", "postcode": "04106"}}},
{"geometry": {"type": "Point", "coordinates": [-70.3122321949, 43.6142599766]}, "type": "Feature", "properties": {"collection_times": [{"days": "Mon-Fri", "time": "3:30pm"}, {"days": "Sat", "time": "1:00pm"}, {"days": "Sun", "time": "Closed"}], "id": "0410600035", "name": "USPS COLLECTION BOX - BLUE BOX", "address": {"city": "PORTLAND", "state": "ME", "street": "853 MAIN ST", "postcode": "04106"}}},
{"geometry": {"type": "Point", "coordinates": [-70.277663512, 43.6279166159]}, "type": "Feature", "properties": {"collection_times": [{"days": "Mon-Fri", "time": "5:00pm"}, {"days": "Sat", "time": "1:00pm"}, {"days": "Sun", "time": "Closed"}], "id": "0410600036", "name": "USPS COLLECTION BOX - BLUE BOX", "address": {"city": "PORTLAND", "state": "ME", "street": "1108 BROADWAY", "postcode": "04106"}}},
{"geometry": {"type": "Point", "coordinates": [-70.2689283849, 43.635493521]}, "type": "Feature", "properties": {"collection_times": [{"days": "Mon-Fri", "time": "5:15pm"}, {"days": "Sat", "time": "1:00pm"}, {"days": "Sun", "time": "Closed"}], "id": "0410600041", "name": "USPS COLLECTION BOX - BLUE BOX", "address": {"city": "PORTLAND", "state": "ME", "street": "35 ATLANTIC PL", "postcode": "04106"}}},
{"geometry": {"type": "Point", "coordinates": [-69.2039438735, 45.3152487683]}, "type": "Feature", "properties": {"collection_times": [{"days": "Mon-Fri", "time": "5:00pm"}, {"days": "Sat-Sun", "time": "Closed"}], "id": "0410600048", "name": "USPS COLLECTION BOX - BLUE BOX", "address": {"city": "PORTLAND", "state": "ME", "street": "9 DONALD B DEAN DR", "postcode": "04106"}}},
{"geometry": {"type": "Point", "coordinates": [-70.2566456552, 43.6591425656]}, "type": "Feature", "properties": {"collection_times": [{"days": "Mon-Sat", "time": "1:00pm"}, {"days": "Sun", "time": "Closed"}], "id": "0410600057", "name": "USPS COLLECTION BOX - BLUE BOX", "address": {"city": "PORTLAND", "state": "ME", "street": "364 MAINE MALL RD", "postcode": "04106"}}},
{"geometry": {"type": "Point", "coordinates": [-70.2526280146, 43.6380009781]}, "type": "Feature", "properties": {"collection_times": [{"days": "Mon-Fri", "time": "5:00pm"}, {"days": "Sat", "time": "1:00pm"}, {"days": "Sun", "time": "Closed"}], "id": "0410600063", "name": "USPS COLLECTION BOX - BLUE BOX", "address": {"city": "PORTLAND", "state": "ME", "street": "5 COTTAGE RD", "postcode": "04106"}}},
{"geometry": {"type": "Point", "coordinates": [-70.3108044115, 43.6295401906]}, "type": "Feature", "properties": {"collection_times": [{"days": "Mon-Fri", "time": "1:00pm"}, {"days": "Sat-Sun", "time": "Closed"}], "id": "0410600068", "name": "USPS COLLECTION BOX - BLUE BOX", "address": {"city": "PORTLAND", "state": "ME", "street": "314 WESTBROOK ST", "postcode": "04106"}}},
{"geometry": {"type": "Point", "coordinates": [-70.3311434154, 43.6342465709]}, "type": "Feature", "properties": {"collection_times": [{"days": "Mon-Sat", "time": "1:00pm"}, {"days": "Sun", "time": "Closed"}], "id": "0410600070", "name": "USPS COLLECTION BOX - BLUE BOX", "address": {"city": "PORTLAND", "state": "ME", "street": "415 PHILBROOK AVE", "postcode": "04106"}}},
{"geometry": {"type": "Point", "coordinates": [-70.3010030592, 43.6233731709]}, "type": "Feature", "properties": {"collection_times": [{"days": "Mon-Sat", "time": "1:00pm"}, {"days": "Sun", "time": "Closed"}], "id": "0410600072", "name": "USPS COLLECTION BOX - BLUE BOX", "address": {"city": "PORTLAND", "state": "ME", "street": "557 MAIN ST", "postcode": "04106"}}},
{"geometry": {"type": "Point", "coordinates": [-69.2039438735, 45.3152487683]}, "type": "Feature", "properties": {"collection_times": [{"days": "Mon-Fri", "time": "5:00pm"}, {"days": "Sat-Sun", "time": "Closed"}], "id": "0410600073", "name": "USPS COLLECTION BOX - BLUE BOX", "address": {"city": "PORTLAND", "state": "ME", "street": "192 WESTERN AVE", "postcode": "04106"}}},
{"geometry": {"type": "Point", "coordinates": [-70.2566456552, 43.6591425656]}, "type": "Feature", "properties": {"collection_times": [{"days": "Mon-Fri", "time": "5:00pm"}, {"days": "Sat", "time": "1:00pm"}, {"days": "Sun", "time": "Closed"}], "id": "0410600074", "name": "USPS COLLECTION BOX - BLUE BOX", "address": {"city": "PORTLAND", "state": "ME", "street": "59 MAIN ST", "postcode": "04106"}}},
{"geometry": {"type": "Point", "coordinates": [-69.2039438735, 45.3152487683]}, "type": "Feature", "properties": {"collection_times": [{"days": "Mon-Fri", "time": "4:45pm"}, {"days": "Sat", "time": "1:00pm"}, {"days": "Sun", "time": "Closed"}], "id": "0410600077", "name": "USPS COLLECTION BOX - BLUE BOX", "address": {"city": "PORTLAND", "state": "ME", "street": "600 SOUTHBOROUGH DR", "postcode": "04106"}}},
{"geometry": {"type": "Point", "coordinates": [-70.327800375, 43.6294582071]}, "type": "Feature", "properties": {"collection_times": [{"days": "Mon-Fri", "time": "5:00pm"}, {"days": "Sat-Sun", "time": "Closed"}], "id": "0410600083", "name": "USPS COLLECTION BOX - BLUE BOX", "address": {"city": "PORTLAND", "state": "ME", "street": "170 JOHN ROBERTS RD", "postcode": "04106"}}},
{"geometry": {"type": "Point", "coordinates": [-70.3387342381, 43.6391375853]}, "type": "Feature", "properties": {"collection_times": [{"days": "Mon-Fri", "time": "4:00pm"}, {"days": "Sat-Sun", "time": "Closed"}], "id": "0410600084", "name": "USPS COLLECTION BOX - BLUE BOX", "address": {"city": "PORTLAND", "state": "ME", "street": "707 SABLE OAKS DR", "postcode": "04106"}}},
{"geometry": {"type": "Point", "coordinates": [-70.3007300957, 43.6237737466]}, "type": "Feature", "properties": {"collection_times": [{"days": "Mon-Fri", "time": "4:00pm"}, {"days": "Sat-Sun", "time": "Closed"}], "id": "0410600085", "name": "USPS COLLECTION BOX - BLUE BOX", "address": {"city": "PORTLAND", "state": "ME", "street": "82 RUNNING HILL RD", "postcode": "04106"}}},
{"geometry": {"type": "Point", "coordinates": [-70.3528136815, 43.6353767418]}, "type": "Feature", "properties": {"collection_times": [{"days": "Mon-Fri", "time": "4:15pm"}, {"days": "Sat", "time": "1:00pm"}, {"days": "Sun", "time": "Closed"}], "id": "0410600086", "name": "USPS COLLECTION BOX - BLUE BOX", "address": {"city": "PORTLAND", "state": "ME", "street": "324 GANNETT DR STE 200", "postcode": "04106"}}},
{"geometry": {"type": "Point", "coordinates": [-70.2547206715, 43.6357350253]}, "type": "Feature", "properties": {"collection_times": [{"days": "Mon-Fri", "time": "5:00pm"}, {"days": "Sat", "time": "1:00pm"}, {"days": "Sun", "time": "Closed"}], "id": "0410600088", "name": "USPS COLLECTION BOX - BLUE BOX", "address": {"city": "PORTLAND", "state": "ME", "street": "50 MARKET ST", "postcode": "04106"}}},
{"geometry": {"type": "Point", "coordinates": [-70.2521775189, 43.6377711847]}, "type": "Feature", "properties": {"collection_times": [{"days": "Mon-Fri", "time": "5:00pm"}, {"days": "Sat", "time": "12:00pm"}, {"days": "Sun", "time": "Closed"}], "id": "0410600089", "name": "USPS COLLECTION BOX - PO LOBBY", "address": {"city": "PORTLAND", "state": "ME", "street": "15 COTTAGE RD", "postcode": "04106"}}},
{"geometry": {"type": "Point", "coordinates": [-70.3280210376, 43.6367047387]}, "type": "Feature", "properties": {"collection_times": [{"days": "Mon-Fri", "time": "5:15pm"}, {"days": "Sat-Sun", "time": "Closed"}], "id": "0410600090", "name": "USPS COLLECTION BOX - BLUE BOX", "address": {"city": "PORTLAND", "state": "ME", "street": "100 FODEN RD", "postcode": "04106"}}},
{"geometry": {"type": "Point", "coordinates": [-70.2270463999, 43.59343831]}, "type": "Feature", "properties": {"collection_times": [{"days": "Mon-Fri", "time": "5:00pm"}, {"days": "Sat-Sun", "time": "Closed"}], "id": "0410700003", "name": "USPS COLLECTION BOX - BLUE BOX", "address": {"city": "PORTLAND", "state": "ME", "street": "333 OCEAN HOUSE RD", "postcode": "04107"}}},
{"geometry": {"type": "Point", "coordinates": [-70.2274350918, 43.5951386623]}, "type": "Feature", "properties": {"collection_times": [{"days": "Mon-Fri", "time": "5:00pm"}, {"days": "Sat", "time": "1:00pm"}, {"days": "Sun", "time": "Closed"}], "id": "0410700006", "name": "USPS COLLECTION BOX - BLUE BOX", "address": {"city": "PORTLAND", "state": "ME", "street": "320 OCEAN HOUSE RD", "postcode": "04107"}}},
{"geometry": {"type": "Point", "coordinates": [-70.2274350918, 43.5951386623]}, "type": "Feature", "properties": {"collection_times": [{"days": "Mon-Fri", "time": "5:00pm"}, {"days": "Sat", "time": "1:00pm"}, {"days": "Sun", "time": "Closed"}], "id": "0410700007", "name": "USPS COLLECTION BOX - BLUE BOX", "address": {"city": "PORTLAND", "state": "ME", "street": "320 OCEAN HOUSE RD", "postcode": "04107"}}},
{"geometry": {"type": "Point", "coordinates": [-70.1980872874, 43.6562494904]}, "type": "Feature", "properties": {"collection_times": [{"days": "Mon-Fri", "time": "3:00pm"}, {"days": "Sat", "time": "12:00pm"}, {"days": "Sun", "time": "Closed"}], "id": "0410800000", "name": "USPS COLLECTION BOX - BLUE BOX", "address": {"city": "PEAKS ISLAND", "state": "ME", "street": "70 ISLAND AVE", "postcode": "04108"}}}
]}
