{"type": "FeatureCollection", "features": [
{"geometry": {"type": "Point", "coordinates": [-70.2411776298, 44.0927502126]}, "type": "Feature", "properties": {"collection_times": [{"days": "Mon-Sat", "time": "10:00am"}, {"days": "Sun", "time": "Closed"}], "id": "0421000020", "name": "USPS COLLECTION BOX - BLUE BOX", "address": {"city": "AUBURN", "state": "ME", "street": "603 CENTER ST", "postcode": "04210"}}},
{"geometry": {"type": "Point", "coordinates": [-70.2411776298, 44.0927502126]}, "type": "Feature", "properties": {"collection_times": [{"days": "Mon-Sat", "time": "2:15pm"}, {"days": "Sun", "time": "Closed"}], "id": "0421000021", "name": "USPS COLLECTION BOX - BLUE BOX", "address": {"city": "AUBURN", "state": "ME", "street": "600 CENTER ST", "postcode": "04210"}}},
{"geometry": {"type": "Point", "coordinates": [-70.2252934306, 44.1060898583]}, "type": "Feature", "properties": {"collection_times": [{"days": "Mon-Sat", "time": "2:00pm"}, {"days": "Sun", "time": "Closed"}], "id": "0421000025", "name": "USPS COLLECTION BOX - BLUE BOX", "address": {"city": "AUBURN", "state": "ME", "street": "9 N RIVER RD", "postcode": "04210"}}},
{"geometry": {"type": "Point", "coordinates": [-70.2411776298, 44.0927502126]}, "type": "Feature", "properties": {"collection_times": [{"days": "Mon-Sat", "time": "4:00pm"}, {"days": "Sun", "time": "Closed"}], "id": "0421000031", "name": "USPS COLLECTION BOX - BLUE BOX", "address": {"city": "AUBURN", "state": "ME", "street": "95 SPRING ST", "postcode": "04210"}}},
{"geometry": {"type": "Point", "coordinates": [-70.2261359073, 44.0974877056]}, "type": "Feature", "properties": {"collection_times": [{"days": "Mon-Fri", "time": "4:35pm"}, {"days": "Sat", "time": "4:00pm"}, {"days": "Sun", "time": "Closed"}], "id": "0421000034", "name": "USPS COLLECTION BOX - BLUE BOX", "address": {"city": "AUBURN", "state": "ME", "street": "2 TURNER ST", "postcode": "04210"}}},
{"geometry": {"type": "Point", "coordinates": [-70.24117763, 44.0927501668]}, "type": "Feature", "properties": {"collection_times": [{"days": "Mon-Fri", "time": "5:15pm"}, {"days": "Sat", "time": "4:30pm"}, {"days": "Sun", "time": "Closed"}], "id": "0421000038", "name": "USPS COLLECTION BOX - EXPRESS", "address": {"city": "AUBURN", "state": "ME", "street": "2 GREAT FALLS PLZ", "postcode": "04210"}}},
{"geometry": {"type": "Point", "coordinates": [-70.226429269, 44.0989820655]}, "type": "Feature", "properties": {"collection_times": [{"days": "Mon-Fri", "time": "5:15pm"}, {"days": "Sat", "time": "4:30pm"}, {"days": "Sun", "time": "Closed"}], "id": "0421000039", "name": "USPS COLLECTION BOX - BLUE BOX", "address": {"city": "AUBURN", "state": "ME", "street": "2 GREAT FALLS PLZ", "postcode": "04210"}}},
{"geometry": {"type": "Point", "coordinates": [-70.2263947521, 44.0988752586]}, "type": "Feature", "properties": {"collection_times": [{"days": "Mon-Fri", "time": "5:15pm"}, {"days": "Sat", "time": "4:30pm"}, {"days": "Sun", "time": "Closed"}], "id": "0421000040", "name": "USPS COLLECTION BOX - BLUE BOX", "address": {"city": "AUBURN", "state": "ME", "street": "1 GREAT FALLS PLZ", "postcode": "04210"}}},
{"geometry": {"type": "Point", "coordinates": [-70.24117763, 44.0927501668]}, "type": "Feature", "properties": {"collection_times": [{"days": "Mon-Fri", "time": "5:15pm"}, {"days": "Sat", "time": "4:30pm"}, {"days": "Sun", "time": "Closed"}], "id": "0421000041", "name": "USPS COLLECTION BOX - EXPRESS", "address": {"city": "AUBURN", "state": "ME", "street": "1 GREAT FALLS PLZ", "postcode": "04210"}}},
{"geometry": {"type": "Point", "coordinates": [-70.224998069, 44.0876525036]}, "type": "Feature", "properties": {"collection_times": [{"days": "Mon-Fri", "time": "4:30pm"}, {"days": "Sat", "time": "4:00pm"}, {"days": "Sun", "time": "Closed"}], "id": "0421000044", "name": "USPS COLLECTION BOX - BLUE BOX", "address": {"city": "AUBURN", "state": "ME", "street": "95 MAIN ST", "postcode": "04210"}}},
{"geometry": {"type": "Point", "coordinates": [-70.2237259897, 44.0873641971]}, "type": "Feature", "properties": {"collection_times": [{"days": "Mon-Sat", "time": "11:00am"}, {"days": "Sun", "time": "Closed"}], "id": "0421000050", "name": "USPS COLLECTION BOX - BLUE BOX", "address": {"city": "AUBURN", "state": "ME", "street": "9 THIRD ST", "postcode": "04210"}}},
{"geometry": {"type": "Point", "coordinates": [-70.24117763, 44.0927501668]}, "type": "Feature", "properties": {"collection_times": [{"days": "Mon-Sat", "time": "5:30pm"}, {"days": "Sun", "time": "Closed"}], "id": "0421000057", "name": "USPS COLLECTION BOX - EXPRESS", "address": {"city": "AUBURN", "state": "ME", "street": "258 RODMAN RD", "postcode": "04210"}}},
{"geometry": {"type": "Point", "coordinates": [-70.2554113958, 44.0746301422]}, "type": "Feature", "properties": {"collection_times": [{"days": "Mon-Sat", "time": "5:30pm"}, {"days": "Sun", "time": "Closed"}], "id": "0421000059", "name": "USPS COLLECTION BOX - BLUE BOX", "address": {"city": "AUBURN", "state": "ME", "street": "258 RODMAN RD", "postcode": "04210"}}},
{"geometry": {"type": "Point", "coordinates": [-70.2250737579, 44.1286637255]}, "type": "Feature", "properties": {"collection_times": [{"days": "Mon-Sat", "time": "2:15pm"}, {"days": "Sun", "time": "Closed"}], "id": "0421000062", "name": "USPS COLLECTION BOX - BLUE BOX", "address": {"city": "AUBURN", "state": "ME", "street": "738 CENTER ST", "postcode": "04210"}}},
{"geometry": {"type": "Point", "coordinates": [-70.24117763, 44.0927501668]}, "type": "Feature", "properties": {"collection_times": [{"days": "Mon-Sat", "time": "2:15pm"}, {"days": "Sun", "time": "Closed"}], "id": "0421000063", "name": "USPS COLLECTION BOX - EXPRESS", "address": {"city": "AUBURN", "state": "ME", "street": "738 CENTER ST", "postcode": "04210"}}},
{"geometry": {"type": "Point", "coordinates": [-70.2923276451, 44.0484605608]}, "type": "Feature", "properties": {"collection_times": [{"days": "Mon-Fri", "time": "9:30am"}, {"days": "Sat", "time": "9:00am"}, {"days": "Sun", "time": "Closed"}], "id": "0421000064", "name": "USPS COLLECTION BOX - BLUE BOX", "address": {"city": "AUBURN", "state": "ME", "street": "42 AVIATION AVE", "postcode": "04210"}}},
{"geometry": {"type": "Point", "coordinates": [-70.2411776298, 44.0927502126]}, "type": "Feature", "properties": {"collection_times": [{"days": "Mon-Sat", "time": "2:15pm"}, {"days": "Sun", "time": "Closed"}], "id": "0421000065", "name": "USPS COLLECTION BOX - BLUE BOX", "address": {"city": "AUBURN", "state": "ME", "street": "600 CENTER ST", "postcode": "04210"}}},
{"geometry": {"type": "Point", "coordinates": [-70.2257505552, 44.1066632213]}, "type": "Feature", "properties": {"collection_times": [{"days": "Mon-Fri", "time": "4:00pm"}, {"days": "Sat", "time": "3:00pm"}, {"days": "Sun", "time": "Closed"}], "id": "0421000071", "name": "USPS COLLECTION BOX - BLUE BOX", "address": {"city": "AUBURN", "state": "ME", "street": "155 CENTER ST", "postcode": "04210"}}},
{"geometry": {"type": "Point", "coordinates": [-70.2411776298, 44.0927502126]}, "type": "Feature", "properties": {"collection_times": [{"days": "Mon-Sat", "time": "12:30pm"}, {"days": "Sun", "time": "Closed"}], "id": "0421000072", "name": "USPS COLLECTION BOX - BLUE BOX", "address": {"city": "AUBURN", "state": "ME", "street": "393 CENTER ST", "postcode": "04210"}}},
{"geometry": {"type": "Point", "coordinates": [-70.2313165743, 44.1205902683]}, "type": "Feature", "properties": {"collection_times": [{"days": "Mon-Sat", "time": "10:00am"}, {"days": "Sun", "time": "Closed"}], "id": "0421000076", "name": "USPS COLLECTION BOX - BLUE BOX", "address": {"city": "AUBURN", "state": "ME", "street": "100 MOUNT AUBURN AVE", "postcode": "04210"}}},
{"geometry": {"type": "Point", "coordinates": [-70.226429269, 44.0989820655]}, "type": "Feature", "properties": {"collection_times": [{"days": "Mon-Fri", "time": "5:15pm"}, {"days": "Sat", "time": "4:00pm"}, {"days": "Sun", "time": "Closed"}], "id": "0421000080", "name": "USPS COLLECTION BOX - PO LOBBY", "address": {"city": "AUBURN", "state": "ME", "street": "2 GREAT FALLS PLZ", "postcode": "04210"}}},
{"geometry": {"type": "Point", "coordinates": [-70.2554113958, 44.0746301422]}, "type": "Feature", "properties": {"collection_times": [{"days": "Mon-Fri", "time": "5:15pm"}, {"days": "Sat", "time": "5:30pm"}, {"days": "Sun", "time": "Closed"}], "id": "0421000081", "name": "USPS COLLECTION BOX - PO LOBBY", "address": {"city": "AUBURN", "state": "ME", "street": "258 RODMAN RD", "postcode": "04210"}}},
{"geometry": {"type": "Point", "coordinates": [-70.7521171369, 44.6312674301]}, "type": "Feature", "properties": {"collection_times": [{"days": "Mon-Fri", "time": "3:30pm"}, {"days": "Sat", "time": "12:00pm"}, {"days": "Sun", "time": "Closed"}], "id": "0421600001", "name": "USPS COLLECTION BOX - BLUE BOX", "address": {"city": "ANDOVER", "state": "ME", "street": "6 CHURCH ST", "postcode": "04216"}}},
{"geometry": {"type": "Point", "coordinates": [-70.7521171369, 44.6312674301]}, "type": "Feature", "properties": {"collection_times": [{"days": "Mon-Fri", "time": "3:15pm"}, {"days": "Sat", "time": "12:00pm"}, {"days": "Sun", "time": "Closed"}], "id": "0421600002", "name": "USPS COLLECTION BOX - PO LOBBY", "address": {"city": "ANDOVER", "state": "ME", "street": "6 CHURCH ST", "postcode": "04216"}}},
{"geometry": {"type": "Point", "coordinates": [-70.7893735459, 44.4067874974]}, "type": "Feature", "properties": {"collection_times": [{"days": "Mon-Fri", "time": "3:15pm"}, {"days": "Sat", "time": "12:15pm"}, {"days": "Sun", "time": "Closed"}], "id": "0421700003", "name": "USPS COLLECTION BOX - BLUE BOX", "address": {"city": "BETHEL", "state": "ME", "street": "82 MAIN ST", "postcode": "04217"}}},
{"geometry": {"type": "Point", "coordinates": [-70.7893735459, 44.4067874974]}, "type": "Feature", "properties": {"collection_times": [{"days": "Mon-Fri", "time": "3:15pm"}, {"days": "Sat", "time": "12:30pm"}, {"days": "Sun", "time": "Closed"}], "id": "0421700004", "name": "USPS COLLECTION BOX - PO LOBBY", "address": {"city": "BETHEL", "state": "ME", "street": "82 MAIN ST", "postcode": "04217"}}},
{"geometry": {"type": "Point", "coordinates": [-70.7893735459, 44.4067874974]}, "type": "Feature", "properties": {"collection_times": [{"days": "Mon-Fri", "time": "3:15pm"}, {"days": "Sat", "time": "12:30pm"}, {"days": "Sun", "time": "Closed"}], "id": "0421700005", "name": "USPS COLLECTION BOX - PO LOBBY", "address": {"city": "BETHEL", "state": "ME", "street": "82 MAIN ST", "postcode": "04217"}}},
{"geometry": {"type": "Point", "coordinates": [-70.6467407091, 44.378852044]}, "type": "Feature", "properties": {"collection_times": [{"days": "Mon-Fri", "time": "2:00pm"}, {"days": "Sat", "time": "10:45am"}, {"days": "Sun", "time": "Closed"}], "id": "0421900001", "name": "USPS COLLECTION BOX - BLUE BOX", "address": {"city": "BRYANT POND", "state": "ME", "street": "1 N MAIN ST", "postcode": "04219"}}},
{"geometry": {"type": "Point", "coordinates": [-70.6467407091, 44.378852044]}, "type": "Feature", "properties": {"collection_times": [{"days": "Mon-Fri", "time": "2:00pm"}, {"days": "Sat", "time": "10:45am"}, {"days": "Sun", "time": "Closed"}], "id": "0421900003", "name": "USPS COLLECTION BOX - PO LOBBY", "address": {"city": "BRYANT POND", "state": "ME", "street": "1 N MAIN ST", "postcode": "04219"}}},
{"geometry": {"type": "Point", "coordinates": [-70.3648434027, 44.2895802666]}, "type": "Feature", "properties": {"collection_times": [{"days": "Mon-Fri", "time": "4:30pm"}, {"days": "Sat", "time": "11:30am"}, {"days": "Sun", "time": "Closed"}], "id": "0422000002", "name": "USPS COLLECTION BOX - BLUE BOX", "address": {"city": "BUCKFIELD", "state": "ME", "street": "8 TURNER ST", "postcode": "04220"}}},
{"geometry": {"type": "Point", "coordinates": [-70.3648434027, 44.2895802666]}, "type": "Feature", "properties": {"collection_times": [{"days": "Mon-Fri", "time": "4:30pm"}, {"days": "Sat", "time": "11:45am"}, {"days": "Sun", "time": "Closed"}], "id": "0422000003", "name": "USPS COLLECTION BOX - PO LOBBY", "address": {"city": "BUCKFIELD", "state": "ME", "street": "8 TURNER ST", "postcode": "04220"}}},
{"geometry": {"type": "Point", "coordinates": [-70.3162479431, 44.4400555591]}, "type": "Feature", "properties": {"collection_times": [{"days": "Mon-Fri", "time": "3:30pm"}, {"days": "Sat", "time": "10:30am"}, {"days": "Sun", "time": "Closed"}], "id": "0422100001", "name": "USPS COLLECTION BOX - BLUE BOX", "address": {"city": "CANTON", "state": "ME", "street": "13 MAIN ST", "postcode": "04221"}}},
{"geometry": {"type": "Point", "coordinates": [-70.3162479431, 44.4400555591]}, "type": "Feature", "properties": {"collection_times": [{"days": "Mon-Fri", "time": "3:30pm"}, {"days": "Sat", "time": "11:00am"}, {"days": "Sun", "time": "Closed"}], "id": "0422100003", "name": "USPS COLLECTION BOX - PO LOBBY", "address": {"city": "CANTON", "state": "ME", "street": "13 MAIN ST", "postcode": "04221"}}},
{"geometry": {"type": "Point", "coordinates": [-70.1172059374, 43.9072121685]}, "type": "Feature", "properties": {"collection_times": [{"days": "Mon-Sat", "time": "10:30am"}, {"days": "Sun", "time": "Closed"}], "id": "0422200000", "name": "USPS COLLECTION BOX - BLUE BOX", "address": {"city": "DURHAM", "state": "ME", "street": "697 ROYALSBOROUGH RD", "postcode": "04222"}}},
{"geometry": {"type": "Point", "coordinates": [-70.2629869418, 44.0200434737]}, "type": "Feature", "properties": {"collection_times": [{"days": "Mon-Fri", "time": "3:30pm"}, {"days": "Sat", "time": "11:30am"}, {"days": "Sun", "time": "Closed"}], "id": "0422300001", "name": "USPS COLLECTION BOX - BLUE BOX", "address": {"city": "DANVILLE", "state": "ME", "street": "25 DUNLAP ST", "postcode": "04223"}}},
{"geometry": {"type": "Point", "coordinates": [-70.4569536377, 44.5312300469]}, "type": "Feature", "properties": {"collection_times": [{"days": "Mon-Fri", "time": "4:00pm"}, {"days": "Sat", "time": "12:30pm"}, {"days": "Sun", "time": "Closed"}], "id": "0422400001", "name": "USPS COLLECTION BOX - BLUE BOX", "address": {"city": "DIXFIELD", "state": "ME", "street": "50 MAIN ST", "postcode": "04224"}}},
{"geometry": {"type": "Point", "coordinates": [-70.4569536377, 44.5312300469]}, "type": "Feature", "properties": {"collection_times": [{"days": "Mon-Fri", "time": "4:00pm"}, {"days": "Sat", "time": "12:15pm"}, {"days": "Sun", "time": "Closed"}], "id": "0422400002", "name": "USPS COLLECTION BOX - PO LOBBY", "address": {"city": "DIXFIELD", "state": "ME", "street": "50 MAIN ST", "postcode": "04224"}}},
{"geometry": {"type": "Point", "coordinates": [-70.4569536377, 44.5312300469]}, "type": "Feature", "properties": {"collection_times": [{"days": "Mon-Fri", "time": "4:00pm"}, {"days": "Sat", "time": "12:15pm"}, {"days": "Sun", "time": "Closed"}], "id": "0422400003", "name": "USPS COLLECTION BOX - PO LOBBY", "address": {"city": "DIXFIELD", "state": "ME", "street": "50 MAIN ST", "postcode": "04224"}}},
{"geometry": {"type": "Point", "coordinates": [-69.2039438735, 45.3152487683]}, "type": "Feature", "properties": {"collection_times": [{"days": "Mon-Fri", "time": "4:00pm"}, {"days": "Sat", "time": "11:00am"}, {"days": "Sun", "time": "Closed"}], "id": "0422500001", "name": "USPS COLLECTION BOX - BLUE BOX", "address": {"city": "DRYDEN", "state": "ME", "street": "6 MUNSON RD", "postcode": "04225"}}},
{"geometry": {"type": "Point", "coordinates": [-69.2039438735, 45.3152487683]}, "type": "Feature", "properties": {"collection_times": [{"days": "Mon-Fri", "time": "4:00pm"}, {"days": "Sat", "time": "11:00am"}, {"days": "Sun", "time": "Closed"}], "id": "0422500002", "name": "USPS COLLECTION BOX - PO LOBBY", "address": {"city": "DRYDEN", "state": "ME", "street": "6 MUNSON RD", "postcode": "04225"}}},
{"geometry": {"type": "Point", "coordinates": [-69.2039438735, 45.3152487683]}, "type": "Feature", "properties": {"collection_times": [{"days": "Mon-Fri", "time": "3:30pm"}, {"days": "Sat", "time": "1:30pm"}, {"days": "Sun", "time": "Closed"}], "id": "0422600001", "name": "USPS COLLECTION BOX - BLUE BOX", "address": {"city": "EAST ANDOVER", "state": "ME", "street": "466 E ANDOVER RD", "postcode": "04226"}}},
{"geometry": {"type": "Point", "coordinates": [-69.2039438735, 45.3152487683]}, "type": "Feature", "properties": {"collection_times": [{"days": "Mon-Fri", "time": "3:30pm"}, {"days": "Sat", "time": "1:30pm"}, {"days": "Sun", "time": "Closed"}], "id": "0422600002", "name": "USPS COLLECTION BOX - PO LOBBY", "address": {"city": "EAST ANDOVER", "state": "ME", "street": "466 E ANDOVER RD", "postcode": "04226"}}},
{"geometry": {"type": "Point", "coordinates": [-70.3040976545, 44.5732991312]}, "type": "Feature", "properties": {"collection_times": [{"days": "Mon-Fri", "time": "4:00pm"}, {"days": "Sat", "time": "11:00am"}, {"days": "Sun", "time": "Closed"}], "id": "0422700001", "name": "USPS COLLECTION BOX - BLUE BOX", "address": {"city": "EAST DIXFIELD", "state": "ME", "street": "963 US ROUTE 2 W", "postcode": "04227"}}},
{"geometry": {"type": "Point", "coordinates": [-70.3040976545, 44.5732991312]}, "type": "Feature", "properties": {"collection_times": [{"days": "Mon-Fri", "time": "4:00pm"}, {"days": "Sat", "time": "11:00am"}, {"days": "Sun", "time": "Closed"}], "id": "0422700002", "name": "USPS COLLECTION BOX - PO LOBBY", "address": {"city": "EAST DIXFIELD", "state": "ME", "street": "963 US ROUTE 2 W", "postcode": "04227"}}},
{"geometry": {"type": "Point", "coordinates": [-70.1436478093, 44.4132212407]}, "type": "Feature", "properties": {"collection_times": [{"days": "Mon-Fri", "time": "4:15pm"}, {"days": "Sat", "time": "11:45am"}, {"days": "Sun", "time": "Closed"}], "id": "0422800001", "name": "USPS COLLECTION BOX - BLUE BOX", "address": {"city": "EAST LIVERMORE", "state": "ME", "street": "1047 PARK ST", "postcode": "04228"}}},
{"geometry": {"type": "Point", "coordinates": [-70.1436478093, 44.4132212407]}, "type": "Feature", "properties": {"collection_times": [{"days": "Mon-Fri", "time": "4:30pm"}, {"days": "Sat", "time": "11:45am"}, {"days": "Sun", "time": "Closed"}], "id": "0422800002", "name": "USPS COLLECTION BOX - PO LOBBY", "address": {"city": "EAST LIVERMORE", "state": "ME", "street": "1047 PARK ST", "postcode": "04228"}}},
{"geometry": {"type": "Point", "coordinates": [-70.3276797995, 44.0723911209]}, "type": "Feature", "properties": {"collection_times": [{"days": "Mon-Fri", "time": "4:00pm"}, {"days": "Sat", "time": "11:30am"}, {"days": "Sun", "time": "Closed"}], "id": "0423000001", "name": "USPS COLLECTION BOX - BLUE BOX", "address": {"city": "EAST POLAND", "state": "ME", "street": "726 EMPIRE RD", "postcode": "04230"}}},
{"geometry": {"type": "Point", "coordinates": [-70.3280975759, 44.0703471885]}, "type": "Feature", "properties": {"collection_times": [{"days": "Mon-Fri", "time": "4:45pm"}, {"days": "Sat", "time": "11:45am"}, {"days": "Sun", "time": "Closed"}], "id": "0423000002", "name": "USPS COLLECTION BOX - PO LOBBY", "address": {"city": "EAST POLAND", "state": "ME", "street": "726 EMPIRE RD", "postcode": "04230"}}},
{"geometry": {"type": "Point", "coordinates": [-70.8121579182, 44.2502524641]}, "type": "Feature", "properties": {"collection_times": [{"days": "Mon-Fri", "time": "4:00pm"}, {"days": "Sat", "time": "11:15am"}, {"days": "Sun", "time": "Closed"}], "id": "0423100001", "name": "USPS COLLECTION BOX - BLUE BOX", "address": {"city": "STONEHAM", "state": "ME", "street": "341 MAINE ST", "postcode": "04231"}}},
{"geometry": {"type": "Point", "coordinates": [-70.8121579182, 44.2502524641]}, "type": "Feature", "properties": {"collection_times": [{"days": "Mon-Fri", "time": "4:15pm"}, {"days": "Sat", "time": "11:15am"}, {"days": "Sun", "time": "Closed"}], "id": "0423100002", "name": "USPS COLLECTION BOX - PO LOBBY", "address": {"city": "STONEHAM", "state": "ME", "street": "341 MAINE ST", "postcode": "04231"}}},
{"geometry": {"type": "Point", "coordinates": [-70.19357449, 44.6157999412]}, "type": "Feature", "properties": {"collection_times": [{"days": "Mon-Fri", "time": "4:00pm"}, {"days": "Sat", "time": "11:15am"}, {"days": "Sun", "time": "Closed"}], "id": "0423400001", "name": "USPS COLLECTION BOX - BLUE BOX", "address": {"city": "EAST WILTON", "state": "ME", "street": "1328 MAIN ST", "postcode": "04234"}}},
{"geometry": {"type": "Point", "coordinates": [-70.19357449, 44.6157999412]}, "type": "Feature", "properties": {"collection_times": [{"days": "Mon-Fri", "time": "4:00pm"}, {"days": "Sat", "time": "11:15am"}, {"days": "Sun", "time": "Closed"}], "id": "0423400003", "name": "USPS COLLECTION BOX - PO LOBBY", "address": {"city": "EAST WILTON", "state": "ME", "street": "1328 MAIN ST", "postcode": "04234"}}},
{"geometry": {"type": "Point", "coordinates": [-70.1457960696, 44.1933935757]}, "type": "Feature", "properties": {"collection_times": [{"days": "Mon-Fri", "time": "4:30pm"}, {"days": "Sat", "time": "12:00pm"}, {"days": "Sun", "time": "Closed"}], "id": "0423600001", "name": "USPS COLLECTION BOX - BLUE BOX", "address": {"city": "GREENE", "state": "ME", "street": "677 ROUTE 202", "postcode": "04236"}}},
{"geometry": {"type": "Point", "coordinates": [-70.1457960696, 44.1933935757]}, "type": "Feature", "properties": {"collection_times": [{"days": "Mon-Fri", "time": "4:45pm"}, {"days": "Sat", "time": "12:00pm"}, {"days": "Sun", "time": "Closed"}], "id": "0423600002", "name": "USPS COLLECTION BOX - PO LOBBY", "address": {"city": "GREENE", "state": "ME", "street": "677 ROUTE 202", "postcode": "04236"}}},
{"geometry": {"type": "Point", "coordinates": [-70.1457960696, 44.1933935757]}, "type": "Feature", "properties": {"collection_times": [{"days": "Mon-Fri", "time": "4:45pm"}, {"days": "Sat", "time": "12:00pm"}, {"days": "Sun", "time": "Closed"}], "id": "0423600003", "name": "USPS COLLECTION BOX - PO LOBBY", "address": {"city": "GREENE", "state": "ME", "street": "677 ROUTE 202", "postcode": "04236"}}},
{"geometry": {"type": "Point", "coordinates": [-70.7228779747, 44.4908396165]}, "type": "Feature", "properties": {"collection_times": [{"days": "Mon-Fri", "time": "4:00pm"}, {"days": "Sat", "time": "12:00pm"}, {"days": "Sun", "time": "Closed"}], "id": "0423700000", "name": "USPS COLLECTION BOX - PO LOBBY", "address": {"city": "HANOVER", "state": "ME", "street": "2046 MAIN ST", "postcode": "04237"}}},
{"geometry": {"type": "Point", "coordinates": [-70.7228779747, 44.4908396165]}, "type": "Feature", "properties": {"collection_times": [{"days": "Mon-Fri", "time": "4:00pm"}, {"days": "Sat", "time": "12:00pm"}, {"days": "Sun", "time": "Closed"}], "id": "0423700001", "name": "USPS COLLECTION BOX - BLUE BOX", "address": {"city": "HANOVER", "state": "ME", "street": "2046 MAIN ST", "postcode": "04237"}}},
{"geometry": {"type": "Point", "coordinates": [-70.3760987409, 44.2074322878]}, "type": "Feature", "properties": {"collection_times": [{"days": "Mon-Fri", "time": "2:30pm"}, {"days": "Sat", "time": "11:00am"}, {"days": "Sun", "time": "Closed"}], "id": "0423800001", "name": "USPS COLLECTION BOX - BLUE BOX", "address": {"city": "HEBRON", "state": "ME", "street": "339 PARIS RD", "postcode": "04238"}}},
{"geometry": {"type": "Point", "coordinates": [-70.3760987409, 44.2074322878]}, "type": "Feature", "properties": {"collection_times": [{"days": "Mon-Fri", "time": "2:30pm"}, {"days": "Sat", "time": "11:00am"}, {"days": "Sun", "time": "Closed"}], "id": "0423800002", "name": "USPS COLLECTION BOX - PO LOBBY", "address": {"city": "HEBRON", "state": "ME", "street": "339 PARIS RD", "postcode": "04238"}}},
{"geometry": {"type": "Point", "coordinates": [-70.2042955145, 44.4955683948]}, "type": "Feature", "properties": {"collection_times": [{"days": "Mon-Fri", "time": "4:00pm"}, {"days": "Sat", "time": "11:00am"}, {"days": "Sun", "time": "Closed"}], "id": "0423900007", "name": "USPS COLLECTION BOX - BLUE BOX", "address": {"city": "JAY", "state": "ME", "street": "158 MAIN ST", "postcode": "04239"}}},
{"geometry": {"type": "Point", "coordinates": [-70.1735140015, 44.5031744416]}, "type": "Feature", "properties": {"collection_times": [{"days": "Mon-Sat", "time": "10:00am"}, {"days": "Sun", "time": "Closed"}], "id": "0423900009", "name": "USPS COLLECTION BOX - BLUE BOX", "address": {"city": "JAY", "state": "ME", "street": "25 JAY PLAZA LN", "postcode": "04239"}}},
{"geometry": {"type": "Point", "coordinates": [-70.1998900381, 44.4859525446]}, "type": "Feature", "properties": {"collection_times": [{"days": "Mon-Fri", "time": "4:00pm"}, {"days": "Sat", "time": "11:00am"}, {"days": "Sun", "time": "Closed"}], "id": "0423900010", "name": "USPS COLLECTION BOX - PO LOBBY", "address": {"city": "JAY", "state": "ME", "street": "158 MAIN ST", "postcode": "04239"}}},
{"geometry": {"type": "Point", "coordinates": [-70.1963284832, 44.0983812939]}, "type": "Feature", "properties": {"collection_times": [{"days": "Mon-Fri", "time": "5:00pm"}, {"days": "Sat", "time": "4:45pm"}, {"days": "Sun", "time": "Closed"}], "id": "0424000002", "name": "USPS COLLECTION BOX - BLUE BOX", "address": {"city": "LEWISTON", "state": "ME", "street": "125 MIDDLE ST", "postcode": "04240"}}},
{"geometry": {"type": "Point", "coordinates": [-70.1963284832, 44.0983812939]}, "type": "Feature", "properties": {"collection_times": [{"days": "Mon-Fri", "time": "5:00pm"}, {"days": "Sat", "time": "4:45pm"}, {"days": "Sun", "time": "Closed"}], "id": "0424000011", "name": "USPS COLLECTION BOX - BLUE BOX", "address": {"city": "LEWISTON", "state": "ME", "street": "84 LISBON ST", "postcode": "04240"}}},
{"geometry": {"type": "Point", "coordinates": [-70.1984596949, 44.0963394484]}, "type": "Feature", "properties": {"collection_times": [{"days": "Mon-Sat", "time": "11:00am"}, {"days": "Sun", "time": "Closed"}], "id": "0424000017", "name": "USPS COLLECTION BOX - BLUE BOX", "address": {"city": "LEWISTON", "state": "ME", "street": "184 WEBSTER ST", "postcode": "04240"}}},
{"geometry": {"type": "Point", "coordinates": [-70.2012029768, 44.0866876862]}, "type": "Feature", "properties": {"collection_times": [{"days": "Mon-Fri", "time": "5:00pm"}, {"days": "Sat", "time": "4:30pm"}, {"days": "Sun", "time": "Closed"}], "id": "0424000018", "name": "USPS COLLECTION BOX - BLUE BOX", "address": {"city": "LEWISTON", "state": "ME", "street": "27 EAST AVE", "postcode": "04240"}}},
{"geometry": {"type": "Point", "coordinates": [-70.1963197933, 44.09838134]}, "type": "Feature", "properties": {"collection_times": [{"days": "Mon-Sat", "time": "9:00am"}, {"days": "Sun", "time": "Closed"}], "id": "0424000027", "name": "USPS COLLECTION BOX - BLUE BOX", "address": {"city": "LEWISTON", "state": "ME", "street": "60 HIGH ST", "postcode": "04240"}}},
{"geometry": {"type": "Point", "coordinates": [-70.2041930013, 44.119067129]}, "type": "Feature", "properties": {"collection_times": [{"days": "Mon-Fri", "time": "5:00pm"}, {"days": "Sat", "time": "4:00pm"}, {"days": "Sun", "time": "Closed"}], "id": "0424000046", "name": "USPS COLLECTION BOX - BLUE BOX", "address": {"city": "LEWISTON", "state": "ME", "street": "770 MAIN ST", "postcode": "04240"}}},
{"geometry": {"type": "Point", "coordinates": [-70.1963197933, 44.09838134]}, "type": "Feature", "properties": {"collection_times": [{"days": "Mon-Sat", "time": "8:30am"}, {"days": "Sun", "time": "Closed"}], "id": "0424000050", "name": "USPS COLLECTION BOX - BLUE BOX", "address": {"city": "LEWISTON", "state": "ME", "street": "890 LISBON ST", "postcode": "04240"}}},
{"geometry": {"type": "Point", "coordinates": [-70.1963197933, 44.09838134]}, "type": "Feature", "properties": {"collection_times": [{"days": "Mon-Fri", "time": "5:15pm"}, {"days": "Sat", "time": "4:15pm"}, {"days": "Sun", "time": "Closed"}], "id": "0424000054", "name": "USPS COLLECTION BOX - BLUE BOX", "address": {"city": "LEWISTON", "state": "ME", "street": "999 LISBON ST", "postcode": "04240"}}},
{"geometry": {"type": "Point", "coordinates": [-70.1963197933, 44.09838134]}, "type": "Feature", "properties": {"collection_times": [{"days": "Mon-Fri", "time": "5:15pm"}, {"days": "Sat", "time": "4:15pm"}, {"days": "Sun", "time": "Closed"}], "id": "0424000055", "name": "USPS COLLECTION BOX - BLUE BOX", "address": {"city": "LEWISTON", "state": "ME", "street": "999 LISBON ST", "postcode": "04240"}}},
{"geometry": {"type": "Point", "coordinates": [-70.1963197933, 44.09838134]}, "type": "Feature", "properties": {"collection_times": [{"days": "Mon-Fri", "time": "5:45pm"}, {"days": "Sat", "time": "4:45pm"}, {"days": "Sun", "time": "Closed"}], "id": "0424000058", "name": "USPS COLLECTION BOX - BLUE BOX", "address": {"city": "LEWISTON", "state": "ME", "street": "49 ASH ST", "postcode": "04240"}}},
{"geometry": {"type": "Point", "coordinates": [-70.1963197933, 44.09838134]}, "type": "Feature", "properties": {"collection_times": [{"days": "Mon-Fri", "time": "5:45pm"}, {"days": "Sat", "time": "4:45pm"}, {"days": "Sun", "time": "Closed"}], "id": "0424000060", "name": "USPS COLLECTION BOX - BLUE BOX", "address": {"city": "LEWISTON", "state": "ME", "street": "49 ASH ST", "postcode": "04240"}}},
{"geometry": {"type": "Point", "coordinates": [-70.1963284832, 44.0983812939]}, "type": "Feature", "properties": {"collection_times": [{"days": "Mon-Sat", "time": "4:00pm"}, {"days": "Sun", "time": "Closed"}], "id": "0424000063", "name": "USPS COLLECTION BOX - BLUE BOX", "address": {"city": "LEWISTON", "state": "ME", "street": "2 ANDREWS RD", "postcode": "04240"}}},
{"geometry": {"type": "Point", "coordinates": [-70.1963197933, 44.09838134]}, "type": "Feature", "properties": {"collection_times": [{"days": "Mon-Fri", "time": "5:00pm"}, {"days": "Sat", "time": "4:15pm"}, {"days": "Sun", "time": "Closed"}], "id": "0424000066", "name": "USPS COLLECTION BOX - BLUE BOX", "address": {"city": "LEWISTON", "state": "ME", "street": "66 WESTMINSTER ST", "postcode": "04240"}}},
{"geometry": {"type": "Point", "coordinates": [-70.215760824, 44.095392764]}, "type": "Feature", "properties": {"collection_times": [{"days": "Mon-Fri", "time": "5:15pm"}, {"days": "Sat", "time": "4:45pm"}, {"days": "Sun", "time": "Closed"}], "id": "0424000070", "name": "USPS COLLECTION BOX - BLUE BOX", "address": {"city": "LEWISTON", "state": "ME", "street": "27 PINE ST", "postcode": "04240"}}},
{"geometry": {"type": "Point", "coordinates": [-70.1989790139, 44.1017786938]}, "type": "Feature", "properties": {"collection_times": [{"days": "Mon-Sat", "time": "9:00am"}, {"days": "Sun", "time": "Closed"}], "id": "0424000077", "name": "USPS COLLECTION BOX - BLUE BOX", "address": {"city": "LEWISTON", "state": "ME", "street": "100 CAMPUS AVE", "postcode": "04240"}}},
{"geometry": {"type": "Point", "coordinates": [-70.1963197933, 44.09838134]}, "type": "Feature", "properties": {"collection_times": [{"days": "Mon-Sat", "time": "1:30pm"}, {"days": "Sun", "time": "Closed"}], "id": "0424000078", "name": "USPS COLLECTION BOX - BLUE BOX", "address": {"city": "LEWISTON", "state": "ME", "street": "692 SABATTUS ST", "postcode": "04240"}}},
{"geometry": {"type": "Point", "coordinates": [-70.2007718114, 44.1239685236]}, "type": "Feature", "properties": {"collection_times": [{"days": "Mon-Fri", "time": "5:00pm"}, {"days": "Sat", "time": "4:00pm"}, {"days": "Sun", "time": "Closed"}], "id": "0424000083", "name": "USPS COLLECTION BOX - BLUE BOX", "address": {"city": "LEWISTON", "state": "ME", "street": "10 MOLLISON WAY", "postcode": "04240"}}},
{"geometry": {"type": "Point", "coordinates": [-70.1963197933, 44.09838134]}, "type": "Feature", "properties": {"collection_times": [{"days": "Mon-Fri", "time": "5:45pm"}, {"days": "Sat", "time": "5:00pm"}, {"days": "Sun", "time": "Closed"}], "id": "0424000088", "name": "USPS COLLECTION BOX - PO LOBBY", "address": {"city": "LEWISTON", "state": "ME", "street": "49 ASH ST", "postcode": "04240"}}},
{"geometry": {"type": "Point", "coordinates": [-70.2008464634, 44.1027577268]}, "type": "Feature", "properties": {"collection_times": [{"days": "Mon-Sat", "time": "9:00am"}, {"days": "Sun", "time": "Closed"}], "id": "0424000090", "name": "USPS COLLECTION BOX - BLUE BOX", "address": {"city": "LEWISTON", "state": "ME", "street": "102 CAMPUS AVE", "postcode": "04240"}}},
{"geometry": {"type": "Point", "coordinates": [-70.1963197933, 44.09838134]}, "type": "Feature", "properties": {"collection_times": [{"days": "Mon-Fri", "time": "5:00pm"}, {"days": "Sat", "time": "12:00pm"}, {"days": "Sun", "time": "Closed"}], "id": "0424000093", "name": "USPS COLLECTION BOX - PO LOBBY", "address": {"city": "LEWISTON", "state": "ME", "street": "999 LISBON ST", "postcode": "04240"}}},
{"geometry": {"type": "Point", "coordinates": [-70.0954103985, 44.0208289951]}, "type": "Feature", "properties": {"collection_times": [{"days": "Mon-Fri", "time": "4:45pm"}, {"days": "Sat", "time": "3:15pm"}, {"days": "Sun", "time": "Closed"}], "id": "0425000004", "name": "USPS COLLECTION BOX - BLUE BOX", "address": {"city": "LISBON", "state": "ME", "street": "331 LISBON ST", "postcode": "04250"}}},
{"geometry": {"type": "Point", "coordinates": [-70.0954103985, 44.0208289951]}, "type": "Feature", "properties": {"collection_times": [{"days": "Mon-Fri", "time": "4:45pm"}, {"days": "Sat", "time": "3:00pm"}, {"days": "Sun", "time": "Closed"}], "id": "0425000006", "name": "USPS COLLECTION BOX - PO LOBBY", "address": {"city": "LISBON", "state": "ME", "street": "331 LISBON ST", "postcode": "04250"}}},
{"geometry": {"type": "Point", "coordinates": [-70.0602196672, 43.9971192838]}, "type": "Feature", "properties": {"collection_times": [{"days": "Mon-Fri", "time": "3:45pm"}, {"days": "Sat", "time": "12:00pm"}, {"days": "Sun", "time": "Closed"}], "id": "0425200002", "name": "USPS COLLECTION BOX - BLUE BOX", "address": {"city": "LISBON", "state": "ME", "street": "13 MAIN ST", "postcode": "04252"}}},
{"geometry": {"type": "Point", "coordinates": [-70.0708622208, 44.0039207009]}, "type": "Feature", "properties": {"collection_times": [{"days": "Mon-Sat", "time": "12:00pm"}, {"days": "Sun", "time": "Closed"}], "id": "0425200007", "name": "USPS COLLECTION BOX - BLUE BOX", "address": {"city": "LISBON", "state": "ME", "street": "580 LISBON ST", "postcode": "04252"}}},
{"geometry": {"type": "Point", "coordinates": [-70.0602196672, 43.9971192838]}, "type": "Feature", "properties": {"collection_times": [{"days": "Mon-Fri", "time": "4:00pm"}, {"days": "Sat", "time": "12:00pm"}, {"days": "Sun", "time": "Closed"}], "id": "0425200008", "name": "USPS COLLECTION BOX - PO LOBBY", "address": {"city": "LISBON", "state": "ME", "street": "13 MAIN ST", "postcode": "04252"}}},
{"geometry": {"type": "Point", "coordinates": [-70.2491841073, 44.3834072118]}, "type": "Feature", "properties": {"collection_times": [{"days": "Mon-Fri", "time": "3:30pm"}, {"days": "Sat", "time": "11:00am"}, {"days": "Sun", "time": "Closed"}], "id": "0425300001", "name": "USPS COLLECTION BOX - BLUE BOX", "address": {"city": "LIVERMORE", "state": "ME", "street": "5 BEAR MOUNTAIN RD", "postcode": "04253"}}},
{"geometry": {"type": "Point", "coordinates": [-70.2491841073, 44.3834072118]}, "type": "Feature", "properties": {"collection_times": [{"days": "Mon-Fri", "time": "4:00pm"}, {"days": "Sat", "time": "10:45am"}, {"days": "Sun", "time": "Closed"}], "id": "0425300002", "name": "USPS COLLECTION BOX - PO LOBBY", "address": {"city": "LIVERMORE", "state": "ME", "street": "5 BEAR MOUNTAIN RD", "postcode": "04253"}}},
{"geometry": {"type": "Point", "coordinates": [-70.1888887456, 44.4717425146]}, "type": "Feature", "properties": {"collection_times": [{"days": "Mon-Fri", "time": "5:00pm"}, {"days": "Sat", "time": "2:45pm"}, {"days": "Sun", "time": "Closed"}], "id": "0425400003", "name": "USPS COLLECTION BOX - BLUE BOX", "address": {"city": "LIVERMORE FALLS", "state": "ME", "street": "60 MAIN ST", "postcode": "04254"}}},
{"geometry": {"type": "Point", "coordinates": [-70.1888887456, 44.4717425146]}, "type": "Feature", "properties": {"collection_times": [{"days": "Mon-Fri", "time": "5:00pm"}, {"days": "Sat", "time": "2:45pm"}, {"days": "Sun", "time": "Closed"}], "id": "0425400012", "name": "USPS COLLECTION BOX - PO LOBBY", "address": {"city": "LIVERMORE FALLS", "state": "ME", "street": "60 MAIN ST", "postcode": "04254"}}},
{"geometry": {"type": "Point", "coordinates": [-70.1298174416, 44.4034932424]}, "type": "Feature", "properties": {"collection_times": [{"days": "Mon-Sat", "time": "10:00am"}, {"days": "Sun", "time": "Closed"}], "id": "0425400014", "name": "USPS COLLECTION BOX - BLUE BOX", "address": {"city": "LIVERMORE FALLS", "state": "ME", "street": "1247 PARK ST", "postcode": "04254"}}},
{"geometry": {"type": "Point", "coordinates": [-69.2039438735, 45.3152487683]}, "type": "Feature", "properties": {"collection_times": [{"days": "Mon-Fri", "time": "3:30pm"}, {"days": "Sat", "time": "11:30am"}, {"days": "Sun", "time": "Closed"}], "id": "0425500001", "name": "USPS COLLECTION BOX - BLUE BOX", "address": {"city": "GREENWOOD", "state": "ME", "street": "268 MAIN ST", "postcode": "04255"}}},
{"geometry": {"type": "Point", "coordinates": [-69.2039438735, 45.3152487683]}, "type": "Feature", "properties": {"collection_times": [{"days": "Mon-Fri", "time": "3:45pm"}, {"days": "Sat", "time": "11:30am"}, {"days": "Sun", "time": "Closed"}], "id": "0425500004", "name": "USPS COLLECTION BOX - PO LOBBY", "address": {"city": "GREENWOOD", "state": "ME", "street": "268 MAIN ST", "postcode": "04255"}}},
{"geometry": {"type": "Point", "coordinates": [-70.3684190914, 44.1052345042]}, "type": "Feature", "properties": {"collection_times": [{"days": "Mon-Sat", "time": "1:30pm"}, {"days": "Sun", "time": "Closed"}], "id": "0425600001", "name": "USPS COLLECTION BOX - BLUE BOX", "address": {"city": "MECHANIC FALLS", "state": "ME", "street": "108 LEWISTON ST", "postcode": "04256"}}},
{"geometry": {"type": "Point", "coordinates": [-70.3952349692, 44.1097075632]}, "type": "Feature", "properties": {"collection_times": [{"days": "Mon-Sat", "time": "8:00am"}, {"days": "Sun", "time": "Closed"}], "id": "0425600002", "name": "USPS COLLECTION BOX - BLUE BOX", "address": {"city": "MECHANIC FALLS", "state": "ME", "street": "51 MITCHELL ST", "postcode": "04256"}}},
{"geometry": {"type": "Point", "coordinates": [-70.3938118701, 44.1112793854]}, "type": "Feature", "properties": {"collection_times": [{"days": "Mon-Fri", "time": "4:30pm"}, {"days": "Sat", "time": "12:00pm"}, {"days": "Sun", "time": "Closed"}], "id": "0425600004", "name": "USPS COLLECTION BOX - BLUE BOX", "address": {"city": "MECHANIC FALLS", "state": "ME", "street": "33 DEPOT SQ", "postcode": "04256"}}},
{"geometry": {"type": "Point", "coordinates": [-70.374647611, 44.0881927713]}, "type": "Feature", "properties": {"collection_times": [{"days": "Mon-Sat", "time": "1:00pm"}, {"days": "Sun", "time": "Closed"}], "id": "0425600006", "name": "USPS COLLECTION BOX - BLUE BOX", "address": {"city": "MECHANIC FALLS", "state": "ME", "street": "99 ELM ST", "postcode": "04256"}}},
{"geometry": {"type": "Point", "coordinates": [-70.392027521, 44.1111759759]}, "type": "Feature", "properties": {"collection_times": [{"days": "Mon-Sat", "time": "2:00pm"}, {"days": "Sun", "time": "Closed"}], "id": "0425600007", "name": "USPS COLLECTION BOX - BLUE BOX", "address": {"city": "MECHANIC FALLS", "state": "ME", "street": "7 S MAIN ST", "postcode": "04256"}}},
{"geometry": {"type": "Point", "coordinates": [-70.3896100824, 44.1101265471]}, "type": "Feature", "properties": {"collection_times": [{"days": "Mon-Sat", "time": "1:45pm"}, {"days": "Sun", "time": "Closed"}], "id": "0425600008", "name": "USPS COLLECTION BOX - BLUE BOX", "address": {"city": "MECHANIC FALLS", "state": "ME", "street": "41 ELM ST", "postcode": "04256"}}},
{"geometry": {"type": "Point", "coordinates": [-70.3938118701, 44.1112793854]}, "type": "Feature", "properties": {"collection_times": [{"days": "Mon-Fri", "time": "4:30pm"}, {"days": "Sat", "time": "12:00pm"}, {"days": "Sun", "time": "Closed"}], "id": "0425600011", "name": "USPS COLLECTION BOX - PO LOBBY", "address": {"city": "MECHANIC FALLS", "state": "ME", "street": "33 DEPOT SQ", "postcode": "04256"}}},
{"geometry": {"type": "Point", "coordinates": [-70.5159487853, 44.5391449101]}, "type": "Feature", "properties": {"collection_times": [{"days": "Mon-Sat", "time": "10:00am"}, {"days": "Sun", "time": "Closed"}], "id": "0425700002", "name": "USPS COLLECTION BOX - BLUE BOX", "address": {"city": "MEXICO", "state": "ME", "street": "225 RIVER RD", "postcode": "04257"}}},
{"geometry": {"type": "Point", "coordinates": [-70.5289051125, 44.5629002182]}, "type": "Feature", "properties": {"collection_times": [{"days": "Mon-Sat", "time": "1:00pm"}, {"days": "Sun", "time": "Closed"}], "id": "0425700005", "name": "USPS COLLECTION BOX - BLUE BOX", "address": {"city": "MEXICO", "state": "ME", "street": "13 GRANDVIEW CIR", "postcode": "04257"}}},
{"geometry": {"type": "Point", "coordinates": [-70.542490248, 44.5569282033]}, "type": "Feature", "properties": {"collection_times": [{"days": "Mon-Sat", "time": "8:30am"}, {"days": "Sun", "time": "Closed"}], "id": "0425700007", "name": "USPS COLLECTION BOX - BLUE BOX", "address": {"city": "MEXICO", "state": "ME", "street": "20 MAIN ST", "postcode": "04257"}}},
{"geometry": {"type": "Point", "coordinates": [-70.5405521424, 44.5555907186]}, "type": "Feature", "properties": {"collection_times": [{"days": "Mon-Fri", "time": "4:45pm"}, {"days": "Sat", "time": "2:30pm"}, {"days": "Sun", "time": "Closed"}], "id": "0425700012", "name": "USPS COLLECTION BOX - BLUE BOX", "address": {"city": "MEXICO", "state": "ME", "street": "7 RIVERSIDE AVE", "postcode": "04257"}}},
{"geometry": {"type": "Point", "coordinates": [-70.5441424459, 44.5592019104]}, "type": "Feature", "properties": {"collection_times": [{"days": "Mon-Sat", "time": "1:00pm"}, {"days": "Sun", "time": "Closed"}], "id": "0425700013", "name": "USPS COLLECTION BOX - BLUE BOX", "address": {"city": "MEXICO", "state": "ME", "street": "1 HARLOW HILL RD", "postcode": "04257"}}},
{"geometry": {"type": "Point", "coordinates": [-70.5405521424, 44.5555907186]}, "type": "Feature", "properties": {"collection_times": [{"days": "Mon-Fri", "time": "4:45pm"}, {"days": "Sat", "time": "2:30pm"}, {"days": "Sun", "time": "Closed"}], "id": "0425700014", "name": "USPS COLLECTION BOX - PO LOBBY", "address": {"city": "MEXICO", "state": "ME", "street": "7 RIVERSIDE AVE", "postcode": "04257"}}},
{"geometry": {"type": "Point", "coordinates": [-70.5124427833, 44.5370354287]}, "type": "Feature", "properties": {"collection_times": [{"days": "Mon-Sat", "time": "10:00am"}, {"days": "Sun", "time": "Closed"}], "id": "0425700015", "name": "USPS COLLECTION BOX - BLUE BOX", "address": {"city": "MEXICO", "state": "ME", "street": "258 RIVER RD", "postcode": "04257"}}},
{"geometry": {"type": "Point", "coordinates": [-70.3288483205, 44.0881902927]}, "type": "Feature", "properties": {"collection_times": [{"days": "Mon-Fri", "time": "4:00pm"}, {"days": "Sat", "time": "11:30am"}, {"days": "Sun", "time": "Closed"}], "id": "0425800001", "name": "USPS COLLECTION BOX - BLUE BOX", "address": {"city": "MINOT", "state": "ME", "street": "348 MINOT AVE", "postcode": "04258"}}},
{"geometry": {"type": "Point", "coordinates": [-70.3288483205, 44.0881902927]}, "type": "Feature", "properties": {"collection_times": [{"days": "Mon-Fri", "time": "4:00pm"}, {"days": "Sat", "time": "11:30am"}, {"days": "Sun", "time": "Closed"}], "id": "0425800002", "name": "USPS COLLECTION BOX - PO LOBBY", "address": {"city": "MINOT", "state": "ME", "street": "348 MINOT AVE", "postcode": "04258"}}},
{"geometry": {"type": "Point", "coordinates": [-70.3288483205, 44.0881902927]}, "type": "Feature", "properties": {"collection_times": [{"days": "Mon-Fri", "time": "4:00pm"}, {"days": "Sat", "time": "11:30am"}, {"days": "Sun", "time": "Closed"}], "id": "0425800003", "name": "USPS COLLECTION BOX - PO LOBBY", "address": {"city": "MINOT", "state": "ME", "street": "348 MINOT AVE", "postcode": "04258"}}},
{"geometry": {"type": "Point", "coordinates": [-70.0357974455, 44.2376765722]}, "type": "Feature", "properties": {"collection_times": [{"days": "Mon-Fri", "time": "4:15pm"}, {"days": "Sat", "time": "11:45am"}, {"days": "Sun", "time": "Closed"}], "id": "0425900001", "name": "USPS COLLECTION BOX - BLUE BOX", "address": {"city": "MONMOUTH", "state": "ME", "street": "744 MAIN ST", "postcode": "04259"}}},
{"geometry": {"type": "Point", "coordinates": [-70.0357974455, 44.2376765722]}, "type": "Feature", "properties": {"collection_times": [{"days": "Mon-Fri", "time": "4:30pm"}, {"days": "Sat", "time": "12:00pm"}, {"days": "Sun", "time": "Closed"}], "id": "0425900003", "name": "USPS COLLECTION BOX - PO LOBBY", "address": {"city": "MONMOUTH", "state": "ME", "street": "744 MAIN ST", "postcode": "04259"}}},
{"geometry": {"type": "Point", "coordinates": [-70.2886875824, 43.9962942332]}, "type": "Feature", "properties": {"collection_times": [{"days": "Mon-Fri", "time": "4:30pm"}, {"days": "Sat", "time": "12:00pm"}, {"days": "Sun", "time": "Closed"}], "id": "0426000002", "name": "USPS COLLECTION BOX - BLUE BOX", "address": {"city": "NEW GLOUCESTER", "state": "ME", "street": "9 GILMORE RD", "postcode": "04260"}}},
{"geometry": {"type": "Point", "coordinates": [-70.2886875824, 43.9962942332]}, "type": "Feature", "properties": {"collection_times": [{"days": "Mon-Fri", "time": "4:30pm"}, {"days": "Sat", "time": "12:00pm"}, {"days": "Sun", "time": "Closed"}], "id": "0426000004", "name": "USPS COLLECTION BOX - PO LOBBY", "address": {"city": "NEW GLOUCESTER", "state": "ME", "street": "9 GILMORE RD", "postcode": "04260"}}},
{"geometry": {"type": "Point", "coordinates": [-70.2886875824, 43.9962942332]}, "type": "Feature", "properties": {"collection_times": [{"days": "Mon-Fri", "time": "4:30pm"}, {"days": "Sat", "time": "12:00pm"}, {"days": "Sun", "time": "Closed"}], "id": "0426000005", "name": "USPS COLLECTION BOX - PO LOBBY", "address": {"city": "NEW GLOUCESTER", "state": "ME", "street": "9 GILMORE RD", "postcode": "04260"}}},
{"geometry": {"type": "Point", "coordinates": [-70.8315821922, 44.4699893952]}, "type": "Feature", "properties": {"collection_times": [{"days": "Mon-Fri", "time": "1:45pm"}, {"days": "Sat", "time": "11:45am"}, {"days": "Sun", "time": "Closed"}], "id": "0426100000", "name": "USPS COLLECTION BOX - BLUE BOX", "address": {"city": "NEWRY", "state": "ME", "street": "8 POST OFFICE DR", "postcode": "04261"}}},
{"geometry": {"type": "Point", "coordinates": [-70.8315821922, 44.4699893952]}, "type": "Feature", "properties": {"collection_times": [{"days": "Mon-Fri", "time": "1:45pm"}, {"days": "Sat", "time": "11:45am"}, {"days": "Sun", "time": "Closed"}], "id": "0426100001", "name": "USPS COLLECTION BOX - PO LOBBY", "address": {"city": "NEWRY", "state": "ME", "street": "8 POST OFFICE DR", "postcode": "04261"}}},
{"geometry": {"type": "Point", "coordinates": [-70.8315821922, 44.4699893952]}, "type": "Feature", "properties": {"collection_times": [{"days": "Mon-Fri", "time": "1:45pm"}, {"days": "Sat", "time": "11:45am"}, {"days": "Sun", "time": "Closed"}], "id": "0426100002", "name": "USPS COLLECTION BOX - PO LOBBY", "address": {"city": "NEWRY", "state": "ME", "street": "8 POST OFFICE DR", "postcode": "04261"}}},
{"geometry": {"type": "Point", "coordinates": [-70.2381942433, 44.5474132962]}, "type": "Feature", "properties": {"collection_times": [{"days": "Mon-Fri", "time": "4:00pm"}, {"days": "Sat", "time": "11:00am"}, {"days": "Sun", "time": "Closed"}], "id": "0426200000", "name": "USPS COLLECTION BOX - BLUE BOX", "address": {"city": "NORTH JAY", "state": "ME", "street": "21 E DIXFIELD RD", "postcode": "04262"}}},
{"geometry": {"type": "Point", "coordinates": [-69.2039438735, 45.3152487683]}, "type": "Feature", "properties": {"collection_times": [{"days": "Mon-Fri", "time": "3:45pm"}, {"days": "Sat", "time": "11:00am"}, {"days": "Sun", "time": "Closed"}], "id": "0426300001", "name": "USPS COLLECTION BOX - BLUE BOX", "address": {"city": "LEEDS", "state": "ME", "street": "1279 ROUTE 106", "postcode": "04263"}}},
{"geometry": {"type": "Point", "coordinates": [-69.2039438735, 45.3152487683]}, "type": "Feature", "properties": {"collection_times": [{"days": "Mon-Fri", "time": "2:00pm"}, {"days": "Sat", "time": "11:00am"}, {"days": "Sun", "time": "Closed"}], "id": "0426300003", "name": "USPS COLLECTION BOX - PO LOBBY", "address": {"city": "LEEDS", "state": "ME", "street": "1279 ROUTE 106", "postcode": "04263"}}},
{"geometry": {"type": "Point", "coordinates": [-70.0280692078, 44.2758029222]}, "type": "Feature", "properties": {"collection_times": [{"days": "Mon-Fri", "time": "4:00pm"}, {"days": "Sat", "time": "11:15am"}, {"days": "Sun", "time": "Closed"}], "id": "0426500001", "name": "USPS COLLECTION BOX - BLUE BOX", "address": {"city": "NORTH MONMOUTH", "state": "ME", "street": "140 N MAIN ST", "postcode": "04265"}}},
{"geometry": {"type": "Point", "coordinates": [-70.0280692078, 44.2758029222]}, "type": "Feature", "properties": {"collection_times": [{"days": "Mon-Fri", "time": "4:10pm"}, {"days": "Sat", "time": "11:15am"}, {"days": "Sun", "time": "Closed"}], "id": "0426500002", "name": "USPS COLLECTION BOX - PO LOBBY", "address": {"city": "NORTH MONMOUTH", "state": "ME", "street": "140 N MAIN ST", "postcode": "04265"}}},
{"geometry": {"type": "Point", "coordinates": [-70.255716696, 44.3425129106]}, "type": "Feature", "properties": {"collection_times": [{"days": "Mon-Fri", "time": "3:35pm"}, {"days": "Sat", "time": "11:15am"}, {"days": "Sun", "time": "Closed"}], "id": "0426600001", "name": "USPS COLLECTION BOX - BLUE BOX", "address": {"city": "NORTH TURNER", "state": "ME", "street": "36 HOWES CORNER RD", "postcode": "04266"}}},
{"geometry": {"type": "Point", "coordinates": [-70.255716696, 44.3425129106]}, "type": "Feature", "properties": {"collection_times": [{"days": "Mon-Fri", "time": "3:45pm"}, {"days": "Sat", "time": "11:15am"}, {"days": "Sun", "time": "Closed"}], "id": "0426600002", "name": "USPS COLLECTION BOX - PO LOBBY", "address": {"city": "NORTH TURNER", "state": "ME", "street": "36 HOWES CORNER RD", "postcode": "04266"}}},
{"geometry": {"type": "Point", "coordinates": [-70.7700476634, 44.2311628155]}, "type": "Feature", "properties": {"collection_times": [{"days": "Mon-Fri", "time": "4:00pm"}, {"days": "Sat", "time": "11:30am"}, {"days": "Sun", "time": "Closed"}], "id": "0426700000", "name": "USPS COLLECTION BOX - BLUE BOX", "address": {"city": "NORTH WATERFORD", "state": "ME", "street": "905 VALLEY RD", "postcode": "04267"}}},
{"geometry": {"type": "Point", "coordinates": [-70.7676413645, 44.2305345257]}, "type": "Feature", "properties": {"collection_times": [{"days": "Mon-Fri", "time": "4:00pm"}, {"days": "Sat", "time": "11:35am"}, {"days": "Sun", "time": "Closed"}], "id": "0426700001", "name": "USPS COLLECTION BOX - PO LOBBY", "address": {"city": "NORTH WATERFORD", "state": "ME", "street": "905 VALLEY RD", "postcode": "04267"}}},
{"geometry": {"type": "Point", "coordinates": [-70.5404785314, 44.2131016976]}, "type": "Feature", "properties": {"collection_times": [{"days": "Mon-Fri", "time": "4:45pm"}, {"days": "Sat", "time": "3:00pm"}, {"days": "Sun", "time": "Closed"}], "id": "0426800001", "name": "USPS COLLECTION BOX - BLUE BOX", "address": {"city": "NORWAY", "state": "ME", "street": "299 MAIN ST", "postcode": "04268"}}},
{"geometry": {"type": "Point", "coordinates": [-70.5317211718, 44.2051075396]}, "type": "Feature", "properties": {"collection_times": [{"days": "Mon-Sat", "time": "2:00pm"}, {"days": "Sun", "time": "Closed"}], "id": "0426800005", "name": "USPS COLLECTION BOX - BLUE BOX", "address": {"city": "NORWAY", "state": "ME", "street": "181 MAIN ST", "postcode": "04268"}}},
{"geometry": {"type": "Point", "coordinates": [-70.5824691224, 44.2214232054]}, "type": "Feature", "properties": {"collection_times": [{"days": "Mon-Sat", "time": "9:30am"}, {"days": "Sun", "time": "Closed"}], "id": "0426800007", "name": "USPS COLLECTION BOX - BLUE BOX", "address": {"city": "NORWAY", "state": "ME", "street": "193 MAIN ST", "postcode": "04268"}}},
{"geometry": {"type": "Point", "coordinates": [-70.5398313749, 44.213713452]}, "type": "Feature", "properties": {"collection_times": [{"days": "Mon-Fri", "time": "4:45pm"}, {"days": "Sat", "time": "3:00pm"}, {"days": "Sun", "time": "Closed"}], "id": "0426800008", "name": "USPS COLLECTION BOX - BLUE BOX", "address": {"city": "NORWAY", "state": "ME", "street": "10 TEMPLE ST", "postcode": "04268"}}},
{"geometry": {"type": "Point", "coordinates": [-70.5316736424, 44.2119223338]}, "type": "Feature", "properties": {"collection_times": [{"days": "Mon-Sat", "time": "10:30am"}, {"days": "Sun", "time": "Closed"}], "id": "0426800014", "name": "USPS COLLECTION BOX - BLUE BOX", "address": {"city": "NORWAY", "state": "ME", "street": "35 PARIS ST", "postcode": "04268"}}},
{"geometry": {"type": "Point", "coordinates": [-70.5404785314, 44.2131016976]}, "type": "Feature", "properties": {"collection_times": [{"days": "Mon-Fri", "time": "4:45pm"}, {"days": "Sat", "time": "3:00pm"}, {"days": "Sun", "time": "Closed"}], "id": "0426800015", "name": "USPS COLLECTION BOX - PO LOBBY", "address": {"city": "NORWAY", "state": "ME", "street": "299 MAIN ST", "postcode": "04268"}}},
{"geometry": {"type": "Point", "coordinates": [-70.5076684419, 44.1090107654]}, "type": "Feature", "properties": {"collection_times": [{"days": "Mon-Fri", "time": "4:00pm"}, {"days": "Sat", "time": "12:00pm"}, {"days": "Sun", "time": "Closed"}], "id": "0427000001", "name": "USPS COLLECTION BOX - BLUE BOX", "address": {"city": "OXFORD", "state": "ME", "street": "98 PLEASANT ST", "postcode": "04270"}}},
{"geometry": {"type": "Point", "coordinates": [-70.5244340542, 44.1936461901]}, "type": "Feature", "properties": {"collection_times": [{"days": "Mon-Fri", "time": "10:00am"}, {"days": "Sat-Sun", "time": "Closed"}], "id": "0427000003", "name": "USPS COLLECTION BOX - BLUE BOX", "address": {"city": "OXFORD", "state": "ME", "street": "1570 MAIN ST", "postcode": "04270"}}},
{"geometry": {"type": "Point", "coordinates": [-70.5056885296, 44.1194024766]}, "type": "Feature", "properties": {"collection_times": [{"days": "Mon-Fri", "time": "9:45am"}, {"days": "Sat-Sun", "time": "Closed"}], "id": "0427000004", "name": "USPS COLLECTION BOX - BLUE BOX", "address": {"city": "OXFORD", "state": "ME", "street": "1603 MAIN ST", "postcode": "04270"}}},
{"geometry": {"type": "Point", "coordinates": [-70.5097045952, 44.1717690829]}, "type": "Feature", "properties": {"collection_times": [{"days": "Mon-Fri", "time": "10:15am"}, {"days": "Sat-Sun", "time": "Closed"}], "id": "0427000005", "name": "USPS COLLECTION BOX - BLUE BOX", "address": {"city": "OXFORD", "state": "ME", "street": "1240 MAIN ST", "postcode": "04270"}}},
{"geometry": {"type": "Point", "coordinates": [-70.5351358686, 44.0914209471]}, "type": "Feature", "properties": {"collection_times": [{"days": "Mon-Fri", "time": "9:00am"}, {"days": "Sat-Sun", "time": "Closed"}], "id": "0427000006", "name": "USPS COLLECTION BOX - BLUE BOX", "address": {"city": "OXFORD", "state": "ME", "street": "403 STATE ROUTE 121", "postcode": "04270"}}},
{"geometry": {"type": "Point", "coordinates": [-70.5076684419, 44.1090107654]}, "type": "Feature", "properties": {"collection_times": [{"days": "Mon-Fri", "time": "4:00pm"}, {"days": "Sat", "time": "12:00pm"}, {"days": "Sun", "time": "Closed"}], "id": "0427000008", "name": "USPS COLLECTION BOX - PO LOBBY", "address": {"city": "OXFORD", "state": "ME", "street": "98 PLEASANT ST", "postcode": "04270"}}},
{"geometry": {"type": "Point", "coordinates": [-70.5016855375, 44.261394197]}, "type": "Feature", "properties": {"collection_times": [{"days": "Mon-Fri", "time": "4:00pm"}, {"days": "Sat", "time": "11:30am"}, {"days": "Sun", "time": "Closed"}], "id": "0427100001", "name": "USPS COLLECTION BOX - BLUE BOX", "address": {"city": "PARIS", "state": "ME", "street": "39 TREMONT", "postcode": "04271"}}},
{"geometry": {"type": "Point", "coordinates": [-70.5016855375, 44.261394197]}, "type": "Feature", "properties": {"collection_times": [{"days": "Mon-Fri", "time": "4:00pm"}, {"days": "Sat", "time": "11:30am"}, {"days": "Sun", "time": "Closed"}], "id": "0427100002", "name": "USPS COLLECTION BOX - PO LOBBY", "address": {"city": "PARIS", "state": "ME", "street": "39 TREMONT", "postcode": "04271"}}},
{"geometry": {"type": "Point", "coordinates": [-70.3801481497, 44.0506007662]}, "type": "Feature", "properties": {"collection_times": [{"days": "Mon-Fri", "time": "4:15pm"}, {"days": "Sat", "time": "11:15am"}, {"days": "Sun", "time": "Closed"}], "id": "0427400001", "name": "USPS COLLECTION BOX - BLUE BOX", "address": {"city": "POLAND", "state": "ME", "street": "965 MAINE ST", "postcode": "04274"}}},
{"geometry": {"type": "Point", "coordinates": [-70.3801481497, 44.0506007662]}, "type": "Feature", "properties": {"collection_times": [{"days": "Mon-Sat", "time": "4:30pm"}, {"days": "Sun", "time": "Closed"}], "id": "0427400002", "name": "USPS COLLECTION BOX - BLUE BOX", "address": {"city": "POLAND", "state": "ME", "street": "386 MAINE ST", "postcode": "04274"}}},
{"geometry": {"type": "Point", "coordinates": [-70.395937617, 44.0625950855]}, "type": "Feature", "properties": {"collection_times": [{"days": "Mon-Sat", "time": "4:20pm"}, {"days": "Sun", "time": "Closed"}], "id": "0427400003", "name": "USPS COLLECTION BOX - BLUE BOX", "address": {"city": "POLAND", "state": "ME", "street": "1231 MAINE ST", "postcode": "04274"}}},
{"geometry": {"type": "Point", "coordinates": [-70.3801481497, 44.0506007662]}, "type": "Feature", "properties": {"collection_times": [{"days": "Mon-Fri", "time": "4:15pm"}, {"days": "Sat", "time": "11:15am"}, {"days": "Sun", "time": "Closed"}], "id": "0427400005", "name": "USPS COLLECTION BOX - PO LOBBY", "address": {"city": "POLAND", "state": "ME", "street": "965 MAINE ST", "postcode": "04274"}}},
{"geometry": {"type": "Point", "coordinates": [-70.6253065312, 44.7126086972]}, "type": "Feature", "properties": {"collection_times": [{"days": "Mon-Fri", "time": "4:00pm"}, {"days": "Sat", "time": "11:30am"}, {"days": "Sun", "time": "Closed"}], "id": "0427500001", "name": "USPS COLLECTION BOX - BLUE BOX", "address": {"city": "ROXBURY", "state": "ME", "street": "6 FRYE CROSSOVER RD", "postcode": "04275"}}},
{"geometry": {"type": "Point", "coordinates": [-70.6253065312, 44.7126086972]}, "type": "Feature", "properties": {"collection_times": [{"days": "Mon-Fri", "time": "4:00pm"}, {"days": "Sat", "time": "11:45am"}, {"days": "Sun", "time": "Closed"}], "id": "0427500002", "name": "USPS COLLECTION BOX - PO LOBBY", "address": {"city": "ROXBURY", "state": "ME", "street": "6 FRYE CROSSOVER RD", "postcode": "04275"}}},
{"geometry": {"type": "Point", "coordinates": [-70.5572390098, 44.5518577958]}, "type": "Feature", "properties": {"collection_times": [{"days": "Mon-Sat", "time": "2:00pm"}, {"days": "Sun", "time": "Closed"}], "id": "0427600001", "name": "USPS COLLECTION BOX - BLUE BOX", "address": {"city": "RUMFORD", "state": "ME", "street": "430 FRANKLIN ST", "postcode": "04276"}}},
{"geometry": {"type": "Point", "coordinates": [-70.5507599187, 44.5550481611]}, "type": "Feature", "properties": {"collection_times": [{"days": "Mon-Sat", "time": "2:00pm"}, {"days": "Sun", "time": "Closed"}], "id": "0427600005", "name": "USPS COLLECTION BOX - BLUE BOX", "address": {"city": "RUMFORD", "state": "ME", "street": "520 WALDO ST", "postcode": "04276"}}},
{"geometry": {"type": "Point", "coordinates": [-70.5456463246, 44.5453339476]}, "type": "Feature", "properties": {"collection_times": [{"days": "Mon-Sat", "time": "9:30am"}, {"days": "Sun", "time": "Closed"}], "id": "0427600006", "name": "USPS COLLECTION BOX - BLUE BOX", "address": {"city": "RUMFORD", "state": "ME", "street": "24 CONGRESS ST", "postcode": "04276"}}},
{"geometry": {"type": "Point", "coordinates": [-70.5447646799, 44.549027426]}, "type": "Feature", "properties": {"collection_times": [{"days": "Mon-Fri", "time": "4:30pm"}, {"days": "Sat", "time": "3:30pm"}, {"days": "Sun", "time": "Closed"}], "id": "0427600008", "name": "USPS COLLECTION BOX - BLUE BOX", "address": {"city": "RUMFORD", "state": "ME", "street": "137 CONGRESS ST", "postcode": "04276"}}},
{"geometry": {"type": "Point", "coordinates": [-70.5473320538, 44.5261705138]}, "type": "Feature", "properties": {"collection_times": [{"days": "Mon-Sat", "time": "11:45am"}, {"days": "Sun", "time": "Closed"}], "id": "0427600010", "name": "USPS COLLECTION BOX - BLUE BOX", "address": {"city": "RUMFORD", "state": "ME", "street": "580 PROSPECT AVE", "postcode": "04276"}}},
{"geometry": {"type": "Point", "coordinates": [-70.5609870058, 44.5689472057]}, "type": "Feature", "properties": {"collection_times": [{"days": "Mon-Sat", "time": "10:15am"}, {"days": "Sun", "time": "Closed"}], "id": "0427600013", "name": "USPS COLLECTION BOX - BLUE BOX", "address": {"city": "RUMFORD", "state": "ME", "street": "544 HANCOCK ST", "postcode": "04276"}}},
{"geometry": {"type": "Point", "coordinates": [-70.5447646799, 44.549027426]}, "type": "Feature", "properties": {"collection_times": [{"days": "Mon-Fri", "time": "4:30pm"}, {"days": "Sat", "time": "3:30pm"}, {"days": "Sun", "time": "Closed"}], "id": "0427600014", "name": "USPS COLLECTION BOX - BLUE BOX", "address": {"city": "RUMFORD", "state": "ME", "street": "137 CONGRESS ST", "postcode": "04276"}}},
{"geometry": {"type": "Point", "coordinates": [-70.5447646799, 44.549027426]}, "type": "Feature", "properties": {"collection_times": [{"days": "Mon-Fri", "time": "4:30pm"}, {"days": "Sat", "time": "3:30pm"}, {"days": "Sun", "time": "Closed"}], "id": "0427600015", "name": "USPS COLLECTION BOX - PO LOBBY", "address": {"city": "RUMFORD", "state": "ME", "street": "137 CONGRESS ST", "postcode": "04276"}}},
{"geometry": {"type": "Point", "coordinates": [-70.1028182368, 44.1153437181]}, "type": "Feature", "properties": {"collection_times": [{"days": "Mon-Fri", "time": "4:30pm"}, {"days": "Sat", "time": "12:30pm"}, {"days": "Sun", "time": "Closed"}], "id": "0428000002", "name": "USPS COLLECTION BOX - BLUE BOX", "address": {"city": "SABATTUS", "state": "ME", "street": "4 MIDDLE RD", "postcode": "04280"}}},
{"geometry": {"type": "Point", "coordinates": [-70.1028182368, 44.1153437181]}, "type": "Feature", "properties": {"collection_times": [{"days": "Mon-Fri", "time": "4:30pm"}, {"days": "Sat", "time": "12:30pm"}, {"days": "Sun", "time": "Closed"}], "id": "0428000003", "name": "USPS COLLECTION BOX - PO LOBBY", "address": {"city": "SABATTUS", "state": "ME", "street": "4 MIDDLE RD", "postcode": "04280"}}},
{"geometry": {"type": "Point", "coordinates": [-70.1028182368, 44.1153437181]}, "type": "Feature", "properties": {"collection_times": [{"days": "Mon-Fri", "time": "4:30pm"}, {"days": "Sat", "time": "12:30pm"}, {"days": "Sun", "time": "Closed"}], "id": "0428000004", "name": "USPS COLLECTION BOX - PO LOBBY", "address": {"city": "SABATTUS", "state": "ME", "street": "4 MIDDLE RD", "postcode": "04280"}}},
{"geometry": {"type": "Point", "coordinates": [-70.5130273928, 44.2238017535]}, "type": "Feature", "properties": {"collection_times": [{"days": "Mon-Fri", "time": "4:30pm"}, {"days": "Sat", "time": "3:00pm"}, {"days": "Sun", "time": "Closed"}], "id": "0428100001", "name": "USPS COLLECTION BOX - BLUE BOX", "address": {"city": "SOUTH PARIS", "state": "ME", "street": "13 PARK ST", "postcode": "04281"}}},
{"geometry": {"type": "Point", "coordinates": [-70.5285971471, 44.2127021819]}, "type": "Feature", "properties": {"collection_times": [{"days": "Mon-Sat", "time": "1:30pm"}, {"days": "Sun", "time": "Closed"}], "id": "0428100005", "name": "USPS COLLECTION BOX - BLUE BOX", "address": {"city": "SOUTH PARIS", "state": "ME", "street": "259 MAIN ST", "postcode": "04281"}}},
{"geometry": {"type": "Point", "coordinates": [-70.482915937, 44.241901895]}, "type": "Feature", "properties": {"collection_times": [{"days": "Mon-Sat", "time": "1:45pm"}, {"days": "Sun", "time": "Closed"}], "id": "0428100007", "name": "USPS COLLECTION BOX - BLUE BOX", "address": {"city": "SOUTH PARIS", "state": "ME", "street": "37 MARKET SQ", "postcode": "04281"}}},
{"geometry": {"type": "Point", "coordinates": [-70.5130273928, 44.2238017535]}, "type": "Feature", "properties": {"collection_times": [{"days": "Mon-Fri", "time": "4:30pm"}, {"days": "Sat", "time": "12:30pm"}, {"days": "Sun", "time": "Closed"}], "id": "0428100014", "name": "USPS COLLECTION BOX - PO LOBBY", "address": {"city": "SOUTH PARIS", "state": "ME", "street": "13 PARK ST", "postcode": "04281"}}},
{"geometry": {"type": "Point", "coordinates": [-70.2590171791, 44.2571413606]}, "type": "Feature", "properties": {"collection_times": [{"days": "Mon-Fri", "time": "4:30pm"}, {"days": "Sat", "time": "11:30am"}, {"days": "Sun", "time": "Closed"}], "id": "0428200001", "name": "USPS COLLECTION BOX - BLUE BOX", "address": {"city": "TURNER", "state": "ME", "street": "16 BUCKFIELD RD", "postcode": "04282"}}},
{"geometry": {"type": "Point", "coordinates": [-70.2590171791, 44.2571413606]}, "type": "Feature", "properties": {"collection_times": [{"days": "Mon-Fri", "time": "4:30pm"}, {"days": "Sat", "time": "11:30am"}, {"days": "Sun", "time": "Closed"}], "id": "0428200003", "name": "USPS COLLECTION BOX - PO LOBBY", "address": {"city": "TURNER", "state": "ME", "street": "16 BUCKFIELD RD", "postcode": "04282"}}},
{"geometry": {"type": "Point", "coordinates": [-70.0597997201, 44.3539111134]}, "type": "Feature", "properties": {"collection_times": [{"days": "Mon-Fri", "time": "4:00pm"}, {"days": "Sat", "time": "10:30am"}, {"days": "Sun", "time": "Closed"}], "id": "0428400000", "name": "USPS COLLECTION BOX - BLUE BOX", "address": {"city": "WAYNE", "state": "ME", "street": "516 MAIN ST", "postcode": "04284"}}},
{"geometry": {"type": "Point", "coordinates": [-70.0597997201, 44.3539111134]}, "type": "Feature", "properties": {"collection_times": [{"days": "Mon-Fri", "time": "2:00pm"}, {"days": "Sat", "time": "10:30am"}, {"days": "Sun", "time": "Closed"}], "id": "0428400001", "name": "USPS COLLECTION BOX - PO LOBBY", "address": {"city": "WAYNE", "state": "ME", "street": "516 MAIN ST", "postcode": "04284"}}},
{"geometry": {"type": "Point", "coordinates": [-70.4245142117, 44.6973621517]}, "type": "Feature", "properties": {"collection_times": [{"days": "Mon-Fri", "time": "3:45pm"}, {"days": "Sat", "time": "12:15pm"}, {"days": "Sun", "time": "Closed"}], "id": "0428500001", "name": "USPS COLLECTION BOX - BLUE BOX", "address": {"city": "WELD", "state": "ME", "street": "21 MILL ST", "postcode": "04285"}}},
{"geometry": {"type": "Point", "coordinates": [-70.4245142117, 44.6973621517]}, "type": "Feature", "properties": {"collection_times": [{"days": "Mon-Fri", "time": "3:45pm"}, {"days": "Sat", "time": "12:15pm"}, {"days": "Sun", "time": "Closed"}], "id": "0428500002", "name": "USPS COLLECTION BOX - PO LOBBY", "address": {"city": "WELD", "state": "ME", "street": "21 MILL ST", "postcode": "04285"}}},
{"geometry": {"type": "Point", "coordinates": [-70.8613192926, 44.402334097]}, "type": "Feature", "properties": {"collection_times": [{"days": "Mon-Fri", "time": "3:00pm"}, {"days": "Sat", "time": "12:45pm"}, {"days": "Sun", "time": "Closed"}], "id": "0428600001", "name": "USPS COLLECTION BOX - BLUE BOX", "address": {"city": "WEST BETHEL", "state": "ME", "street": "737 W BETHEL RD", "postcode": "04286"}}},
{"geometry": {"type": "Point", "coordinates": [-70.8613192926, 44.402334097]}, "type": "Feature", "properties": {"collection_times": [{"days": "Mon-Fri", "time": "3:00pm"}, {"days": "Sat", "time": "12:45pm"}, {"days": "Sun", "time": "Closed"}], "id": "0428600002", "name": "USPS COLLECTION BOX - PO LOBBY", "address": {"city": "WEST BETHEL", "state": "ME", "street": "737 W BETHEL RD", "postcode": "04286"}}},
{"geometry": {"type": "Point", "coordinates": [-70.3669969294, 44.1705813289]}, "type": "Feature", "properties": {"collection_times": [{"days": "Mon-Fri", "time": "4:45pm"}, {"days": "Sat", "time": "10:45am"}, {"days": "Sun", "time": "Closed"}], "id": "0428800001", "name": "USPS COLLECTION BOX - BLUE BOX", "address": {"city": "WEST MINOT", "state": "ME", "street": "758 W MINOT RD", "postcode": "04288"}}},
{"geometry": {"type": "Point", "coordinates": [-70.3669969294, 44.1705813289]}, "type": "Feature", "properties": {"collection_times": [{"days": "Mon-Fri", "time": "4:45pm"}, {"days": "Sat", "time": "10:55am"}, {"days": "Sun", "time": "Closed"}], "id": "0428800002", "name": "USPS COLLECTION BOX - PO LOBBY", "address": {"city": "WEST MINOT", "state": "ME", "street": "758 W MINOT RD", "postcode": "04288"}}},
{"geometry": {"type": "Point", "coordinates": [-70.559806961, 44.3296310088]}, "type": "Feature", "properties": {"collection_times": [{"days": "Mon-Fri", "time": "2:00pm"}, {"days": "Sat", "time": "11:00am"}, {"days": "Sun", "time": "Closed"}], "id": "0428900001", "name": "USPS COLLECTION BOX - BLUE BOX", "address": {"city": "WEST PARIS", "state": "ME", "street": "238 MAIN ST", "postcode": "04289"}}},
{"geometry": {"type": "Point", "coordinates": [-70.559806961, 44.3296310088]}, "type": "Feature", "properties": {"collection_times": [{"days": "Mon-Fri", "time": "2:00pm"}, {"days": "Sat", "time": "11:15am"}, {"days": "Sun", "time": "Closed"}], "id": "0428900002", "name": "USPS COLLECTION BOX - PO LOBBY", "address": {"city": "WEST PARIS", "state": "ME", "street": "238 MAIN ST", "postcode": "04289"}}},
{"geometry": {"type": "Point", "coordinates": [-70.4702881625, 44.5196491446]}, "type": "Feature", "properties": {"collection_times": [{"days": "Mon-Fri", "time": "4:00pm"}, {"days": "Sat", "time": "11:00am"}, {"days": "Sun", "time": "Closed"}], "id": "0429000003", "name": "USPS COLLECTION BOX - PO LOBBY", "address": {"city": "PERU", "state": "ME", "street": "93 MAIN ST", "postcode": "04290"}}},
{"geometry": {"type": "Point", "coordinates": [-70.4702881625, 44.5196491446]}, "type": "Feature", "properties": {"collection_times": [{"days": "Mon-Fri", "time": "4:00pm"}, {"days": "Sat", "time": "10:45am"}, {"days": "Sun", "time": "Closed"}], "id": "0429000004", "name": "USPS COLLECTION BOX - BLUE BOX", "address": {"city": "PERU", "state": "ME", "street": "93 MAIN ST", "postcode": "04290"}}},
{"geometry": {"type": "Point", "coordinates": [-70.4572696584, 44.058380803]}, "type": "Feature", "properties": {"collection_times": [{"days": "Mon-Fri", "time": "4:00pm"}, {"days": "Sat", "time": "11:00am"}, {"days": "Sun", "time": "Closed"}], "id": "0429100001", "name": "USPS COLLECTION BOX - BLUE BOX", "address": {"city": "WEST POLAND", "state": "ME", "street": "91 MEGQUIER HILL RD", "postcode": "04291"}}},
{"geometry": {"type": "Point", "coordinates": [-70.4572696584, 44.058380803]}, "type": "Feature", "properties": {"collection_times": [{"days": "Mon-Fri", "time": "4:15pm"}, {"days": "Sat", "time": "11:00am"}, {"days": "Sun", "time": "Closed"}], "id": "0429100002", "name": "USPS COLLECTION BOX - PO LOBBY", "address": {"city": "WEST POLAND", "state": "ME", "street": "91 MEGQUIER HILL RD", "postcode": "04291"}}},
{"geometry": {"type": "Point", "coordinates": [-70.3748867452, 44.3563113617]}, "type": "Feature", "properties": {"collection_times": [{"days": "Mon-Fri", "time": "4:00pm"}, {"days": "Sat", "time": "11:00am"}, {"days": "Sun", "time": "Closed"}], "id": "0429200001", "name": "USPS COLLECTION BOX - BLUE BOX", "address": {"city": "SUMNER", "state": "ME", "street": "643 MAIN ST", "postcode": "04292"}}},
{"geometry": {"type": "Point", "coordinates": [-70.3748867452, 44.3563113617]}, "type": "Feature", "properties": {"collection_times": [{"days": "Mon-Fri", "time": "4:15pm"}, {"days": "Sat", "time": "11:15am"}, {"days": "Sun", "time": "Closed"}], "id": "0429200003", "name": "USPS COLLECTION BOX - PO LOBBY", "address": {"city": "SUMNER", "state": "ME", "street": "643 MAIN ST", "postcode": "04292"}}},
{"geometry": {"type": "Point", "coordinates": [-70.3748867452, 44.3563113617]}, "type": "Feature", "properties": {"collection_times": [{"days": "Mon-Fri", "time": "4:15pm"}, {"days": "Sat", "time": "11:15am"}, {"days": "Sun", "time": "Closed"}], "id": "0429200004", "name": "USPS COLLECTION BOX - PO LOBBY", "address": {"city": "SUMNER", "state": "ME", "street": "643 MAIN ST", "postcode": "04292"}}},
{"geometry": {"type": "Point", "coordinates": [-70.2342189038, 44.5850545341]}, "type": "Feature", "properties": {"collection_times": [{"days": "Mon-Fri", "time": "4:15pm"}, {"days": "Sat", "time": "11:45am"}, {"days": "Sun", "time": "Closed"}], "id": "0429400001", "name": "USPS COLLECTION BOX - BLUE BOX", "address": {"city": "WILTON", "state": "ME", "street": "454 MAIN ST", "postcode": "04294"}}},
{"geometry": {"type": "Point", "coordinates": [-70.2302696826, 44.5889369701]}, "type": "Feature", "properties": {"collection_times": [{"days": "Mon-Fri", "time": "4:15pm"}, {"days": "Sat", "time": "12:00pm"}, {"days": "Sun", "time": "Closed"}], "id": "0429400004", "name": "USPS COLLECTION BOX - PO LOBBY", "address": {"city": "WILTON", "state": "ME", "street": "454 MAIN ST", "postcode": "04294"}}}
]}
