{"type": "FeatureCollection", "features": [
{"geometry": {"type": "Point", "coordinates": [-69.7801859938, 44.3156740692]}, "type": "Feature", "properties": {"collection_times": [{"days": "Mon-Fri", "time": "12:00pm"}, {"days": "Sat", "time": "8:30am"}, {"days": "Sun", "time": "Closed"}], "id": "0433000003", "name": "USPS COLLECTION BOX - BLUE BOX", "address": {"city": "AUGUSTA", "state": "ME", "street": "77 WINTHROP ST", "postcode": "04330"}}},
{"geometry": {"type": "Point", "coordinates": [-69.7937460682, 44.3167041134]}, "type": "Feature", "properties": {"collection_times": [{"days": "Mon-Sat", "time": "8:30am"}, {"days": "Sun", "time": "Closed"}], "id": "0433000007", "name": "USPS COLLECTION BOX - BLUE BOX", "address": {"city": "AUGUSTA", "state": "ME", "street": "75 AIRPORT RD", "postcode": "04330"}}},
{"geometry": {"type": "Point", "coordinates": [-69.7766079288, 44.3108154408]}, "type": "Feature", "properties": {"collection_times": [{"days": "Mon-Fri", "time": "3:30pm"}, {"days": "Sat", "time": "8:30am"}, {"days": "Sun", "time": "Closed"}], "id": "0433000008", "name": "USPS COLLECTION BOX - BLUE BOX", "address": {"city": "AUGUSTA", "state": "ME", "street": "45 MEMORIAL DR", "postcode": "04330"}}},
{"geometry": {"type": "Point", "coordinates": [-69.7821605713, 44.3110555311]}, "type": "Feature", "properties": {"collection_times": [{"days": "Mon-Sat", "time": "8:30am"}, {"days": "Sun", "time": "Closed"}], "id": "0433000011", "name": "USPS COLLECTION BOX - BLUE BOX", "address": {"city": "AUGUSTA", "state": "ME", "street": "23 WESTERN AVE", "postcode": "04330"}}},
{"geometry": {"type": "Point", "coordinates": [-69.7587473243, 44.3360921998]}, "type": "Feature", "properties": {"collection_times": [{"days": "Mon-Sat", "time": "1:00pm"}, {"days": "Sun", "time": "Closed"}], "id": "0433000016", "name": "USPS COLLECTION BOX - BLUE BOX", "address": {"city": "AUGUSTA", "state": "ME", "street": "152 WESTERN AVE", "postcode": "04330"}}},
{"geometry": {"type": "Point", "coordinates": [-69.2039438735, 45.3152487683]}, "type": "Feature", "properties": {"collection_times": [{"days": "Mon-Sat", "time": "12:30pm"}, {"days": "Sun", "time": "Closed"}], "id": "0433000019", "name": "USPS COLLECTION BOX - BLUE BOX", "address": {"city": "AUGUSTA", "state": "ME", "street": "29 WHITTEN RD", "postcode": "04330"}}},
{"geometry": {"type": "Point", "coordinates": [-69.7750258751, 44.313387457]}, "type": "Feature", "properties": {"collection_times": [{"days": "Mon-Fri", "time": "4:15pm"}, {"days": "Sat", "time": "12:00pm"}, {"days": "Sun", "time": "Closed"}], "id": "0433000020", "name": "USPS COLLECTION BOX - BLUE BOX", "address": {"city": "AUGUSTA", "state": "ME", "street": "332 WATER ST", "postcode": "04330"}}},
{"geometry": {"type": "Point", "coordinates": [-69.2039438735, 45.3152487683]}, "type": "Feature", "properties": {"collection_times": [{"days": "Mon-Fri", "time": "11:30am"}, {"days": "Sat", "time": "8:30am"}, {"days": "Sun", "time": "Closed"}], "id": "0433000027", "name": "USPS COLLECTION BOX - BLUE BOX", "address": {"city": "AUGUSTA", "state": "ME", "street": "95 STATE ST", "postcode": "04330"}}},
{"geometry": {"type": "Point", "coordinates": [-69.7851407867, 44.3054153592]}, "type": "Feature", "properties": {"collection_times": [{"days": "Mon-Sat", "time": "8:30am"}, {"days": "Sun", "time": "Closed"}], "id": "0433000031", "name": "USPS COLLECTION BOX - BLUE BOX", "address": {"city": "AUGUSTA", "state": "ME", "street": "137 SEWALL ST", "postcode": "04330"}}},
{"geometry": {"type": "Point", "coordinates": [-69.8013636506, 44.3145569923]}, "type": "Feature", "properties": {"collection_times": [{"days": "Mon-Sat", "time": "9:00am"}, {"days": "Sun", "time": "Closed"}], "id": "0433000036", "name": "USPS COLLECTION BOX - BLUE BOX", "address": {"city": "AUGUSTA", "state": "ME", "street": "235 WESTERN AVE", "postcode": "04330"}}},
{"geometry": {"type": "Point", "coordinates": [-69.7762083137, 44.3180339329]}, "type": "Feature", "properties": {"collection_times": [{"days": "Mon-Fri", "time": "5:30pm"}, {"days": "Sat", "time": "5:00pm"}, {"days": "Sun", "time": "Closed"}], "id": "0433000040", "name": "USPS COLLECTION BOX - PO LOBBY", "address": {"city": "AUGUSTA", "state": "ME", "street": "68 SEWALL ST", "postcode": "04330"}}},
{"geometry": {"type": "Point", "coordinates": [-69.7762083137, 44.3180339329]}, "type": "Feature", "properties": {"collection_times": [{"days": "Mon-Fri", "time": "5:30pm"}, {"days": "Sat", "time": "5:00pm"}, {"days": "Sun", "time": "Closed"}], "id": "0433000041", "name": "USPS COLLECTION BOX - BLUE BOX", "address": {"city": "AUGUSTA", "state": "ME", "street": "68 SEWALL ST", "postcode": "04330"}}},
{"geometry": {"type": "Point", "coordinates": [-69.7762083137, 44.3180339329]}, "type": "Feature", "properties": {"collection_times": [{"days": "Mon-Fri", "time": "5:30pm"}, {"days": "Sat", "time": "5:00pm"}, {"days": "Sun", "time": "Closed"}], "id": "0433000042", "name": "USPS COLLECTION BOX - BLUE BOX", "address": {"city": "AUGUSTA", "state": "ME", "street": "68 SEWALL ST", "postcode": "04330"}}},
{"geometry": {"type": "Point", "coordinates": [-69.7765611704, 44.3271494343]}, "type": "Feature", "properties": {"collection_times": [{"days": "Mon-Sat", "time": "8:30am"}, {"days": "Sun", "time": "Closed"}], "id": "0433000046", "name": "USPS COLLECTION BOX - BLUE BOX", "address": {"city": "AUGUSTA", "state": "ME", "street": "131 NORTHERN AVE", "postcode": "04330"}}},
{"geometry": {"type": "Point", "coordinates": [-69.7657410856, 44.3037292209]}, "type": "Feature", "properties": {"collection_times": [{"days": "Mon-Sat", "time": "8:30am"}, {"days": "Sun", "time": "Closed"}], "id": "0433000047", "name": "USPS COLLECTION BOX - BLUE BOX", "address": {"city": "AUGUSTA", "state": "ME", "street": "83 HOSPITAL ST", "postcode": "04330"}}},
{"geometry": {"type": "Point", "coordinates": [-69.7545217296, 44.3093660384]}, "type": "Feature", "properties": {"collection_times": [{"days": "Mon-Sat", "time": "12:00pm"}, {"days": "Sun", "time": "Closed"}], "id": "0433000057", "name": "USPS COLLECTION BOX - BLUE BOX", "address": {"city": "AUGUSTA", "state": "ME", "street": "10 PENLEY ST", "postcode": "04330"}}},
{"geometry": {"type": "Point", "coordinates": [-69.7576438875, 44.3069074926]}, "type": "Feature", "properties": {"collection_times": [{"days": "Mon-Sat", "time": "2:00pm"}, {"days": "Sun", "time": "Closed"}], "id": "0433000058", "name": "USPS COLLECTION BOX - BLUE BOX", "address": {"city": "AUGUSTA", "state": "ME", "street": "27 MAYFAIR ST", "postcode": "04330"}}},
{"geometry": {"type": "Point", "coordinates": [-69.7629376445, 44.3241082116]}, "type": "Feature", "properties": {"collection_times": [{"days": "Mon-Sat", "time": "12:00pm"}, {"days": "Sun", "time": "Closed"}], "id": "0433000060", "name": "USPS COLLECTION BOX - BLUE BOX", "address": {"city": "AUGUSTA", "state": "ME", "street": "2007 N BELFAST AVE", "postcode": "04330"}}},
{"geometry": {"type": "Point", "coordinates": [-69.7762083137, 44.3180339329]}, "type": "Feature", "properties": {"collection_times": [{"days": "Mon-Sat", "time": "9:00am"}, {"days": "Sun", "time": "Closed"}], "id": "0433000062", "name": "USPS COLLECTION BOX - BLUE BOX", "address": {"city": "AUGUSTA", "state": "ME", "street": "329 W RIVER RD", "postcode": "04330"}}},
{"geometry": {"type": "Point", "coordinates": [-69.7733685709, 44.3170603802]}, "type": "Feature", "properties": {"collection_times": [{"days": "Mon-Sat", "time": "8:30am"}, {"days": "Sun", "time": "Closed"}], "id": "0433000065", "name": "USPS COLLECTION BOX - BLUE BOX", "address": {"city": "AUGUSTA", "state": "ME", "street": "173 WATER ST", "postcode": "04330"}}},
{"geometry": {"type": "Point", "coordinates": [-69.7676202726, 44.3171670088]}, "type": "Feature", "properties": {"collection_times": [{"days": "Mon-Fri", "time": "4:15pm"}, {"days": "Sat", "time": "8:30am"}, {"days": "Sun", "time": "Closed"}], "id": "0433000070", "name": "USPS COLLECTION BOX - BLUE BOX", "address": {"city": "AUGUSTA", "state": "ME", "street": "10 BANGOR ST", "postcode": "04330"}}},
{"geometry": {"type": "Point", "coordinates": [-69.7587473243, 44.3360921998]}, "type": "Feature", "properties": {"collection_times": [{"days": "Mon-Fri", "time": "2:45pm"}, {"days": "Sat-Sun", "time": "Closed"}], "id": "0433000079", "name": "USPS COLLECTION BOX - EXPRESS", "address": {"city": "AUGUSTA", "state": "ME", "street": "1 UNIVERSITY DR", "postcode": "04330"}}},
{"geometry": {"type": "Point", "coordinates": [-69.7762083137, 44.3180339329]}, "type": "Feature", "properties": {"collection_times": [{"days": "Mon-Sat", "time": "5:00pm"}, {"days": "Sun", "time": "Closed"}], "id": "0433000080", "name": "USPS COLLECTION BOX - EXPRESS", "address": {"city": "AUGUSTA", "state": "ME", "street": "68 SEWALL ST", "postcode": "04330"}}},
{"geometry": {"type": "Point", "coordinates": [-69.7786902934, 44.3127510666]}, "type": "Feature", "properties": {"collection_times": [{"days": "Mon-Fri", "time": "11:30am"}, {"days": "Sat", "time": "8:30am"}, {"days": "Sun", "time": "Closed"}], "id": "0433000082", "name": "USPS COLLECTION BOX - BLUE BOX", "address": {"city": "AUGUSTA", "state": "ME", "street": "132 STATE ST", "postcode": "04330"}}},
{"geometry": {"type": "Point", "coordinates": [-69.7931807263, 44.3432131583]}, "type": "Feature", "properties": {"collection_times": [{"days": "Mon-Fri", "time": "2:45pm"}, {"days": "Sat-Sun", "time": "Closed"}], "id": "0433000084", "name": "USPS COLLECTION BOX - BLUE BOX", "address": {"city": "AUGUSTA", "state": "ME", "street": "1 UNIVERSITY DR", "postcode": "04330"}}},
{"geometry": {"type": "Point", "coordinates": [-69.823115081, 44.3201894604]}, "type": "Feature", "properties": {"collection_times": [{"days": "Mon-Fri", "time": "11:00am"}, {"days": "Sat", "time": "8:30am"}, {"days": "Sun", "time": "Closed"}], "id": "0433000086", "name": "USPS COLLECTION BOX - BLUE BOX", "address": {"city": "AUGUSTA", "state": "ME", "street": "12 SHUMAN AVE", "postcode": "04330"}}},
{"geometry": {"type": "Point", "coordinates": [-69.7762083137, 44.3180339329]}, "type": "Feature", "properties": {"collection_times": [{"days": "Mon-Fri", "time": "5:30pm"}, {"days": "Sat", "time": "5:00pm"}, {"days": "Sun", "time": "Closed"}], "id": "0433000088", "name": "USPS COLLECTION BOX - PO LOBBY", "address": {"city": "AUGUSTA", "state": "ME", "street": "68 SEWALL ST", "postcode": "04330"}}},
{"geometry": {"type": "Point", "coordinates": [-69.7647889119, 44.3161531491]}, "type": "Feature", "properties": {"collection_times": [{"days": "Mon-Sat", "time": "11:00am"}, {"days": "Sun", "time": "Closed"}], "id": "0433000089", "name": "USPS COLLECTION BOX - BLUE BOX", "address": {"city": "AUGUSTA", "state": "ME", "street": "118 CONY ST", "postcode": "04330"}}},
{"geometry": {"type": "Point", "coordinates": [-69.4337415069, 44.3279815757]}, "type": "Feature", "properties": {"collection_times": [{"days": "Mon-Fri", "time": "4:00pm"}, {"days": "Sat", "time": "11:00am"}, {"days": "Sun", "time": "Closed"}], "id": "0434100001", "name": "USPS COLLECTION BOX - BLUE BOX", "address": {"city": "COOPERS MILLS", "state": "ME", "street": "128 MAIN ST", "postcode": "04341"}}},
{"geometry": {"type": "Point", "coordinates": [-69.4337415069, 44.3279815757]}, "type": "Feature", "properties": {"collection_times": [{"days": "Mon-Fri", "time": "4:00pm"}, {"days": "Sat", "time": "11:00am"}, {"days": "Sun", "time": "Closed"}], "id": "0434100002", "name": "USPS COLLECTION BOX - PO LOBBY", "address": {"city": "COOPERS MILLS", "state": "ME", "street": "128 MAIN ST", "postcode": "04341"}}},
{"geometry": {"type": "Point", "coordinates": [-69.7251658039, 44.1069010951]}, "type": "Feature", "properties": {"collection_times": [{"days": "Mon-Fri", "time": "4:00pm"}, {"days": "Sat", "time": "11:30am"}, {"days": "Sun", "time": "Closed"}], "id": "0434200001", "name": "USPS COLLECTION BOX - BLUE BOX", "address": {"city": "DRESDEN", "state": "ME", "street": "12 MIDDLE RD", "postcode": "04342"}}},
{"geometry": {"type": "Point", "coordinates": [-69.7251658039, 44.1069010951]}, "type": "Feature", "properties": {"collection_times": [{"days": "Mon-Fri", "time": "2:30pm"}, {"days": "Sat", "time": "11:30am"}, {"days": "Sun", "time": "Closed"}], "id": "0434200003", "name": "USPS COLLECTION BOX - PO LOBBY", "address": {"city": "DRESDEN", "state": "ME", "street": "12 MIDDLE RD", "postcode": "04342"}}},
{"geometry": {"type": "Point", "coordinates": [-69.8975922939, 44.321721597]}, "type": "Feature", "properties": {"collection_times": [{"days": "Mon-Fri", "time": "4:30pm"}, {"days": "Sat", "time": "11:30am"}, {"days": "Sun", "time": "Closed"}], "id": "0434300001", "name": "USPS COLLECTION BOX - BLUE BOX", "address": {"city": "EAST WINTHROP", "state": "ME", "street": "2402 US ROUTE 202", "postcode": "04343"}}},
{"geometry": {"type": "Point", "coordinates": [-69.8975922939, 44.321721597]}, "type": "Feature", "properties": {"collection_times": [{"days": "Mon-Fri", "time": "4:30pm"}, {"days": "Sat", "time": "11:45am"}, {"days": "Sun", "time": "Closed"}], "id": "0434300003", "name": "USPS COLLECTION BOX - PO LOBBY", "address": {"city": "EAST WINTHROP", "state": "ME", "street": "2402 US ROUTE 202", "postcode": "04343"}}},
{"geometry": {"type": "Point", "coordinates": [-69.7776582827, 44.223706881]}, "type": "Feature", "properties": {"collection_times": [{"days": "Mon-Sat", "time": "8:45am"}, {"days": "Sun", "time": "Closed"}], "id": "0434500002", "name": "USPS COLLECTION BOX - BLUE BOX", "address": {"city": "FARMINGDALE", "state": "ME", "street": "152 BRUNSWICK AVE", "postcode": "04345"}}},
{"geometry": {"type": "Point", "coordinates": [-69.785577797, 44.2209478429]}, "type": "Feature", "properties": {"collection_times": [{"days": "Mon-Sat", "time": "8:45am"}, {"days": "Sun", "time": "Closed"}], "id": "0434500003", "name": "USPS COLLECTION BOX - BLUE BOX", "address": {"city": "FARMINGDALE", "state": "ME", "street": "582 WATER ST", "postcode": "04345"}}},
{"geometry": {"type": "Point", "coordinates": [-69.781350546, 44.2329370206]}, "type": "Feature", "properties": {"collection_times": [{"days": "Mon-Sat", "time": "9:00am"}, {"days": "Sun", "time": "Closed"}], "id": "0434500006", "name": "USPS COLLECTION BOX - BLUE BOX", "address": {"city": "FARMINGDALE", "state": "ME", "street": "141 HIGHLAND AVE", "postcode": "04345"}}},
{"geometry": {"type": "Point", "coordinates": [-69.7708266006, 44.243542988]}, "type": "Feature", "properties": {"collection_times": [{"days": "Mon-Sat", "time": "9:00am"}, {"days": "Sun", "time": "Closed"}], "id": "0434500007", "name": "USPS COLLECTION BOX - BLUE BOX", "address": {"city": "FARMINGDALE", "state": "ME", "street": "268 WATER ST", "postcode": "04345"}}},
{"geometry": {"type": "Point", "coordinates": [-69.7720014104, 44.2323587941]}, "type": "Feature", "properties": {"collection_times": [{"days": "Mon-Sat", "time": "8:45am"}, {"days": "Sun", "time": "Closed"}], "id": "0434500008", "name": "USPS COLLECTION BOX - BLUE BOX", "address": {"city": "FARMINGDALE", "state": "ME", "street": "40 MAIN AVE", "postcode": "04345"}}},
{"geometry": {"type": "Point", "coordinates": [-69.7720921807, 44.2350900007]}, "type": "Feature", "properties": {"collection_times": [{"days": "Mon-Sat", "time": "1:00pm"}, {"days": "Sun", "time": "Closed"}], "id": "0434500011", "name": "USPS COLLECTION BOX - BLUE BOX", "address": {"city": "FARMINGDALE", "state": "ME", "street": "284 MAINE AVE", "postcode": "04345"}}},
{"geometry": {"type": "Point", "coordinates": [-69.7738009398, 44.2297267057]}, "type": "Feature", "properties": {"collection_times": [{"days": "Mon-Sat", "time": "4:30pm"}, {"days": "Sun", "time": "Closed"}], "id": "0434500017", "name": "USPS COLLECTION BOX - BLUE BOX", "address": {"city": "FARMINGDALE", "state": "ME", "street": "348 WATER ST", "postcode": "04345"}}},
{"geometry": {"type": "Point", "coordinates": [-69.785283501, 44.1976217093]}, "type": "Feature", "properties": {"collection_times": [{"days": "Mon-Sat", "time": "4:30pm"}, {"days": "Sun", "time": "Closed"}], "id": "0434500018", "name": "USPS COLLECTION BOX - BLUE BOX", "address": {"city": "FARMINGDALE", "state": "ME", "street": "20 MECHANIC ST", "postcode": "04345"}}},
{"geometry": {"type": "Point", "coordinates": [-69.785283501, 44.1976217093]}, "type": "Feature", "properties": {"collection_times": [{"days": "Mon-Sat", "time": "4:30pm"}, {"days": "Sun", "time": "Closed"}], "id": "0434500019", "name": "USPS COLLECTION BOX - BLUE BOX", "address": {"city": "FARMINGDALE", "state": "ME", "street": "20 MECHANIC ST", "postcode": "04345"}}},
{"geometry": {"type": "Point", "coordinates": [-69.7708266006, 44.243542988]}, "type": "Feature", "properties": {"collection_times": [{"days": "Mon-Sat", "time": "9:00am"}, {"days": "Sun", "time": "Closed"}], "id": "0434500020", "name": "USPS COLLECTION BOX - BLUE BOX", "address": {"city": "FARMINGDALE", "state": "ME", "street": "190 WATER ST", "postcode": "04345"}}},
{"geometry": {"type": "Point", "coordinates": [-69.7738009398, 44.2297267057]}, "type": "Feature", "properties": {"collection_times": [{"days": "Mon-Sat", "time": "4:30pm"}, {"days": "Sun", "time": "Closed"}], "id": "0434500024", "name": "USPS COLLECTION BOX - PO LOBBY", "address": {"city": "FARMINGDALE", "state": "ME", "street": "348 WATER ST", "postcode": "04345"}}},
{"geometry": {"type": "Point", "coordinates": [-69.7986779244, 44.2880408304]}, "type": "Feature", "properties": {"collection_times": [{"days": "Mon-Fri", "time": "4:00pm"}, {"days": "Sat", "time": "11:00am"}, {"days": "Sun", "time": "Closed"}], "id": "0434700001", "name": "USPS COLLECTION BOX - BLUE BOX", "address": {"city": "HALLOWELL", "state": "ME", "street": "95 SECOND ST", "postcode": "04347"}}},
{"geometry": {"type": "Point", "coordinates": [-69.7900802608, 44.2859574561]}, "type": "Feature", "properties": {"collection_times": [{"days": "Mon-Fri", "time": "1:30pm"}, {"days": "Sat", "time": "10:30am"}, {"days": "Sun", "time": "Closed"}], "id": "0434700004", "name": "USPS COLLECTION BOX - BLUE BOX", "address": {"city": "HALLOWELL", "state": "ME", "street": "138 WATER ST", "postcode": "04347"}}},
{"geometry": {"type": "Point", "coordinates": [-69.7986779244, 44.2880408304]}, "type": "Feature", "properties": {"collection_times": [{"days": "Mon-Fri", "time": "4:00pm"}, {"days": "Sat", "time": "11:00am"}, {"days": "Sun", "time": "Closed"}], "id": "0434700014", "name": "USPS COLLECTION BOX - PO LOBBY", "address": {"city": "HALLOWELL", "state": "ME", "street": "95 SECOND ST", "postcode": "04347"}}},
{"geometry": {"type": "Point", "coordinates": [-69.7986779244, 44.2880408304]}, "type": "Feature", "properties": {"collection_times": [{"days": "Mon-Fri", "time": "4:00pm"}, {"days": "Sat", "time": "11:00am"}, {"days": "Sun", "time": "Closed"}], "id": "0434700015", "name": "USPS COLLECTION BOX - PO LOBBY", "address": {"city": "HALLOWELL", "state": "ME", "street": "95 SECOND ST", "postcode": "04347"}}},
{"geometry": {"type": "Point", "coordinates": [-69.4591158756, 44.2045614466]}, "type": "Feature", "properties": {"collection_times": [{"days": "Mon-Fri", "time": "4:00pm"}, {"days": "Sat", "time": "11:15am"}, {"days": "Sun", "time": "Closed"}], "id": "0434800001", "name": "USPS COLLECTION BOX - BLUE BOX", "address": {"city": "JEFFERSON", "state": "ME", "street": "133 VILLAGE ST", "postcode": "04348"}}},
{"geometry": {"type": "Point", "coordinates": [-69.4591158756, 44.2045614466]}, "type": "Feature", "properties": {"collection_times": [{"days": "Mon-Fri", "time": "4:15pm"}, {"days": "Sat", "time": "11:15am"}, {"days": "Sun", "time": "Closed"}], "id": "0434800002", "name": "USPS COLLECTION BOX - PO LOBBY", "address": {"city": "JEFFERSON", "state": "ME", "street": "133 VILLAGE ST", "postcode": "04348"}}},
{"geometry": {"type": "Point", "coordinates": [-70.0592261792, 44.4383562952]}, "type": "Feature", "properties": {"collection_times": [{"days": "Mon-Fri", "time": "2:30pm"}, {"days": "Sat", "time": "11:00am"}, {"days": "Sun", "time": "Closed"}], "id": "0434900001", "name": "USPS COLLECTION BOX - BLUE BOX", "address": {"city": "FAYETTE", "state": "ME", "street": "1613 MAIN ST", "postcode": "04349"}}},
{"geometry": {"type": "Point", "coordinates": [-70.0592261792, 44.4383562952]}, "type": "Feature", "properties": {"collection_times": [{"days": "Mon-Fri", "time": "9:30am"}, {"days": "Sat-Sun", "time": "Closed"}], "id": "0434900002", "name": "USPS COLLECTION BOX - BLUE BOX", "address": {"city": "FAYETTE", "state": "ME", "street": "1916 MAIN ST", "postcode": "04349"}}},
{"geometry": {"type": "Point", "coordinates": [-70.0592261792, 44.4383562952]}, "type": "Feature", "properties": {"collection_times": [{"days": "Mon-Fri", "time": "2:30pm"}, {"days": "Sat", "time": "11:00am"}, {"days": "Sun", "time": "Closed"}], "id": "0434900003", "name": "USPS COLLECTION BOX - PO LOBBY", "address": {"city": "FAYETTE", "state": "ME", "street": "1613 MAIN ST", "postcode": "04349"}}},
{"geometry": {"type": "Point", "coordinates": [-69.9388736002, 44.1909620189]}, "type": "Feature", "properties": {"collection_times": [{"days": "Mon-Fri", "time": "3:45pm"}, {"days": "Sat", "time": "11:15am"}, {"days": "Sun", "time": "Closed"}], "id": "0435000001", "name": "USPS COLLECTION BOX - BLUE BOX", "address": {"city": "LITCHFIELD", "state": "ME", "street": "1882 HALLOWELL RD", "postcode": "04350"}}},
{"geometry": {"type": "Point", "coordinates": [-69.9388736002, 44.1909620189]}, "type": "Feature", "properties": {"collection_times": [{"days": "Mon-Fri", "time": "4:15pm"}, {"days": "Sat", "time": "11:45am"}, {"days": "Sun", "time": "Closed"}], "id": "0435000002", "name": "USPS COLLECTION BOX - PO LOBBY", "address": {"city": "LITCHFIELD", "state": "ME", "street": "1882 HALLOWELL RD", "postcode": "04350"}}},
{"geometry": {"type": "Point", "coordinates": [-69.9388736002, 44.1909620189]}, "type": "Feature", "properties": {"collection_times": [{"days": "Mon-Fri", "time": "4:15pm"}, {"days": "Sat", "time": "11:45am"}, {"days": "Sun", "time": "Closed"}], "id": "0435000003", "name": "USPS COLLECTION BOX - PO LOBBY", "address": {"city": "LITCHFIELD", "state": "ME", "street": "1882 HALLOWELL RD", "postcode": "04350"}}},
{"geometry": {"type": "Point", "coordinates": [-69.862852057, 44.3264872303]}, "type": "Feature", "properties": {"collection_times": [{"days": "Mon-Fri", "time": "4:30pm"}, {"days": "Sat", "time": "11:15am"}, {"days": "Sun", "time": "Closed"}], "id": "0435100001", "name": "USPS COLLECTION BOX - BLUE BOX", "address": {"city": "MANCHESTER", "state": "ME", "street": "31 READFIELD RD", "postcode": "04351"}}},
{"geometry": {"type": "Point", "coordinates": [-69.862852057, 44.3264872303]}, "type": "Feature", "properties": {"collection_times": [{"days": "Mon-Fri", "time": "4:45pm"}, {"days": "Sat", "time": "11:15am"}, {"days": "Sun", "time": "Closed"}], "id": "0435100002", "name": "USPS COLLECTION BOX - PO LOBBY", "address": {"city": "MANCHESTER", "state": "ME", "street": "31 READFIELD RD", "postcode": "04351"}}},
{"geometry": {"type": "Point", "coordinates": [-69.9876171307, 44.5008327949]}, "type": "Feature", "properties": {"collection_times": [{"days": "Mon-Fri", "time": "2:00pm"}, {"days": "Sat", "time": "11:00am"}, {"days": "Sun", "time": "Closed"}], "id": "0435200001", "name": "USPS COLLECTION BOX - BLUE BOX", "address": {"city": "MOUNT VERNON", "state": "ME", "street": "9 MAIN ST", "postcode": "04352"}}},
{"geometry": {"type": "Point", "coordinates": [-69.9876171307, 44.5008327949]}, "type": "Feature", "properties": {"collection_times": [{"days": "Mon-Fri", "time": "2:00pm"}, {"days": "Sat", "time": "11:00am"}, {"days": "Sun", "time": "Closed"}], "id": "0435200002", "name": "USPS COLLECTION BOX - PO LOBBY", "address": {"city": "MOUNT VERNON", "state": "ME", "street": "9 MAIN ST", "postcode": "04352"}}},
{"geometry": {"type": "Point", "coordinates": [-69.584274122, 44.2201944026]}, "type": "Feature", "properties": {"collection_times": [{"days": "Mon-Fri", "time": "3:45pm"}, {"days": "Sat", "time": "11:00am"}, {"days": "Sun", "time": "Closed"}], "id": "0435300001", "name": "USPS COLLECTION BOX - BLUE BOX", "address": {"city": "WHITEFIELD", "state": "ME", "street": "32 JEFFERSON RD", "postcode": "04353"}}},
{"geometry": {"type": "Point", "coordinates": [-69.584274122, 44.2201944026]}, "type": "Feature", "properties": {"collection_times": [{"days": "Mon-Fri", "time": "2:30pm"}, {"days": "Sat", "time": "11:15am"}, {"days": "Sun", "time": "Closed"}], "id": "0435300004", "name": "USPS COLLECTION BOX - PO LOBBY", "address": {"city": "WHITEFIELD", "state": "ME", "street": "32 JEFFERSON RD", "postcode": "04353"}}},
{"geometry": {"type": "Point", "coordinates": [-69.4725242389, 44.4055009489]}, "type": "Feature", "properties": {"collection_times": [{"days": "Mon-Fri", "time": "2:00pm"}, {"days": "Sat", "time": "10:45am"}, {"days": "Sun", "time": "Closed"}], "id": "0435400001", "name": "USPS COLLECTION BOX - BLUE BOX", "address": {"city": "PALERMO", "state": "ME", "street": "111 BRANCH MILLS RD", "postcode": "04354"}}},
{"geometry": {"type": "Point", "coordinates": [-69.4725242389, 44.4055009489]}, "type": "Feature", "properties": {"collection_times": [{"days": "Mon-Fri", "time": "2:00pm"}, {"days": "Sat", "time": "10:45am"}, {"days": "Sun", "time": "Closed"}], "id": "0435400002", "name": "USPS COLLECTION BOX - PO LOBBY", "address": {"city": "PALERMO", "state": "ME", "street": "111 BRANCH MILLS RD", "postcode": "04354"}}},
{"geometry": {"type": "Point", "coordinates": [-69.9657990117, 44.3878288675]}, "type": "Feature", "properties": {"collection_times": [{"days": "Mon-Fri", "time": "4:00pm"}, {"days": "Sat", "time": "11:00am"}, {"days": "Sun", "time": "Closed"}], "id": "0435500001", "name": "USPS COLLECTION BOX - BLUE BOX", "address": {"city": "READFIELD", "state": "ME", "street": "1138 MAIN ST", "postcode": "04355"}}},
{"geometry": {"type": "Point", "coordinates": [-69.9657990117, 44.3878288675]}, "type": "Feature", "properties": {"collection_times": [{"days": "Mon-Fri", "time": "4:00pm"}, {"days": "Sat", "time": "11:00am"}, {"days": "Sun", "time": "Closed"}], "id": "0435500002", "name": "USPS COLLECTION BOX - PO LOBBY", "address": {"city": "READFIELD", "state": "ME", "street": "1138 MAIN ST", "postcode": "04355"}}},
{"geometry": {"type": "Point", "coordinates": [-69.7994492055, 44.0875240795]}, "type": "Feature", "properties": {"collection_times": [{"days": "Mon-Fri", "time": "4:00pm"}, {"days": "Sat", "time": "12:00pm"}, {"days": "Sun", "time": "Closed"}], "id": "0435700001", "name": "USPS COLLECTION BOX - BLUE BOX", "address": {"city": "RICHMOND", "state": "ME", "street": "92 MAIN ST", "postcode": "04357"}}},
{"geometry": {"type": "Point", "coordinates": [-69.7994492055, 44.0875240795]}, "type": "Feature", "properties": {"collection_times": [{"days": "Mon-Fri", "time": "4:00pm"}, {"days": "Sat", "time": "12:00pm"}, {"days": "Sun", "time": "Closed"}], "id": "0435700004", "name": "USPS COLLECTION BOX - PO LOBBY", "address": {"city": "RICHMOND", "state": "ME", "street": "92 MAIN ST", "postcode": "04357"}}},
{"geometry": {"type": "Point", "coordinates": [-69.5773770248, 44.3927564524]}, "type": "Feature", "properties": {"collection_times": [{"days": "Mon-Fri", "time": "4:30pm"}, {"days": "Sat", "time": "11:30am"}, {"days": "Sun", "time": "Closed"}], "id": "0435800001", "name": "USPS COLLECTION BOX - BLUE BOX", "address": {"city": "SOUTH CHINA", "state": "ME", "street": "382 ROUTE 3", "postcode": "04358"}}},
{"geometry": {"type": "Point", "coordinates": [-69.5773770248, 44.3927564524]}, "type": "Feature", "properties": {"collection_times": [{"days": "Mon-Fri", "time": "4:45pm"}, {"days": "Sat", "time": "11:45am"}, {"days": "Sun", "time": "Closed"}], "id": "0435800003", "name": "USPS COLLECTION BOX - PO LOBBY", "address": {"city": "SOUTH CHINA", "state": "ME", "street": "382 ROUTE 3", "postcode": "04358"}}},
{"geometry": {"type": "Point", "coordinates": [-69.5773770248, 44.3927564524]}, "type": "Feature", "properties": {"collection_times": [{"days": "Mon-Fri", "time": "4:45pm"}, {"days": "Sat", "time": "11:45am"}, {"days": "Sun", "time": "Closed"}], "id": "0435800004", "name": "USPS COLLECTION BOX - PO LOBBY", "address": {"city": "SOUTH CHINA", "state": "ME", "street": "382 ROUTE 3", "postcode": "04358"}}},
{"geometry": {"type": "Point", "coordinates": [-69.5773770248, 44.3927564524]}, "type": "Feature", "properties": {"collection_times": [{"days": "Mon-Fri", "time": "4:45pm"}, {"days": "Sat", "time": "11:45am"}, {"days": "Sun", "time": "Closed"}], "id": "0435800005", "name": "USPS COLLECTION BOX - PO LOBBY", "address": {"city": "SOUTH CHINA", "state": "ME", "street": "382 ROUTE 3", "postcode": "04358"}}},
{"geometry": {"type": "Point", "coordinates": [-69.7578970907, 44.1764211932]}, "type": "Feature", "properties": {"collection_times": [{"days": "Mon-Fri", "time": "4:00pm"}, {"days": "Sat", "time": "11:30am"}, {"days": "Sun", "time": "Closed"}], "id": "0435900001", "name": "USPS COLLECTION BOX - BLUE BOX", "address": {"city": "SOUTH GARDINER", "state": "ME", "street": "681 RIVER RD", "postcode": "04359"}}},
{"geometry": {"type": "Point", "coordinates": [-69.7578970907, 44.1764211932]}, "type": "Feature", "properties": {"collection_times": [{"days": "Mon-Fri", "time": "4:15pm"}, {"days": "Sat", "time": "11:30am"}, {"days": "Sun", "time": "Closed"}], "id": "0435900002", "name": "USPS COLLECTION BOX - PO LOBBY", "address": {"city": "SOUTH GARDINER", "state": "ME", "street": "681 RIVER RD", "postcode": "04359"}}},
{"geometry": {"type": "Point", "coordinates": [-69.9849985424, 44.53498575]}, "type": "Feature", "properties": {"collection_times": [{"days": "Mon-Fri", "time": "4:00pm"}, {"days": "Sat", "time": "10:45am"}, {"days": "Sun", "time": "Closed"}], "id": "0436000001", "name": "USPS COLLECTION BOX - BLUE BOX", "address": {"city": "VIENNA", "state": "ME", "street": "8 KIMBALL POND RD", "postcode": "04360"}}},
{"geometry": {"type": "Point", "coordinates": [-69.9849985424, 44.53498575]}, "type": "Feature", "properties": {"collection_times": [{"days": "Mon-Fri", "time": "4:00pm"}, {"days": "Sat", "time": "10:45am"}, {"days": "Sun", "time": "Closed"}], "id": "0436000002", "name": "USPS COLLECTION BOX - PO LOBBY", "address": {"city": "VIENNA", "state": "ME", "street": "8 KIMBALL POND RD", "postcode": "04360"}}},
{"geometry": {"type": "Point", "coordinates": [-69.5810061846, 44.3105827188]}, "type": "Feature", "properties": {"collection_times": [{"days": "Mon-Fri", "time": "1:30pm"}, {"days": "Sat", "time": "10:45am"}, {"days": "Sun", "time": "Closed"}], "id": "0436300002", "name": "USPS COLLECTION BOX - BLUE BOX", "address": {"city": "WINDSOR", "state": "ME", "street": "519 RIDGE RD", "postcode": "04363"}}},
{"geometry": {"type": "Point", "coordinates": [-69.5810061846, 44.3105827188]}, "type": "Feature", "properties": {"collection_times": [{"days": "Mon-Fri", "time": "1:30pm"}, {"days": "Sat", "time": "10:45am"}, {"days": "Sun", "time": "Closed"}], "id": "0436300003", "name": "USPS COLLECTION BOX - PO LOBBY", "address": {"city": "WINDSOR", "state": "ME", "street": "519 RIDGE RD", "postcode": "04363"}}},
{"geometry": {"type": "Point", "coordinates": [-69.9725403051, 44.3070531151]}, "type": "Feature", "properties": {"collection_times": [{"days": "Mon-Fri", "time": "4:30pm"}, {"days": "Sat", "time": "4:00pm"}, {"days": "Sun", "time": "Closed"}], "id": "0436400001", "name": "USPS COLLECTION BOX - BLUE BOX", "address": {"city": "WINTHROP", "state": "ME", "street": "112 MAIN ST", "postcode": "04364"}}},
{"geometry": {"type": "Point", "coordinates": [-69.9725403051, 44.3070531151]}, "type": "Feature", "properties": {"collection_times": [{"days": "Mon-Fri", "time": "4:45pm"}, {"days": "Sat", "time": "3:30pm"}, {"days": "Sun", "time": "Closed"}], "id": "0436400010", "name": "USPS COLLECTION BOX - PO LOBBY", "address": {"city": "WINTHROP", "state": "ME", "street": "112 MAIN ST", "postcode": "04364"}}},
{"geometry": {"type": "Point", "coordinates": [-69.9611463705, 44.3074108648]}, "type": "Feature", "properties": {"collection_times": [{"days": "Mon-Sat", "time": "10:30am"}, {"days": "Sun", "time": "Closed"}], "id": "0436400011", "name": "USPS COLLECTION BOX - BLUE BOX", "address": {"city": "WINTHROP", "state": "ME", "street": "399A MAIN ST", "postcode": "04364"}}}
]}
