{"type": "FeatureCollection", "features": [
{"geometry": {"type": "Point", "coordinates": [-68.7890454158, 44.8232934424]}, "type": "Feature", "properties": {"collection_times": [{"days": "Mon-Sat", "time": "10:00am"}, {"days": "Sun", "time": "Closed"}], "id": "0440100002", "name": "USPS COLLECTION BOX - BLUE BOX", "address": {"city": "BANGOR", "state": "ME", "street": "201 HUSSON AVE", "postcode": "04401"}}},
{"geometry": {"type": "Point", "coordinates": [-68.7719667951, 44.8089968856]}, "type": "Feature", "properties": {"collection_times": [{"days": "Mon-Fri", "time": "4:45pm"}, {"days": "Sat-Sun", "time": "Closed"}], "id": "0440100004", "name": "USPS COLLECTION BOX - BLUE BOX", "address": {"city": "BANGOR", "state": "ME", "street": "12 STILLWATER AVE", "postcode": "04401"}}},
{"geometry": {"type": "Point", "coordinates": [-68.8021769835, 44.8189570518]}, "type": "Feature", "properties": {"collection_times": [{"days": "Mon-Sat", "time": "9:00am"}, {"days": "Sun", "time": "Closed"}], "id": "0440100005", "name": "USPS COLLECTION BOX - BLUE BOX", "address": {"city": "BANGOR", "state": "ME", "street": "297 CENTER ST", "postcode": "04401"}}},
{"geometry": {"type": "Point", "coordinates": [-68.767461272, 44.80394617]}, "type": "Feature", "properties": {"collection_times": [{"days": "Mon-Fri", "time": "5:15pm"}, {"days": "Sat", "time": "9:30am"}, {"days": "Sun", "time": "Closed"}], "id": "0440100009", "name": "USPS COLLECTION BOX - BLUE BOX", "address": {"city": "BANGOR", "state": "ME", "street": "133 BROADWAY", "postcode": "04401"}}},
{"geometry": {"type": "Point", "coordinates": [-68.8021769835, 44.8189570518]}, "type": "Feature", "properties": {"collection_times": [{"days": "Mon-Sat", "time": "11:00am"}, {"days": "Sun", "time": "Closed"}], "id": "0440100012", "name": "USPS COLLECTION BOX - BLUE BOX", "address": {"city": "BANGOR", "state": "ME", "street": "90 SHERMAN AVE", "postcode": "04401"}}},
{"geometry": {"type": "Point", "coordinates": [-68.7709519561, 44.8137709099]}, "type": "Feature", "properties": {"collection_times": [{"days": "Mon-Fri", "time": "5:30pm"}, {"days": "Sat", "time": "5:00pm"}, {"days": "Sun", "time": "Closed"}], "id": "0440100015", "name": "USPS COLLECTION BOX - BLUE BOX", "address": {"city": "BANGOR", "state": "ME", "street": "720 BROADWAY", "postcode": "04401"}}},
{"geometry": {"type": "Point", "coordinates": [-68.8021769835, 44.8189570518]}, "type": "Feature", "properties": {"collection_times": [{"days": "Mon-Fri", "time": "5:00pm"}, {"days": "Sat-Sun", "time": "Closed"}], "id": "0440100017", "name": "USPS COLLECTION BOX - BLUE BOX", "address": {"city": "BANGOR", "state": "ME", "street": "498 ESSEX ST", "postcode": "04401"}}},
{"geometry": {"type": "Point", "coordinates": [-68.7513889892, 44.8091842169]}, "type": "Feature", "properties": {"collection_times": [{"days": "Mon-Fri", "time": "5:15pm"}, {"days": "Sat", "time": "4:30pm"}, {"days": "Sun", "time": "Closed"}], "id": "0440100022", "name": "USPS COLLECTION BOX - BLUE BOX", "address": {"city": "BANGOR", "state": "ME", "street": "431 STATE ST", "postcode": "04401"}}},
{"geometry": {"type": "Point", "coordinates": [-68.7523071399, 44.8087932014]}, "type": "Feature", "properties": {"collection_times": [{"days": "Mon-Fri", "time": "5:15pm"}, {"days": "Sat", "time": "9:00am"}, {"days": "Sun", "time": "Closed"}], "id": "0440100023", "name": "USPS COLLECTION BOX - BLUE BOX", "address": {"city": "BANGOR", "state": "ME", "street": "417 STATE ST", "postcode": "04401"}}},
{"geometry": {"type": "Point", "coordinates": [-68.7618396413, 44.8128826822]}, "type": "Feature", "properties": {"collection_times": [{"days": "Mon-Fri", "time": "9:30am"}, {"days": "Sat", "time": "9:00am"}, {"days": "Sun", "time": "Closed"}], "id": "0440100024", "name": "USPS COLLECTION BOX - BLUE BOX", "address": {"city": "BANGOR", "state": "ME", "street": "208 MAPLE ST", "postcode": "04401"}}},
{"geometry": {"type": "Point", "coordinates": [-68.7580030954, 44.8067442048]}, "type": "Feature", "properties": {"collection_times": [{"days": "Mon-Fri", "time": "12:00pm"}, {"days": "Sat", "time": "9:00am"}, {"days": "Sun", "time": "Closed"}], "id": "0440100026", "name": "USPS COLLECTION BOX - BLUE BOX", "address": {"city": "BANGOR", "state": "ME", "street": "300 STATE ST", "postcode": "04401"}}},
{"geometry": {"type": "Point", "coordinates": [-68.7707659001, 44.8017092358]}, "type": "Feature", "properties": {"collection_times": [{"days": "Mon-Fri", "time": "5:15pm"}, {"days": "Sat", "time": "9:30am"}, {"days": "Sun", "time": "Closed"}], "id": "0440100027", "name": "USPS COLLECTION BOX - BLUE BOX", "address": {"city": "BANGOR", "state": "ME", "street": "6 STATE ST", "postcode": "04401"}}},
{"geometry": {"type": "Point", "coordinates": [-68.7707659001, 44.8017092358]}, "type": "Feature", "properties": {"collection_times": [{"days": "Mon-Fri", "time": "5:15pm"}, {"days": "Sat", "time": "9:30am"}, {"days": "Sun", "time": "Closed"}], "id": "0440100028", "name": "USPS COLLECTION BOX - BLUE BOX", "address": {"city": "BANGOR", "state": "ME", "street": "6 STATE ST", "postcode": "04401"}}},
{"geometry": {"type": "Point", "coordinates": [-68.8021769835, 44.8189570518]}, "type": "Feature", "properties": {"collection_times": [{"days": "Mon-Fri", "time": "5:30pm"}, {"days": "Sat", "time": "9:30am"}, {"days": "Sun", "time": "Closed"}], "id": "0440100030", "name": "USPS COLLECTION BOX - BLUE BOX", "address": {"city": "BANGOR", "state": "ME", "street": "263 STATE ST", "postcode": "04401"}}},
{"geometry": {"type": "Point", "coordinates": [-68.762179198, 44.8052073705]}, "type": "Feature", "properties": {"collection_times": [{"days": "Mon-Fri", "time": "11:00am"}, {"days": "Sat", "time": "10:30am"}, {"days": "Sun", "time": "Closed"}], "id": "0440100031", "name": "USPS COLLECTION BOX - BLUE BOX", "address": {"city": "BANGOR", "state": "ME", "street": "210 STATE ST", "postcode": "04401"}}},
{"geometry": {"type": "Point", "coordinates": [-68.7681162889, 44.8001904445]}, "type": "Feature", "properties": {"collection_times": [{"days": "Mon-Fri", "time": "5:15pm"}, {"days": "Sat", "time": "9:30am"}, {"days": "Sun", "time": "Closed"}], "id": "0440100034", "name": "USPS COLLECTION BOX - BLUE BOX", "address": {"city": "BANGOR", "state": "ME", "street": "77 EXCHANGE ST", "postcode": "04401"}}},
{"geometry": {"type": "Point", "coordinates": [-68.7661407496, 44.8087976863]}, "type": "Feature", "properties": {"collection_times": [{"days": "Mon-Sat", "time": "9:00am"}, {"days": "Sun", "time": "Closed"}], "id": "0440100036", "name": "USPS COLLECTION BOX - BLUE BOX", "address": {"city": "BANGOR", "state": "ME", "street": "102 GARLAND ST", "postcode": "04401"}}},
{"geometry": {"type": "Point", "coordinates": [-68.7715307105, 44.8009013381]}, "type": "Feature", "properties": {"collection_times": [{"days": "Mon-Fri", "time": "9:00am"}, {"days": "Sat", "time": "9:30am"}, {"days": "Sun", "time": "Closed"}], "id": "0440100041", "name": "USPS COLLECTION BOX - BLUE BOX", "address": {"city": "BANGOR", "state": "ME", "street": "32 MAIN ST", "postcode": "04401"}}},
{"geometry": {"type": "Point", "coordinates": [-68.7765406113, 44.7914447761]}, "type": "Feature", "properties": {"collection_times": [{"days": "Mon-Sat", "time": "12:00pm"}, {"days": "Sun", "time": "Closed"}], "id": "0440100043", "name": "USPS COLLECTION BOX - BLUE BOX", "address": {"city": "BANGOR", "state": "ME", "street": "427 MAIN ST", "postcode": "04401"}}},
{"geometry": {"type": "Point", "coordinates": [-68.7832818819, 44.7933219188]}, "type": "Feature", "properties": {"collection_times": [{"days": "Mon-Sat", "time": "9:00am"}, {"days": "Sun", "time": "Closed"}], "id": "0440100045", "name": "USPS COLLECTION BOX - BLUE BOX", "address": {"city": "BANGOR", "state": "ME", "street": "238 3RD ST", "postcode": "04401"}}},
{"geometry": {"type": "Point", "coordinates": [-68.7726255731, 44.8006430455]}, "type": "Feature", "properties": {"collection_times": [{"days": "Mon-Fri", "time": "5:30pm"}, {"days": "Sat", "time": "8:30am"}, {"days": "Sun", "time": "Closed"}], "id": "0440100046", "name": "USPS COLLECTION BOX - BLUE BOX", "address": {"city": "BANGOR", "state": "ME", "street": "50 COLUMBIA ST", "postcode": "04401"}}},
{"geometry": {"type": "Point", "coordinates": [-68.7722026014, 44.8029439824]}, "type": "Feature", "properties": {"collection_times": [{"days": "Mon-Fri", "time": "5:15pm"}, {"days": "Sat", "time": "9:15am"}, {"days": "Sun", "time": "Closed"}], "id": "0440100047", "name": "USPS COLLECTION BOX - BLUE BOX", "address": {"city": "BANGOR", "state": "ME", "street": "115 FRANKLIN ST", "postcode": "04401"}}},
{"geometry": {"type": "Point", "coordinates": [-68.7833350091, 44.8040398705]}, "type": "Feature", "properties": {"collection_times": [{"days": "Mon-Fri", "time": "2:00pm"}, {"days": "Sat", "time": "9:30am"}, {"days": "Sun", "time": "Closed"}], "id": "0440100048", "name": "USPS COLLECTION BOX - BLUE BOX", "address": {"city": "BANGOR", "state": "ME", "street": "371 UNION ST", "postcode": "04401"}}},
{"geometry": {"type": "Point", "coordinates": [-68.7785789718, 44.8015885386]}, "type": "Feature", "properties": {"collection_times": [{"days": "Mon-Sat", "time": "9:30am"}, {"days": "Sun", "time": "Closed"}], "id": "0440100049", "name": "USPS COLLECTION BOX - BLUE BOX", "address": {"city": "BANGOR", "state": "ME", "street": "220 UNION ST", "postcode": "04401"}}},
{"geometry": {"type": "Point", "coordinates": [-68.8021769835, 44.8189570518]}, "type": "Feature", "properties": {"collection_times": [{"days": "Mon-Fri", "time": "4:30pm"}, {"days": "Sat", "time": "4:00pm"}, {"days": "Sun", "time": "Closed"}], "id": "0440100050", "name": "USPS COLLECTION BOX - BLUE BOX", "address": {"city": "BANGOR", "state": "ME", "street": "1129 UNION ST", "postcode": "04401"}}},
{"geometry": {"type": "Point", "coordinates": [-68.8021769835, 44.8189570518]}, "type": "Feature", "properties": {"collection_times": [{"days": "Mon-Sat", "time": "2:00pm"}, {"days": "Sun", "time": "Closed"}], "id": "0440100055", "name": "USPS COLLECTION BOX - BLUE BOX", "address": {"city": "BANGOR", "state": "ME", "street": "691 HAMMOND ST", "postcode": "04401"}}},
{"geometry": {"type": "Point", "coordinates": [-68.8021769835, 44.8189570518]}, "type": "Feature", "properties": {"collection_times": [{"days": "Mon-Sat", "time": "2:00pm"}, {"days": "Sun", "time": "Closed"}], "id": "0440100058", "name": "USPS COLLECTION BOX - BLUE BOX", "address": {"city": "BANGOR", "state": "ME", "street": "890 HAMMOND ST", "postcode": "04401"}}},
{"geometry": {"type": "Point", "coordinates": [-68.7708799464, 44.8034686325]}, "type": "Feature", "properties": {"collection_times": [{"days": "Mon-Fri", "time": "5:00pm"}, {"days": "Sat", "time": "9:30am"}, {"days": "Sun", "time": "Closed"}], "id": "0440100059", "name": "USPS COLLECTION BOX - BLUE BOX", "address": {"city": "BANGOR", "state": "ME", "street": "84 HARLOW ST", "postcode": "04401"}}},
{"geometry": {"type": "Point", "coordinates": [-68.7754796667, 44.8060666377]}, "type": "Feature", "properties": {"collection_times": [{"days": "Mon-Fri", "time": "5:00pm"}, {"days": "Sat", "time": "9:30am"}, {"days": "Sun", "time": "Closed"}], "id": "0440100061", "name": "USPS COLLECTION BOX - BLUE BOX", "address": {"city": "BANGOR", "state": "ME", "street": "324 HARLOW ST", "postcode": "04401"}}},
{"geometry": {"type": "Point", "coordinates": [-68.7707816499, 44.8008164094]}, "type": "Feature", "properties": {"collection_times": [{"days": "Mon-Fri", "time": "5:15pm"}, {"days": "Sat", "time": "9:00am"}, {"days": "Sun", "time": "Closed"}], "id": "0440100063", "name": "USPS COLLECTION BOX - BLUE BOX", "address": {"city": "BANGOR", "state": "ME", "street": "1 MERCHANTS PLZ", "postcode": "04401"}}},
{"geometry": {"type": "Point", "coordinates": [-68.7914873668, 44.8115920317]}, "type": "Feature", "properties": {"collection_times": [{"days": "Mon-Sat", "time": "9:00am"}, {"days": "Sun", "time": "Closed"}], "id": "0440100066", "name": "USPS COLLECTION BOX - BLUE BOX", "address": {"city": "BANGOR", "state": "ME", "street": "504 OHIO ST", "postcode": "04401"}}},
{"geometry": {"type": "Point", "coordinates": [-68.8021769835, 44.8189570518]}, "type": "Feature", "properties": {"collection_times": [{"days": "Mon-Fri", "time": "4:30pm"}, {"days": "Sat", "time": "9:00am"}, {"days": "Sun", "time": "Closed"}], "id": "0440100068", "name": "USPS COLLECTION BOX - BLUE BOX", "address": {"city": "BANGOR", "state": "ME", "street": "970 ILLINOIS AVE", "postcode": "04401"}}},
{"geometry": {"type": "Point", "coordinates": [-68.7667597541, 44.8121860346]}, "type": "Feature", "properties": {"collection_times": [{"days": "Mon-Fri", "time": "5:00pm"}, {"days": "Sat", "time": "9:30am"}, {"days": "Sun", "time": "Closed"}], "id": "0440100071", "name": "USPS COLLECTION BOX - BLUE BOX", "address": {"city": "BANGOR", "state": "ME", "street": "336 MOUNT HOPE AVE", "postcode": "04401"}}},
{"geometry": {"type": "Point", "coordinates": [-68.7350923124, 44.8236273441]}, "type": "Feature", "properties": {"collection_times": [{"days": "Mon-Fri", "time": "5:15pm"}, {"days": "Sat", "time": "4:30pm"}, {"days": "Sun", "time": "Closed"}], "id": "0440100072", "name": "USPS COLLECTION BOX - BLUE BOX", "address": {"city": "BANGOR", "state": "ME", "street": "700 MOUNT HOPE AVE", "postcode": "04401"}}},
{"geometry": {"type": "Point", "coordinates": [-68.8458604511, 44.8468366333]}, "type": "Feature", "properties": {"collection_times": [{"days": "Mon-Fri", "time": "10:30am"}, {"days": "Sat", "time": "9:00am"}, {"days": "Sun", "time": "Closed"}], "id": "0440100074", "name": "USPS COLLECTION BOX - BLUE BOX", "address": {"city": "BANGOR", "state": "ME", "street": "530 COLDBROOK RD", "postcode": "04401"}}},
{"geometry": {"type": "Point", "coordinates": [-68.8021769835, 44.8189570518]}, "type": "Feature", "properties": {"collection_times": [{"days": "Mon-Fri", "time": "5:15pm"}, {"days": "Sat", "time": "9:00am"}, {"days": "Sun", "time": "Closed"}], "id": "0440100076", "name": "USPS COLLECTION BOX - BLUE BOX", "address": {"city": "BANGOR", "state": "ME", "street": "1126 HAMMOND ST", "postcode": "04401"}}},
{"geometry": {"type": "Point", "coordinates": [-68.8021769835, 44.8189570518]}, "type": "Feature", "properties": {"collection_times": [{"days": "Mon-Fri", "time": "5:30pm"}, {"days": "Sat", "time": "8:30am"}, {"days": "Sun", "time": "Closed"}], "id": "0440100079", "name": "USPS COLLECTION BOX - BLUE BOX", "address": {"city": "BANGOR", "state": "ME", "street": "69 FARM RD", "postcode": "04401"}}},
{"geometry": {"type": "Point", "coordinates": [-68.8464249076, 44.7941107215]}, "type": "Feature", "properties": {"collection_times": [{"days": "Mon-Fri", "time": "5:15pm"}, {"days": "Sat-Sun", "time": "Closed"}], "id": "0440100080", "name": "USPS COLLECTION BOX - BLUE BOX", "address": {"city": "BANGOR", "state": "ME", "street": "1 FREEDOM PKWY", "postcode": "04401"}}},
{"geometry": {"type": "Point", "coordinates": [-68.8373077818, 44.7937523864]}, "type": "Feature", "properties": {"collection_times": [{"days": "Mon-Fri", "time": "5:15pm"}, {"days": "Sat", "time": "9:00am"}, {"days": "Sun", "time": "Closed"}], "id": "0440100082", "name": "USPS COLLECTION BOX - BLUE BOX", "address": {"city": "BANGOR", "state": "ME", "street": "35 HILDRETH ST", "postcode": "04401"}}},
{"geometry": {"type": "Point", "coordinates": [-68.7703791145, 44.8033045465]}, "type": "Feature", "properties": {"collection_times": [{"days": "Mon-Fri", "time": "5:30pm"}, {"days": "Sat", "time": "9:30am"}, {"days": "Sun", "time": "Closed"}], "id": "0440100089", "name": "USPS COLLECTION BOX - BLUE BOX", "address": {"city": "BANGOR", "state": "ME", "street": "73 HARLOW ST", "postcode": "04401"}}},
{"geometry": {"type": "Point", "coordinates": [-68.7701474939, 44.8122258898]}, "type": "Feature", "properties": {"collection_times": [{"days": "Mon-Fri", "time": "4:30pm"}, {"days": "Sat-Sun", "time": "Closed"}], "id": "0440100092", "name": "USPS COLLECTION BOX - BLUE BOX", "address": {"city": "BANGOR", "state": "ME", "street": "930 STILLWATER AVE", "postcode": "04401"}}},
{"geometry": {"type": "Point", "coordinates": [-68.7733417708, 44.8048379161]}, "type": "Feature", "properties": {"collection_times": [{"days": "Mon-Fri", "time": "6:00pm"}, {"days": "Sat", "time": "5:00pm"}, {"days": "Sun", "time": "Closed"}], "id": "0440100093", "name": "USPS COLLECTION BOX - BLUE BOX", "address": {"city": "BANGOR", "state": "ME", "street": "202 HARLOW ST", "postcode": "04401"}}},
{"geometry": {"type": "Point", "coordinates": [-68.7726255731, 44.8006430455]}, "type": "Feature", "properties": {"collection_times": [{"days": "Mon-Fri", "time": "5:30pm"}, {"days": "Sat", "time": "8:30am"}, {"days": "Sun", "time": "Closed"}], "id": "0440100096", "name": "USPS COLLECTION BOX - BLUE BOX", "address": {"city": "BANGOR", "state": "ME", "street": "50 COLUMBIA ST", "postcode": "04401"}}},
{"geometry": {"type": "Point", "coordinates": [-68.7707816499, 44.8008164094]}, "type": "Feature", "properties": {"collection_times": [{"days": "Mon-Fri", "time": "5:15pm"}, {"days": "Sat", "time": "9:00am"}, {"days": "Sun", "time": "Closed"}], "id": "0440100097", "name": "USPS COLLECTION BOX - BLUE BOX", "address": {"city": "BANGOR", "state": "ME", "street": "1 MERCHANTS PLZ", "postcode": "04401"}}},
{"geometry": {"type": "Point", "coordinates": [-68.7716226409, 44.7996779762]}, "type": "Feature", "properties": {"collection_times": [{"days": "Mon-Fri", "time": "5:30pm"}, {"days": "Sat", "time": "9:00am"}, {"days": "Sun", "time": "Closed"}], "id": "0440100098", "name": "USPS COLLECTION BOX - BLUE BOX", "address": {"city": "BANGOR", "state": "ME", "street": "23 WATER ST", "postcode": "04401"}}},
{"geometry": {"type": "Point", "coordinates": [-68.7716226409, 44.7996779762]}, "type": "Feature", "properties": {"collection_times": [{"days": "Mon-Fri", "time": "5:30pm"}, {"days": "Sat", "time": "9:00am"}, {"days": "Sun", "time": "Closed"}], "id": "0440100100", "name": "USPS COLLECTION BOX - BLUE BOX", "address": {"city": "BANGOR", "state": "ME", "street": "23 WATER ST", "postcode": "04401"}}},
{"geometry": {"type": "Point", "coordinates": [-68.8021769835, 44.8189570518]}, "type": "Feature", "properties": {"collection_times": [{"days": "Mon-Fri", "time": "5:15pm"}, {"days": "Sat", "time": "9:00am"}, {"days": "Sun", "time": "Closed"}], "id": "0440100101", "name": "USPS COLLECTION BOX - BLUE BOX", "address": {"city": "BANGOR", "state": "ME", "street": "6 DOWD RD", "postcode": "04401"}}},
{"geometry": {"type": "Point", "coordinates": [-68.8021769835, 44.8189570518]}, "type": "Feature", "properties": {"collection_times": [{"days": "Mon-Fri", "time": "9:00am"}, {"days": "Sat-Sun", "time": "Closed"}], "id": "0440100103", "name": "USPS COLLECTION BOX - BLUE BOX", "address": {"city": "BANGOR", "state": "ME", "street": "979 ESSEX ST", "postcode": "04401"}}},
{"geometry": {"type": "Point", "coordinates": [-68.801553028, 44.8182135676]}, "type": "Feature", "properties": {"collection_times": [{"days": "Mon-Fri", "time": "10:00am"}, {"days": "Sat-Sun", "time": "Closed"}], "id": "0440100104", "name": "USPS COLLECTION BOX - BLUE BOX", "address": {"city": "BANGOR", "state": "ME", "street": "818 OHIO ST", "postcode": "04401"}}},
{"geometry": {"type": "Point", "coordinates": [-68.8021769835, 44.8189570518]}, "type": "Feature", "properties": {"collection_times": [{"days": "Mon-Fri", "time": "5:15pm"}, {"days": "Sat", "time": "9:00am"}, {"days": "Sun", "time": "Closed"}], "id": "0440100110", "name": "USPS COLLECTION BOX - BLUE BOX", "address": {"city": "BANGOR", "state": "ME", "street": "97 HAMMOND ST", "postcode": "04401"}}},
{"geometry": {"type": "Point", "coordinates": [-68.8021856735, 44.818965696]}, "type": "Feature", "properties": {"collection_times": [{"days": "Mon-Fri", "time": "5:15pm"}, {"days": "Sat-Sun", "time": "Closed"}], "id": "0440100112", "name": "USPS COLLECTION BOX - EXPRESS", "address": {"city": "BANGOR", "state": "ME", "street": "700 MOUNT HOPE AVE", "postcode": "04401"}}},
{"geometry": {"type": "Point", "coordinates": [-68.8021769835, 44.8189570518]}, "type": "Feature", "properties": {"collection_times": [{"days": "Mon-Fri", "time": "4:30pm"}, {"days": "Sat-Sun", "time": "Closed"}], "id": "0440100126", "name": "USPS COLLECTION BOX - BLUE BOX", "address": {"city": "BANGOR", "state": "ME", "street": "992 UNION ST", "postcode": "04401"}}},
{"geometry": {"type": "Point", "coordinates": [-68.8021769835, 44.8189570518]}, "type": "Feature", "properties": {"collection_times": [{"days": "Mon-Fri", "time": "4:30pm"}, {"days": "Sat-Sun", "time": "Closed"}], "id": "0440100127", "name": "USPS COLLECTION BOX - BLUE BOX", "address": {"city": "BANGOR", "state": "ME", "street": "915 UNION ST", "postcode": "04401"}}},
{"geometry": {"type": "Point", "coordinates": [-68.8021769835, 44.8189570518]}, "type": "Feature", "properties": {"collection_times": [{"days": "Mon-Sat", "time": "8:30am"}, {"days": "Sun", "time": "Closed"}], "id": "0440100131", "name": "USPS COLLECTION BOX - BLUE BOX", "address": {"city": "BANGOR", "state": "ME", "street": "566 UNION ST", "postcode": "04401"}}},
{"geometry": {"type": "Point", "coordinates": [-68.8021769835, 44.8189570518]}, "type": "Feature", "properties": {"collection_times": [{"days": "Mon-Sat", "time": "10:00am"}, {"days": "Sun", "time": "Closed"}], "id": "0440100132", "name": "USPS COLLECTION BOX - BLUE BOX", "address": {"city": "BANGOR", "state": "ME", "street": "92 NORFOLK ST", "postcode": "04401"}}},
{"geometry": {"type": "Point", "coordinates": [-68.8021769835, 44.8189570518]}, "type": "Feature", "properties": {"collection_times": [{"days": "Mon-Fri", "time": "5:00pm"}, {"days": "Sat-Sun", "time": "Closed"}], "id": "0440100136", "name": "USPS COLLECTION BOX - BLUE BOX", "address": {"city": "BANGOR", "state": "ME", "street": "106 HOGAN RD", "postcode": "04401"}}},
{"geometry": {"type": "Point", "coordinates": [-68.7419187906, 44.8461648412]}, "type": "Feature", "properties": {"collection_times": [{"days": "Mon-Fri", "time": "4:00pm"}, {"days": "Sat-Sun", "time": "Closed"}], "id": "0440100137", "name": "USPS COLLECTION BOX - BLUE BOX", "address": {"city": "BANGOR", "state": "ME", "street": "100 RIDGEWOOD DR", "postcode": "04401"}}},
{"geometry": {"type": "Point", "coordinates": [-68.8021769835, 44.8189570518]}, "type": "Feature", "properties": {"collection_times": [{"days": "Mon-Fri", "time": "5:15pm"}, {"days": "Sat", "time": "9:00am"}, {"days": "Sun", "time": "Closed"}], "id": "0440100138", "name": "USPS COLLECTION BOX - BLUE BOX", "address": {"city": "BANGOR", "state": "ME", "street": "489 STATE ST", "postcode": "04401"}}},
{"geometry": {"type": "Point", "coordinates": [-68.7681162889, 44.8001904445]}, "type": "Feature", "properties": {"collection_times": [{"days": "Mon-Fri", "time": "5:15pm"}, {"days": "Sat", "time": "9:30am"}, {"days": "Sun", "time": "Closed"}], "id": "0440100140", "name": "USPS COLLECTION BOX - BLUE BOX", "address": {"city": "BANGOR", "state": "ME", "street": "77 EXCHANGE ST", "postcode": "04401"}}},
{"geometry": {"type": "Point", "coordinates": [-68.7580798018, 44.8251191159]}, "type": "Feature", "properties": {"collection_times": [{"days": "Mon-Fri", "time": "5:00pm"}, {"days": "Sat-Sun", "time": "Closed"}], "id": "0440100141", "name": "USPS COLLECTION BOX - BLUE BOX", "address": {"city": "BANGOR", "state": "ME", "street": "444 STILLWATER AVE", "postcode": "04401"}}},
{"geometry": {"type": "Point", "coordinates": [-68.8153946932, 44.8187872691]}, "type": "Feature", "properties": {"collection_times": [{"days": "Mon-Fri", "time": "9:00am"}, {"days": "Sat-Sun", "time": "Closed"}], "id": "0440100142", "name": "USPS COLLECTION BOX - BLUE BOX", "address": {"city": "BANGOR", "state": "ME", "street": "425 GRIFFIN RD", "postcode": "04401"}}},
{"geometry": {"type": "Point", "coordinates": [-68.7505075894, 44.834049754]}, "type": "Feature", "properties": {"collection_times": [{"days": "Mon-Fri", "time": "4:45pm"}, {"days": "Sat-Sun", "time": "Closed"}], "id": "0440100143", "name": "USPS COLLECTION BOX - BLUE BOX", "address": {"city": "BANGOR", "state": "ME", "street": "8 PENN PLZ", "postcode": "04401"}}},
{"geometry": {"type": "Point", "coordinates": [-68.772726159, 44.8015526547]}, "type": "Feature", "properties": {"collection_times": [{"days": "Mon-Fri", "time": "5:00pm"}, {"days": "Sat", "time": "1:00pm"}, {"days": "Sun", "time": "Closed"}], "id": "0440100146", "name": "USPS COLLECTION BOX - PO LOBBY", "address": {"city": "BANGOR", "state": "ME", "street": "73 HAMMOND ST", "postcode": "04401"}}},
{"geometry": {"type": "Point", "coordinates": [-68.8646571916, 44.8428761129]}, "type": "Feature", "properties": {"collection_times": [{"days": "Mon-Fri", "time": "5:00pm"}, {"days": "Sat", "time": "3:00pm"}, {"days": "Sun", "time": "Closed"}], "id": "0440100147", "name": "USPS COLLECTION BOX - BLUE BOX", "address": {"city": "BANGOR", "state": "ME", "street": "8 BILLINGS RD", "postcode": "04401"}}},
{"geometry": {"type": "Point", "coordinates": [-68.8021769835, 44.8189570518]}, "type": "Feature", "properties": {"collection_times": [{"days": "Mon-Fri", "time": "5:30pm"}, {"days": "Sat", "time": "5:00pm"}, {"days": "Sun", "time": "Closed"}], "id": "0440100148", "name": "USPS COLLECTION BOX - BLUE BOX", "address": {"city": "BANGOR", "state": "ME", "street": "647 BROADWAY", "postcode": "04401"}}},
{"geometry": {"type": "Point", "coordinates": [-68.772726159, 44.8015526547]}, "type": "Feature", "properties": {"collection_times": [{"days": "Mon-Fri", "time": "6:00pm"}, {"days": "Sat", "time": "5:00pm"}, {"days": "Sun", "time": "Closed"}], "id": "0440100149", "name": "USPS COLLECTION BOX - BLUE BOX", "address": {"city": "BANGOR", "state": "ME", "street": "73 HAMMOND ST", "postcode": "04401"}}},
{"geometry": {"type": "Point", "coordinates": [-68.772726159, 44.8015526547]}, "type": "Feature", "properties": {"collection_times": [{"days": "Mon-Fri", "time": "6:00pm"}, {"days": "Sat", "time": "5:00pm"}, {"days": "Sun", "time": "Closed"}], "id": "0440100150", "name": "USPS COLLECTION BOX - BLUE BOX", "address": {"city": "BANGOR", "state": "ME", "street": "73 HAMMOND ST", "postcode": "04401"}}},
{"geometry": {"type": "Point", "coordinates": [-69.64437789, 45.3622281293]}, "type": "Feature", "properties": {"collection_times": [{"days": "Mon-Fri", "time": "4:30pm"}, {"days": "Sat", "time": "11:30am"}, {"days": "Sun", "time": "Closed"}], "id": "0440600001", "name": "USPS COLLECTION BOX - BLUE BOX", "address": {"city": "ABBOT", "state": "ME", "street": "1 WEST RD", "postcode": "04406"}}},
{"geometry": {"type": "Point", "coordinates": [-69.64437789, 45.3622281293]}, "type": "Feature", "properties": {"collection_times": [{"days": "Mon-Fri", "time": "4:30pm"}, {"days": "Sat", "time": "11:45am"}, {"days": "Sun", "time": "Closed"}], "id": "0440600002", "name": "USPS COLLECTION BOX - PO LOBBY", "address": {"city": "ABBOT", "state": "ME", "street": "1 WEST RD", "postcode": "04406"}}},
{"geometry": {"type": "Point", "coordinates": [-68.3289884556, 44.8515856724]}, "type": "Feature", "properties": {"collection_times": [{"days": "Mon-Fri", "time": "4:15pm"}, {"days": "Sat", "time": "11:45am"}, {"days": "Sun", "time": "Closed"}], "id": "0440800001", "name": "USPS COLLECTION BOX - BLUE BOX", "address": {"city": "AURORA", "state": "ME", "street": "68 OLD AIRLINE RD", "postcode": "04408"}}},
{"geometry": {"type": "Point", "coordinates": [-68.3289884556, 44.8515856724]}, "type": "Feature", "properties": {"collection_times": [{"days": "Mon-Fri", "time": "4:15pm"}, {"days": "Sat", "time": "11:45am"}, {"days": "Sun", "time": "Closed"}], "id": "0440800002", "name": "USPS COLLECTION BOX - PO LOBBY", "address": {"city": "AURORA", "state": "ME", "street": "68 OLD AIRLINE RD", "postcode": "04408"}}},
{"geometry": {"type": "Point", "coordinates": [-68.8954647713, 45.0736553783]}, "type": "Feature", "properties": {"collection_times": [{"days": "Mon-Fri", "time": "3:30pm"}, {"days": "Sat", "time": "10:30am"}, {"days": "Sun", "time": "Closed"}], "id": "0441000001", "name": "USPS COLLECTION BOX - BLUE BOX", "address": {"city": "BRADFORD", "state": "ME", "street": "11 STORER RD", "postcode": "04410"}}},
{"geometry": {"type": "Point", "coordinates": [-68.8954647713, 45.0736553783]}, "type": "Feature", "properties": {"collection_times": [{"days": "Mon-Fri", "time": "3:45pm"}, {"days": "Sat", "time": "10:45am"}, {"days": "Sun", "time": "Closed"}], "id": "0441000002", "name": "USPS COLLECTION BOX - PO LOBBY", "address": {"city": "BRADFORD", "state": "ME", "street": "11 STORER RD", "postcode": "04410"}}},
{"geometry": {"type": "Point", "coordinates": [-68.6379357758, 44.8897458818]}, "type": "Feature", "properties": {"collection_times": [{"days": "Mon-Fri", "time": "3:45pm"}, {"days": "Sat", "time": "11:00am"}, {"days": "Sun", "time": "Closed"}], "id": "0441100001", "name": "USPS COLLECTION BOX - BLUE BOX", "address": {"city": "BRADLEY", "state": "ME", "street": "165A MAIN ST", "postcode": "04411"}}},
{"geometry": {"type": "Point", "coordinates": [-68.6379357758, 44.8897458818]}, "type": "Feature", "properties": {"collection_times": [{"days": "Mon-Fri", "time": "4:15pm"}, {"days": "Sat", "time": "11:15am"}, {"days": "Sun", "time": "Closed"}], "id": "0441100002", "name": "USPS COLLECTION BOX - PO LOBBY", "address": {"city": "BRADLEY", "state": "ME", "street": "165A MAIN ST", "postcode": "04411"}}},
{"geometry": {"type": "Point", "coordinates": [-68.6379357758, 44.8897458818]}, "type": "Feature", "properties": {"collection_times": [{"days": "Mon-Fri", "time": "4:15pm"}, {"days": "Sat", "time": "11:15am"}, {"days": "Sun", "time": "Closed"}], "id": "0441100003", "name": "USPS COLLECTION BOX - PO LOBBY", "address": {"city": "BRADLEY", "state": "ME", "street": "165A MAIN ST", "postcode": "04411"}}},
{"geometry": {"type": "Point", "coordinates": [-68.7541372591, 44.8004194576]}, "type": "Feature", "properties": {"collection_times": [{"days": "Mon-Fri", "time": "5:00pm"}, {"days": "Sat", "time": "4:00pm"}, {"days": "Sun", "time": "Closed"}], "id": "0441200006", "name": "USPS COLLECTION BOX - BLUE BOX", "address": {"city": "BREWER", "state": "ME", "street": "401 N MAIN ST", "postcode": "04412"}}},
{"geometry": {"type": "Point", "coordinates": [-68.7491327544, 44.8020705089]}, "type": "Feature", "properties": {"collection_times": [{"days": "Mon-Sat", "time": "11:00am"}, {"days": "Sun", "time": "Closed"}], "id": "0441200007", "name": "USPS COLLECTION BOX - BLUE BOX", "address": {"city": "BREWER", "state": "ME", "street": "4 BROADLAWN DR", "postcode": "04412"}}},
{"geometry": {"type": "Point", "coordinates": [-68.7661087762, 44.7947159241]}, "type": "Feature", "properties": {"collection_times": [{"days": "Mon-Fri", "time": "5:00pm"}, {"days": "Sat", "time": "9:00am"}, {"days": "Sun", "time": "Closed"}], "id": "0441200010", "name": "USPS COLLECTION BOX - BLUE BOX", "address": {"city": "BREWER", "state": "ME", "street": "98 N MAIN ST", "postcode": "04412"}}},
{"geometry": {"type": "Point", "coordinates": [-68.7584592664, 44.7851896599]}, "type": "Feature", "properties": {"collection_times": [{"days": "Mon-Fri", "time": "11:00am"}, {"days": "Sat-Sun", "time": "Closed"}], "id": "0441200012", "name": "USPS COLLECTION BOX - BLUE BOX", "address": {"city": "BREWER", "state": "ME", "street": "41 ACME RD", "postcode": "04412"}}},
{"geometry": {"type": "Point", "coordinates": [-68.7541777077, 44.7874079211]}, "type": "Feature", "properties": {"collection_times": [{"days": "Mon-Fri", "time": "5:30pm"}, {"days": "Sat", "time": "4:00pm"}, {"days": "Sun", "time": "Closed"}], "id": "0441200014", "name": "USPS COLLECTION BOX - EXPRESS", "address": {"city": "BREWER", "state": "ME", "street": "22 PARKWAY PKWY S", "postcode": "04412"}}},
{"geometry": {"type": "Point", "coordinates": [-68.7512543285, 44.7825700928]}, "type": "Feature", "properties": {"collection_times": [{"days": "Mon-Fri", "time": "5:30pm"}, {"days": "Sat", "time": "4:00pm"}, {"days": "Sun", "time": "Closed"}], "id": "0441200015", "name": "USPS COLLECTION BOX - BLUE BOX", "address": {"city": "BREWER", "state": "ME", "street": "22 PARKWAY PKWY S", "postcode": "04412"}}},
{"geometry": {"type": "Point", "coordinates": [-68.7512543285, 44.7825700928]}, "type": "Feature", "properties": {"collection_times": [{"days": "Mon-Fri", "time": "5:30pm"}, {"days": "Sat", "time": "4:00pm"}, {"days": "Sun", "time": "Closed"}], "id": "0441200016", "name": "USPS COLLECTION BOX - BLUE BOX", "address": {"city": "BREWER", "state": "ME", "street": "22 PARKWAY PKWY S", "postcode": "04412"}}},
{"geometry": {"type": "Point", "coordinates": [-68.7512543285, 44.7825700928]}, "type": "Feature", "properties": {"collection_times": [{"days": "Mon-Fri", "time": "5:30pm"}, {"days": "Sat", "time": "4:00pm"}, {"days": "Sun", "time": "Closed"}], "id": "0441200017", "name": "USPS COLLECTION BOX - BLUE BOX", "address": {"city": "BREWER", "state": "ME", "street": "22 PARKWAY PKWY S", "postcode": "04412"}}},
{"geometry": {"type": "Point", "coordinates": [-68.7665124938, 44.7786219359]}, "type": "Feature", "properties": {"collection_times": [{"days": "Mon-Sat", "time": "1:00pm"}, {"days": "Sun", "time": "Closed"}], "id": "0441200018", "name": "USPS COLLECTION BOX - BLUE BOX", "address": {"city": "BREWER", "state": "ME", "street": "278 PARKWAY S", "postcode": "04412"}}},
{"geometry": {"type": "Point", "coordinates": [-68.7802262228, 44.7721753325]}, "type": "Feature", "properties": {"collection_times": [{"days": "Mon-Sat", "time": "10:30am"}, {"days": "Sun", "time": "Closed"}], "id": "0441200019", "name": "USPS COLLECTION BOX - BLUE BOX", "address": {"city": "BREWER", "state": "ME", "street": "530 S MAIN ST", "postcode": "04412"}}},
{"geometry": {"type": "Point", "coordinates": [-68.7512543285, 44.7825700928]}, "type": "Feature", "properties": {"collection_times": [{"days": "Mon-Fri", "time": "5:30pm"}, {"days": "Sat", "time": "4:00pm"}, {"days": "Sun", "time": "Closed"}], "id": "0441200021", "name": "USPS COLLECTION BOX - BLUE BOX", "address": {"city": "BREWER", "state": "ME", "street": "22 PARKWAY PKWY S", "postcode": "04412"}}},
{"geometry": {"type": "Point", "coordinates": [-68.7540208958, 44.7871629983]}, "type": "Feature", "properties": {"collection_times": [{"days": "Mon-Sat", "time": "11:00am"}, {"days": "Sun", "time": "Closed"}], "id": "0441200024", "name": "USPS COLLECTION BOX - BLUE BOX", "address": {"city": "BREWER", "state": "ME", "street": "234 STATE ST", "postcode": "04412"}}},
{"geometry": {"type": "Point", "coordinates": [-68.7286435579, 44.7708494116]}, "type": "Feature", "properties": {"collection_times": [{"days": "Mon-Fri", "time": "5:15pm"}, {"days": "Sat-Sun", "time": "Closed"}], "id": "0441200025", "name": "USPS COLLECTION BOX - BLUE BOX", "address": {"city": "BREWER", "state": "ME", "street": "43 WHITING HILL RD", "postcode": "04412"}}},
{"geometry": {"type": "Point", "coordinates": [-68.7512543285, 44.7825700928]}, "type": "Feature", "properties": {"collection_times": [{"days": "Mon-Fri", "time": "5:00pm"}, {"days": "Sat", "time": "2:00pm"}, {"days": "Sun", "time": "Closed"}], "id": "0441200026", "name": "USPS COLLECTION BOX - PO LOBBY", "address": {"city": "BREWER", "state": "ME", "street": "22 PARKWAY S", "postcode": "04412"}}},
{"geometry": {"type": "Point", "coordinates": [-67.6656242863, 45.5747914634]}, "type": "Feature", "properties": {"collection_times": [{"days": "Mon-Fri", "time": "3:30pm"}, {"days": "Sat", "time": "11:30am"}, {"days": "Sun", "time": "Closed"}], "id": "0441300001", "name": "USPS COLLECTION BOX - BLUE BOX", "address": {"city": "BROOKTON", "state": "ME", "street": "14 FOREST CITY RD", "postcode": "04413"}}},
{"geometry": {"type": "Point", "coordinates": [-67.6656242863, 45.5747914634]}, "type": "Feature", "properties": {"collection_times": [{"days": "Mon-Fri", "time": "3:30pm"}, {"days": "Sat", "time": "11:30am"}, {"days": "Sun", "time": "Closed"}], "id": "0441300003", "name": "USPS COLLECTION BOX - PO LOBBY", "address": {"city": "BROOKTON", "state": "ME", "street": "14 FOREST CITY RD", "postcode": "04413"}}},
{"geometry": {"type": "Point", "coordinates": [-69.0328835087, 45.3083830301]}, "type": "Feature", "properties": {"collection_times": [{"days": "Mon-Fri", "time": "3:45pm"}, {"days": "Sat", "time": "11:00am"}, {"days": "Sun", "time": "Closed"}], "id": "0441400001", "name": "USPS COLLECTION BOX - BLUE BOX", "address": {"city": "BROWNVILLE", "state": "ME", "street": "27 CHURCH ST", "postcode": "04414"}}},
{"geometry": {"type": "Point", "coordinates": [-69.0328835087, 45.3083830301]}, "type": "Feature", "properties": {"collection_times": [{"days": "Mon-Fri", "time": "4:00pm"}, {"days": "Sat", "time": "11:00am"}, {"days": "Sun", "time": "Closed"}], "id": "0441400002", "name": "USPS COLLECTION BOX - PO LOBBY", "address": {"city": "BROWNVILLE", "state": "ME", "street": "27 CHURCH ST", "postcode": "04414"}}},
{"geometry": {"type": "Point", "coordinates": [-69.0537980204, 45.3509922498]}, "type": "Feature", "properties": {"collection_times": [{"days": "Mon-Fri", "time": "3:45pm"}, {"days": "Sat", "time": "11:00am"}, {"days": "Sun", "time": "Closed"}], "id": "0441500001", "name": "USPS COLLECTION BOX - BLUE BOX", "address": {"city": "BROWNVLLE JCT", "state": "ME", "street": "77 RAILROAD AVE", "postcode": "04415"}}},
{"geometry": {"type": "Point", "coordinates": [-69.0537980204, 45.3509922498]}, "type": "Feature", "properties": {"collection_times": [{"days": "Mon-Fri", "time": "3:45pm"}, {"days": "Sat", "time": "11:00am"}, {"days": "Sun", "time": "Closed"}], "id": "0441500002", "name": "USPS COLLECTION BOX - PO LOBBY", "address": {"city": "BROWNVLLE JCT", "state": "ME", "street": "77 RAILROAD AVE", "postcode": "04415"}}},
{"geometry": {"type": "Point", "coordinates": [-68.7525660237, 44.6267371442]}, "type": "Feature", "properties": {"collection_times": [{"days": "Mon-Fri", "time": "10:00am"}, {"days": "Sat-Sun", "time": "Closed"}], "id": "0441600003", "name": "USPS COLLECTION BOX - BLUE BOX", "address": {"city": "BUCKSPORT", "state": "ME", "street": "35 US ROUTE 1", "postcode": "04416"}}},
{"geometry": {"type": "Point", "coordinates": [-68.4093896117, 45.1786197706]}, "type": "Feature", "properties": {"collection_times": [{"days": "Mon-Fri", "time": "4:15pm"}, {"days": "Sat", "time": "12:15pm"}, {"days": "Sun", "time": "Closed"}], "id": "0441700001", "name": "USPS COLLECTION BOX - BLUE BOX", "address": {"city": "BURLINGTON", "state": "ME", "street": "30 MAIN RD", "postcode": "04417"}}},
{"geometry": {"type": "Point", "coordinates": [-68.4093896117, 45.1786197706]}, "type": "Feature", "properties": {"collection_times": [{"days": "Mon-Fri", "time": "1:00pm"}, {"days": "Sat", "time": "12:15pm"}, {"days": "Sun", "time": "Closed"}], "id": "0441700002", "name": "USPS COLLECTION BOX - PO LOBBY", "address": {"city": "BURLINGTON", "state": "ME", "street": "30 MAIN RD", "postcode": "04417"}}},
{"geometry": {"type": "Point", "coordinates": [-68.6425470469, 45.0214775148]}, "type": "Feature", "properties": {"collection_times": [{"days": "Mon-Fri", "time": "4:15pm"}, {"days": "Sat", "time": "11:15am"}, {"days": "Sun", "time": "Closed"}], "id": "0441800000", "name": "USPS COLLECTION BOX - BLUE BOX", "address": {"city": "GREENBUSH", "state": "ME", "street": "1076 MAIN RD", "postcode": "04418"}}},
{"geometry": {"type": "Point", "coordinates": [-68.6425470469, 45.0214775148]}, "type": "Feature", "properties": {"collection_times": [{"days": "Mon-Fri", "time": "4:00pm"}, {"days": "Sat", "time": "11:15am"}, {"days": "Sun", "time": "Closed"}], "id": "0441800001", "name": "USPS COLLECTION BOX - PO LOBBY", "address": {"city": "GREENBUSH", "state": "ME", "street": "1076 MAIN RD", "postcode": "04418"}}},
{"geometry": {"type": "Point", "coordinates": [-68.7970337472, 44.3879791631]}, "type": "Feature", "properties": {"collection_times": [{"days": "Mon-Fri", "time": "4:15pm"}, {"days": "Sat", "time": "11:30am"}, {"days": "Sun", "time": "Closed"}], "id": "0442100001", "name": "USPS COLLECTION BOX - BLUE BOX", "address": {"city": "CASTINE", "state": "ME", "street": "43 MAIN ST", "postcode": "04421"}}},
{"geometry": {"type": "Point", "coordinates": [-68.7970337472, 44.3879791631]}, "type": "Feature", "properties": {"collection_times": [{"days": "Mon-Fri", "time": "4:15pm"}, {"days": "Sat", "time": "11:30am"}, {"days": "Sun", "time": "Closed"}], "id": "0442100003", "name": "USPS COLLECTION BOX - PO LOBBY", "address": {"city": "CASTINE", "state": "ME", "street": "43 MAIN ST", "postcode": "04421"}}},
{"geometry": {"type": "Point", "coordinates": [-68.9568665095, 45.0957281081]}, "type": "Feature", "properties": {"collection_times": [{"days": "Mon-Fri", "time": "4:00pm"}, {"days": "Sat", "time": "11:00am"}, {"days": "Sun", "time": "Closed"}], "id": "0442200001", "name": "USPS COLLECTION BOX - BLUE BOX", "address": {"city": "CHARLESTON", "state": "ME", "street": "33 CHARLESTON RD", "postcode": "04422"}}},
{"geometry": {"type": "Point", "coordinates": [-68.9568665095, 45.0957281081]}, "type": "Feature", "properties": {"collection_times": [{"days": "Mon-Fri", "time": "4:15pm"}, {"days": "Sat", "time": "11:15am"}, {"days": "Sun", "time": "Closed"}], "id": "0442200002", "name": "USPS COLLECTION BOX - PO LOBBY", "address": {"city": "CHARLESTON", "state": "ME", "street": "33 CHARLESTON RD", "postcode": "04422"}}},
{"geometry": {"type": "Point", "coordinates": [-68.0128777931, 45.5400818968]}, "type": "Feature", "properties": {"collection_times": [{"days": "Mon-Fri", "time": "4:00pm"}, {"days": "Sat", "time": "11:15am"}, {"days": "Sun", "time": "Closed"}], "id": "0442400001", "name": "USPS COLLECTION BOX - BLUE BOX", "address": {"city": "DANFORTH", "state": "ME", "street": "33 SPRINGFIELD RD", "postcode": "04424"}}},
{"geometry": {"type": "Point", "coordinates": [-68.0128777931, 45.5400818968]}, "type": "Feature", "properties": {"collection_times": [{"days": "Mon-Fri", "time": "4:00pm"}, {"days": "Sat", "time": "11:15am"}, {"days": "Sun", "time": "Closed"}], "id": "0442400003", "name": "USPS COLLECTION BOX - PO LOBBY", "address": {"city": "DANFORTH", "state": "ME", "street": "33 SPRINGFIELD RD", "postcode": "04424"}}},
{"geometry": {"type": "Point", "coordinates": [-69.2318112108, 45.1877262324]}, "type": "Feature", "properties": {"collection_times": [{"days": "Mon-Fri", "time": "5:00pm"}, {"days": "Sat", "time": "12:30pm"}, {"days": "Sun", "time": "Closed"}], "id": "0442600001", "name": "USPS COLLECTION BOX - BLUE BOX", "address": {"city": "DOVER FOXCROFT", "state": "ME", "street": "41 NORTH ST", "postcode": "04426"}}},
{"geometry": {"type": "Point", "coordinates": [-69.2112983565, 45.1965163049]}, "type": "Feature", "properties": {"collection_times": [{"days": "Mon-Fri", "time": "3:00pm"}, {"days": "Sat", "time": "2:30pm"}, {"days": "Sun", "time": "Closed"}], "id": "0442600008", "name": "USPS COLLECTION BOX - BLUE BOX", "address": {"city": "DOVER FOXCROFT", "state": "ME", "street": "160 E MAIN ST", "postcode": "04426"}}},
{"geometry": {"type": "Point", "coordinates": [-69.2599313587, 45.1810775065]}, "type": "Feature", "properties": {"collection_times": [{"days": "Mon-Fri", "time": "2:30pm"}, {"days": "Sat-Sun", "time": "Closed"}], "id": "0442600012", "name": "USPS COLLECTION BOX - BLUE BOX", "address": {"city": "DOVER FOXCROFT", "state": "ME", "street": "1073 W MAIN ST", "postcode": "04426"}}},
{"geometry": {"type": "Point", "coordinates": [-69.2318112108, 45.1877262324]}, "type": "Feature", "properties": {"collection_times": [{"days": "Mon-Fri", "time": "5:15pm"}, {"days": "Sat", "time": "12:30pm"}, {"days": "Sun", "time": "Closed"}], "id": "0442600013", "name": "USPS COLLECTION BOX - PO LOBBY", "address": {"city": "DOVER FOXCROFT", "state": "ME", "street": "41 NORTH ST", "postcode": "04426"}}},
{"geometry": {"type": "Point", "coordinates": [-69.2318112108, 45.1877262324]}, "type": "Feature", "properties": {"collection_times": [{"days": "Mon-Fri", "time": "5:00pm"}, {"days": "Sat", "time": "12:30pm"}, {"days": "Sun", "time": "Closed"}], "id": "0442600014", "name": "USPS COLLECTION BOX - BLUE BOX", "address": {"city": "DOVER FOXCROFT", "state": "ME", "street": "41 NORTH ST", "postcode": "04426"}}},
{"geometry": {"type": "Point", "coordinates": [-69.0258928343, 45.0098858033]}, "type": "Feature", "properties": {"collection_times": [{"days": "Mon-Fri", "time": "4:30pm"}, {"days": "Sat", "time": "11:30am"}, {"days": "Sun", "time": "Closed"}], "id": "0442700001", "name": "USPS COLLECTION BOX - BLUE BOX", "address": {"city": "CORINTH", "state": "ME", "street": "274 MAIN ST", "postcode": "04427"}}},
{"geometry": {"type": "Point", "coordinates": [-69.0258928343, 45.0098858033]}, "type": "Feature", "properties": {"collection_times": [{"days": "Mon-Fri", "time": "5:00pm"}, {"days": "Sat", "time": "11:30am"}, {"days": "Sun", "time": "Closed"}], "id": "0442700003", "name": "USPS COLLECTION BOX - PO LOBBY", "address": {"city": "CORINTH", "state": "ME", "street": "274 MAIN ST", "postcode": "04427"}}},
{"geometry": {"type": "Point", "coordinates": [-68.617111403, 44.8099635091]}, "type": "Feature", "properties": {"collection_times": [{"days": "Mon-Fri", "time": "4:30pm"}, {"days": "Sat", "time": "12:00pm"}, {"days": "Sun", "time": "Closed"}], "id": "0442800001", "name": "USPS COLLECTION BOX - BLUE BOX", "address": {"city": "EDDINGTON", "state": "ME", "street": "1042 MAIN RD", "postcode": "04428"}}},
{"geometry": {"type": "Point", "coordinates": [-68.617111403, 44.8099635091]}, "type": "Feature", "properties": {"collection_times": [{"days": "Mon-Fri", "time": "4:30pm"}, {"days": "Sat", "time": "12:00pm"}, {"days": "Sun", "time": "Closed"}], "id": "0442800002", "name": "USPS COLLECTION BOX - PO LOBBY", "address": {"city": "EDDINGTON", "state": "ME", "street": "1042 MAIN RD", "postcode": "04428"}}},
{"geometry": {"type": "Point", "coordinates": [-68.6296889549, 44.7219895642]}, "type": "Feature", "properties": {"collection_times": [{"days": "Mon-Fri", "time": "4:30pm"}, {"days": "Sat", "time": "12:30pm"}, {"days": "Sun", "time": "Closed"}], "id": "0442900001", "name": "USPS COLLECTION BOX - BLUE BOX", "address": {"city": "HOLDEN", "state": "ME", "street": "966 MAIN RD", "postcode": "04429"}}},
{"geometry": {"type": "Point", "coordinates": [-68.6296889549, 44.7219895642]}, "type": "Feature", "properties": {"collection_times": [{"days": "Mon-Fri", "time": "5:00pm"}, {"days": "Sat", "time": "12:30pm"}, {"days": "Sun", "time": "Closed"}], "id": "0442900003", "name": "USPS COLLECTION BOX - PO LOBBY", "address": {"city": "HOLDEN", "state": "ME", "street": "966 MAIN RD", "postcode": "04429"}}},
{"geometry": {"type": "Point", "coordinates": [-68.5668963759, 45.6233571416]}, "type": "Feature", "properties": {"collection_times": [{"days": "Mon-Fri", "time": "4:15pm"}, {"days": "Sat", "time": "2:30pm"}, {"days": "Sun", "time": "Closed"}], "id": "0443000001", "name": "USPS COLLECTION BOX - BLUE BOX", "address": {"city": "E MILLINOCKET", "state": "ME", "street": "95 MAIN ST", "postcode": "04430"}}},
{"geometry": {"type": "Point", "coordinates": [-68.5668963759, 45.6233571416]}, "type": "Feature", "properties": {"collection_times": [{"days": "Mon-Fri", "time": "4:15pm"}, {"days": "Sat", "time": "2:30pm"}, {"days": "Sun", "time": "Closed"}], "id": "0443000003", "name": "USPS COLLECTION BOX - PO LOBBY", "address": {"city": "E MILLINOCKET", "state": "ME", "street": "95 MAIN ST", "postcode": "04430"}}},
{"geometry": {"type": "Point", "coordinates": [-68.6820859916, 44.5669281044]}, "type": "Feature", "properties": {"collection_times": [{"days": "Mon-Fri", "time": "4:15pm"}, {"days": "Sat", "time": "11:45am"}, {"days": "Sun", "time": "Closed"}], "id": "0443100001", "name": "USPS COLLECTION BOX - BLUE BOX", "address": {"city": "EAST ORLAND", "state": "ME", "street": "986 ACADIA HWY", "postcode": "04431"}}},
{"geometry": {"type": "Point", "coordinates": [-68.6820859916, 44.5669281044]}, "type": "Feature", "properties": {"collection_times": [{"days": "Mon-Fri", "time": "4:45pm"}, {"days": "Sat", "time": "11:45am"}, {"days": "Sun", "time": "Closed"}], "id": "0443100002", "name": "USPS COLLECTION BOX - PO LOBBY", "address": {"city": "EAST ORLAND", "state": "ME", "street": "986 ACADIA HWY", "postcode": "04431"}}},
{"geometry": {"type": "Point", "coordinates": [-69.1332170611, 44.7851063664]}, "type": "Feature", "properties": {"collection_times": [{"days": "Mon-Fri", "time": "4:30pm"}, {"days": "Sat", "time": "11:30am"}, {"days": "Sun", "time": "Closed"}], "id": "0443400001", "name": "USPS COLLECTION BOX - BLUE BOX", "address": {"city": "ETNA", "state": "ME", "street": "205 STAGE RD", "postcode": "04434"}}},
{"geometry": {"type": "Point", "coordinates": [-69.1332170611, 44.7851063664]}, "type": "Feature", "properties": {"collection_times": [{"days": "Mon-Fri", "time": "4:30pm"}, {"days": "Sat", "time": "11:30am"}, {"days": "Sun", "time": "Closed"}], "id": "0443400002", "name": "USPS COLLECTION BOX - PO LOBBY", "address": {"city": "ETNA", "state": "ME", "street": "205 STAGE RD", "postcode": "04434"}}},
{"geometry": {"type": "Point", "coordinates": [-69.1498037344, 44.9160466677]}, "type": "Feature", "properties": {"collection_times": [{"days": "Mon-Fri", "time": "3:45pm"}, {"days": "Sat", "time": "10:45am"}, {"days": "Sun", "time": "Closed"}], "id": "0443500001", "name": "USPS COLLECTION BOX - BLUE BOX", "address": {"city": "EXETER", "state": "ME", "street": "1220 STETSON RD", "postcode": "04435"}}},
{"geometry": {"type": "Point", "coordinates": [-69.1498037344, 44.9160466677]}, "type": "Feature", "properties": {"collection_times": [{"days": "Mon-Fri", "time": "4:00pm"}, {"days": "Sat", "time": "11:00am"}, {"days": "Sun", "time": "Closed"}], "id": "0443500002", "name": "USPS COLLECTION BOX - PO LOBBY", "address": {"city": "EXETER", "state": "ME", "street": "1220 STETSON RD", "postcode": "04435"}}},
{"geometry": {"type": "Point", "coordinates": [-68.8714200495, 44.6114300266]}, "type": "Feature", "properties": {"collection_times": [{"days": "Mon-Fri", "time": "4:00pm"}, {"days": "Sat", "time": "10:45am"}, {"days": "Sun", "time": "Closed"}], "id": "0443800001", "name": "USPS COLLECTION BOX - BLUE BOX", "address": {"city": "FRANKFORT", "state": "ME", "street": "48B MAIN RD S", "postcode": "04438"}}},
{"geometry": {"type": "Point", "coordinates": [-68.8714200495, 44.6114300266]}, "type": "Feature", "properties": {"collection_times": [{"days": "Mon-Fri", "time": "4:00pm"}, {"days": "Sat", "time": "11:00am"}, {"days": "Sun", "time": "Closed"}], "id": "0443800002", "name": "USPS COLLECTION BOX - PO LOBBY", "address": {"city": "FRANKFORT", "state": "ME", "street": "48B MAIN RD S", "postcode": "04438"}}},
{"geometry": {"type": "Point", "coordinates": [-68.8714200495, 44.6114300266]}, "type": "Feature", "properties": {"collection_times": [{"days": "Mon-Fri", "time": "4:00pm"}, {"days": "Sat", "time": "11:00am"}, {"days": "Sun", "time": "Closed"}], "id": "0443800003", "name": "USPS COLLECTION BOX - PO LOBBY", "address": {"city": "FRANKFORT", "state": "ME", "street": "48B MAIN RD S", "postcode": "04438"}}},
{"geometry": {"type": "Point", "coordinates": [-69.4837915005, 45.6535995665]}, "type": "Feature", "properties": {"collection_times": [{"days": "Mon-Fri", "time": "3:45pm"}, {"days": "Sat", "time": "11:45am"}, {"days": "Sun", "time": "Closed"}], "id": "0444100001", "name": "USPS COLLECTION BOX - BLUE BOX", "address": {"city": "GREENVILLE", "state": "ME", "street": "25 LILY BAY RD", "postcode": "04441"}}},
{"geometry": {"type": "Point", "coordinates": [-69.4837915005, 45.6535995665]}, "type": "Feature", "properties": {"collection_times": [{"days": "Mon-Fri", "time": "3:45pm"}, {"days": "Sat", "time": "11:45am"}, {"days": "Sun", "time": "Closed"}], "id": "0444100003", "name": "USPS COLLECTION BOX - PO LOBBY", "address": {"city": "GREENVILLE", "state": "ME", "street": "25 LILY BAY RD", "postcode": "04441"}}},
{"geometry": {"type": "Point", "coordinates": [-69.6746796501, 45.5154822139]}, "type": "Feature", "properties": {"collection_times": [{"days": "Mon-Fri", "time": "3:30pm"}, {"days": "Sat", "time": "11:45am"}, {"days": "Sun", "time": "Closed"}], "id": "0444200001", "name": "USPS COLLECTION BOX - BLUE BOX", "address": {"city": "GREENVLLE JCT", "state": "ME", "street": "383 PRITHAM AVE", "postcode": "04442"}}},
{"geometry": {"type": "Point", "coordinates": [-69.6746796501, 45.5154822139]}, "type": "Feature", "properties": {"collection_times": [{"days": "Mon-Fri", "time": "3:30pm"}, {"days": "Sat", "time": "11:45am"}, {"days": "Sun", "time": "Closed"}], "id": "0444200002", "name": "USPS COLLECTION BOX - PO LOBBY", "address": {"city": "GREENVLLE JCT", "state": "ME", "street": "383 PRITHAM AVE", "postcode": "04442"}}},
{"geometry": {"type": "Point", "coordinates": [-69.3806961588, 45.1659447175]}, "type": "Feature", "properties": {"collection_times": [{"days": "Mon-Fri", "time": "4:15pm"}, {"days": "Sat", "time": "11:30am"}, {"days": "Sun", "time": "Closed"}], "id": "0444300001", "name": "USPS COLLECTION BOX - BLUE BOX", "address": {"city": "GUILFORD", "state": "ME", "street": "10 HUDSON AVE", "postcode": "04443"}}},
{"geometry": {"type": "Point", "coordinates": [-69.3806961588, 45.1659447175]}, "type": "Feature", "properties": {"collection_times": [{"days": "Mon-Fri", "time": "4:30pm"}, {"days": "Sat", "time": "12:00pm"}, {"days": "Sun", "time": "Closed"}], "id": "0444300002", "name": "USPS COLLECTION BOX - PO LOBBY", "address": {"city": "GUILFORD", "state": "ME", "street": "10 HUDSON AVE", "postcode": "04443"}}},
{"geometry": {"type": "Point", "coordinates": [-69.3806961588, 45.1659447175]}, "type": "Feature", "properties": {"collection_times": [{"days": "Mon-Fri", "time": "4:30pm"}, {"days": "Sat", "time": "12:00pm"}, {"days": "Sun", "time": "Closed"}], "id": "0444300003", "name": "USPS COLLECTION BOX - PO LOBBY", "address": {"city": "GUILFORD", "state": "ME", "street": "10 HUDSON AVE", "postcode": "04443"}}},
{"geometry": {"type": "Point", "coordinates": [-68.8494328443, 44.7453623471]}, "type": "Feature", "properties": {"collection_times": [{"days": "Mon-Fri", "time": "5:15pm"}, {"days": "Sat", "time": "1:30pm"}, {"days": "Sun", "time": "Closed"}], "id": "0444400002", "name": "USPS COLLECTION BOX - BLUE BOX", "address": {"city": "HAMPDEN", "state": "ME", "street": "114 WESTERN AVE", "postcode": "04444"}}},
{"geometry": {"type": "Point", "coordinates": [-68.8489190903, 44.7452794079]}, "type": "Feature", "properties": {"collection_times": [{"days": "Mon-Fri", "time": "9:00pm"}, {"days": "Sat", "time": "6:45pm"}, {"days": "Sun", "time": "Closed"}], "id": "0444400004", "name": "USPS COLLECTION BOX - BLUE BOX", "address": {"city": "HAMPDEN", "state": "ME", "street": "16 PENOBSCOT MEADOW DR", "postcode": "04444"}}},
{"geometry": {"type": "Point", "coordinates": [-68.8489190903, 44.7452794079]}, "type": "Feature", "properties": {"collection_times": [{"days": "Mon-Fri", "time": "4:30pm"}, {"days": "Sat", "time": "1:00pm"}, {"days": "Sun", "time": "Closed"}], "id": "0444400006", "name": "USPS COLLECTION BOX - EXPRESS", "address": {"city": "HAMPDEN", "state": "ME", "street": "16 PENOBSCOT MEADOW DR", "postcode": "04444"}}},
{"geometry": {"type": "Point", "coordinates": [-68.8494328443, 44.7453623471]}, "type": "Feature", "properties": {"collection_times": [{"days": "Mon-Fri", "time": "5:15pm"}, {"days": "Sat", "time": "1:30pm"}, {"days": "Sun", "time": "Closed"}], "id": "0444400008", "name": "USPS COLLECTION BOX - PO LOBBY", "address": {"city": "HAMPDEN", "state": "ME", "street": "114 WESTERN AVE", "postcode": "04444"}}},
{"geometry": {"type": "Point", "coordinates": [-68.8489190903, 44.7452794079]}, "type": "Feature", "properties": {"collection_times": [{"days": "Mon-Fri", "time": "9:00pm"}, {"days": "Sat", "time": "6:45pm"}, {"days": "Sun", "time": "Closed"}], "id": "0444400011", "name": "USPS COLLECTION BOX - BLUE BOX", "address": {"city": "HAMPDEN", "state": "ME", "street": "16 PENOBSCOT MEADOW DR", "postcode": "04444"}}},
{"geometry": {"type": "Point", "coordinates": [-68.8453221196, 44.7448580309]}, "type": "Feature", "properties": {"collection_times": [{"days": "Mon-Sat", "time": "11:30am"}, {"days": "Sun", "time": "Closed"}], "id": "0444400012", "name": "USPS COLLECTION BOX - BLUE BOX", "address": {"city": "HAMPDEN", "state": "ME", "street": "77 WESTERN AVE", "postcode": "04444"}}},
{"geometry": {"type": "Point", "coordinates": [-68.6568249553, 45.2413881142]}, "type": "Feature", "properties": {"collection_times": [{"days": "Mon-Fri", "time": "4:00pm"}, {"days": "Sat", "time": "11:30am"}, {"days": "Sun", "time": "Closed"}], "id": "0444800001", "name": "USPS COLLECTION BOX - BLUE BOX", "address": {"city": "HOWLAND", "state": "ME", "street": "18 MAIN ST", "postcode": "04448"}}},
{"geometry": {"type": "Point", "coordinates": [-68.6568249553, 45.2413881142]}, "type": "Feature", "properties": {"collection_times": [{"days": "Mon-Fri", "time": "4:15pm"}, {"days": "Sat", "time": "11:30am"}, {"days": "Sun", "time": "Closed"}], "id": "0444800002", "name": "USPS COLLECTION BOX - PO LOBBY", "address": {"city": "HOWLAND", "state": "ME", "street": "18 MAIN ST", "postcode": "04448"}}},
{"geometry": {"type": "Point", "coordinates": [-68.8923271577, 44.9879386606]}, "type": "Feature", "properties": {"collection_times": [{"days": "Mon-Fri", "time": "4:00pm"}, {"days": "Sat", "time": "10:30am"}, {"days": "Sun", "time": "Closed"}], "id": "0444900001", "name": "USPS COLLECTION BOX - BLUE BOX", "address": {"city": "HUDSON", "state": "ME", "street": "29 OLD TOWN RD", "postcode": "04449"}}},
{"geometry": {"type": "Point", "coordinates": [-68.8923271577, 44.9879386606]}, "type": "Feature", "properties": {"collection_times": [{"days": "Mon-Fri", "time": "4:00pm"}, {"days": "Sat", "time": "10:30am"}, {"days": "Sun", "time": "Closed"}], "id": "0444900002", "name": "USPS COLLECTION BOX - PO LOBBY", "address": {"city": "HUDSON", "state": "ME", "street": "29 OLD TOWN RD", "postcode": "04449"}}},
{"geometry": {"type": "Point", "coordinates": [-68.9186423563, 44.9164124042]}, "type": "Feature", "properties": {"collection_times": [{"days": "Mon-Fri", "time": "2:45pm"}, {"days": "Sat", "time": "10:45am"}, {"days": "Sun", "time": "Closed"}], "id": "0445000001", "name": "USPS COLLECTION BOX - BLUE BOX", "address": {"city": "KENDUSKEAG", "state": "ME", "street": "4008 BROADWAY", "postcode": "04450"}}},
{"geometry": {"type": "Point", "coordinates": [-68.9186423563, 44.9164124042]}, "type": "Feature", "properties": {"collection_times": [{"days": "Mon-Fri", "time": "2:45pm"}, {"days": "Sat", "time": "10:45am"}, {"days": "Sun", "time": "Closed"}], "id": "0445000002", "name": "USPS COLLECTION BOX - PO LOBBY", "address": {"city": "KENDUSKEAG", "state": "ME", "street": "4008 BROADWAY", "postcode": "04450"}}},
{"geometry": {"type": "Point", "coordinates": [-68.201458012, 45.5503341835]}, "type": "Feature", "properties": {"collection_times": [{"days": "Mon-Fri", "time": "4:30pm"}, {"days": "Sat", "time": "11:30am"}, {"days": "Sun", "time": "Closed"}], "id": "0445100003", "name": "USPS COLLECTION BOX - PO LOBBY", "address": {"city": "KINGMAN", "state": "ME", "street": "1383 KINGMAN RD", "postcode": "04451"}}},
{"geometry": {"type": "Point", "coordinates": [-68.8199567458, 45.1707373877]}, "type": "Feature", "properties": {"collection_times": [{"days": "Mon-Fri", "time": "4:00pm"}, {"days": "Sat", "time": "11:30am"}, {"days": "Sun", "time": "Closed"}], "id": "0445300001", "name": "USPS COLLECTION BOX - BLUE BOX", "address": {"city": "LA GRANGE", "state": "ME", "street": "5763 BENNOCH RD", "postcode": "04453"}}},
{"geometry": {"type": "Point", "coordinates": [-68.8199567458, 45.1707373877]}, "type": "Feature", "properties": {"collection_times": [{"days": "Mon-Fri", "time": "4:30pm"}, {"days": "Sat", "time": "11:45am"}, {"days": "Sun", "time": "Closed"}], "id": "0445300002", "name": "USPS COLLECTION BOX - PO LOBBY", "address": {"city": "LA GRANGE", "state": "ME", "street": "5763 BENNOCH RD", "postcode": "04453"}}},
{"geometry": {"type": "Point", "coordinates": [-68.2981259308, 45.3662191853]}, "type": "Feature", "properties": {"collection_times": [{"days": "Mon-Fri", "time": "3:45pm"}, {"days": "Sat", "time": "10:45am"}, {"days": "Sun", "time": "Closed"}], "id": "0445500001", "name": "USPS COLLECTION BOX - BLUE BOX", "address": {"city": "LEE", "state": "ME", "street": "2790 LEE RD", "postcode": "04455"}}},
{"geometry": {"type": "Point", "coordinates": [-68.2981259308, 45.3662191853]}, "type": "Feature", "properties": {"collection_times": [{"days": "Mon-Fri", "time": "4:00pm"}, {"days": "Sat", "time": "11:00am"}, {"days": "Sun", "time": "Closed"}], "id": "0445500002", "name": "USPS COLLECTION BOX - PO LOBBY", "address": {"city": "LEE", "state": "ME", "street": "2790 LEE RD", "postcode": "04455"}}},
{"geometry": {"type": "Point", "coordinates": [-68.9277540872, 44.8673811677]}, "type": "Feature", "properties": {"collection_times": [{"days": "Mon-Fri", "time": "4:30pm"}, {"days": "Sat", "time": "10:30am"}, {"days": "Sun", "time": "Closed"}], "id": "0445600001", "name": "USPS COLLECTION BOX - BLUE BOX", "address": {"city": "LEVANT", "state": "ME", "street": "3454 UNION ST", "postcode": "04456"}}},
{"geometry": {"type": "Point", "coordinates": [-68.9277540872, 44.8673811677]}, "type": "Feature", "properties": {"collection_times": [{"days": "Mon-Fri", "time": "2:45pm"}, {"days": "Sat", "time": "10:30am"}, {"days": "Sun", "time": "Closed"}], "id": "0445600003", "name": "USPS COLLECTION BOX - PO LOBBY", "address": {"city": "LEVANT", "state": "ME", "street": "3454 UNION ST", "postcode": "04456"}}},
{"geometry": {"type": "Point", "coordinates": [-68.5049368186, 45.3649278756]}, "type": "Feature", "properties": {"collection_times": [{"days": "Mon-Fri", "time": "4:15pm"}, {"days": "Sat", "time": "3:30pm"}, {"days": "Sun", "time": "Closed"}], "id": "0445700001", "name": "USPS COLLECTION BOX - BLUE BOX", "address": {"city": "LINCOLN", "state": "ME", "street": "50 FLEMING ST", "postcode": "04457"}}},
{"geometry": {"type": "Point", "coordinates": [-68.4840487156, 45.3725889628]}, "type": "Feature", "properties": {"collection_times": [{"days": "Mon-Sat", "time": "2:00pm"}, {"days": "Sun", "time": "Closed"}], "id": "0445700004", "name": "USPS COLLECTION BOX - BLUE BOX", "address": {"city": "LINCOLN", "state": "ME", "street": "63 MAIN ST", "postcode": "04457"}}},
{"geometry": {"type": "Point", "coordinates": [-68.5159997245, 45.3617573022]}, "type": "Feature", "properties": {"collection_times": [{"days": "Mon-Sat", "time": "8:00am"}, {"days": "Sun", "time": "Closed"}], "id": "0445700005", "name": "USPS COLLECTION BOX - BLUE BOX", "address": {"city": "LINCOLN", "state": "ME", "street": "22 GODING AVE", "postcode": "04457"}}},
{"geometry": {"type": "Point", "coordinates": [-68.5049368186, 45.3649278756]}, "type": "Feature", "properties": {"collection_times": [{"days": "Mon-Fri", "time": "4:15pm"}, {"days": "Sat", "time": "12:00pm"}, {"days": "Sun", "time": "Closed"}], "id": "0445700009", "name": "USPS COLLECTION BOX - PO LOBBY", "address": {"city": "LINCOLN", "state": "ME", "street": "50 FLEMING ST", "postcode": "04457"}}},
{"geometry": {"type": "Point", "coordinates": [-68.5049368186, 45.3649278756]}, "type": "Feature", "properties": {"collection_times": [{"days": "Mon-Fri", "time": "4:15pm"}, {"days": "Sat", "time": "12:00pm"}, {"days": "Sun", "time": "Closed"}], "id": "0445700010", "name": "USPS COLLECTION BOX - PO LOBBY", "address": {"city": "LINCOLN", "state": "ME", "street": "50 FLEMING ST", "postcode": "04457"}}},
{"geometry": {"type": "Point", "coordinates": [-68.3539928202, 45.5175808376]}, "type": "Feature", "properties": {"collection_times": [{"days": "Mon-Fri", "time": "4:00pm"}, {"days": "Sat", "time": "12:00pm"}, {"days": "Sun", "time": "Closed"}], "id": "0445900001", "name": "USPS COLLECTION BOX - BLUE BOX", "address": {"city": "MATTAWAMKEAG", "state": "ME", "street": "328 MAIN ST", "postcode": "04459"}}},
{"geometry": {"type": "Point", "coordinates": [-68.3539928202, 45.5175808376]}, "type": "Feature", "properties": {"collection_times": [{"days": "Mon-Fri", "time": "4:00pm"}, {"days": "Sat", "time": "12:00pm"}, {"days": "Sun", "time": "Closed"}], "id": "0445900002", "name": "USPS COLLECTION BOX - PO LOBBY", "address": {"city": "MATTAWAMKEAG", "state": "ME", "street": "328 MAIN ST", "postcode": "04459"}}},
{"geometry": {"type": "Point", "coordinates": [-68.5398206891, 45.6132686371]}, "type": "Feature", "properties": {"collection_times": [{"days": "Mon-Fri", "time": "4:30pm"}, {"days": "Sat", "time": "11:30am"}, {"days": "Sun", "time": "Closed"}], "id": "0446000001", "name": "USPS COLLECTION BOX - BLUE BOX", "address": {"city": "MEDWAY", "state": "ME", "street": "2070 MEDWAY RD", "postcode": "04460"}}},
{"geometry": {"type": "Point", "coordinates": [-68.3556413147, 45.6812082609]}, "type": "Feature", "properties": {"collection_times": [{"days": "Mon-Fri", "time": "4:30pm"}, {"days": "Sat", "time": "11:30am"}, {"days": "Sun", "time": "Closed"}], "id": "0446000002", "name": "USPS COLLECTION BOX - PO LOBBY", "address": {"city": "MEDWAY", "state": "ME", "street": "2070 MEDWAY RD", "postcode": "04460"}}},
{"geometry": {"type": "Point", "coordinates": [-68.3556413147, 45.6812082609]}, "type": "Feature", "properties": {"collection_times": [{"days": "Mon-Fri", "time": "4:30pm"}, {"days": "Sat", "time": "11:30am"}, {"days": "Sun", "time": "Closed"}], "id": "0446000003", "name": "USPS COLLECTION BOX - PO LOBBY", "address": {"city": "MEDWAY", "state": "ME", "street": "2070 MEDWAY RD", "postcode": "04460"}}},
{"geometry": {"type": "Point", "coordinates": [-68.6419524945, 44.9395964836]}, "type": "Feature", "properties": {"collection_times": [{"days": "Mon-Fri", "time": "4:15pm"}, {"days": "Sat", "time": "11:45am"}, {"days": "Sun", "time": "Closed"}], "id": "0446100002", "name": "USPS COLLECTION BOX - BLUE BOX", "address": {"city": "MILFORD", "state": "ME", "street": "104 MAIN RD", "postcode": "04461"}}},
{"geometry": {"type": "Point", "coordinates": [-68.6419524945, 44.9395964836]}, "type": "Feature", "properties": {"collection_times": [{"days": "Mon-Fri", "time": "4:15pm"}, {"days": "Sat", "time": "11:45am"}, {"days": "Sun", "time": "Closed"}], "id": "0446100003", "name": "USPS COLLECTION BOX - PO LOBBY", "address": {"city": "MILFORD", "state": "ME", "street": "104 MAIN RD", "postcode": "04461"}}},
{"geometry": {"type": "Point", "coordinates": [-68.6419524945, 44.9395964836]}, "type": "Feature", "properties": {"collection_times": [{"days": "Mon-Fri", "time": "4:15pm"}, {"days": "Sat", "time": "11:45am"}, {"days": "Sun", "time": "Closed"}], "id": "0446100004", "name": "USPS COLLECTION BOX - PO LOBBY", "address": {"city": "MILFORD", "state": "ME", "street": "104 MAIN RD", "postcode": "04461"}}},
{"geometry": {"type": "Point", "coordinates": [-68.6812138088, 45.6570944103]}, "type": "Feature", "properties": {"collection_times": [{"days": "Mon-Sat", "time": "2:00pm"}, {"days": "Sun", "time": "Closed"}], "id": "0446200007", "name": "USPS COLLECTION BOX - BLUE BOX", "address": {"city": "MILLINOCKET", "state": "ME", "street": "1000 CENTRAL ST", "postcode": "04462"}}},
{"geometry": {"type": "Point", "coordinates": [-68.6879134253, 45.657315701]}, "type": "Feature", "properties": {"collection_times": [{"days": "Mon-Sat", "time": "2:00pm"}, {"days": "Sun", "time": "Closed"}], "id": "0446200008", "name": "USPS COLLECTION BOX - BLUE BOX", "address": {"city": "MILLINOCKET", "state": "ME", "street": "841 CENTRAL ST", "postcode": "04462"}}},
{"geometry": {"type": "Point", "coordinates": [-68.7089856253, 45.6545337727]}, "type": "Feature", "properties": {"collection_times": [{"days": "Mon-Fri", "time": "4:30pm"}, {"days": "Sat", "time": "3:15pm"}, {"days": "Sun", "time": "Closed"}], "id": "0446200013", "name": "USPS COLLECTION BOX - BLUE BOX", "address": {"city": "MILLINOCKET", "state": "ME", "street": "113 PENOBSCOT AVE", "postcode": "04462"}}},
{"geometry": {"type": "Point", "coordinates": [-68.6893835256, 45.6572333331]}, "type": "Feature", "properties": {"collection_times": [{"days": "Mon-Sat", "time": "2:00pm"}, {"days": "Sun", "time": "Closed"}], "id": "0446200014", "name": "USPS COLLECTION BOX - BLUE BOX", "address": {"city": "MILLINOCKET", "state": "ME", "street": "820 CENTRAL ST", "postcode": "04462"}}},
{"geometry": {"type": "Point", "coordinates": [-68.7089856253, 45.6545337727]}, "type": "Feature", "properties": {"collection_times": [{"days": "Mon-Fri", "time": "4:30pm"}, {"days": "Sat", "time": "3:15pm"}, {"days": "Sun", "time": "Closed"}], "id": "0446200016", "name": "USPS COLLECTION BOX - PO LOBBY", "address": {"city": "MILLINOCKET", "state": "ME", "street": "113 PENOBSCOT AVE", "postcode": "04462"}}},
{"geometry": {"type": "Point", "coordinates": [-69.0323839137, 45.302130014]}, "type": "Feature", "properties": {"collection_times": [{"days": "Mon-Sat", "time": "2:30pm"}, {"days": "Sun", "time": "Closed"}], "id": "0446300001", "name": "USPS COLLECTION BOX - BLUE BOX", "address": {"city": "MILO", "state": "ME", "street": "53 MAIN ST", "postcode": "04463"}}},
{"geometry": {"type": "Point", "coordinates": [-68.9877110652, 45.2587739922]}, "type": "Feature", "properties": {"collection_times": [{"days": "Mon-Sat", "time": "2:15pm"}, {"days": "Sun", "time": "Closed"}], "id": "0446300002", "name": "USPS COLLECTION BOX - BLUE BOX", "address": {"city": "MILO", "state": "ME", "street": "57 PARK ST", "postcode": "04463"}}},
{"geometry": {"type": "Point", "coordinates": [-68.9859710007, 45.2533242875]}, "type": "Feature", "properties": {"collection_times": [{"days": "Mon-Fri", "time": "4:00pm"}, {"days": "Sat", "time": "3:00pm"}, {"days": "Sun", "time": "Closed"}], "id": "0446300003", "name": "USPS COLLECTION BOX - BLUE BOX", "address": {"city": "MILO", "state": "ME", "street": "10 PLEASANT ST", "postcode": "04463"}}},
{"geometry": {"type": "Point", "coordinates": [-68.9859710007, 45.2533242875]}, "type": "Feature", "properties": {"collection_times": [{"days": "Mon-Fri", "time": "4:00pm"}, {"days": "Sat", "time": "11:30am"}, {"days": "Sun", "time": "Closed"}], "id": "0446300005", "name": "USPS COLLECTION BOX - PO LOBBY", "address": {"city": "MILO", "state": "ME", "street": "10 PLEASANT ST", "postcode": "04463"}}},
{"geometry": {"type": "Point", "coordinates": [-69.5009116625, 45.2865978073]}, "type": "Feature", "properties": {"collection_times": [{"days": "Mon-Fri", "time": "4:15pm"}, {"days": "Sat", "time": "11:15am"}, {"days": "Sun", "time": "Closed"}], "id": "0446400001", "name": "USPS COLLECTION BOX - BLUE BOX", "address": {"city": "MONSON", "state": "ME", "street": "2 GREENVILLE RD", "postcode": "04464"}}},
{"geometry": {"type": "Point", "coordinates": [-69.5009116625, 45.2865978073]}, "type": "Feature", "properties": {"collection_times": [{"days": "Mon-Fri", "time": "4:15pm"}, {"days": "Sat", "time": "11:15am"}, {"days": "Sun", "time": "Closed"}], "id": "0446400002", "name": "USPS COLLECTION BOX - PO LOBBY", "address": {"city": "MONSON", "state": "ME", "street": "2 GREENVILLE RD", "postcode": "04464"}}},
{"geometry": {"type": "Point", "coordinates": [-69.5009116625, 45.2865978073]}, "type": "Feature", "properties": {"collection_times": [{"days": "Mon-Fri", "time": "4:15pm"}, {"days": "Sat", "time": "11:15am"}, {"days": "Sun", "time": "Closed"}], "id": "0446400003", "name": "USPS COLLECTION BOX - PO LOBBY", "address": {"city": "MONSON", "state": "ME", "street": "2 GREENVILLE RD", "postcode": "04464"}}},
{"geometry": {"type": "Point", "coordinates": [-68.6455418306, 44.9348418539]}, "type": "Feature", "properties": {"collection_times": [{"days": "Mon-Fri", "time": "5:00pm"}, {"days": "Sat", "time": "1:45pm"}, {"days": "Sun", "time": "Closed"}], "id": "0446800001", "name": "USPS COLLECTION BOX - BLUE BOX", "address": {"city": "OLD TOWN", "state": "ME", "street": "141 CENTER ST", "postcode": "04468"}}},
{"geometry": {"type": "Point", "coordinates": [-68.644806041, 44.9324613156]}, "type": "Feature", "properties": {"collection_times": [{"days": "Mon-Sat", "time": "12:00pm"}, {"days": "Sun", "time": "Closed"}], "id": "0446800003", "name": "USPS COLLECTION BOX - BLUE BOX", "address": {"city": "OLD TOWN", "state": "ME", "street": "157 MAIN ST", "postcode": "04468"}}},
{"geometry": {"type": "Point", "coordinates": [-68.6469990065, 44.9348004082]}, "type": "Feature", "properties": {"collection_times": [{"days": "Mon-Fri", "time": "5:00pm"}, {"days": "Sat", "time": "1:45pm"}, {"days": "Sun", "time": "Closed"}], "id": "0446800006", "name": "USPS COLLECTION BOX - BLUE BOX", "address": {"city": "OLD TOWN", "state": "ME", "street": "21 SHIRLEY ST", "postcode": "04468"}}},
{"geometry": {"type": "Point", "coordinates": [-68.6668279273, 44.9267566807]}, "type": "Feature", "properties": {"collection_times": [{"days": "Mon-Sat", "time": "9:00am"}, {"days": "Sun", "time": "Closed"}], "id": "0446800007", "name": "USPS COLLECTION BOX - BLUE BOX", "address": {"city": "OLD TOWN", "state": "ME", "street": "500 STILLWATER AVE", "postcode": "04468"}}},
{"geometry": {"type": "Point", "coordinates": [-68.6455418306, 44.9348418539]}, "type": "Feature", "properties": {"collection_times": [{"days": "Mon-Fri", "time": "5:00pm"}, {"days": "Sat", "time": "12:00pm"}, {"days": "Sun", "time": "Closed"}], "id": "0446800018", "name": "USPS COLLECTION BOX - PO LOBBY", "address": {"city": "OLD TOWN", "state": "ME", "street": "141 CENTER ST", "postcode": "04468"}}},
{"geometry": {"type": "Point", "coordinates": [-68.6455418306, 44.9348418539]}, "type": "Feature", "properties": {"collection_times": [{"days": "Mon-Fri", "time": "5:00pm"}, {"days": "Sat", "time": "12:00pm"}, {"days": "Sun", "time": "Closed"}], "id": "0446800019", "name": "USPS COLLECTION BOX - PO LOBBY", "address": {"city": "OLD TOWN", "state": "ME", "street": "141 CENTER ST", "postcode": "04468"}}},
{"geometry": {"type": "Point", "coordinates": [-68.6867171521, 44.5693886262]}, "type": "Feature", "properties": {"collection_times": [{"days": "Mon-Fri", "time": "4:15pm"}, {"days": "Sat", "time": "11:15am"}, {"days": "Sun", "time": "Closed"}], "id": "0447200001", "name": "USPS COLLECTION BOX - BLUE BOX", "address": {"city": "ORLAND", "state": "ME", "street": "59 CASTINE RD", "postcode": "04472"}}},
{"geometry": {"type": "Point", "coordinates": [-68.6867171521, 44.5693886262]}, "type": "Feature", "properties": {"collection_times": [{"days": "Mon-Fri", "time": "4:00pm"}, {"days": "Sat", "time": "11:15am"}, {"days": "Sun", "time": "Closed"}], "id": "0447200003", "name": "USPS COLLECTION BOX - PO LOBBY", "address": {"city": "ORLAND", "state": "ME", "street": "59 CASTINE RD", "postcode": "04472"}}},
{"geometry": {"type": "Point", "coordinates": [-68.6725839382, 44.8835203866]}, "type": "Feature", "properties": {"collection_times": [{"days": "Mon-Fri", "time": "5:00pm"}, {"days": "Sat", "time": "1:00pm"}, {"days": "Sun", "time": "Closed"}], "id": "0447300001", "name": "USPS COLLECTION BOX - BLUE BOX", "address": {"city": "ORONO", "state": "ME", "street": "1 BENNOCH RD", "postcode": "04473"}}},
{"geometry": {"type": "Point", "coordinates": [-68.6808859057, 44.8716026948]}, "type": "Feature", "properties": {"collection_times": [{"days": "Mon-Sat", "time": "1:00pm"}, {"days": "Sun", "time": "Closed"}], "id": "0447300003", "name": "USPS COLLECTION BOX - BLUE BOX", "address": {"city": "ORONO", "state": "ME", "street": "232 MAIN ST", "postcode": "04473"}}},
{"geometry": {"type": "Point", "coordinates": [-68.6793089175, 44.8868086582]}, "type": "Feature", "properties": {"collection_times": [{"days": "Mon-Fri", "time": "9:00am"}, {"days": "Sat-Sun", "time": "Closed"}], "id": "0447300008", "name": "USPS COLLECTION BOX - BLUE BOX", "address": {"city": "ORONO", "state": "ME", "street": "6 STILLWATER AVE", "postcode": "04473"}}},
{"geometry": {"type": "Point", "coordinates": [-68.6712395876, 44.9005303391]}, "type": "Feature", "properties": {"collection_times": [{"days": "Mon-Fri", "time": "1:00pm"}, {"days": "Sat-Sun", "time": "Closed"}], "id": "0447300011", "name": "USPS COLLECTION BOX - BLUE BOX", "address": {"city": "ORONO", "state": "ME", "street": "5728 FERNALD HALL", "postcode": "04473"}}},
{"geometry": {"type": "Point", "coordinates": [-68.6725839382, 44.8835203866]}, "type": "Feature", "properties": {"collection_times": [{"days": "Mon-Fri", "time": "5:15pm"}, {"days": "Sat", "time": "12:00pm"}, {"days": "Sun", "time": "Closed"}], "id": "0447300015", "name": "USPS COLLECTION BOX - PO LOBBY", "address": {"city": "ORONO", "state": "ME", "street": "1 BENNOCH RD", "postcode": "04473"}}},
{"geometry": {"type": "Point", "coordinates": [-68.6725839382, 44.8835203866]}, "type": "Feature", "properties": {"collection_times": [{"days": "Mon-Fri", "time": "5:15pm"}, {"days": "Sat", "time": "12:00pm"}, {"days": "Sun", "time": "Closed"}], "id": "0447300016", "name": "USPS COLLECTION BOX - PO LOBBY", "address": {"city": "ORONO", "state": "ME", "street": "1 BENNOCH RD", "postcode": "04473"}}},
{"geometry": {"type": "Point", "coordinates": [-68.7124373718, 44.8869567608]}, "type": "Feature", "properties": {"collection_times": [{"days": "Mon-Fri", "time": "1:00pm"}, {"days": "Sat-Sun", "time": "Closed"}], "id": "0447300017", "name": "USPS COLLECTION BOX - BLUE BOX", "address": {"city": "ORONO", "state": "ME", "street": "5721 CUTLER HEALTH CTR", "postcode": "04473"}}},
{"geometry": {"type": "Point", "coordinates": [-68.7877081148, 44.7271297059]}, "type": "Feature", "properties": {"collection_times": [{"days": "Mon-Fri", "time": "4:45pm"}, {"days": "Sat", "time": "11:45am"}, {"days": "Sun", "time": "Closed"}], "id": "0447400001", "name": "USPS COLLECTION BOX - BLUE BOX", "address": {"city": "ORRINGTON", "state": "ME", "street": "726 RIVER RD", "postcode": "04474"}}},
{"geometry": {"type": "Point", "coordinates": [-68.7877081148, 44.7271297059]}, "type": "Feature", "properties": {"collection_times": [{"days": "Mon-Fri", "time": "4:45pm"}, {"days": "Sat", "time": "11:45am"}, {"days": "Sun", "time": "Closed"}], "id": "0447400002", "name": "USPS COLLECTION BOX - PO LOBBY", "address": {"city": "ORRINGTON", "state": "ME", "street": "726 RIVER RD", "postcode": "04474"}}},
{"geometry": {"type": "Point", "coordinates": [-68.7877081148, 44.7271297059]}, "type": "Feature", "properties": {"collection_times": [{"days": "Mon-Fri", "time": "4:45pm"}, {"days": "Sat", "time": "11:45am"}, {"days": "Sun", "time": "Closed"}], "id": "0447400003", "name": "USPS COLLECTION BOX - PO LOBBY", "address": {"city": "ORRINGTON", "state": "ME", "street": "726 RIVER RD", "postcode": "04474"}}},
{"geometry": {"type": "Point", "coordinates": [-68.611546937, 45.1848600254]}, "type": "Feature", "properties": {"collection_times": [{"days": "Mon-Fri", "time": "3:30pm"}, {"days": "Sat", "time": "11:00am"}, {"days": "Sun", "time": "Closed"}], "id": "0447500001", "name": "USPS COLLECTION BOX - BLUE BOX", "address": {"city": "PASSADUMKEAG", "state": "ME", "street": "70 PLEASANT ST", "postcode": "04475"}}},
{"geometry": {"type": "Point", "coordinates": [-68.611546937, 45.1848600254]}, "type": "Feature", "properties": {"collection_times": [{"days": "Mon-Fri", "time": "3:30pm"}, {"days": "Sat", "time": "11:00am"}, {"days": "Sun", "time": "Closed"}], "id": "0447500002", "name": "USPS COLLECTION BOX - PO LOBBY", "address": {"city": "PASSADUMKEAG", "state": "ME", "street": "70 PLEASANT ST", "postcode": "04475"}}},
{"geometry": {"type": "Point", "coordinates": [-68.7050507105, 44.4744602482]}, "type": "Feature", "properties": {"collection_times": [{"days": "Mon-Fri", "time": "3:00pm"}, {"days": "Sat", "time": "11:45am"}, {"days": "Sun", "time": "Closed"}], "id": "0447600001", "name": "USPS COLLECTION BOX - BLUE BOX", "address": {"city": "PENOBSCOT", "state": "ME", "street": "1 N PENOBSCOT RD", "postcode": "04476"}}},
{"geometry": {"type": "Point", "coordinates": [-68.7050507105, 44.4744602482]}, "type": "Feature", "properties": {"collection_times": [{"days": "Mon-Fri", "time": "3:00pm"}, {"days": "Sat", "time": "11:45am"}, {"days": "Sun", "time": "Closed"}], "id": "0447600003", "name": "USPS COLLECTION BOX - PO LOBBY", "address": {"city": "PENOBSCOT", "state": "ME", "street": "1 N PENOBSCOT RD", "postcode": "04476"}}},
{"geometry": {"type": "Point", "coordinates": [-69.8967490439, 45.8888060316]}, "type": "Feature", "properties": {"collection_times": [{"days": "Mon-Fri", "time": "3:00pm"}, {"days": "Sat", "time": "11:45am"}, {"days": "Sun", "time": "Closed"}], "id": "0447800001", "name": "USPS COLLECTION BOX - BLUE BOX", "address": {"city": "ROCKWOOD", "state": "ME", "street": "62 VILLAGE RD", "postcode": "04478"}}},
{"geometry": {"type": "Point", "coordinates": [-69.8967490439, 45.8888060316]}, "type": "Feature", "properties": {"collection_times": [{"days": "Mon-Fri", "time": "3:00pm"}, {"days": "Sat", "time": "11:45am"}, {"days": "Sun", "time": "Closed"}], "id": "0447800003", "name": "USPS COLLECTION BOX - PO LOBBY", "address": {"city": "ROCKWOOD", "state": "ME", "street": "62 VILLAGE RD", "postcode": "04478"}}},
{"geometry": {"type": "Point", "coordinates": [-69.3578303826, 45.1657024124]}, "type": "Feature", "properties": {"collection_times": [{"days": "Mon-Fri", "time": "3:30pm"}, {"days": "Sat", "time": "11:15am"}, {"days": "Sun", "time": "Closed"}], "id": "0447900001", "name": "USPS COLLECTION BOX - BLUE BOX", "address": {"city": "SANGERVILLE", "state": "ME", "street": "54 MAIN ST", "postcode": "04479"}}},
{"geometry": {"type": "Point", "coordinates": [-69.3578303826, 45.1657024124]}, "type": "Feature", "properties": {"collection_times": [{"days": "Mon-Fri", "time": "3:30pm"}, {"days": "Sat", "time": "11:15am"}, {"days": "Sun", "time": "Closed"}], "id": "0447900003", "name": "USPS COLLECTION BOX - PO LOBBY", "address": {"city": "SANGERVILLE", "state": "ME", "street": "54 MAIN ST", "postcode": "04479"}}},
{"geometry": {"type": "Point", "coordinates": [-68.1002964115, 45.3942480495]}, "type": "Feature", "properties": {"collection_times": [{"days": "Mon-Fri", "time": "4:45pm"}, {"days": "Sat", "time": "11:15am"}, {"days": "Sun", "time": "Closed"}], "id": "0448700001", "name": "USPS COLLECTION BOX - BLUE BOX", "address": {"city": "SPRINGFIELD", "state": "ME", "street": "1007 MAIN ST", "postcode": "04487"}}},
{"geometry": {"type": "Point", "coordinates": [-68.1002964115, 45.3942480495]}, "type": "Feature", "properties": {"collection_times": [{"days": "Mon-Fri", "time": "4:45pm"}, {"days": "Sat", "time": "11:15am"}, {"days": "Sun", "time": "Closed"}], "id": "0448700003", "name": "USPS COLLECTION BOX - PO LOBBY", "address": {"city": "SPRINGFIELD", "state": "ME", "street": "1007 MAIN ST", "postcode": "04487"}}},
{"geometry": {"type": "Point", "coordinates": [-69.105188977, 44.8803693595]}, "type": "Feature", "properties": {"collection_times": [{"days": "Mon-Fri", "time": "4:00pm"}, {"days": "Sat", "time": "11:00am"}, {"days": "Sun", "time": "Closed"}], "id": "0448800001", "name": "USPS COLLECTION BOX - BLUE BOX", "address": {"city": "STETSON", "state": "ME", "street": "6 STETSON RD", "postcode": "04488"}}},
{"geometry": {"type": "Point", "coordinates": [-69.105188977, 44.8803693595]}, "type": "Feature", "properties": {"collection_times": [{"days": "Mon-Fri", "time": "4:00pm"}, {"days": "Sat", "time": "11:15am"}, {"days": "Sun", "time": "Closed"}], "id": "0448800002", "name": "USPS COLLECTION BOX - PO LOBBY", "address": {"city": "STETSON", "state": "ME", "street": "6 STETSON RD", "postcode": "04488"}}},
{"geometry": {"type": "Point", "coordinates": [-68.686456897, 44.9080497351]}, "type": "Feature", "properties": {"collection_times": [{"days": "Mon-Fri", "time": "4:30pm"}, {"days": "Sat", "time": "11:30am"}, {"days": "Sun", "time": "Closed"}], "id": "0448900000", "name": "USPS COLLECTION BOX - BLUE BOX", "address": {"city": "STILLWATER", "state": "ME", "street": "441 BENNOCH RD", "postcode": "04489"}}},
{"geometry": {"type": "Point", "coordinates": [-68.686456897, 44.9080497351]}, "type": "Feature", "properties": {"collection_times": [{"days": "Mon-Fri", "time": "4:30pm"}, {"days": "Sat", "time": "11:30am"}, {"days": "Sun", "time": "Closed"}], "id": "0448900002", "name": "USPS COLLECTION BOX - PO LOBBY", "address": {"city": "STILLWATER", "state": "ME", "street": "441 BENNOCH RD", "postcode": "04489"}}},
{"geometry": {"type": "Point", "coordinates": [-67.7162193481, 45.3901477734]}, "type": "Feature", "properties": {"collection_times": [{"days": "Mon-Fri", "time": "3:00pm"}, {"days": "Sat", "time": "11:15am"}, {"days": "Sun", "time": "Closed"}], "id": "0449000001", "name": "USPS COLLECTION BOX - BLUE BOX", "address": {"city": "TOPSFIELD", "state": "ME", "street": "61 SOUTH RD", "postcode": "04490"}}},
{"geometry": {"type": "Point", "coordinates": [-67.7162193481, 45.3901477734]}, "type": "Feature", "properties": {"collection_times": [{"days": "Mon-Fri", "time": "3:15pm"}, {"days": "Sat", "time": "11:30am"}, {"days": "Sun", "time": "Closed"}], "id": "0449000002", "name": "USPS COLLECTION BOX - PO LOBBY", "address": {"city": "TOPSFIELD", "state": "ME", "street": "61 SOUTH RD", "postcode": "04490"}}},
{"geometry": {"type": "Point", "coordinates": [-67.4699353042, 45.5598462259]}, "type": "Feature", "properties": {"collection_times": [{"days": "Mon-Fri", "time": "2:30pm"}, {"days": "Sat", "time": "11:15am"}, {"days": "Sun", "time": "Closed"}], "id": "0449100001", "name": "USPS COLLECTION BOX - BLUE BOX", "address": {"city": "VANCEBORO", "state": "ME", "street": "23 WATER ST", "postcode": "04491"}}},
{"geometry": {"type": "Point", "coordinates": [-67.4699353042, 45.5598462259]}, "type": "Feature", "properties": {"collection_times": [{"days": "Mon-Fri", "time": "2:45pm"}, {"days": "Sat", "time": "11:15am"}, {"days": "Sun", "time": "Closed"}], "id": "0449100003", "name": "USPS COLLECTION BOX - PO LOBBY", "address": {"city": "VANCEBORO", "state": "ME", "street": "23 WATER ST", "postcode": "04491"}}},
{"geometry": {"type": "Point", "coordinates": [-67.6905571341, 45.3303252394]}, "type": "Feature", "properties": {"collection_times": [{"days": "Mon-Fri", "time": "12:00pm"}, {"days": "Sat-Sun", "time": "Closed"}], "id": "0449200000", "name": "USPS COLLECTION BOX - BLUE BOX", "address": {"city": "WAITE", "state": "ME", "street": "455 HOULTON RD", "postcode": "04492"}}},
{"geometry": {"type": "Point", "coordinates": [-68.6485803039, 45.2372116197]}, "type": "Feature", "properties": {"collection_times": [{"days": "Mon-Fri", "time": "4:15pm"}, {"days": "Sat", "time": "11:15am"}, {"days": "Sun", "time": "Closed"}], "id": "0449300001", "name": "USPS COLLECTION BOX - BLUE BOX", "address": {"city": "WEST ENFIELD", "state": "ME", "street": "41 BRIDGE ST", "postcode": "04493"}}},
{"geometry": {"type": "Point", "coordinates": [-68.5547984331, 45.2623210572]}, "type": "Feature", "properties": {"collection_times": [{"days": "Mon-Fri", "time": "3:45pm"}, {"days": "Sat-Sun", "time": "Closed"}], "id": "0449300002", "name": "USPS COLLECTION BOX - BLUE BOX", "address": {"city": "WEST ENFIELD", "state": "ME", "street": "555 HAMMETT RD", "postcode": "04493"}}},
{"geometry": {"type": "Point", "coordinates": [-68.6485803039, 45.2372116197]}, "type": "Feature", "properties": {"collection_times": [{"days": "Mon-Fri", "time": "4:15pm"}, {"days": "Sat", "time": "11:20am"}, {"days": "Sun", "time": "Closed"}], "id": "0449300003", "name": "USPS COLLECTION BOX - PO LOBBY", "address": {"city": "WEST ENFIELD", "state": "ME", "street": "41 BRIDGE ST", "postcode": "04493"}}},
{"geometry": {"type": "Point", "coordinates": [-68.8552229256, 44.6309450803]}, "type": "Feature", "properties": {"collection_times": [{"days": "Mon-Fri", "time": "5:00pm"}, {"days": "Sat", "time": "12:00pm"}, {"days": "Sun", "time": "Closed"}], "id": "0449600001", "name": "USPS COLLECTION BOX - BLUE BOX", "address": {"city": "WINTERPORT", "state": "ME", "street": "400 S MAIN ST", "postcode": "04496"}}},
{"geometry": {"type": "Point", "coordinates": [-68.8552229256, 44.6309450803]}, "type": "Feature", "properties": {"collection_times": [{"days": "Mon-Fri", "time": "5:00pm"}, {"days": "Sat", "time": "12:00pm"}, {"days": "Sun", "time": "Closed"}], "id": "0449600003", "name": "USPS COLLECTION BOX - PO LOBBY", "address": {"city": "WINTERPORT", "state": "ME", "street": "400 S MAIN ST", "postcode": "04496"}}},
{"geometry": {"type": "Point", "coordinates": [-68.0799138297, 45.7251147801]}, "type": "Feature", "properties": {"collection_times": [{"days": "Mon-Fri", "time": "3:45pm"}, {"days": "Sat", "time": "10:45am"}, {"days": "Sun", "time": "Closed"}], "id": "0449700000", "name": "USPS COLLECTION BOX - BLUE BOX", "address": {"city": "WYTOPITLOCK", "state": "ME", "street": "751 MAIN ST", "postcode": "04497"}}},
{"geometry": {"type": "Point", "coordinates": [-68.0799138297, 45.7251147801]}, "type": "Feature", "properties": {"collection_times": [{"days": "Mon-Fri", "time": "12:00pm"}, {"days": "Sat", "time": "10:45am"}, {"days": "Sun", "time": "Closed"}], "id": "0449700001", "name": "USPS COLLECTION BOX - PO LOBBY", "address": {"city": "WYTOPITLOCK", "state": "ME", "street": "751 MAIN ST", "postcode": "04497"}}}
]}
