{"type": "FeatureCollection", "features": [
{"geometry": {"type": "Point", "coordinates": [-69.8462465443, 43.9113534202]}, "type": "Feature", "properties": {"collection_times": [{"days": "Mon-Fri", "time": "5:00pm"}, {"days": "Sat", "time": "9:00am"}, {"days": "Sun", "time": "Closed"}], "id": "0453000002", "name": "USPS COLLECTION BOX - BLUE BOX", "address": {"city": "BATH", "state": "ME", "street": "1 CHANDLER DR", "postcode": "04530"}}},
{"geometry": {"type": "Point", "coordinates": [-69.8328108999, 43.9121542051]}, "type": "Feature", "properties": {"collection_times": [{"days": "Mon-Sat", "time": "9:00am"}, {"days": "Sun", "time": "Closed"}], "id": "0453000003", "name": "USPS COLLECTION BOX - BLUE BOX", "address": {"city": "BATH", "state": "ME", "street": "55 CONGRESS AVE", "postcode": "04530"}}},
{"geometry": {"type": "Point", "coordinates": [-69.8141967684, 43.9135900327]}, "type": "Feature", "properties": {"collection_times": [{"days": "Mon-Fri", "time": "5:00pm"}, {"days": "Sat", "time": "2:00pm"}, {"days": "Sun", "time": "Closed"}], "id": "0453000006", "name": "USPS COLLECTION BOX - BLUE BOX", "address": {"city": "BATH", "state": "ME", "street": "113 FRONT ST", "postcode": "04530"}}},
{"geometry": {"type": "Point", "coordinates": [-69.814019553, 43.9127607207]}, "type": "Feature", "properties": {"collection_times": [{"days": "Mon-Fri", "time": "5:00pm"}, {"days": "Sat", "time": "2:00pm"}, {"days": "Sun", "time": "Closed"}], "id": "0453000009", "name": "USPS COLLECTION BOX - BLUE BOX", "address": {"city": "BATH", "state": "ME", "street": "55 FRONT ST", "postcode": "04530"}}},
{"geometry": {"type": "Point", "coordinates": [-69.8199140091, 43.9115257693]}, "type": "Feature", "properties": {"collection_times": [{"days": "Mon-Fri", "time": "5:00pm"}, {"days": "Sat", "time": "12:00pm"}, {"days": "Sun", "time": "Closed"}], "id": "0453000016", "name": "USPS COLLECTION BOX - BLUE BOX", "address": {"city": "BATH", "state": "ME", "street": "752 HIGH ST", "postcode": "04530"}}},
{"geometry": {"type": "Point", "coordinates": [-69.8256785681, 43.917933858]}, "type": "Feature", "properties": {"collection_times": [{"days": "Mon-Sat", "time": "9:30am"}, {"days": "Sun", "time": "Closed"}], "id": "0453000020", "name": "USPS COLLECTION BOX - BLUE BOX", "address": {"city": "BATH", "state": "ME", "street": "245 NORTH ST", "postcode": "04530"}}},
{"geometry": {"type": "Point", "coordinates": [-69.8159154599, 43.9036389623]}, "type": "Feature", "properties": {"collection_times": [{"days": "Mon-Sat", "time": "9:30am"}, {"days": "Sun", "time": "Closed"}], "id": "0453000028", "name": "USPS COLLECTION BOX - BLUE BOX", "address": {"city": "BATH", "state": "ME", "street": "520 WASHINGTON ST", "postcode": "04530"}}},
{"geometry": {"type": "Point", "coordinates": [-69.8304659851, 43.9064406759]}, "type": "Feature", "properties": {"collection_times": [{"days": "Mon-Fri", "time": "5:00pm"}, {"days": "Sat", "time": "2:00pm"}, {"days": "Sun", "time": "Closed"}], "id": "0453000033", "name": "USPS COLLECTION BOX - EXPRESS", "address": {"city": "BATH", "state": "ME", "street": "113 FRONT ST", "postcode": "04530"}}},
{"geometry": {"type": "Point", "coordinates": [-69.8142260848, 43.9145976062]}, "type": "Feature", "properties": {"collection_times": [{"days": "Mon-Fri", "time": "5:00pm"}, {"days": "Sat", "time": "2:00pm"}, {"days": "Sun", "time": "Closed"}], "id": "0453000038", "name": "USPS COLLECTION BOX - BLUE BOX", "address": {"city": "BATH", "state": "ME", "street": "155 FRONT ST", "postcode": "04530"}}},
{"geometry": {"type": "Point", "coordinates": [-69.8160985695, 43.9109474765]}, "type": "Feature", "properties": {"collection_times": [{"days": "Mon-Sat", "time": "5:00pm"}, {"days": "Sun", "time": "Closed"}], "id": "0453000046", "name": "USPS COLLECTION BOX - BLUE BOX", "address": {"city": "BATH", "state": "ME", "street": "750 WASHINGTON ST", "postcode": "04530"}}},
{"geometry": {"type": "Point", "coordinates": [-69.8160800391, 43.9109177284]}, "type": "Feature", "properties": {"collection_times": [{"days": "Mon-Fri", "time": "5:00pm"}, {"days": "Sat", "time": "4:00pm"}, {"days": "Sun", "time": "Closed"}], "id": "0453000047", "name": "USPS COLLECTION BOX - PO LOBBY", "address": {"city": "BATH", "state": "ME", "street": "750 WASHINGTON ST", "postcode": "04530"}}},
{"geometry": {"type": "Point", "coordinates": [-69.6044018065, 44.1058695853]}, "type": "Feature", "properties": {"collection_times": [{"days": "Mon-Fri", "time": "4:15pm"}, {"days": "Sat", "time": "11:45am"}, {"days": "Sun", "time": "Closed"}], "id": "0453500001", "name": "USPS COLLECTION BOX - BLUE BOX", "address": {"city": "ALNA", "state": "ME", "street": "148 DOCK RD", "postcode": "04535"}}},
{"geometry": {"type": "Point", "coordinates": [-69.6044018065, 44.1058695853]}, "type": "Feature", "properties": {"collection_times": [{"days": "Mon-Fri", "time": "4:15pm"}, {"days": "Sat", "time": "11:45am"}, {"days": "Sun", "time": "Closed"}], "id": "0453500002", "name": "USPS COLLECTION BOX - PO LOBBY", "address": {"city": "ALNA", "state": "ME", "street": "148 DOCK RD", "postcode": "04535"}}},
{"geometry": {"type": "Point", "coordinates": [-69.6395390177, 43.873113347]}, "type": "Feature", "properties": {"collection_times": [{"days": "Mon-Fri", "time": "4:30pm"}, {"days": "Sat", "time": "11:45am"}, {"days": "Sun", "time": "Closed"}], "id": "0453700001", "name": "USPS COLLECTION BOX - BLUE BOX", "address": {"city": "BOOTHBAY", "state": "ME", "street": "16 COREY LN", "postcode": "04537"}}},
{"geometry": {"type": "Point", "coordinates": [-69.6395390177, 43.873113347]}, "type": "Feature", "properties": {"collection_times": [{"days": "Mon-Fri", "time": "4:45pm"}, {"days": "Sat", "time": "12:00pm"}, {"days": "Sun", "time": "Closed"}], "id": "0453700002", "name": "USPS COLLECTION BOX - PO LOBBY", "address": {"city": "BOOTHBAY", "state": "ME", "street": "16 COREY LN", "postcode": "04537"}}},
{"geometry": {"type": "Point", "coordinates": [-69.6284042705, 43.8525541266]}, "type": "Feature", "properties": {"collection_times": [{"days": "Mon-Fri", "time": "4:45pm"}, {"days": "Sat", "time": "4:30pm"}, {"days": "Sun", "time": "Closed"}], "id": "0453800004", "name": "USPS COLLECTION BOX - BLUE BOX", "address": {"city": "BOOTHBAY HARBOR", "state": "ME", "street": "15 OAK ST", "postcode": "04538"}}},
{"geometry": {"type": "Point", "coordinates": [-69.6278024839, 43.8516901927]}, "type": "Feature", "properties": {"collection_times": [{"days": "Mon-Sat", "time": "11:30am"}, {"days": "Sun", "time": "Closed"}], "id": "0453800005", "name": "USPS COLLECTION BOX - BLUE BOX", "address": {"city": "BOOTHBAY HARBOR", "state": "ME", "street": "3 TOWNSEND AVE", "postcode": "04538"}}},
{"geometry": {"type": "Point", "coordinates": [-69.6265490804, 43.8604374662]}, "type": "Feature", "properties": {"collection_times": [{"days": "Mon-Sat", "time": "11:00am"}, {"days": "Sun", "time": "Closed"}], "id": "0453800008", "name": "USPS COLLECTION BOX - BLUE BOX", "address": {"city": "BOOTHBAY HARBOR", "state": "ME", "street": "180 TOWNSEND AVE", "postcode": "04538"}}},
{"geometry": {"type": "Point", "coordinates": [-69.626600321, 43.860859309]}, "type": "Feature", "properties": {"collection_times": [{"days": "Mon-Sat", "time": "10:00am"}, {"days": "Sun", "time": "Closed"}], "id": "0453800009", "name": "USPS COLLECTION BOX - BLUE BOX", "address": {"city": "BOOTHBAY HARBOR", "state": "ME", "street": "185 TOWNSEND AVE", "postcode": "04538"}}},
{"geometry": {"type": "Point", "coordinates": [-69.6284042705, 43.8525541266]}, "type": "Feature", "properties": {"collection_times": [{"days": "Mon-Fri", "time": "4:45pm"}, {"days": "Sat", "time": "4:30pm"}, {"days": "Sun", "time": "Closed"}], "id": "0453800012", "name": "USPS COLLECTION BOX - PO LOBBY", "address": {"city": "BOOTHBAY HARBOR", "state": "ME", "street": "15 OAK ST", "postcode": "04538"}}},
{"geometry": {"type": "Point", "coordinates": [-69.5147993285, 43.9095105182]}, "type": "Feature", "properties": {"collection_times": [{"days": "Mon-Fri", "time": "4:00pm"}, {"days": "Sat", "time": "11:45am"}, {"days": "Sun", "time": "Closed"}], "id": "0453900003", "name": "USPS COLLECTION BOX - BLUE BOX", "address": {"city": "BRISTOL", "state": "ME", "street": "1249 BRISTOL RD", "postcode": "04539"}}},
{"geometry": {"type": "Point", "coordinates": [-69.5147993285, 43.9095105182]}, "type": "Feature", "properties": {"collection_times": [{"days": "Mon-Fri", "time": "4:00pm"}, {"days": "Sat", "time": "11:45am"}, {"days": "Sun", "time": "Closed"}], "id": "0453900004", "name": "USPS COLLECTION BOX - PO LOBBY", "address": {"city": "BRISTOL", "state": "ME", "street": "1249 BRISTOL RD", "postcode": "04539"}}},
{"geometry": {"type": "Point", "coordinates": [-69.4840483916, 43.8797604035]}, "type": "Feature", "properties": {"collection_times": [{"days": "Mon-Fri", "time": "4:00pm"}, {"days": "Sat", "time": "12:00pm"}, {"days": "Sun", "time": "Closed"}], "id": "0454100001", "name": "USPS COLLECTION BOX - BLUE BOX", "address": {"city": "CHAMBERLAIN", "state": "ME", "street": "419 STATE ROUTE 32", "postcode": "04541"}}},
{"geometry": {"type": "Point", "coordinates": [-69.4840483916, 43.8797604035]}, "type": "Feature", "properties": {"collection_times": [{"days": "Mon-Fri", "time": "4:00pm"}, {"days": "Sat", "time": "12:00pm"}, {"days": "Sun", "time": "Closed"}], "id": "0454100003", "name": "USPS COLLECTION BOX - PO LOBBY", "address": {"city": "CHAMBERLAIN", "state": "ME", "street": "419 STATE ROUTE 32", "postcode": "04541"}}},
{"geometry": {"type": "Point", "coordinates": [-69.5317347036, 44.0327806782]}, "type": "Feature", "properties": {"collection_times": [{"days": "Mon-Fri", "time": "4:30pm"}, {"days": "Sat", "time": "12:00pm"}, {"days": "Sun", "time": "Closed"}], "id": "0454300001", "name": "USPS COLLECTION BOX - BLUE BOX", "address": {"city": "DAMARISCOTTA", "state": "ME", "street": "173 MAIN ST", "postcode": "04543"}}},
{"geometry": {"type": "Point", "coordinates": [-69.512425219, 44.0358987762]}, "type": "Feature", "properties": {"collection_times": [{"days": "Mon-Fri", "time": "11:00am"}, {"days": "Sat-Sun", "time": "Closed"}], "id": "0454300003", "name": "USPS COLLECTION BOX - BLUE BOX", "address": {"city": "DAMARISCOTTA", "state": "ME", "street": "469 MAIN ST", "postcode": "04543"}}},
{"geometry": {"type": "Point", "coordinates": [-69.524497259, 44.0314499608]}, "type": "Feature", "properties": {"collection_times": [{"days": "Mon-Fri", "time": "1:00pm"}, {"days": "Sat-Sun", "time": "Closed"}], "id": "0454300004", "name": "USPS COLLECTION BOX - BLUE BOX", "address": {"city": "DAMARISCOTTA", "state": "ME", "street": "15 COASTAL MARKET DR", "postcode": "04543"}}},
{"geometry": {"type": "Point", "coordinates": [-69.5317347036, 44.0327806782]}, "type": "Feature", "properties": {"collection_times": [{"days": "Mon-Fri", "time": "4:45pm"}, {"days": "Sat", "time": "1:30pm"}, {"days": "Sun", "time": "Closed"}], "id": "0454300005", "name": "USPS COLLECTION BOX - PO LOBBY", "address": {"city": "DAMARISCOTTA", "state": "ME", "street": "173 MAIN ST", "postcode": "04543"}}},
{"geometry": {"type": "Point", "coordinates": [-69.5317347036, 44.0327806782]}, "type": "Feature", "properties": {"collection_times": [{"days": "Mon-Fri", "time": "4:45pm"}, {"days": "Sat", "time": "1:30pm"}, {"days": "Sun", "time": "Closed"}], "id": "0454300006", "name": "USPS COLLECTION BOX - PO LOBBY", "address": {"city": "DAMARISCOTTA", "state": "ME", "street": "173 MAIN ST", "postcode": "04543"}}},
{"geometry": {"type": "Point", "coordinates": [-69.5272275507, 44.0310818302]}, "type": "Feature", "properties": {"collection_times": [{"days": "Mon-Fri", "time": "10:00am"}, {"days": "Sat-Sun", "time": "Closed"}], "id": "0454300007", "name": "USPS COLLECTION BOX - BLUE BOX", "address": {"city": "DAMARISCOTTA", "state": "ME", "street": "277 MAIN ST", "postcode": "04543"}}},
{"geometry": {"type": "Point", "coordinates": [-69.5957286746, 43.8156501909]}, "type": "Feature", "properties": {"collection_times": [{"days": "Mon-Fri", "time": "3:45pm"}, {"days": "Sat", "time": "11:15am"}, {"days": "Sun", "time": "Closed"}], "id": "0454400001", "name": "USPS COLLECTION BOX - BLUE BOX", "address": {"city": "EAST BOOTHBAY", "state": "ME", "street": "216A OCEAN POINT RD", "postcode": "04544"}}},
{"geometry": {"type": "Point", "coordinates": [-69.5957286746, 43.8156501909]}, "type": "Feature", "properties": {"collection_times": [{"days": "Mon-Fri", "time": "3:45pm"}, {"days": "Sat", "time": "11:15am"}, {"days": "Sun", "time": "Closed"}], "id": "0454400002", "name": "USPS COLLECTION BOX - PO LOBBY", "address": {"city": "EAST BOOTHBAY", "state": "ME", "street": "216A OCEAN POINT RD", "postcode": "04544"}}},
{"geometry": {"type": "Point", "coordinates": [-69.336934775, 43.9791542168]}, "type": "Feature", "properties": {"collection_times": [{"days": "Mon-Fri", "time": "3:45pm"}, {"days": "Sat", "time": "10:45am"}, {"days": "Sun", "time": "Closed"}], "id": "0454700001", "name": "USPS COLLECTION BOX - BLUE BOX", "address": {"city": "FRIENDSHIP", "state": "ME", "street": "71 HARBOR RD", "postcode": "04547"}}},
{"geometry": {"type": "Point", "coordinates": [-69.336934775, 43.9791542168]}, "type": "Feature", "properties": {"collection_times": [{"days": "Mon-Fri", "time": "2:30pm"}, {"days": "Sat", "time": "10:45am"}, {"days": "Sun", "time": "Closed"}], "id": "0454700002", "name": "USPS COLLECTION BOX - PO LOBBY", "address": {"city": "FRIENDSHIP", "state": "ME", "street": "71 HARBOR RD", "postcode": "04547"}}},
{"geometry": {"type": "Point", "coordinates": [-69.7423579631, 43.8109505362]}, "type": "Feature", "properties": {"collection_times": [{"days": "Mon-Fri", "time": "4:15pm"}, {"days": "Sat", "time": "11:30am"}, {"days": "Sun", "time": "Closed"}], "id": "0454800001", "name": "USPS COLLECTION BOX - BLUE BOX", "address": {"city": "GEORGETOWN", "state": "ME", "street": "765 FIVE ISLANDS RD", "postcode": "04548"}}},
{"geometry": {"type": "Point", "coordinates": [-69.7423579631, 43.8109505362]}, "type": "Feature", "properties": {"collection_times": [{"days": "Mon-Fri", "time": "4:15pm"}, {"days": "Sat", "time": "11:30am"}, {"days": "Sun", "time": "Closed"}], "id": "0454800003", "name": "USPS COLLECTION BOX - PO LOBBY", "address": {"city": "GEORGETOWN", "state": "ME", "street": "765 FIVE ISLANDS RD", "postcode": "04548"}}},
{"geometry": {"type": "Point", "coordinates": [-69.7423579631, 43.8109505362]}, "type": "Feature", "properties": {"collection_times": [{"days": "Mon-Fri", "time": "4:15pm"}, {"days": "Sat", "time": "11:30am"}, {"days": "Sun", "time": "Closed"}], "id": "0454800004", "name": "USPS COLLECTION BOX - PO LOBBY", "address": {"city": "GEORGETOWN", "state": "ME", "street": "765 FIVE ISLANDS RD", "postcode": "04548"}}},
{"geometry": {"type": "Point", "coordinates": [-69.4347185395, 44.0009619718]}, "type": "Feature", "properties": {"collection_times": [{"days": "Mon-Fri", "time": "4:00pm"}, {"days": "Sat", "time": "11:30am"}, {"days": "Sun", "time": "Closed"}], "id": "0455100001", "name": "USPS COLLECTION BOX - BLUE BOX", "address": {"city": "BREMEN", "state": "ME", "street": "160 MEDOMAK RD", "postcode": "04551"}}},
{"geometry": {"type": "Point", "coordinates": [-69.4347185395, 44.0009619718]}, "type": "Feature", "properties": {"collection_times": [{"days": "Mon-Fri", "time": "3:15pm"}, {"days": "Sat", "time": "11:30am"}, {"days": "Sun", "time": "Closed"}], "id": "0455100002", "name": "USPS COLLECTION BOX - PO LOBBY", "address": {"city": "BREMEN", "state": "ME", "street": "160 MEDOMAK RD", "postcode": "04551"}}},
{"geometry": {"type": "Point", "coordinates": [-69.5369059936, 44.0350738928]}, "type": "Feature", "properties": {"collection_times": [{"days": "Mon-Fri", "time": "4:45pm"}, {"days": "Sat", "time": "12:15pm"}, {"days": "Sun", "time": "Closed"}], "id": "0455300001", "name": "USPS COLLECTION BOX - BLUE BOX", "address": {"city": "NEWCASTLE", "state": "ME", "street": "106 MILLS RD", "postcode": "04553"}}},
{"geometry": {"type": "Point", "coordinates": [-69.5369059936, 44.0350738928]}, "type": "Feature", "properties": {"collection_times": [{"days": "Mon-Fri", "time": "4:45pm"}, {"days": "Sat", "time": "11:45am"}, {"days": "Sun", "time": "Closed"}], "id": "0455300004", "name": "USPS COLLECTION BOX - PO LOBBY", "address": {"city": "NEWCASTLE", "state": "ME", "street": "106 MILLS RD", "postcode": "04553"}}},
{"geometry": {"type": "Point", "coordinates": [-69.4997377269, 43.8787499504]}, "type": "Feature", "properties": {"collection_times": [{"days": "Mon-Fri", "time": "3:45pm"}, {"days": "Sat", "time": "11:00am"}, {"days": "Sun", "time": "Closed"}], "id": "0455400001", "name": "USPS COLLECTION BOX - BLUE BOX", "address": {"city": "NEW HARBOR", "state": "ME", "street": "2500 BRISTOL RD", "postcode": "04554"}}},
{"geometry": {"type": "Point", "coordinates": [-69.4997377269, 43.8787499504]}, "type": "Feature", "properties": {"collection_times": [{"days": "Mon-Fri", "time": "4:15pm"}, {"days": "Sat", "time": "11:00am"}, {"days": "Sun", "time": "Closed"}], "id": "0455400004", "name": "USPS COLLECTION BOX - PO LOBBY", "address": {"city": "NEW HARBOR", "state": "ME", "street": "2500 BRISTOL RD", "postcode": "04554"}}},
{"geometry": {"type": "Point", "coordinates": [-69.4869585402, 44.0975514438]}, "type": "Feature", "properties": {"collection_times": [{"days": "Mon-Fri", "time": "4:00pm"}, {"days": "Sat", "time": "11:00am"}, {"days": "Sun", "time": "Closed"}], "id": "0455500002", "name": "USPS COLLECTION BOX - BLUE BOX", "address": {"city": "NOBLEBORO", "state": "ME", "street": "36 CENTER ST", "postcode": "04555"}}},
{"geometry": {"type": "Point", "coordinates": [-69.4869585402, 44.0975514438]}, "type": "Feature", "properties": {"collection_times": [{"days": "Mon-Fri", "time": "4:15pm"}, {"days": "Sat", "time": "11:30am"}, {"days": "Sun", "time": "Closed"}], "id": "0455500004", "name": "USPS COLLECTION BOX - PO LOBBY", "address": {"city": "NOBLEBORO", "state": "ME", "street": "36 CENTER ST", "postcode": "04555"}}},
{"geometry": {"type": "Point", "coordinates": [-69.6315694206, 44.0022029567]}, "type": "Feature", "properties": {"collection_times": [{"days": "Mon-Fri", "time": "4:15pm"}, {"days": "Sat", "time": "11:45am"}, {"days": "Sun", "time": "Closed"}], "id": "0455600000", "name": "USPS COLLECTION BOX - BLUE BOX", "address": {"city": "EDGECOMB", "state": "ME", "street": "5 CROSS RD", "postcode": "04556"}}},
{"geometry": {"type": "Point", "coordinates": [-69.6315694206, 44.0022029567]}, "type": "Feature", "properties": {"collection_times": [{"days": "Mon-Fri", "time": "4:15pm"}, {"days": "Sat", "time": "11:45am"}, {"days": "Sun", "time": "Closed"}], "id": "0455600001", "name": "USPS COLLECTION BOX - PO LOBBY", "address": {"city": "EDGECOMB", "state": "ME", "street": "5 CROSS RD", "postcode": "04556"}}},
{"geometry": {"type": "Point", "coordinates": [-69.6315694206, 44.0022029567]}, "type": "Feature", "properties": {"collection_times": [{"days": "Mon-Fri", "time": "4:15pm"}, {"days": "Sat", "time": "11:45am"}, {"days": "Sun", "time": "Closed"}], "id": "0455600002", "name": "USPS COLLECTION BOX - PO LOBBY", "address": {"city": "EDGECOMB", "state": "ME", "street": "5 CROSS RD", "postcode": "04556"}}},
{"geometry": {"type": "Point", "coordinates": [-69.8125772894, 43.8484519209]}, "type": "Feature", "properties": {"collection_times": [{"days": "Mon-Fri", "time": "4:15pm"}, {"days": "Sat", "time": "11:15am"}, {"days": "Sun", "time": "Closed"}], "id": "0456200005", "name": "USPS COLLECTION BOX - BLUE BOX", "address": {"city": "PHIPPSBURG", "state": "ME", "street": "520 MAIN RD", "postcode": "04562"}}},
{"geometry": {"type": "Point", "coordinates": [-69.8125772894, 43.8484519209]}, "type": "Feature", "properties": {"collection_times": [{"days": "Mon-Fri", "time": "4:15pm"}, {"days": "Sat", "time": "11:15am"}, {"days": "Sun", "time": "Closed"}], "id": "0456200009", "name": "USPS COLLECTION BOX - PO LOBBY", "address": {"city": "PHIPPSBURG", "state": "ME", "street": "520 MAIN RD", "postcode": "04562"}}},
{"geometry": {"type": "Point", "coordinates": [-69.2682562762, 43.9997183834]}, "type": "Feature", "properties": {"collection_times": [{"days": "Mon-Fri", "time": "3:30pm"}, {"days": "Sat", "time": "11:30am"}, {"days": "Sun", "time": "Closed"}], "id": "0456300001", "name": "USPS COLLECTION BOX - BLUE BOX", "address": {"city": "CUSHING", "state": "ME", "street": "384 PLEASANT POINT RD", "postcode": "04563"}}},
{"geometry": {"type": "Point", "coordinates": [-69.2682562762, 43.9997183834]}, "type": "Feature", "properties": {"collection_times": [{"days": "Mon-Fri", "time": "3:30pm"}, {"days": "Sat", "time": "11:30am"}, {"days": "Sun", "time": "Closed"}], "id": "0456300003", "name": "USPS COLLECTION BOX - PO LOBBY", "address": {"city": "CUSHING", "state": "ME", "street": "384 PLEASANT POINT RD", "postcode": "04563"}}},
{"geometry": {"type": "Point", "coordinates": [-69.4640126624, 43.9409685343]}, "type": "Feature", "properties": {"collection_times": [{"days": "Mon-Fri", "time": "4:30pm"}, {"days": "Sat", "time": "11:30am"}, {"days": "Sun", "time": "Closed"}], "id": "0456400001", "name": "USPS COLLECTION BOX - BLUE BOX", "address": {"city": "ROUND POND", "state": "ME", "street": "2 POST OFFICE RD", "postcode": "04564"}}},
{"geometry": {"type": "Point", "coordinates": [-69.4640126624, 43.9409685343]}, "type": "Feature", "properties": {"collection_times": [{"days": "Mon-Fri", "time": "4:30pm"}, {"days": "Sat", "time": "11:30am"}, {"days": "Sun", "time": "Closed"}], "id": "0456400002", "name": "USPS COLLECTION BOX - PO LOBBY", "address": {"city": "ROUND POND", "state": "ME", "street": "2 POST OFFICE RD", "postcode": "04564"}}},
{"geometry": {"type": "Point", "coordinates": [-69.8517861851, 43.7636344025]}, "type": "Feature", "properties": {"collection_times": [{"days": "Mon-Fri", "time": "4:00pm"}, {"days": "Sat", "time": "11:45am"}, {"days": "Sun", "time": "Closed"}], "id": "0456500001", "name": "USPS COLLECTION BOX - BLUE BOX", "address": {"city": "SEBASCO ESTATES", "state": "ME", "street": "415 SEBASCO RD", "postcode": "04565"}}},
{"geometry": {"type": "Point", "coordinates": [-69.8517861851, 43.7636344025]}, "type": "Feature", "properties": {"collection_times": [{"days": "Mon-Fri", "time": "4:00pm"}, {"days": "Sat", "time": "11:45am"}, {"days": "Sun", "time": "Closed"}], "id": "0456500004", "name": "USPS COLLECTION BOX - PO LOBBY", "address": {"city": "SEBASCO ESTATES", "state": "ME", "street": "415 SEBASCO RD", "postcode": "04565"}}},
{"geometry": {"type": "Point", "coordinates": [-69.676722739, 43.9012544804]}, "type": "Feature", "properties": {"collection_times": [{"days": "Mon-Fri", "time": "3:15pm"}, {"days": "Sat", "time": "11:45am"}, {"days": "Sun", "time": "Closed"}], "id": "0457100001", "name": "USPS COLLECTION BOX - BLUE BOX", "address": {"city": "TREVETT", "state": "ME", "street": "381A BARTERS ISLAND RD", "postcode": "04571"}}},
{"geometry": {"type": "Point", "coordinates": [-69.676722739, 43.9012544804]}, "type": "Feature", "properties": {"collection_times": [{"days": "Mon-Fri", "time": "3:15pm"}, {"days": "Sat", "time": "11:45am"}, {"days": "Sun", "time": "Closed"}], "id": "0457100002", "name": "USPS COLLECTION BOX - PO LOBBY", "address": {"city": "TREVETT", "state": "ME", "street": "381A BARTERS ISLAND RD", "postcode": "04571"}}},
{"geometry": {"type": "Point", "coordinates": [-69.408858276, 44.0984711301]}, "type": "Feature", "properties": {"collection_times": [{"days": "Mon-Fri", "time": "4:00pm"}, {"days": "Sat", "time": "12:00pm"}, {"days": "Sun", "time": "Closed"}], "id": "0457200001", "name": "USPS COLLECTION BOX - BLUE BOX", "address": {"city": "WALDOBORO", "state": "ME", "street": "959 MAIN ST", "postcode": "04572"}}},
{"geometry": {"type": "Point", "coordinates": [-69.3755481676, 44.0951830438]}, "type": "Feature", "properties": {"collection_times": [{"days": "Mon-Fri", "time": "9:30am"}, {"days": "Sat-Sun", "time": "Closed"}], "id": "0457200003", "name": "USPS COLLECTION BOX - BLUE BOX", "address": {"city": "WALDOBORO", "state": "ME", "street": "8 FRIENDSHIP ST", "postcode": "04572"}}},
{"geometry": {"type": "Point", "coordinates": [-69.3830432597, 44.0991959762]}, "type": "Feature", "properties": {"collection_times": [{"days": "Mon-Fri", "time": "9:30am"}, {"days": "Sat-Sun", "time": "Closed"}], "id": "0457200004", "name": "USPS COLLECTION BOX - BLUE BOX", "address": {"city": "WALDOBORO", "state": "ME", "street": "17 KALERS CORNER ST", "postcode": "04572"}}},
{"geometry": {"type": "Point", "coordinates": [-69.408858276, 44.0984711301]}, "type": "Feature", "properties": {"collection_times": [{"days": "Mon-Fri", "time": "4:30pm"}, {"days": "Sat", "time": "12:00pm"}, {"days": "Sun", "time": "Closed"}], "id": "0457200006", "name": "USPS COLLECTION BOX - PO LOBBY", "address": {"city": "WALDOBORO", "state": "ME", "street": "959 MAIN ST", "postcode": "04572"}}},
{"geometry": {"type": "Point", "coordinates": [-69.5579958555, 43.9576801216]}, "type": "Feature", "properties": {"collection_times": [{"days": "Mon-Fri", "time": "3:45pm"}, {"days": "Sat", "time": "12:00pm"}, {"days": "Sun", "time": "Closed"}], "id": "0457300002", "name": "USPS COLLECTION BOX - PO LOBBY", "address": {"city": "WALPOLE", "state": "ME", "street": "595 STATE ROUTE 129", "postcode": "04573"}}},
{"geometry": {"type": "Point", "coordinates": [-69.3675125191, 44.274288838]}, "type": "Feature", "properties": {"collection_times": [{"days": "Mon-Fri", "time": "2:30pm"}, {"days": "Sat", "time": "11:00am"}, {"days": "Sun", "time": "Closed"}], "id": "0457400001", "name": "USPS COLLECTION BOX - BLUE BOX", "address": {"city": "WASHINGTON", "state": "ME", "street": "11 LIBERTY RD", "postcode": "04574"}}},
{"geometry": {"type": "Point", "coordinates": [-69.3675125191, 44.274288838]}, "type": "Feature", "properties": {"collection_times": [{"days": "Mon-Fri", "time": "2:30pm"}, {"days": "Sat", "time": "11:15am"}, {"days": "Sun", "time": "Closed"}], "id": "0457400002", "name": "USPS COLLECTION BOX - PO LOBBY", "address": {"city": "WASHINGTON", "state": "ME", "street": "11 LIBERTY RD", "postcode": "04574"}}},
{"geometry": {"type": "Point", "coordinates": [-69.6365912455, 43.8545603809]}, "type": "Feature", "properties": {"collection_times": [{"days": "Mon-Fri", "time": "3:30pm"}, {"days": "Sat", "time": "11:30am"}, {"days": "Sun", "time": "Closed"}], "id": "0457500001", "name": "USPS COLLECTION BOX - BLUE BOX", "address": {"city": "W BOOTHBAY HA", "state": "ME", "street": "143 WESTERN AVE", "postcode": "04575"}}},
{"geometry": {"type": "Point", "coordinates": [-69.6365912455, 43.8545603809]}, "type": "Feature", "properties": {"collection_times": [{"days": "Mon-Fri", "time": "3:30pm"}, {"days": "Sat", "time": "11:30am"}, {"days": "Sun", "time": "Closed"}], "id": "0457500002", "name": "USPS COLLECTION BOX - PO LOBBY", "address": {"city": "W BOOTHBAY HA", "state": "ME", "street": "143 WESTERN AVE", "postcode": "04575"}}},
{"geometry": {"type": "Point", "coordinates": [-69.673777582, 43.8245329943]}, "type": "Feature", "properties": {"collection_times": [{"days": "Mon-Fri", "time": "3:15pm"}, {"days": "Sat", "time": "11:15am"}, {"days": "Sun", "time": "Closed"}], "id": "0457600001", "name": "USPS COLLECTION BOX - BLUE BOX", "address": {"city": "SOUTHPORT", "state": "ME", "street": "432 HENDRICKS HILL RD", "postcode": "04576"}}},
{"geometry": {"type": "Point", "coordinates": [-69.673777582, 43.8245329943]}, "type": "Feature", "properties": {"collection_times": [{"days": "Mon-Fri", "time": "3:15pm"}, {"days": "Sat", "time": "11:15am"}, {"days": "Sun", "time": "Closed"}], "id": "0457600003", "name": "USPS COLLECTION BOX - PO LOBBY", "address": {"city": "SOUTHPORT", "state": "ME", "street": "432 HENDRICKS HILL RD", "postcode": "04576"}}},
{"geometry": {"type": "Point", "coordinates": [-69.6659495339, 44.0028466526]}, "type": "Feature", "properties": {"collection_times": [{"days": "Mon-Fri", "time": "4:45pm"}, {"days": "Sat", "time": "12:00pm"}, {"days": "Sun", "time": "Closed"}], "id": "0457800001", "name": "USPS COLLECTION BOX - BLUE BOX", "address": {"city": "WISCASSET", "state": "ME", "street": "140 MAIN ST", "postcode": "04578"}}},
{"geometry": {"type": "Point", "coordinates": [-69.6698587864, 44.0057308113]}, "type": "Feature", "properties": {"collection_times": [{"days": "Mon-Fri", "time": "11:30am"}, {"days": "Sat-Sun", "time": "Closed"}], "id": "0457800004", "name": "USPS COLLECTION BOX - BLUE BOX", "address": {"city": "WISCASSET", "state": "ME", "street": "55 WASHINGTON ST", "postcode": "04578"}}},
{"geometry": {"type": "Point", "coordinates": [-69.6659495339, 44.0028466526]}, "type": "Feature", "properties": {"collection_times": [{"days": "Mon-Fri", "time": "4:45pm"}, {"days": "Sat", "time": "12:00pm"}, {"days": "Sun", "time": "Closed"}], "id": "0457800005", "name": "USPS COLLECTION BOX - PO LOBBY", "address": {"city": "WISCASSET", "state": "ME", "street": "140 MAIN ST", "postcode": "04578"}}},
{"geometry": {"type": "Point", "coordinates": [-69.8014160002, 43.914132815]}, "type": "Feature", "properties": {"collection_times": [{"days": "Mon-Fri", "time": "4:30pm"}, {"days": "Sat", "time": "11:30am"}, {"days": "Sun", "time": "Closed"}], "id": "0457900001", "name": "USPS COLLECTION BOX - BLUE BOX", "address": {"city": "WOOLWICH", "state": "ME", "street": "53 MAIN ST", "postcode": "04579"}}},
{"geometry": {"type": "Point", "coordinates": [-69.8014160002, 43.914132815]}, "type": "Feature", "properties": {"collection_times": [{"days": "Mon-Fri", "time": "4:30pm"}, {"days": "Sat", "time": "11:30am"}, {"days": "Sun", "time": "Closed"}], "id": "0457900004", "name": "USPS COLLECTION BOX - PO LOBBY", "address": {"city": "WOOLWICH", "state": "ME", "street": "53 MAIN ST", "postcode": "04579"}}}
]}
