{"type": "FeatureCollection", "features": [
{"geometry": {"type": "Point", "coordinates": [-68.422874951, 44.5433908296]}, "type": "Feature", "properties": {"collection_times": [{"days": "Mon-Sat", "time": "10:00am"}, {"days": "Sun", "time": "Closed"}], "id": "0460500009", "name": "USPS COLLECTION BOX - BLUE BOX", "address": {"city": "LAMOINE", "state": "ME", "street": "7 CHURCH ST", "postcode": "04605"}}},
{"geometry": {"type": "Point", "coordinates": [-68.407608161, 44.532095618]}, "type": "Feature", "properties": {"collection_times": [{"days": "Mon-Sat", "time": "10:00am"}, {"days": "Sun", "time": "Closed"}], "id": "0460500011", "name": "USPS COLLECTION BOX - BLUE BOX", "address": {"city": "LAMOINE", "state": "ME", "street": "225 HIGH ST", "postcode": "04605"}}},
{"geometry": {"type": "Point", "coordinates": [-68.4123926838, 44.5360756097]}, "type": "Feature", "properties": {"collection_times": [{"days": "Mon-Sat", "time": "10:00am"}, {"days": "Sun", "time": "Closed"}], "id": "0460500012", "name": "USPS COLLECTION BOX - BLUE BOX", "address": {"city": "LAMOINE", "state": "ME", "street": "175 HIGH ST", "postcode": "04605"}}},
{"geometry": {"type": "Point", "coordinates": [-68.4281983119, 44.5394486035]}, "type": "Feature", "properties": {"collection_times": [{"days": "Mon-Sat", "time": "10:00am"}, {"days": "Sun", "time": "Closed"}], "id": "0460500015", "name": "USPS COLLECTION BOX - BLUE BOX", "address": {"city": "LAMOINE", "state": "ME", "street": "66 MAIN ST", "postcode": "04605"}}},
{"geometry": {"type": "Point", "coordinates": [-68.4281983119, 44.5394486035]}, "type": "Feature", "properties": {"collection_times": [{"days": "Mon-Sat", "time": "5:15pm"}, {"days": "Sun", "time": "Closed"}], "id": "0460500017", "name": "USPS COLLECTION BOX - BLUE BOX", "address": {"city": "LAMOINE", "state": "ME", "street": "199 MAIN ST", "postcode": "04605"}}},
{"geometry": {"type": "Point", "coordinates": [-68.4281983119, 44.5394486035]}, "type": "Feature", "properties": {"collection_times": [{"days": "Mon-Sat", "time": "5:15pm"}, {"days": "Sun", "time": "Closed"}], "id": "0460500018", "name": "USPS COLLECTION BOX - BLUE BOX", "address": {"city": "LAMOINE", "state": "ME", "street": "199 MAIN ST", "postcode": "04605"}}},
{"geometry": {"type": "Point", "coordinates": [-68.4161382494, 44.5459627599]}, "type": "Feature", "properties": {"collection_times": [{"days": "Mon-Sat", "time": "10:00am"}, {"days": "Sun", "time": "Closed"}], "id": "0460500020", "name": "USPS COLLECTION BOX - BLUE BOX", "address": {"city": "LAMOINE", "state": "ME", "street": "50 UNION ST", "postcode": "04605"}}},
{"geometry": {"type": "Point", "coordinates": [-68.4281983119, 44.5394486035]}, "type": "Feature", "properties": {"collection_times": [{"days": "Mon-Sat", "time": "5:15pm"}, {"days": "Sun", "time": "Closed"}], "id": "0460500024", "name": "USPS COLLECTION BOX - PO LOBBY", "address": {"city": "LAMOINE", "state": "ME", "street": "199 MAIN ST", "postcode": "04605"}}},
{"geometry": {"type": "Point", "coordinates": [-68.3455684539, 44.478332001]}, "type": "Feature", "properties": {"collection_times": [{"days": "Mon-Sat", "time": "9:30am"}, {"days": "Sun", "time": "Closed"}], "id": "0460500026", "name": "USPS COLLECTION BOX - BLUE BOX", "address": {"city": "LAMOINE", "state": "ME", "street": "606 DOUGLAS HWY", "postcode": "04605"}}},
{"geometry": {"type": "Point", "coordinates": [-68.3636207063, 44.4550229419]}, "type": "Feature", "properties": {"collection_times": [{"days": "Mon-Sat", "time": "10:00am"}, {"days": "Sun", "time": "Closed"}], "id": "0460500027", "name": "USPS COLLECTION BOX - BLUE BOX", "address": {"city": "LAMOINE", "state": "ME", "street": "1007 BAR HARBOR RD", "postcode": "04605"}}},
{"geometry": {"type": "Point", "coordinates": [-67.7356780035, 44.563005813]}, "type": "Feature", "properties": {"collection_times": [{"days": "Mon-Fri", "time": "4:45pm"}, {"days": "Sat", "time": "11:30am"}, {"days": "Sun", "time": "Closed"}], "id": "0460600001", "name": "USPS COLLECTION BOX - BLUE BOX", "address": {"city": "ADDISON", "state": "ME", "street": "297 WATER ST", "postcode": "04606"}}},
{"geometry": {"type": "Point", "coordinates": [-67.7356780035, 44.563005813]}, "type": "Feature", "properties": {"collection_times": [{"days": "Mon-Fri", "time": "3:00pm"}, {"days": "Sat", "time": "11:30am"}, {"days": "Sun", "time": "Closed"}], "id": "0460600002", "name": "USPS COLLECTION BOX - PO LOBBY", "address": {"city": "ADDISON", "state": "ME", "street": "297 WATER ST", "postcode": "04606"}}},
{"geometry": {"type": "Point", "coordinates": [-68.0951388578, 44.4720785779]}, "type": "Feature", "properties": {"collection_times": [{"days": "Mon-Fri", "time": "4:15pm"}, {"days": "Sat", "time": "11:15am"}, {"days": "Sun", "time": "Closed"}], "id": "0460700001", "name": "USPS COLLECTION BOX - BLUE BOX", "address": {"city": "GOULDSBORO", "state": "ME", "street": "411 ROUTE 1", "postcode": "04607"}}},
{"geometry": {"type": "Point", "coordinates": [-68.0951388578, 44.4720785779]}, "type": "Feature", "properties": {"collection_times": [{"days": "Mon-Fri", "time": "4:15pm"}, {"days": "Sat", "time": "11:15am"}, {"days": "Sun", "time": "Closed"}], "id": "0460700003", "name": "USPS COLLECTION BOX - PO LOBBY", "address": {"city": "GOULDSBORO", "state": "ME", "street": "411 ROUTE 1", "postcode": "04607"}}},
{"geometry": {"type": "Point", "coordinates": [-68.2599463671, 44.4134594142]}, "type": "Feature", "properties": {"collection_times": [{"days": "Mon-Sat", "time": "2:15pm"}, {"days": "Sun", "time": "Closed"}], "id": "0460900000", "name": "USPS COLLECTION BOX - BLUE BOX", "address": {"city": "BAR HARBOR", "state": "ME", "street": "86 COTTAGE ST", "postcode": "04609"}}},
{"geometry": {"type": "Point", "coordinates": [-68.204728507, 44.3892983871]}, "type": "Feature", "properties": {"collection_times": [{"days": "Mon-Sat", "time": "3:00pm"}, {"days": "Sun", "time": "Closed"}], "id": "0460900004", "name": "USPS COLLECTION BOX - BLUE BOX", "address": {"city": "BAR HARBOR", "state": "ME", "street": "103 MAIN ST", "postcode": "04609"}}},
{"geometry": {"type": "Point", "coordinates": [-68.2071994677, 44.3893708002]}, "type": "Feature", "properties": {"collection_times": [{"days": "Mon-Fri", "time": "4:30pm"}, {"days": "Sat", "time": "3:45pm"}, {"days": "Sun", "time": "Closed"}], "id": "0460900006", "name": "USPS COLLECTION BOX - BLUE BOX", "address": {"city": "BAR HARBOR", "state": "ME", "street": "55 COTTAGE ST", "postcode": "04609"}}},
{"geometry": {"type": "Point", "coordinates": [-68.2071994677, 44.3893708002]}, "type": "Feature", "properties": {"collection_times": [{"days": "Mon-Fri", "time": "4:30pm"}, {"days": "Sat", "time": "3:45pm"}, {"days": "Sun", "time": "Closed"}], "id": "0460900013", "name": "USPS COLLECTION BOX - PO LOBBY", "address": {"city": "BAR HARBOR", "state": "ME", "street": "55 COTTAGE ST", "postcode": "04609"}}},
{"geometry": {"type": "Point", "coordinates": [-68.2071994677, 44.3893708002]}, "type": "Feature", "properties": {"collection_times": [{"days": "Mon-Fri", "time": "4:30pm"}, {"days": "Sat", "time": "3:45pm"}, {"days": "Sun", "time": "Closed"}], "id": "0460900014", "name": "USPS COLLECTION BOX - PO LOBBY", "address": {"city": "BAR HARBOR", "state": "ME", "street": "55 COTTAGE ST", "postcode": "04609"}}},
{"geometry": {"type": "Point", "coordinates": [-68.2071994677, 44.3893708002]}, "type": "Feature", "properties": {"collection_times": [{"days": "Mon-Fri", "time": "4:30pm"}, {"days": "Sat", "time": "3:45pm"}, {"days": "Sun", "time": "Closed"}], "id": "0460900015", "name": "USPS COLLECTION BOX - PO LOBBY", "address": {"city": "BAR HARBOR", "state": "ME", "street": "55 COTTAGE ST", "postcode": "04609"}}},
{"geometry": {"type": "Point", "coordinates": [-67.5770980138, 44.4673293282]}, "type": "Feature", "properties": {"collection_times": [{"days": "Mon-Fri", "time": "4:15pm"}, {"days": "Sat", "time": "11:30am"}, {"days": "Sun", "time": "Closed"}], "id": "0461100001", "name": "USPS COLLECTION BOX - BLUE BOX", "address": {"city": "BEALS", "state": "ME", "street": "43 BAYVIEW DR", "postcode": "04611"}}},
{"geometry": {"type": "Point", "coordinates": [-67.5770980138, 44.4673293282]}, "type": "Feature", "properties": {"collection_times": [{"days": "Mon-Fri", "time": "4:00pm"}, {"days": "Sat", "time": "11:30am"}, {"days": "Sun", "time": "Closed"}], "id": "0461100002", "name": "USPS COLLECTION BOX - PO LOBBY", "address": {"city": "BEALS", "state": "ME", "street": "43 BAYVIEW DR", "postcode": "04611"}}},
{"geometry": {"type": "Point", "coordinates": [-68.3557805516, 44.2510403842]}, "type": "Feature", "properties": {"collection_times": [{"days": "Mon-Fri", "time": "3:00pm"}, {"days": "Sat", "time": "11:45am"}, {"days": "Sun", "time": "Closed"}], "id": "0461200001", "name": "USPS COLLECTION BOX - BLUE BOX", "address": {"city": "BERNARD", "state": "ME", "street": "71 BERNARD RD", "postcode": "04612"}}},
{"geometry": {"type": "Point", "coordinates": [-68.3557805516, 44.2510403842]}, "type": "Feature", "properties": {"collection_times": [{"days": "Mon-Fri", "time": "3:00pm"}, {"days": "Sat", "time": "11:45am"}, {"days": "Sun", "time": "Closed"}], "id": "0461200002", "name": "USPS COLLECTION BOX - PO LOBBY", "address": {"city": "BERNARD", "state": "ME", "street": "71 BERNARD RD", "postcode": "04612"}}},
{"geometry": {"type": "Point", "coordinates": [-68.0384721447, 44.3652191681]}, "type": "Feature", "properties": {"collection_times": [{"days": "Mon-Fri", "time": "3:45pm"}, {"days": "Sat", "time": "11:45am"}, {"days": "Sun", "time": "Closed"}], "id": "0461300001", "name": "USPS COLLECTION BOX - BLUE BOX", "address": {"city": "BIRCH HARBOR", "state": "ME", "street": "3 E SCHOODIC DR", "postcode": "04613"}}},
{"geometry": {"type": "Point", "coordinates": [-68.0384721447, 44.3652191681]}, "type": "Feature", "properties": {"collection_times": [{"days": "Mon-Fri", "time": "3:45pm"}, {"days": "Sat", "time": "11:45am"}, {"days": "Sun", "time": "Closed"}], "id": "0461300003", "name": "USPS COLLECTION BOX - PO LOBBY", "address": {"city": "BIRCH HARBOR", "state": "ME", "street": "3 E SCHOODIC DR", "postcode": "04613"}}},
{"geometry": {"type": "Point", "coordinates": [-68.585990471, 44.4144042703]}, "type": "Feature", "properties": {"collection_times": [{"days": "Mon-Fri", "time": "4:00pm"}, {"days": "Sat", "time": "12:00pm"}, {"days": "Sun", "time": "Closed"}], "id": "0461400001", "name": "USPS COLLECTION BOX - BLUE BOX", "address": {"city": "BLUE HILL", "state": "ME", "street": "104 MAIN ST", "postcode": "04614"}}},
{"geometry": {"type": "Point", "coordinates": [-68.585990471, 44.4144042703]}, "type": "Feature", "properties": {"collection_times": [{"days": "Mon-Fri", "time": "4:00pm"}, {"days": "Sat", "time": "12:00pm"}, {"days": "Sun", "time": "Closed"}], "id": "0461400002", "name": "USPS COLLECTION BOX - BLUE BOX", "address": {"city": "BLUE HILL", "state": "ME", "street": "104 MAIN ST", "postcode": "04614"}}},
{"geometry": {"type": "Point", "coordinates": [-68.585990471, 44.4144042703]}, "type": "Feature", "properties": {"collection_times": [{"days": "Mon-Fri", "time": "4:15pm"}, {"days": "Sat", "time": "12:00pm"}, {"days": "Sun", "time": "Closed"}], "id": "0461400003", "name": "USPS COLLECTION BOX - PO LOBBY", "address": {"city": "BLUE HILL", "state": "ME", "street": "104 MAIN ST", "postcode": "04614"}}},
{"geometry": {"type": "Point", "coordinates": [-68.585990471, 44.4144042703]}, "type": "Feature", "properties": {"collection_times": [{"days": "Mon-Fri", "time": "4:15pm"}, {"days": "Sat", "time": "12:00pm"}, {"days": "Sun", "time": "Closed"}], "id": "0461400004", "name": "USPS COLLECTION BOX - PO LOBBY", "address": {"city": "BLUE HILL", "state": "ME", "street": "104 MAIN ST", "postcode": "04614"}}},
{"geometry": {"type": "Point", "coordinates": [-68.5692390091, 44.2661310494]}, "type": "Feature", "properties": {"collection_times": [{"days": "Mon-Fri", "time": "3:40pm"}, {"days": "Sat", "time": "11:15am"}, {"days": "Sun", "time": "Closed"}], "id": "0461600001", "name": "USPS COLLECTION BOX - BLUE BOX", "address": {"city": "BROOKLIN", "state": "ME", "street": "26 REACH RD", "postcode": "04616"}}},
{"geometry": {"type": "Point", "coordinates": [-68.5692390091, 44.2661310494]}, "type": "Feature", "properties": {"collection_times": [{"days": "Mon-Fri", "time": "3:40pm"}, {"days": "Sat", "time": "11:15am"}, {"days": "Sun", "time": "Closed"}], "id": "0461600002", "name": "USPS COLLECTION BOX - PO LOBBY", "address": {"city": "BROOKLIN", "state": "ME", "street": "26 REACH RD", "postcode": "04616"}}},
{"geometry": {"type": "Point", "coordinates": [-68.7432196038, 44.3641001516]}, "type": "Feature", "properties": {"collection_times": [{"days": "Mon-Fri", "time": "4:00pm"}, {"days": "Sat", "time": "10:30am"}, {"days": "Sun", "time": "Closed"}], "id": "0461700001", "name": "USPS COLLECTION BOX - BLUE BOX", "address": {"city": "BROOKSVILLE", "state": "ME", "street": "945 COASTAL RD", "postcode": "04617"}}},
{"geometry": {"type": "Point", "coordinates": [-68.7432196038, 44.3641001516]}, "type": "Feature", "properties": {"collection_times": [{"days": "Mon-Fri", "time": "3:45pm"}, {"days": "Sat", "time": "10:30am"}, {"days": "Sun", "time": "Closed"}], "id": "0461700002", "name": "USPS COLLECTION BOX - PO LOBBY", "address": {"city": "BROOKSVILLE", "state": "ME", "street": "945 COASTAL RD", "postcode": "04617"}}},
{"geometry": {"type": "Point", "coordinates": [-68.7432196038, 44.3641001516]}, "type": "Feature", "properties": {"collection_times": [{"days": "Mon-Fri", "time": "3:45pm"}, {"days": "Sat", "time": "10:30am"}, {"days": "Sun", "time": "Closed"}], "id": "0461700003", "name": "USPS COLLECTION BOX - PO LOBBY", "address": {"city": "BROOKSVILLE", "state": "ME", "street": "945 COASTAL RD", "postcode": "04617"}}},
{"geometry": {"type": "Point", "coordinates": [-67.2771369565, 45.1859850326]}, "type": "Feature", "properties": {"collection_times": [{"days": "Mon-Fri", "time": "4:30pm"}, {"days": "Sat", "time": "12:00pm"}, {"days": "Sun", "time": "Closed"}], "id": "0461900005", "name": "USPS COLLECTION BOX - BLUE BOX", "address": {"city": "CALAIS", "state": "ME", "street": "14 WASHINGTON ST", "postcode": "04619"}}},
{"geometry": {"type": "Point", "coordinates": [-67.2565672817, 45.179688099]}, "type": "Feature", "properties": {"collection_times": [{"days": "Mon-Fri", "time": "4:30pm"}, {"days": "Sat", "time": "12:00pm"}, {"days": "Sun", "time": "Closed"}], "id": "0461900006", "name": "USPS COLLECTION BOX - BLUE BOX", "address": {"city": "CALAIS", "state": "ME", "street": "76 NORTH ST", "postcode": "04619"}}},
{"geometry": {"type": "Point", "coordinates": [-67.2565672817, 45.179688099]}, "type": "Feature", "properties": {"collection_times": [{"days": "Mon-Sat", "time": "12:00pm"}, {"days": "Sun", "time": "Closed"}], "id": "0461900007", "name": "USPS COLLECTION BOX - BLUE BOX", "address": {"city": "CALAIS", "state": "ME", "street": "361 SOUTH ST", "postcode": "04619"}}},
{"geometry": {"type": "Point", "coordinates": [-67.2565672817, 45.179688099]}, "type": "Feature", "properties": {"collection_times": [{"days": "Mon-Fri", "time": "4:30pm"}, {"days": "Sat", "time": "12:00pm"}, {"days": "Sun", "time": "Closed"}], "id": "0461900009", "name": "USPS COLLECTION BOX - PO LOBBY", "address": {"city": "CALAIS", "state": "ME", "street": "76 NORTH ST", "postcode": "04619"}}},
{"geometry": {"type": "Point", "coordinates": [-67.9930782913, 44.6967491673]}, "type": "Feature", "properties": {"collection_times": [{"days": "Mon-Fri", "time": "3:30pm"}, {"days": "Sat", "time": "11:15am"}, {"days": "Sun", "time": "Closed"}], "id": "0462200001", "name": "USPS COLLECTION BOX - BLUE BOX", "address": {"city": "CHERRYFIELD", "state": "ME", "street": "14 MUNICIPAL WAY", "postcode": "04622"}}},
{"geometry": {"type": "Point", "coordinates": [-67.9930782913, 44.6967491673]}, "type": "Feature", "properties": {"collection_times": [{"days": "Mon-Fri", "time": "3:30pm"}, {"days": "Sat", "time": "11:15am"}, {"days": "Sun", "time": "Closed"}], "id": "0462200002", "name": "USPS COLLECTION BOX - PO LOBBY", "address": {"city": "CHERRYFIELD", "state": "ME", "street": "14 MUNICIPAL WAY", "postcode": "04622"}}},
{"geometry": {"type": "Point", "coordinates": [-67.7434585494, 44.6512794528]}, "type": "Feature", "properties": {"collection_times": [{"days": "Mon-Fri", "time": "4:30pm"}, {"days": "Sat", "time": "10:30am"}, {"days": "Sun", "time": "Closed"}], "id": "0462300001", "name": "USPS COLLECTION BOX - BLUE BOX", "address": {"city": "COLUMBIA FALLS", "state": "ME", "street": "169 MAIN ST", "postcode": "04623"}}},
{"geometry": {"type": "Point", "coordinates": [-67.7434585494, 44.6512794528]}, "type": "Feature", "properties": {"collection_times": [{"days": "Mon-Fri", "time": "2:30pm"}, {"days": "Sat", "time": "10:30am"}, {"days": "Sun", "time": "Closed"}], "id": "0462300002", "name": "USPS COLLECTION BOX - PO LOBBY", "address": {"city": "COLUMBIA FALLS", "state": "ME", "street": "169 MAIN ST", "postcode": "04623"}}},
{"geometry": {"type": "Point", "coordinates": [-67.9768779489, 44.4034876262]}, "type": "Feature", "properties": {"collection_times": [{"days": "Mon-Fri", "time": "3:30pm"}, {"days": "Sat", "time": "11:30am"}, {"days": "Sun", "time": "Closed"}], "id": "0462400001", "name": "USPS COLLECTION BOX - BLUE BOX", "address": {"city": "COREA", "state": "ME", "street": "646 COREA RD", "postcode": "04624"}}},
{"geometry": {"type": "Point", "coordinates": [-67.9768779489, 44.4034876262]}, "type": "Feature", "properties": {"collection_times": [{"days": "Mon-Fri", "time": "3:30pm"}, {"days": "Sat", "time": "11:30am"}, {"days": "Sun", "time": "Closed"}], "id": "0462400002", "name": "USPS COLLECTION BOX - PO LOBBY", "address": {"city": "COREA", "state": "ME", "street": "646 COREA RD", "postcode": "04624"}}},
{"geometry": {"type": "Point", "coordinates": [-68.267849588, 44.2461756163]}, "type": "Feature", "properties": {"collection_times": [{"days": "Mon-Sat", "time": "8:00am"}, {"days": "Sun", "time": "Closed"}], "id": "0462500001", "name": "USPS COLLECTION BOX - BLUE BOX", "address": {"city": "CRANBERRY ISLES", "state": "ME", "street": "1 FRENCHMAN BAY", "postcode": "04625"}}},
{"geometry": {"type": "Point", "coordinates": [-68.267849588, 44.2461756163]}, "type": "Feature", "properties": {"collection_times": [{"days": "Mon-Sat", "time": "8:30am"}, {"days": "Sun", "time": "Closed"}], "id": "0462500002", "name": "USPS COLLECTION BOX - PO LOBBY", "address": {"city": "CRANBERRY ISLES", "state": "ME", "street": "1 FRENCHMAN BAY", "postcode": "04625"}}},
{"geometry": {"type": "Point", "coordinates": [-67.2339471837, 44.6766363973]}, "type": "Feature", "properties": {"collection_times": [{"days": "Mon-Fri", "time": "4:00pm"}, {"days": "Sat", "time": "12:30pm"}, {"days": "Sun", "time": "Closed"}], "id": "0462600001", "name": "USPS COLLECTION BOX - BLUE BOX", "address": {"city": "CUTLER", "state": "ME", "street": "2739 CUTLER RD", "postcode": "04626"}}},
{"geometry": {"type": "Point", "coordinates": [-67.2339471837, 44.6766363973]}, "type": "Feature", "properties": {"collection_times": [{"days": "Mon-Fri", "time": "4:00pm"}, {"days": "Sat", "time": "12:30pm"}, {"days": "Sun", "time": "Closed"}], "id": "0462600003", "name": "USPS COLLECTION BOX - PO LOBBY", "address": {"city": "CUTLER", "state": "ME", "street": "2739 CUTLER RD", "postcode": "04626"}}},
{"geometry": {"type": "Point", "coordinates": [-68.6794405745, 44.2240150542]}, "type": "Feature", "properties": {"collection_times": [{"days": "Mon-Fri", "time": "3:30pm"}, {"days": "Sat", "time": "11:00am"}, {"days": "Sun", "time": "Closed"}], "id": "0462700001", "name": "USPS COLLECTION BOX - BLUE BOX", "address": {"city": "DEER ISLE", "state": "ME", "street": "12 MAIN ST", "postcode": "04627"}}},
{"geometry": {"type": "Point", "coordinates": [-68.6794405745, 44.2240150542]}, "type": "Feature", "properties": {"collection_times": [{"days": "Mon-Fri", "time": "3:30pm"}, {"days": "Sat", "time": "11:00am"}, {"days": "Sun", "time": "Closed"}], "id": "0462700003", "name": "USPS COLLECTION BOX - PO LOBBY", "address": {"city": "DEER ISLE", "state": "ME", "street": "12 MAIN ST", "postcode": "04627"}}},
{"geometry": {"type": "Point", "coordinates": [-67.2778423289, 44.8566301047]}, "type": "Feature", "properties": {"collection_times": [{"days": "Mon-Fri", "time": "3:05pm"}, {"days": "Sat", "time": "11:00am"}, {"days": "Sun", "time": "Closed"}], "id": "0462800002", "name": "USPS COLLECTION BOX - BLUE BOX", "address": {"city": "DENNYSVILLE", "state": "ME", "street": "128 MAIN ST", "postcode": "04628"}}},
{"geometry": {"type": "Point", "coordinates": [-67.2778423289, 44.8566301047]}, "type": "Feature", "properties": {"collection_times": [{"days": "Mon-Fri", "time": "3:05pm"}, {"days": "Sat", "time": "11:30am"}, {"days": "Sun", "time": "Closed"}], "id": "0462800003", "name": "USPS COLLECTION BOX - PO LOBBY", "address": {"city": "DENNYSVILLE", "state": "ME", "street": "128 MAIN ST", "postcode": "04628"}}},
{"geometry": {"type": "Point", "coordinates": [-68.5251821695, 44.4174327793]}, "type": "Feature", "properties": {"collection_times": [{"days": "Mon-Fri", "time": "9:30am"}, {"days": "Sat-Sun", "time": "Closed"}], "id": "0462900000", "name": "USPS COLLECTION BOX - BLUE BOX", "address": {"city": "EAST BLUE HILL", "state": "ME", "street": "13 CURTIS COVE RD", "postcode": "04629"}}},
{"geometry": {"type": "Point", "coordinates": [-67.3009869168, 44.7479016901]}, "type": "Feature", "properties": {"collection_times": [{"days": "Mon-Fri", "time": "4:15pm"}, {"days": "Sat", "time": "11:15am"}, {"days": "Sun", "time": "Closed"}], "id": "0463000001", "name": "USPS COLLECTION BOX - BLUE BOX", "address": {"city": "EAST MACHIAS", "state": "ME", "street": "580 MAIN ST", "postcode": "04630"}}},
{"geometry": {"type": "Point", "coordinates": [-67.3009869168, 44.7479016901]}, "type": "Feature", "properties": {"collection_times": [{"days": "Mon-Fri", "time": "4:15pm"}, {"days": "Sat", "time": "11:15am"}, {"days": "Sun", "time": "Closed"}], "id": "0463000002", "name": "USPS COLLECTION BOX - PO LOBBY", "address": {"city": "EAST MACHIAS", "state": "ME", "street": "580 MAIN ST", "postcode": "04630"}}},
{"geometry": {"type": "Point", "coordinates": [-66.9850622025, 44.9057998257]}, "type": "Feature", "properties": {"collection_times": [{"days": "Mon-Fri", "time": "3:45pm"}, {"days": "Sat", "time": "3:25pm"}, {"days": "Sun", "time": "Closed"}], "id": "0463100001", "name": "USPS COLLECTION BOX - BLUE BOX", "address": {"city": "EASTPORT", "state": "ME", "street": "1 WASHINGTON ST", "postcode": "04631"}}},
{"geometry": {"type": "Point", "coordinates": [-66.9905037598, 44.9060234809]}, "type": "Feature", "properties": {"collection_times": [{"days": "Mon-Sat", "time": "11:30am"}, {"days": "Sun", "time": "Closed"}], "id": "0463100007", "name": "USPS COLLECTION BOX - BLUE BOX", "address": {"city": "EASTPORT", "state": "ME", "street": "88 WASHINGTON ST", "postcode": "04631"}}},
{"geometry": {"type": "Point", "coordinates": [-66.9850622025, 44.9057998257]}, "type": "Feature", "properties": {"collection_times": [{"days": "Mon-Fri", "time": "3:50pm"}, {"days": "Sat", "time": "3:30pm"}, {"days": "Sun", "time": "Closed"}], "id": "0463100008", "name": "USPS COLLECTION BOX - PO LOBBY", "address": {"city": "EASTPORT", "state": "ME", "street": "1 WASHINGTON ST", "postcode": "04631"}}},
{"geometry": {"type": "Point", "coordinates": [-66.9850622025, 44.9057998257]}, "type": "Feature", "properties": {"collection_times": [{"days": "Mon-Fri", "time": "3:50pm"}, {"days": "Sat", "time": "3:30pm"}, {"days": "Sun", "time": "Closed"}], "id": "0463100009", "name": "USPS COLLECTION BOX - PO LOBBY", "address": {"city": "EASTPORT", "state": "ME", "street": "1 WASHINGTON ST", "postcode": "04631"}}},
{"geometry": {"type": "Point", "coordinates": [-68.2204549963, 44.5903115942]}, "type": "Feature", "properties": {"collection_times": [{"days": "Mon-Fri", "time": "4:00pm"}, {"days": "Sat", "time": "11:00am"}, {"days": "Sun", "time": "Closed"}], "id": "0463400001", "name": "USPS COLLECTION BOX - BLUE BOX", "address": {"city": "FRANKLIN", "state": "ME", "street": "48 BLACKSWOODS RD", "postcode": "04634"}}},
{"geometry": {"type": "Point", "coordinates": [-68.2204549963, 44.5903115942]}, "type": "Feature", "properties": {"collection_times": [{"days": "Mon-Fri", "time": "4:30pm"}, {"days": "Sat", "time": "11:00am"}, {"days": "Sun", "time": "Closed"}], "id": "0463400003", "name": "USPS COLLECTION BOX - PO LOBBY", "address": {"city": "FRANKLIN", "state": "ME", "street": "48 BLACKSWOODS RD", "postcode": "04634"}}},
{"geometry": {"type": "Point", "coordinates": [-68.3447339482, 44.5295071427]}, "type": "Feature", "properties": {"collection_times": [{"days": "Mon-Fri", "time": "4:45pm"}, {"days": "Sat", "time": "11:45am"}, {"days": "Sun", "time": "Closed"}], "id": "0464000002", "name": "USPS COLLECTION BOX - PO LOBBY", "address": {"city": "HANCOCK", "state": "ME", "street": "1405 US HWY 1", "postcode": "04640"}}},
{"geometry": {"type": "Point", "coordinates": [-68.3447339482, 44.5295071427]}, "type": "Feature", "properties": {"collection_times": [{"days": "Mon-Fri", "time": "4:45pm"}, {"days": "Sat", "time": "11:45am"}, {"days": "Sun", "time": "Closed"}], "id": "0464000003", "name": "USPS COLLECTION BOX - PO LOBBY", "address": {"city": "HANCOCK", "state": "ME", "street": "1405 US HWY 1", "postcode": "04640"}}},
{"geometry": {"type": "Point", "coordinates": [-68.3447339482, 44.5295071427]}, "type": "Feature", "properties": {"collection_times": [{"days": "Mon-Fri", "time": "4:45pm"}, {"days": "Sat", "time": "11:45am"}, {"days": "Sun", "time": "Closed"}], "id": "0464000004", "name": "USPS COLLECTION BOX - BLUE BOX", "address": {"city": "HANCOCK", "state": "ME", "street": "1405 US HWY 1", "postcode": "04640"}}},
{"geometry": {"type": "Point", "coordinates": [-67.8070605928, 44.5912715087]}, "type": "Feature", "properties": {"collection_times": [{"days": "Mon-Fri", "time": "4:15pm"}, {"days": "Sat", "time": "10:30am"}, {"days": "Sun", "time": "Closed"}], "id": "0464300001", "name": "USPS COLLECTION BOX - BLUE BOX", "address": {"city": "HARRINGTON", "state": "ME", "street": "1285 MAIN ST", "postcode": "04643"}}},
{"geometry": {"type": "Point", "coordinates": [-67.8070605928, 44.5912715087]}, "type": "Feature", "properties": {"collection_times": [{"days": "Mon-Fri", "time": "4:15pm"}, {"days": "Sat", "time": "10:45am"}, {"days": "Sun", "time": "Closed"}], "id": "0464300003", "name": "USPS COLLECTION BOX - PO LOBBY", "address": {"city": "HARRINGTON", "state": "ME", "street": "1285 MAIN ST", "postcode": "04643"}}},
{"geometry": {"type": "Point", "coordinates": [-68.2507092376, 44.4128777426]}, "type": "Feature", "properties": {"collection_times": [{"days": "Mon-Fri", "time": "3:30pm"}, {"days": "Sat", "time": "11:00am"}, {"days": "Sun", "time": "Closed"}], "id": "0464400001", "name": "USPS COLLECTION BOX - BLUE BOX", "address": {"city": "HULLS COVE", "state": "ME", "street": "3 BREAK NECK RD", "postcode": "04644"}}},
{"geometry": {"type": "Point", "coordinates": [-68.2507092376, 44.4128777426]}, "type": "Feature", "properties": {"collection_times": [{"days": "Mon-Fri", "time": "3:30pm"}, {"days": "Sat", "time": "11:30am"}, {"days": "Sun", "time": "Closed"}], "id": "0464400003", "name": "USPS COLLECTION BOX - PO LOBBY", "address": {"city": "HULLS COVE", "state": "ME", "street": "3 BREAK NECK RD", "postcode": "04644"}}},
{"geometry": {"type": "Point", "coordinates": [-67.6295406094, 44.6567824849]}, "type": "Feature", "properties": {"collection_times": [{"days": "Mon-Fri", "time": "4:00pm"}, {"days": "Sat", "time": "11:15am"}, {"days": "Sun", "time": "Closed"}], "id": "0464800001", "name": "USPS COLLECTION BOX - BLUE BOX", "address": {"city": "JONESBORO", "state": "ME", "street": "810 US RTE 1", "postcode": "04648"}}},
{"geometry": {"type": "Point", "coordinates": [-67.6295406094, 44.6567824849]}, "type": "Feature", "properties": {"collection_times": [{"days": "Mon-Fri", "time": "4:00pm"}, {"days": "Sat", "time": "11:15am"}, {"days": "Sun", "time": "Closed"}], "id": "0464800002", "name": "USPS COLLECTION BOX - PO LOBBY", "address": {"city": "JONESBORO", "state": "ME", "street": "810 US RTE 1", "postcode": "04648"}}},
{"geometry": {"type": "Point", "coordinates": [-67.6161599373, 44.5563275401]}, "type": "Feature", "properties": {"collection_times": [{"days": "Mon-Fri", "time": "4:00pm"}, {"days": "Sat", "time": "11:30am"}, {"days": "Sun", "time": "Closed"}], "id": "0464900001", "name": "USPS COLLECTION BOX - BLUE BOX", "address": {"city": "JONESPORT", "state": "ME", "street": "193 MAIN ST", "postcode": "04649"}}},
{"geometry": {"type": "Point", "coordinates": [-67.6161599373, 44.5563275401]}, "type": "Feature", "properties": {"collection_times": [{"days": "Mon-Fri", "time": "4:00pm"}, {"days": "Sat", "time": "11:30am"}, {"days": "Sun", "time": "Closed"}], "id": "0464900003", "name": "USPS COLLECTION BOX - PO LOBBY", "address": {"city": "JONESPORT", "state": "ME", "street": "193 MAIN ST", "postcode": "04649"}}},
{"geometry": {"type": "Point", "coordinates": [-68.6929819275, 44.2887983575]}, "type": "Feature", "properties": {"collection_times": [{"days": "Mon-Fri", "time": "3:45pm"}, {"days": "Sat", "time": "11:10am"}, {"days": "Sun", "time": "Closed"}], "id": "0465000001", "name": "USPS COLLECTION BOX - BLUE BOX", "address": {"city": "LTL DEER IS", "state": "ME", "street": "17 EGGEMOGGIN RD", "postcode": "04650"}}},
{"geometry": {"type": "Point", "coordinates": [-68.6929819275, 44.2887983575]}, "type": "Feature", "properties": {"collection_times": [{"days": "Mon-Fri", "time": "3:45pm"}, {"days": "Sat", "time": "11:10am"}, {"days": "Sun", "time": "Closed"}], "id": "0465000002", "name": "USPS COLLECTION BOX - PO LOBBY", "address": {"city": "LTL DEER IS", "state": "ME", "street": "17 EGGEMOGGIN RD", "postcode": "04650"}}},
{"geometry": {"type": "Point", "coordinates": [-66.9907691346, 44.8577898866]}, "type": "Feature", "properties": {"collection_times": [{"days": "Mon-Fri", "time": "3:00pm"}, {"days": "Sat", "time": "1:45pm"}, {"days": "Sun", "time": "Closed"}], "id": "0465200000", "name": "USPS COLLECTION BOX - BLUE BOX", "address": {"city": "LUBEC", "state": "ME", "street": "9 WASHINGTON ST", "postcode": "04652"}}},
{"geometry": {"type": "Point", "coordinates": [-66.9910425796, 44.857706932]}, "type": "Feature", "properties": {"collection_times": [{"days": "Mon-Sat", "time": "12:00pm"}, {"days": "Sun", "time": "Closed"}], "id": "0465200002", "name": "USPS COLLECTION BOX - BLUE BOX", "address": {"city": "LUBEC", "state": "ME", "street": "103 MAIN ST", "postcode": "04652"}}},
{"geometry": {"type": "Point", "coordinates": [-66.9907691346, 44.8577898866]}, "type": "Feature", "properties": {"collection_times": [{"days": "Mon-Sat", "time": "12:05pm"}, {"days": "Sun", "time": "Closed"}], "id": "0465200003", "name": "USPS COLLECTION BOX - BLUE BOX", "address": {"city": "LUBEC", "state": "ME", "street": "68 WASHINGTON ST", "postcode": "04652"}}},
{"geometry": {"type": "Point", "coordinates": [-66.9907691346, 44.8577898866]}, "type": "Feature", "properties": {"collection_times": [{"days": "Mon-Fri", "time": "3:25pm"}, {"days": "Sat", "time": "1:45pm"}, {"days": "Sun", "time": "Closed"}], "id": "0465200005", "name": "USPS COLLECTION BOX - PO LOBBY", "address": {"city": "LUBEC", "state": "ME", "street": "9 WASHINGTON ST", "postcode": "04652"}}},
{"geometry": {"type": "Point", "coordinates": [-68.3452866199, 44.2435305936]}, "type": "Feature", "properties": {"collection_times": [{"days": "Mon-Fri", "time": "3:00pm"}, {"days": "Sat", "time": "11:15am"}, {"days": "Sun", "time": "Closed"}], "id": "0465300001", "name": "USPS COLLECTION BOX - BLUE BOX", "address": {"city": "BASS HARBOR", "state": "ME", "street": "209 HARBOR DR", "postcode": "04653"}}},
{"geometry": {"type": "Point", "coordinates": [-68.3452866199, 44.2435305936]}, "type": "Feature", "properties": {"collection_times": [{"days": "Mon-Fri", "time": "3:00pm"}, {"days": "Sat", "time": "11:15am"}, {"days": "Sun", "time": "Closed"}], "id": "0465300003", "name": "USPS COLLECTION BOX - PO LOBBY", "address": {"city": "BASS HARBOR", "state": "ME", "street": "209 HARBOR DR", "postcode": "04653"}}},
{"geometry": {"type": "Point", "coordinates": [-67.489707242, 44.7185787351]}, "type": "Feature", "properties": {"collection_times": [{"days": "Mon-Fri", "time": "3:45pm"}, {"days": "Sat", "time": "12:00pm"}, {"days": "Sun", "time": "Closed"}], "id": "0465400001", "name": "USPS COLLECTION BOX - BLUE BOX", "address": {"city": "MACHIAS", "state": "ME", "street": "89 COURT ST   STE 1", "postcode": "04654"}}},
{"geometry": {"type": "Point", "coordinates": [-67.489707242, 44.7185787351]}, "type": "Feature", "properties": {"collection_times": [{"days": "Mon-Fri", "time": "4:00pm"}, {"days": "Sat", "time": "12:00pm"}, {"days": "Sun", "time": "Closed"}], "id": "0465400010", "name": "USPS COLLECTION BOX - PO LOBBY", "address": {"city": "MACHIAS", "state": "ME", "street": "89 COURT ST  STE 1", "postcode": "04654"}}},
{"geometry": {"type": "Point", "coordinates": [-67.489707242, 44.7185787351]}, "type": "Feature", "properties": {"collection_times": [{"days": "Mon-Fri", "time": "4:00pm"}, {"days": "Sat", "time": "12:00pm"}, {"days": "Sun", "time": "Closed"}], "id": "0465400011", "name": "USPS COLLECTION BOX - PO LOBBY", "address": {"city": "MACHIAS", "state": "ME", "street": "89 COURT ST   STE 1", "postcode": "04654"}}},
{"geometry": {"type": "Point", "coordinates": [-67.4043150327, 44.6789201087]}, "type": "Feature", "properties": {"collection_times": [{"days": "Mon-Fri", "time": "4:00pm"}, {"days": "Sat", "time": "11:00am"}, {"days": "Sun", "time": "Closed"}], "id": "0465500001", "name": "USPS COLLECTION BOX - BLUE BOX", "address": {"city": "MACHIASPORT", "state": "ME", "street": "2 UNITY SQ", "postcode": "04655"}}},
{"geometry": {"type": "Point", "coordinates": [-67.4043150327, 44.6789201087]}, "type": "Feature", "properties": {"collection_times": [{"days": "Mon-Fri", "time": "3:00pm"}, {"days": "Sat", "time": "11:00am"}, {"days": "Sun", "time": "Closed"}], "id": "0465500002", "name": "USPS COLLECTION BOX - PO LOBBY", "address": {"city": "MACHIASPORT", "state": "ME", "street": "2 UNITY SQ", "postcode": "04655"}}},
{"geometry": {"type": "Point", "coordinates": [-67.3839671879, 45.0181668639]}, "type": "Feature", "properties": {"collection_times": [{"days": "Mon-Fri", "time": "2:30pm"}, {"days": "Sat", "time": "11:45am"}, {"days": "Sun", "time": "Closed"}], "id": "0465700000", "name": "USPS COLLECTION BOX - BLUE BOX", "address": {"city": "MEDDYBEMPS", "state": "ME", "street": "849 MAIN ST", "postcode": "04657"}}},
{"geometry": {"type": "Point", "coordinates": [-67.3839671879, 45.0181668639]}, "type": "Feature", "properties": {"collection_times": [{"days": "Mon-Fri", "time": "2:30pm"}, {"days": "Sat", "time": "11:45am"}, {"days": "Sun", "time": "Closed"}], "id": "0465700001", "name": "USPS COLLECTION BOX - PO LOBBY", "address": {"city": "MEDDYBEMPS", "state": "ME", "street": "849 MAIN ST", "postcode": "04657"}}},
{"geometry": {"type": "Point", "coordinates": [-67.8696475581, 44.5433359734]}, "type": "Feature", "properties": {"collection_times": [{"days": "Mon-Fri", "time": "4:30pm"}, {"days": "Sat", "time": "11:15am"}, {"days": "Sun", "time": "Closed"}], "id": "0465800001", "name": "USPS COLLECTION BOX - BLUE BOX", "address": {"city": "MILBRIDGE", "state": "ME", "street": "19 SCHOOL ST", "postcode": "04658"}}},
{"geometry": {"type": "Point", "coordinates": [-67.8696475581, 44.5433359734]}, "type": "Feature", "properties": {"collection_times": [{"days": "Mon-Fri", "time": "4:45pm"}, {"days": "Sat", "time": "11:15am"}, {"days": "Sun", "time": "Closed"}], "id": "0465800003", "name": "USPS COLLECTION BOX - PO LOBBY", "address": {"city": "MILBRIDGE", "state": "ME", "street": "19 SCHOOL ST", "postcode": "04658"}}},
{"geometry": {"type": "Point", "coordinates": [-68.3306879937, 44.369276905]}, "type": "Feature", "properties": {"collection_times": [{"days": "Mon-Fri", "time": "4:45pm"}, {"days": "Sat", "time": "11:45am"}, {"days": "Sun", "time": "Closed"}], "id": "0466000000", "name": "USPS COLLECTION BOX - BLUE BOX", "address": {"city": "MOUNT DESERT", "state": "ME", "street": "1057 MAIN ST", "postcode": "04660"}}},
{"geometry": {"type": "Point", "coordinates": [-68.3306879937, 44.369276905]}, "type": "Feature", "properties": {"collection_times": [{"days": "Mon-Fri", "time": "4:50pm"}, {"days": "Sat", "time": "11:50am"}, {"days": "Sun", "time": "Closed"}], "id": "0466000001", "name": "USPS COLLECTION BOX - PO LOBBY", "address": {"city": "MOUNT DESERT", "state": "ME", "street": "1057 MAIN ST", "postcode": "04660"}}},
{"geometry": {"type": "Point", "coordinates": [-68.2895520791, 44.2945220887]}, "type": "Feature", "properties": {"collection_times": [{"days": "Mon-Fri", "time": "4:00pm"}, {"days": "Sat", "time": "11:30am"}, {"days": "Sun", "time": "Closed"}], "id": "0466200001", "name": "USPS COLLECTION BOX - BLUE BOX", "address": {"city": "NORTHEAST HBR", "state": "ME", "street": "112 MAIN ST", "postcode": "04662"}}},
{"geometry": {"type": "Point", "coordinates": [-68.2895520791, 44.2945220887]}, "type": "Feature", "properties": {"collection_times": [{"days": "Mon-Fri", "time": "4:00pm"}, {"days": "Sat", "time": "11:30am"}, {"days": "Sun", "time": "Closed"}], "id": "0466200002", "name": "USPS COLLECTION BOX - PO LOBBY", "address": {"city": "NORTHEAST HBR", "state": "ME", "street": "112 MAIN ST", "postcode": "04662"}}},
{"geometry": {"type": "Point", "coordinates": [-67.1800211798, 44.9487458149]}, "type": "Feature", "properties": {"collection_times": [{"days": "Mon-Fri", "time": "3:00pm"}, {"days": "Sat", "time": "11:45am"}, {"days": "Sun", "time": "Closed"}], "id": "0466600001", "name": "USPS COLLECTION BOX - BLUE BOX", "address": {"city": "PEMBROKE", "state": "ME", "street": "475 US ROUTE 1", "postcode": "04666"}}},
{"geometry": {"type": "Point", "coordinates": [-67.1800211798, 44.9487458149]}, "type": "Feature", "properties": {"collection_times": [{"days": "Mon-Fri", "time": "3:00pm"}, {"days": "Sat", "time": "11:45am"}, {"days": "Sun", "time": "Closed"}], "id": "0466600003", "name": "USPS COLLECTION BOX - PO LOBBY", "address": {"city": "PEMBROKE", "state": "ME", "street": "475 US ROUTE 1", "postcode": "04666"}}},
{"geometry": {"type": "Point", "coordinates": [-67.1432572931, 44.9601793482]}, "type": "Feature", "properties": {"collection_times": [{"days": "Mon-Fri", "time": "4:00pm"}, {"days": "Sat", "time": "11:30am"}, {"days": "Sun", "time": "Closed"}], "id": "0466700001", "name": "USPS COLLECTION BOX - BLUE BOX", "address": {"city": "PERRY", "state": "ME", "street": "972 US ROUTE 1", "postcode": "04667"}}},
{"geometry": {"type": "Point", "coordinates": [-67.1432572931, 44.9601793482]}, "type": "Feature", "properties": {"collection_times": [{"days": "Mon-Fri", "time": "4:00pm"}, {"days": "Sat", "time": "11:30am"}, {"days": "Sun", "time": "Closed"}], "id": "0466700002", "name": "USPS COLLECTION BOX - PO LOBBY", "address": {"city": "PERRY", "state": "ME", "street": "972 US ROUTE 1", "postcode": "04667"}}},
{"geometry": {"type": "Point", "coordinates": [-67.5766269284, 45.2252158605]}, "type": "Feature", "properties": {"collection_times": [{"days": "Mon-Fri", "time": "3:30pm"}, {"days": "Sat", "time": "11:30am"}, {"days": "Sun", "time": "Closed"}], "id": "0466800001", "name": "USPS COLLECTION BOX - BLUE BOX", "address": {"city": "PRINCETON", "state": "ME", "street": "20 MAIN ST", "postcode": "04668"}}},
{"geometry": {"type": "Point", "coordinates": [-67.5766269284, 45.2252158605]}, "type": "Feature", "properties": {"collection_times": [{"days": "Mon-Fri", "time": "4:00pm"}, {"days": "Sat", "time": "11:30am"}, {"days": "Sun", "time": "Closed"}], "id": "0466800002", "name": "USPS COLLECTION BOX - PO LOBBY", "address": {"city": "PRINCETON", "state": "ME", "street": "20 MAIN ST", "postcode": "04668"}}},
{"geometry": {"type": "Point", "coordinates": [-67.5766269284, 45.2252158605]}, "type": "Feature", "properties": {"collection_times": [{"days": "Mon-Fri", "time": "4:00pm"}, {"days": "Sat", "time": "11:30am"}, {"days": "Sun", "time": "Closed"}], "id": "0466800003", "name": "USPS COLLECTION BOX - PO LOBBY", "address": {"city": "PRINCETON", "state": "ME", "street": "20 MAIN ST", "postcode": "04668"}}},
{"geometry": {"type": "Point", "coordinates": [-68.0246972451, 44.4110876219]}, "type": "Feature", "properties": {"collection_times": [{"days": "Mon-Fri", "time": "3:30pm"}, {"days": "Sat", "time": "11:30am"}, {"days": "Sun", "time": "Closed"}], "id": "0466900001", "name": "USPS COLLECTION BOX - BLUE BOX", "address": {"city": "PROSPECT HARBOR", "state": "ME", "street": "11 W BAY RD", "postcode": "04669"}}},
{"geometry": {"type": "Point", "coordinates": [-68.0246972451, 44.4110876219]}, "type": "Feature", "properties": {"collection_times": [{"days": "Mon-Fri", "time": "3:30pm"}, {"days": "Sat", "time": "11:45am"}, {"days": "Sun", "time": "Closed"}], "id": "0466900003", "name": "USPS COLLECTION BOX - PO LOBBY", "address": {"city": "PROSPECT HARBOR", "state": "ME", "street": "11 W BAY RD", "postcode": "04669"}}},
{"geometry": {"type": "Point", "coordinates": [-67.1137197431, 45.0418260979]}, "type": "Feature", "properties": {"collection_times": [{"days": "Mon-Fri", "time": "3:30pm"}, {"days": "Sat", "time": "11:00am"}, {"days": "Sun", "time": "Closed"}], "id": "0467100001", "name": "USPS COLLECTION BOX - BLUE BOX", "address": {"city": "ROBBINSTON", "state": "ME", "street": "398 US RTE 1", "postcode": "04671"}}},
{"geometry": {"type": "Point", "coordinates": [-67.1205687055, 45.0920368368]}, "type": "Feature", "properties": {"collection_times": [{"days": "Mon-Fri", "time": "3:30pm"}, {"days": "Sat", "time": "11:15am"}, {"days": "Sun", "time": "Closed"}], "id": "0467100002", "name": "USPS COLLECTION BOX - PO LOBBY", "address": {"city": "ROBBINSTON", "state": "ME", "street": "398 US RTE 1", "postcode": "04671"}}},
{"geometry": {"type": "Point", "coordinates": [-68.2838248947, 44.4289070391]}, "type": "Feature", "properties": {"collection_times": [{"days": "Mon-Fri", "time": "4:00pm"}, {"days": "Sat", "time": "11:00am"}, {"days": "Sun", "time": "Closed"}], "id": "0467200001", "name": "USPS COLLECTION BOX - BLUE BOX", "address": {"city": "SALSBURY COVE", "state": "ME", "street": "855 NORWAY DR", "postcode": "04672"}}},
{"geometry": {"type": "Point", "coordinates": [-68.2838248947, 44.4289070391]}, "type": "Feature", "properties": {"collection_times": [{"days": "Mon-Fri", "time": "4:30pm"}, {"days": "Sat", "time": "11:30am"}, {"days": "Sun", "time": "Closed"}], "id": "0467200002", "name": "USPS COLLECTION BOX - PO LOBBY", "address": {"city": "SALSBURY COVE", "state": "ME", "street": "855 NORWAY DR", "postcode": "04672"}}},
{"geometry": {"type": "Point", "coordinates": [-68.4026493829, 44.3024836286]}, "type": "Feature", "properties": {"collection_times": [{"days": "Mon-Fri", "time": "4:00pm"}, {"days": "Sat", "time": "11:45am"}, {"days": "Sun", "time": "Closed"}], "id": "0467400001", "name": "USPS COLLECTION BOX - BLUE BOX", "address": {"city": "SEAL COVE", "state": "ME", "street": "896 TREMONT RD", "postcode": "04674"}}},
{"geometry": {"type": "Point", "coordinates": [-68.4026493829, 44.3024836286]}, "type": "Feature", "properties": {"collection_times": [{"days": "Mon-Fri", "time": "4:10pm"}, {"days": "Sat", "time": "11:45am"}, {"days": "Sun", "time": "Closed"}], "id": "0467400002", "name": "USPS COLLECTION BOX - PO LOBBY", "address": {"city": "SEAL COVE", "state": "ME", "street": "896 TREMONT RD", "postcode": "04674"}}},
{"geometry": {"type": "Point", "coordinates": [-68.2404142294, 44.2987702359]}, "type": "Feature", "properties": {"collection_times": [{"days": "Mon-Fri", "time": "4:00pm"}, {"days": "Sat", "time": "11:30am"}, {"days": "Sun", "time": "Closed"}], "id": "0467500001", "name": "USPS COLLECTION BOX - BLUE BOX", "address": {"city": "SEAL HARBOR", "state": "ME", "street": "14 MAIN ST", "postcode": "04675"}}},
{"geometry": {"type": "Point", "coordinates": [-68.2404142294, 44.2987702359]}, "type": "Feature", "properties": {"collection_times": [{"days": "Mon-Fri", "time": "4:00pm"}, {"days": "Sat", "time": "11:30am"}, {"days": "Sun", "time": "Closed"}], "id": "0467500002", "name": "USPS COLLECTION BOX - PO LOBBY", "address": {"city": "SEAL HARBOR", "state": "ME", "street": "14 MAIN ST", "postcode": "04675"}}},
{"geometry": {"type": "Point", "coordinates": [-68.2404142294, 44.2987702359]}, "type": "Feature", "properties": {"collection_times": [{"days": "Mon-Fri", "time": "4:00pm"}, {"days": "Sat", "time": "11:30am"}, {"days": "Sun", "time": "Closed"}], "id": "0467500003", "name": "USPS COLLECTION BOX - PO LOBBY", "address": {"city": "SEAL HARBOR", "state": "ME", "street": "14 MAIN ST", "postcode": "04675"}}},
{"geometry": {"type": "Point", "coordinates": [-68.6213189999, 44.3036369308]}, "type": "Feature", "properties": {"collection_times": [{"days": "Mon-Fri", "time": "2:30pm"}, {"days": "Sat", "time": "11:15am"}, {"days": "Sun", "time": "Closed"}], "id": "0467600001", "name": "USPS COLLECTION BOX - BLUE BOX", "address": {"city": "SEDGWICK", "state": "ME", "street": "47 REACH RD", "postcode": "04676"}}},
{"geometry": {"type": "Point", "coordinates": [-68.6213189999, 44.3036369308]}, "type": "Feature", "properties": {"collection_times": [{"days": "Mon-Fri", "time": "2:30pm"}, {"days": "Sat", "time": "11:15am"}, {"days": "Sun", "time": "Closed"}], "id": "0467600002", "name": "USPS COLLECTION BOX - PO LOBBY", "address": {"city": "SEDGWICK", "state": "ME", "street": "47 REACH RD", "postcode": "04676"}}},
{"geometry": {"type": "Point", "coordinates": [-68.1837262804, 44.4860774904]}, "type": "Feature", "properties": {"collection_times": [{"days": "Mon-Fri", "time": "4:15pm"}, {"days": "Sat", "time": "11:45am"}, {"days": "Sun", "time": "Closed"}], "id": "0467700001", "name": "USPS COLLECTION BOX - BLUE BOX", "address": {"city": "SORRENTO", "state": "ME", "street": "16 MAIN ST", "postcode": "04677"}}},
{"geometry": {"type": "Point", "coordinates": [-68.1837262804, 44.4860774904]}, "type": "Feature", "properties": {"collection_times": [{"days": "Mon-Fri", "time": "4:15pm"}, {"days": "Sat", "time": "11:45am"}, {"days": "Sun", "time": "Closed"}], "id": "0467700002", "name": "USPS COLLECTION BOX - PO LOBBY", "address": {"city": "SORRENTO", "state": "ME", "street": "16 MAIN ST", "postcode": "04677"}}},
{"geometry": {"type": "Point", "coordinates": [-68.1837262804, 44.4860774904]}, "type": "Feature", "properties": {"collection_times": [{"days": "Mon-Fri", "time": "4:15pm"}, {"days": "Sat", "time": "11:45am"}, {"days": "Sun", "time": "Closed"}], "id": "0467700003", "name": "USPS COLLECTION BOX - PO LOBBY", "address": {"city": "SORRENTO", "state": "ME", "street": "16 MAIN ST", "postcode": "04677"}}},
{"geometry": {"type": "Point", "coordinates": [-68.3239480329, 44.28000318]}, "type": "Feature", "properties": {"collection_times": [{"days": "Mon-Fri", "time": "4:30pm"}, {"days": "Sat", "time": "11:30am"}, {"days": "Sun", "time": "Closed"}], "id": "0467900001", "name": "USPS COLLECTION BOX - BLUE BOX", "address": {"city": "SOUTHWEST HBR", "state": "ME", "street": "21 CLARK POINT RD", "postcode": "04679"}}},
{"geometry": {"type": "Point", "coordinates": [-68.3239480329, 44.28000318]}, "type": "Feature", "properties": {"collection_times": [{"days": "Mon-Fri", "time": "4:45pm"}, {"days": "Sat", "time": "12:00pm"}, {"days": "Sun", "time": "Closed"}], "id": "0467900003", "name": "USPS COLLECTION BOX - PO LOBBY", "address": {"city": "SOUTHWEST HBR", "state": "ME", "street": "21 CLARK POINT RD", "postcode": "04679"}}},
{"geometry": {"type": "Point", "coordinates": [-68.3239480329, 44.28000318]}, "type": "Feature", "properties": {"collection_times": [{"days": "Mon-Fri", "time": "4:45pm"}, {"days": "Sat", "time": "12:00pm"}, {"days": "Sun", "time": "Closed"}], "id": "0467900004", "name": "USPS COLLECTION BOX - PO LOBBY", "address": {"city": "SOUTHWEST HBR", "state": "ME", "street": "21 CLARK POINT RD", "postcode": "04679"}}},
{"geometry": {"type": "Point", "coordinates": [-67.9660905162, 44.5113423798]}, "type": "Feature", "properties": {"collection_times": [{"days": "Mon-Fri", "time": "4:15pm"}, {"days": "Sat", "time": "10:45am"}, {"days": "Sun", "time": "Closed"}], "id": "0468000001", "name": "USPS COLLECTION BOX - BLUE BOX", "address": {"city": "STEUBEN", "state": "ME", "street": "18 SMITHVILLE RD", "postcode": "04680"}}},
{"geometry": {"type": "Point", "coordinates": [-67.9660905162, 44.5113423798]}, "type": "Feature", "properties": {"collection_times": [{"days": "Mon-Fri", "time": "4:15pm"}, {"days": "Sat", "time": "10:45am"}, {"days": "Sun", "time": "Closed"}], "id": "0468000003", "name": "USPS COLLECTION BOX - PO LOBBY", "address": {"city": "STEUBEN", "state": "ME", "street": "18 SMITHVILLE RD", "postcode": "04680"}}},
{"geometry": {"type": "Point", "coordinates": [-68.6646762628, 44.1726343632]}, "type": "Feature", "properties": {"collection_times": [{"days": "Mon-Fri", "time": "3:00pm"}, {"days": "Sat", "time": "11:00am"}, {"days": "Sun", "time": "Closed"}], "id": "0468100001", "name": "USPS COLLECTION BOX - BLUE BOX", "address": {"city": "STONINGTON", "state": "ME", "street": "28 W MAIN ST", "postcode": "04681"}}},
{"geometry": {"type": "Point", "coordinates": [-68.6646762628, 44.1726343632]}, "type": "Feature", "properties": {"collection_times": [{"days": "Mon-Fri", "time": "3:00pm"}, {"days": "Sat", "time": "11:00am"}, {"days": "Sun", "time": "Closed"}], "id": "0468100002", "name": "USPS COLLECTION BOX - PO LOBBY", "address": {"city": "STONINGTON", "state": "ME", "street": "28 W MAIN ST", "postcode": "04681"}}},
{"geometry": {"type": "Point", "coordinates": [-68.7040584731, 44.2066579692]}, "type": "Feature", "properties": {"collection_times": [{"days": "Mon-Fri", "time": "3:15pm"}, {"days": "Sat", "time": "11:00am"}, {"days": "Sun", "time": "Closed"}], "id": "0468300001", "name": "USPS COLLECTION BOX - BLUE BOX", "address": {"city": "SUNSET", "state": "ME", "street": "300 SUNSET RD", "postcode": "04683"}}},
{"geometry": {"type": "Point", "coordinates": [-68.7040584731, 44.2066579692]}, "type": "Feature", "properties": {"collection_times": [{"days": "Mon-Fri", "time": "3:15pm"}, {"days": "Sat", "time": "11:00am"}, {"days": "Sun", "time": "Closed"}], "id": "0468300003", "name": "USPS COLLECTION BOX - PO LOBBY", "address": {"city": "SUNSET", "state": "ME", "street": "300 SUNSET RD", "postcode": "04683"}}},
{"geometry": {"type": "Point", "coordinates": [-68.5066388868, 44.4942034532]}, "type": "Feature", "properties": {"collection_times": [{"days": "Mon-Fri", "time": "4:30pm"}, {"days": "Sat", "time": "11:00am"}, {"days": "Sun", "time": "Closed"}], "id": "0468400001", "name": "USPS COLLECTION BOX - BLUE BOX", "address": {"city": "SURRY", "state": "ME", "street": "1197 SURRY RD", "postcode": "04684"}}},
{"geometry": {"type": "Point", "coordinates": [-68.5066388868, 44.4942034532]}, "type": "Feature", "properties": {"collection_times": [{"days": "Mon-Fri", "time": "4:30pm"}, {"days": "Sat", "time": "11:00am"}, {"days": "Sun", "time": "Closed"}], "id": "0468400003", "name": "USPS COLLECTION BOX - PO LOBBY", "address": {"city": "SURRY", "state": "ME", "street": "1197 SURRY RD", "postcode": "04684"}}},
{"geometry": {"type": "Point", "coordinates": [-68.451312082, 44.1484640301]}, "type": "Feature", "properties": {"collection_times": [{"days": "Mon-Fri", "time": "12:45pm"}, {"days": "Sat", "time": "2:00pm"}, {"days": "Sun", "time": "Closed"}], "id": "0468500001", "name": "USPS COLLECTION BOX - BLUE BOX", "address": {"city": "SWANS ISLAND", "state": "ME", "street": "125 HARBOR RD", "postcode": "04685"}}},
{"geometry": {"type": "Point", "coordinates": [-68.4215423825, 44.1807837808]}, "type": "Feature", "properties": {"collection_times": [{"days": "Mon-Fri", "time": "1:00pm"}, {"days": "Sat-Sun", "time": "Closed"}], "id": "0468500002", "name": "USPS COLLECTION BOX - BLUE BOX", "address": {"city": "SWANS ISLAND", "state": "ME", "street": "118 FERRY RD", "postcode": "04685"}}},
{"geometry": {"type": "Point", "coordinates": [-68.451312082, 44.1484640301]}, "type": "Feature", "properties": {"collection_times": [{"days": "Mon-Fri", "time": "12:45pm"}, {"days": "Sat", "time": "2:00pm"}, {"days": "Sun", "time": "Closed"}], "id": "0468500003", "name": "USPS COLLECTION BOX - PO LOBBY", "address": {"city": "SWANS ISLAND", "state": "ME", "street": "125 HARBOR RD", "postcode": "04685"}}},
{"geometry": {"type": "Point", "coordinates": [-67.0795689389, 44.8513234727]}, "type": "Feature", "properties": {"collection_times": [{"days": "Mon-Fri", "time": "3:30pm"}, {"days": "Sat", "time": "11:00am"}, {"days": "Sun", "time": "Closed"}], "id": "0469100001", "name": "USPS COLLECTION BOX - BLUE BOX", "address": {"city": "WHITING", "state": "ME", "street": "240 US RTE 1", "postcode": "04691"}}},
{"geometry": {"type": "Point", "coordinates": [-67.0795689389, 44.8513234727]}, "type": "Feature", "properties": {"collection_times": [{"days": "Mon-Fri", "time": "3:30pm"}, {"days": "Sat", "time": "11:00am"}, {"days": "Sun", "time": "Closed"}], "id": "0469100002", "name": "USPS COLLECTION BOX - PO LOBBY", "address": {"city": "WHITING", "state": "ME", "street": "240 US RTE 1", "postcode": "04691"}}},
{"geometry": {"type": "Point", "coordinates": [-68.0916599594, 44.391790871]}, "type": "Feature", "properties": {"collection_times": [{"days": "Mon-Fri", "time": "3:45pm"}, {"days": "Sat", "time": "10:45am"}, {"days": "Sun", "time": "Closed"}], "id": "0469300001", "name": "USPS COLLECTION BOX - BLUE BOX", "address": {"city": "WINTER HARBOR", "state": "ME", "street": "267 MAIN ST", "postcode": "04693"}}},
{"geometry": {"type": "Point", "coordinates": [-68.0916599594, 44.391790871]}, "type": "Feature", "properties": {"collection_times": [{"days": "Mon-Fri", "time": "3:30pm"}, {"days": "Sat", "time": "10:45am"}, {"days": "Sun", "time": "Closed"}], "id": "0469300002", "name": "USPS COLLECTION BOX - PO LOBBY", "address": {"city": "WINTER HARBOR", "state": "ME", "street": "267 MAIN ST", "postcode": "04693"}}},
{"geometry": {"type": "Point", "coordinates": [-67.4295897459, 45.1230161916]}, "type": "Feature", "properties": {"collection_times": [{"days": "Mon-Fri", "time": "4:00pm"}, {"days": "Sat", "time": "11:30am"}, {"days": "Sun", "time": "Closed"}], "id": "0469400003", "name": "USPS COLLECTION BOX - PO LOBBY", "address": {"city": "BAILEYVILLE", "state": "ME", "street": "667 HOULTON RD STE 1", "postcode": "04694"}}},
{"geometry": {"type": "Point", "coordinates": [-67.4295897459, 45.1230161916]}, "type": "Feature", "properties": {"collection_times": [{"days": "Mon-Fri", "time": "4:00pm"}, {"days": "Sat", "time": "11:30am"}, {"days": "Sun", "time": "Closed"}], "id": "0469400004", "name": "USPS COLLECTION BOX - BLUE BOX", "address": {"city": "BAILEYVILLE", "state": "ME", "street": "667 HOULTON RD STE 1", "postcode": "04694"}}}
]}
