{"type": "FeatureCollection", "features": [
{"geometry": {"type": "Point", "coordinates": [-67.8406180486, 46.0953556857]}, "type": "Feature", "properties": {"collection_times": [{"days": "Mon-Fri", "time": "5:15pm"}, {"days": "Sat", "time": "4:15pm"}, {"days": "Sun", "time": "Closed"}], "id": "0473000001", "name": "USPS COLLECTION BOX - BLUE BOX", "address": {"city": "HOULTON", "state": "ME", "street": "39 COURT ST", "postcode": "04730"}}},
{"geometry": {"type": "Point", "coordinates": [-67.8406180486, 46.0953556857]}, "type": "Feature", "properties": {"collection_times": [{"days": "Mon-Fri", "time": "5:15pm"}, {"days": "Sat", "time": "4:15pm"}, {"days": "Sun", "time": "Closed"}], "id": "0473000002", "name": "USPS COLLECTION BOX - BLUE BOX", "address": {"city": "HOULTON", "state": "ME", "street": "39 COURT ST", "postcode": "04730"}}},
{"geometry": {"type": "Point", "coordinates": [-67.8393644589, 46.135218012]}, "type": "Feature", "properties": {"collection_times": [{"days": "Mon-Fri", "time": "11:00am"}, {"days": "Sat", "time": "10:30am"}, {"days": "Sun", "time": "Closed"}], "id": "0473000012", "name": "USPS COLLECTION BOX - BLUE BOX", "address": {"city": "HOULTON", "state": "ME", "street": "132 NORTH ST", "postcode": "04730"}}},
{"geometry": {"type": "Point", "coordinates": [-67.8395554326, 46.1273587967]}, "type": "Feature", "properties": {"collection_times": [{"days": "Mon-Fri", "time": "2:45pm"}, {"days": "Sat", "time": "9:30am"}, {"days": "Sun", "time": "Closed"}], "id": "0473000021", "name": "USPS COLLECTION BOX - BLUE BOX", "address": {"city": "HOULTON", "state": "ME", "street": "2 WATER ST", "postcode": "04730"}}},
{"geometry": {"type": "Point", "coordinates": [-67.8432181412, 46.1316060404]}, "type": "Feature", "properties": {"collection_times": [{"days": "Mon-Sat", "time": "11:00am"}, {"days": "Sun", "time": "Closed"}], "id": "0473000023", "name": "USPS COLLECTION BOX - BLUE BOX", "address": {"city": "HOULTON", "state": "ME", "street": "20 HARTFORD ST", "postcode": "04730"}}},
{"geometry": {"type": "Point", "coordinates": [-67.8406180486, 46.0953556857]}, "type": "Feature", "properties": {"collection_times": [{"days": "Mon-Fri", "time": "5:10pm"}, {"days": "Sat", "time": "4:15pm"}, {"days": "Sun", "time": "Closed"}], "id": "0473000024", "name": "USPS COLLECTION BOX - PO LOBBY", "address": {"city": "HOULTON", "state": "ME", "street": "39 COURT ST", "postcode": "04730"}}},
{"geometry": {"type": "Point", "coordinates": [-67.8406180486, 46.0953556857]}, "type": "Feature", "properties": {"collection_times": [{"days": "Mon-Fri", "time": "5:10pm"}, {"days": "Sat", "time": "4:15pm"}, {"days": "Sun", "time": "Closed"}], "id": "0473000025", "name": "USPS COLLECTION BOX - PO LOBBY", "address": {"city": "HOULTON", "state": "ME", "street": "39 COURT ST", "postcode": "04730"}}},
{"geometry": {"type": "Point", "coordinates": [-67.8406180486, 46.0953556857]}, "type": "Feature", "properties": {"collection_times": [{"days": "Mon-Fri", "time": "5:10pm"}, {"days": "Sat", "time": "4:15pm"}, {"days": "Sun", "time": "Closed"}], "id": "0473000026", "name": "USPS COLLECTION BOX - PO LOBBY", "address": {"city": "HOULTON", "state": "ME", "street": "39 COURT ST", "postcode": "04730"}}},
{"geometry": {"type": "Point", "coordinates": [-68.4041489217, 46.6314026329]}, "type": "Feature", "properties": {"collection_times": [{"days": "Mon-Fri", "time": "3:00pm"}, {"days": "Sat", "time": "12:45pm"}, {"days": "Sun", "time": "Closed"}], "id": "0473200001", "name": "USPS COLLECTION BOX - BLUE BOX", "address": {"city": "ASHLAND", "state": "ME", "street": "14 SHERIDAN RD", "postcode": "04732"}}},
{"geometry": {"type": "Point", "coordinates": [-68.4041489217, 46.6314026329]}, "type": "Feature", "properties": {"collection_times": [{"days": "Mon-Fri", "time": "3:15pm"}, {"days": "Sat", "time": "12:50pm"}, {"days": "Sun", "time": "Closed"}], "id": "0473200002", "name": "USPS COLLECTION BOX - PO LOBBY", "address": {"city": "ASHLAND", "state": "ME", "street": "14 SHERIDAN RD", "postcode": "04732"}}},
{"geometry": {"type": "Point", "coordinates": [-68.4057560612, 45.8004677242]}, "type": "Feature", "properties": {"collection_times": [{"days": "Mon-Fri", "time": "2:20pm"}, {"days": "Sat", "time": "12:00pm"}, {"days": "Sun", "time": "Closed"}], "id": "0473300001", "name": "USPS COLLECTION BOX - BLUE BOX", "address": {"city": "BENEDICTA", "state": "ME", "street": "6 SCHOOL ST", "postcode": "04733"}}},
{"geometry": {"type": "Point", "coordinates": [-68.4057560612, 45.8004677242]}, "type": "Feature", "properties": {"collection_times": [{"days": "Mon-Fri", "time": "2:20pm"}, {"days": "Sat", "time": "12:00pm"}, {"days": "Sun", "time": "Closed"}], "id": "0473300003", "name": "USPS COLLECTION BOX - PO LOBBY", "address": {"city": "BENEDICTA", "state": "ME", "street": "6 SCHOOL ST", "postcode": "04733"}}},
{"geometry": {"type": "Point", "coordinates": [-67.8268379201, 46.4879172039]}, "type": "Feature", "properties": {"collection_times": [{"days": "Mon-Fri", "time": "3:30pm"}, {"days": "Sat", "time": "11:00am"}, {"days": "Sun", "time": "Closed"}], "id": "0473400001", "name": "USPS COLLECTION BOX - BLUE BOX", "address": {"city": "BLAINE", "state": "ME", "street": "42 MILITARY RD", "postcode": "04734"}}},
{"geometry": {"type": "Point", "coordinates": [-67.8268379201, 46.4879172039]}, "type": "Feature", "properties": {"collection_times": [{"days": "Mon-Fri", "time": "3:30pm"}, {"days": "Sat", "time": "11:00am"}, {"days": "Sun", "time": "Closed"}], "id": "0473400002", "name": "USPS COLLECTION BOX - PO LOBBY", "address": {"city": "BLAINE", "state": "ME", "street": "42 MILITARY RD", "postcode": "04734"}}},
{"geometry": {"type": "Point", "coordinates": [-67.8416092373, 46.4260094764]}, "type": "Feature", "properties": {"collection_times": [{"days": "Mon-Fri", "time": "3:45pm"}, {"days": "Sat", "time": "10:30am"}, {"days": "Sun", "time": "Closed"}], "id": "0473500001", "name": "USPS COLLECTION BOX - BLUE BOX", "address": {"city": "BRIDGEWATER", "state": "ME", "street": "486 MAIN RD", "postcode": "04735"}}},
{"geometry": {"type": "Point", "coordinates": [-67.8416092373, 46.4260094764]}, "type": "Feature", "properties": {"collection_times": [{"days": "Mon-Fri", "time": "3:45pm"}, {"days": "Sat", "time": "10:30am"}, {"days": "Sun", "time": "Closed"}], "id": "0473500003", "name": "USPS COLLECTION BOX - PO LOBBY", "address": {"city": "BRIDGEWATER", "state": "ME", "street": "486 MAIN RD", "postcode": "04735"}}},
{"geometry": {"type": "Point", "coordinates": [-68.0136402248, 46.8603480278]}, "type": "Feature", "properties": {"collection_times": [{"days": "Mon-Fri", "time": "3:00pm"}, {"days": "Sat", "time": "2:30pm"}, {"days": "Sun", "time": "Closed"}], "id": "0473600003", "name": "USPS COLLECTION BOX - BLUE BOX", "address": {"city": "CARIBOU", "state": "ME", "street": "41 SWEDEN ST", "postcode": "04736"}}},
{"geometry": {"type": "Point", "coordinates": [-68.0188228085, 46.859829005]}, "type": "Feature", "properties": {"collection_times": [{"days": "Mon-Sat", "time": "9:00am"}, {"days": "Sun", "time": "Closed"}], "id": "0473600005", "name": "USPS COLLECTION BOX - BLUE BOX", "address": {"city": "CARIBOU", "state": "ME", "street": "144 SWEDEN ST", "postcode": "04736"}}},
{"geometry": {"type": "Point", "coordinates": [-68.0080813708, 46.8606163901]}, "type": "Feature", "properties": {"collection_times": [{"days": "Mon-Sat", "time": "9:30am"}, {"days": "Sun", "time": "Closed"}], "id": "0473600007", "name": "USPS COLLECTION BOX - BLUE BOX", "address": {"city": "CARIBOU", "state": "ME", "street": "114 HIGH ST", "postcode": "04736"}}},
{"geometry": {"type": "Point", "coordinates": [-68.0118074481, 46.8748963396]}, "type": "Feature", "properties": {"collection_times": [{"days": "Mon-Sat", "time": "10:45am"}, {"days": "Sun", "time": "Closed"}], "id": "0473600014", "name": "USPS COLLECTION BOX - BLUE BOX", "address": {"city": "CARIBOU", "state": "ME", "street": "159 BENNETT DR", "postcode": "04736"}}},
{"geometry": {"type": "Point", "coordinates": [-68.0136402248, 46.8603480278]}, "type": "Feature", "properties": {"collection_times": [{"days": "Mon-Fri", "time": "4:00pm"}, {"days": "Sat", "time": "3:20pm"}, {"days": "Sun", "time": "Closed"}], "id": "0473600016", "name": "USPS COLLECTION BOX - PO LOBBY", "address": {"city": "CARIBOU", "state": "ME", "street": "41 SWEDEN ST", "postcode": "04736"}}},
{"geometry": {"type": "Point", "coordinates": [-68.0136402248, 46.8603480278]}, "type": "Feature", "properties": {"collection_times": [{"days": "Mon-Fri", "time": "4:00pm"}, {"days": "Sat", "time": "3:20pm"}, {"days": "Sun", "time": "Closed"}], "id": "0473600017", "name": "USPS COLLECTION BOX - PO LOBBY", "address": {"city": "CARIBOU", "state": "ME", "street": "41 SWEDEN ST", "postcode": "04736"}}},
{"geometry": {"type": "Point", "coordinates": [-68.0136402248, 46.8603480278]}, "type": "Feature", "properties": {"collection_times": [{"days": "Mon-Fri", "time": "4:00pm"}, {"days": "Sat", "time": "3:20pm"}, {"days": "Sun", "time": "Closed"}], "id": "0473600018", "name": "USPS COLLECTION BOX - PO LOBBY", "address": {"city": "CARIBOU", "state": "ME", "street": "41 SWEDEN ST", "postcode": "04736"}}},
{"geometry": {"type": "Point", "coordinates": [-68.0118074481, 46.8748963396]}, "type": "Feature", "properties": {"collection_times": [{"days": "Mon-Fri", "time": "9:30am"}, {"days": "Sat-Sun", "time": "Closed"}], "id": "0473600019", "name": "USPS COLLECTION BOX - BLUE BOX", "address": {"city": "CARIBOU", "state": "ME", "street": "907 PRESQUE ISLE RD", "postcode": "04736"}}},
{"geometry": {"type": "Point", "coordinates": [-68.1020809175, 46.7558431584]}, "type": "Feature", "properties": {"collection_times": [{"days": "Mon-Fri", "time": "3:30pm"}, {"days": "Sat", "time": "11:50am"}, {"days": "Sun", "time": "Closed"}], "id": "0473800001", "name": "USPS COLLECTION BOX - BLUE BOX", "address": {"city": "CROUSEVILLE", "state": "ME", "street": "437 WASHBURN RD", "postcode": "04738"}}},
{"geometry": {"type": "Point", "coordinates": [-68.1020809175, 46.7558431584]}, "type": "Feature", "properties": {"collection_times": [{"days": "Mon-Fri", "time": "3:30pm"}, {"days": "Sat", "time": "11:50am"}, {"days": "Sun", "time": "Closed"}], "id": "0473800002", "name": "USPS COLLECTION BOX - PO LOBBY", "address": {"city": "CROUSEVILLE", "state": "ME", "street": "437 WASHBURN RD", "postcode": "04738"}}},
{"geometry": {"type": "Point", "coordinates": [-68.5966055453, 47.0411025635]}, "type": "Feature", "properties": {"collection_times": [{"days": "Mon-Fri", "time": "1:00pm"}, {"days": "Sat", "time": "11:45am"}, {"days": "Sun", "time": "Closed"}], "id": "0473900001", "name": "USPS COLLECTION BOX - BLUE BOX", "address": {"city": "EAGLE LAKE", "state": "ME", "street": "3315 AROOSTOOK RD", "postcode": "04739"}}},
{"geometry": {"type": "Point", "coordinates": [-68.5966055453, 47.0411025635]}, "type": "Feature", "properties": {"collection_times": [{"days": "Mon-Fri", "time": "1:00pm"}, {"days": "Sat", "time": "11:45am"}, {"days": "Sun", "time": "Closed"}], "id": "0473900002", "name": "USPS COLLECTION BOX - PO LOBBY", "address": {"city": "EAGLE LAKE", "state": "ME", "street": "3315 AROOSTOOK RD", "postcode": "04739"}}},
{"geometry": {"type": "Point", "coordinates": [-67.9136625656, 46.6416068358]}, "type": "Feature", "properties": {"collection_times": [{"days": "Mon-Fri", "time": "3:15pm"}, {"days": "Sat", "time": "11:30am"}, {"days": "Sun", "time": "Closed"}], "id": "0474000001", "name": "USPS COLLECTION BOX - BLUE BOX", "address": {"city": "EASTON", "state": "ME", "street": "87 CENTER RD", "postcode": "04740"}}},
{"geometry": {"type": "Point", "coordinates": [-67.9136625656, 46.6416068358]}, "type": "Feature", "properties": {"collection_times": [{"days": "Mon-Fri", "time": "3:15pm"}, {"days": "Sat", "time": "11:30am"}, {"days": "Sun", "time": "Closed"}], "id": "0474000003", "name": "USPS COLLECTION BOX - PO LOBBY", "address": {"city": "EASTON", "state": "ME", "street": "87 CENTER RD", "postcode": "04740"}}},
{"geometry": {"type": "Point", "coordinates": [-67.8515385279, 46.7640158614]}, "type": "Feature", "properties": {"collection_times": [{"days": "Mon-Sat", "time": "1:30pm"}, {"days": "Sun", "time": "Closed"}], "id": "0474200002", "name": "USPS COLLECTION BOX - BLUE BOX", "address": {"city": "FORT FAIRFIELD", "state": "ME", "street": "26 PRESQUE ISLE ST", "postcode": "04742"}}},
{"geometry": {"type": "Point", "coordinates": [-67.8068159314, 46.7669696164]}, "type": "Feature", "properties": {"collection_times": [{"days": "Mon-Sat", "time": "3:00pm"}, {"days": "Sun", "time": "Closed"}], "id": "0474200006", "name": "USPS COLLECTION BOX - BLUE BOX", "address": {"city": "FORT FAIRFIELD", "state": "ME", "street": "289 MAIN ST", "postcode": "04742"}}},
{"geometry": {"type": "Point", "coordinates": [-67.8109968035, 46.7657713034]}, "type": "Feature", "properties": {"collection_times": [{"days": "Mon-Sat", "time": "1:30pm"}, {"days": "Sun", "time": "Closed"}], "id": "0474200007", "name": "USPS COLLECTION BOX - BLUE BOX", "address": {"city": "FORT FAIRFIELD", "state": "ME", "street": "245 MAIN ST", "postcode": "04742"}}},
{"geometry": {"type": "Point", "coordinates": [-67.7981205162, 46.7670399229]}, "type": "Feature", "properties": {"collection_times": [{"days": "Mon-Sat", "time": "1:30pm"}, {"days": "Sun", "time": "Closed"}], "id": "0474200008", "name": "USPS COLLECTION BOX - BLUE BOX", "address": {"city": "FORT FAIRFIELD", "state": "ME", "street": "355 MAIN ST", "postcode": "04742"}}},
{"geometry": {"type": "Point", "coordinates": [-67.8068159314, 46.7669696164]}, "type": "Feature", "properties": {"collection_times": [{"days": "Mon-Sat", "time": "3:00pm"}, {"days": "Sun", "time": "Closed"}], "id": "0474200009", "name": "USPS COLLECTION BOX - PO LOBBY", "address": {"city": "FORT FAIRFIELD", "state": "ME", "street": "289 MAIN ST", "postcode": "04742"}}},
{"geometry": {"type": "Point", "coordinates": [-67.8068159314, 46.7669696164]}, "type": "Feature", "properties": {"collection_times": [{"days": "Mon-Sat", "time": "3:00pm"}, {"days": "Sun", "time": "Closed"}], "id": "0474200010", "name": "USPS COLLECTION BOX - PO LOBBY", "address": {"city": "FORT FAIRFIELD", "state": "ME", "street": "289 MAIN ST", "postcode": "04742"}}},
{"geometry": {"type": "Point", "coordinates": [-68.6043875735, 47.2473467363]}, "type": "Feature", "properties": {"collection_times": [{"days": "Mon-Fri", "time": "2:00pm"}, {"days": "Sat", "time": "1:45pm"}, {"days": "Sun", "time": "Closed"}], "id": "0474300001", "name": "USPS COLLECTION BOX - BLUE BOX", "address": {"city": "FORT KENT", "state": "ME", "street": "152 W MAIN ST", "postcode": "04743"}}},
{"geometry": {"type": "Point", "coordinates": [-68.5981912307, 47.2489615653]}, "type": "Feature", "properties": {"collection_times": [{"days": "Mon-Fri", "time": "2:00pm"}, {"days": "Sat", "time": "1:45pm"}, {"days": "Sun", "time": "Closed"}], "id": "0474300002", "name": "USPS COLLECTION BOX - BLUE BOX", "address": {"city": "FORT KENT", "state": "ME", "street": "8 HALL ST", "postcode": "04743"}}},
{"geometry": {"type": "Point", "coordinates": [-68.5795866967, 47.2382170098]}, "type": "Feature", "properties": {"collection_times": [{"days": "Mon-Sat", "time": "10:30am"}, {"days": "Sun", "time": "Closed"}], "id": "0474300004", "name": "USPS COLLECTION BOX - BLUE BOX", "address": {"city": "FORT KENT", "state": "ME", "street": "62 W MAIN ST", "postcode": "04743"}}},
{"geometry": {"type": "Point", "coordinates": [-68.5795866967, 47.2382170098]}, "type": "Feature", "properties": {"collection_times": [{"days": "Mon-Sat", "time": "9:00am"}, {"days": "Sun", "time": "Closed"}], "id": "0474300010", "name": "USPS COLLECTION BOX - BLUE BOX", "address": {"city": "FORT KENT", "state": "ME", "street": "9 E MAIN ST", "postcode": "04743"}}},
{"geometry": {"type": "Point", "coordinates": [-68.5893606573, 47.2575739476]}, "type": "Feature", "properties": {"collection_times": [{"days": "Mon-Sat", "time": "9:00am"}, {"days": "Sun", "time": "Closed"}], "id": "0474300011", "name": "USPS COLLECTION BOX - BLUE BOX", "address": {"city": "FORT KENT", "state": "ME", "street": "3 MARKET ST", "postcode": "04743"}}},
{"geometry": {"type": "Point", "coordinates": [-68.6043875735, 47.2473467363]}, "type": "Feature", "properties": {"collection_times": [{"days": "Mon-Fri", "time": "2:00pm"}, {"days": "Sat", "time": "1:45pm"}, {"days": "Sun", "time": "Closed"}], "id": "0474300012", "name": "USPS COLLECTION BOX - PO LOBBY", "address": {"city": "FORT KENT", "state": "ME", "street": "152 W MAIN ST", "postcode": "04743"}}},
{"geometry": {"type": "Point", "coordinates": [-68.6043875735, 47.2473467363]}, "type": "Feature", "properties": {"collection_times": [{"days": "Mon-Fri", "time": "2:00pm"}, {"days": "Sat", "time": "1:45pm"}, {"days": "Sun", "time": "Closed"}], "id": "0474300013", "name": "USPS COLLECTION BOX - PO LOBBY", "address": {"city": "FORT KENT", "state": "ME", "street": "152 W MAIN ST", "postcode": "04743"}}},
{"geometry": {"type": "Point", "coordinates": [-68.5789162586, 47.2390947647]}, "type": "Feature", "properties": {"collection_times": [{"days": "Mon-Fri", "time": "1:30pm"}, {"days": "Sat", "time": "11:15am"}, {"days": "Sun", "time": "Closed"}], "id": "0474400001", "name": "USPS COLLECTION BOX - BLUE BOX", "address": {"city": "FORT KENT MILLS", "state": "ME", "street": "345 MARKET ST", "postcode": "04744"}}},
{"geometry": {"type": "Point", "coordinates": [-68.5789162586, 47.2390947647]}, "type": "Feature", "properties": {"collection_times": [{"days": "Mon-Fri", "time": "1:30pm"}, {"days": "Sat", "time": "11:15am"}, {"days": "Sun", "time": "Closed"}], "id": "0474400002", "name": "USPS COLLECTION BOX - PO LOBBY", "address": {"city": "FORT KENT MILLS", "state": "ME", "street": "345 MARKET ST", "postcode": "04744"}}},
{"geometry": {"type": "Point", "coordinates": [-68.4641172137, 47.2875169109]}, "type": "Feature", "properties": {"collection_times": [{"days": "Mon-Fri", "time": "1:20pm"}, {"days": "Sat", "time": "11:30am"}, {"days": "Sun", "time": "Closed"}], "id": "0474500001", "name": "USPS COLLECTION BOX - BLUE BOX", "address": {"city": "FRENCHVILLE", "state": "ME", "street": "386 US ROUTE 1", "postcode": "04745"}}},
{"geometry": {"type": "Point", "coordinates": [-68.4641172137, 47.2875169109]}, "type": "Feature", "properties": {"collection_times": [{"days": "Mon-Fri", "time": "1:20pm"}, {"days": "Sat", "time": "11:45am"}, {"days": "Sun", "time": "Closed"}], "id": "0474500002", "name": "USPS COLLECTION BOX - PO LOBBY", "address": {"city": "FRENCHVILLE", "state": "ME", "street": "386 US ROUTE 1", "postcode": "04745"}}},
{"geometry": {"type": "Point", "coordinates": [-68.4641172137, 47.2875169109]}, "type": "Feature", "properties": {"collection_times": [{"days": "Mon-Fri", "time": "1:20pm"}, {"days": "Sat", "time": "11:45am"}, {"days": "Sun", "time": "Closed"}], "id": "0474500003", "name": "USPS COLLECTION BOX - PO LOBBY", "address": {"city": "FRENCHVILLE", "state": "ME", "street": "386 US ROUTE 1", "postcode": "04745"}}},
{"geometry": {"type": "Point", "coordinates": [-68.1291182515, 47.2774089592]}, "type": "Feature", "properties": {"collection_times": [{"days": "Mon-Fri", "time": "2:15pm"}, {"days": "Sat", "time": "11:45am"}, {"days": "Sun", "time": "Closed"}], "id": "0474600001", "name": "USPS COLLECTION BOX - BLUE BOX", "address": {"city": "GRAND ISLE", "state": "ME", "street": "6 TRAVERSE ST", "postcode": "04746"}}},
{"geometry": {"type": "Point", "coordinates": [-68.1291182515, 47.2774089592]}, "type": "Feature", "properties": {"collection_times": [{"days": "Mon-Fri", "time": "2:15pm"}, {"days": "Sat", "time": "11:45am"}, {"days": "Sun", "time": "Closed"}], "id": "0474600004", "name": "USPS COLLECTION BOX - PO LOBBY", "address": {"city": "GRAND ISLE", "state": "ME", "street": "6 TRAVERSE ST", "postcode": "04746"}}},
{"geometry": {"type": "Point", "coordinates": [-68.2635483768, 46.0095189739]}, "type": "Feature", "properties": {"collection_times": [{"days": "Mon-Fri", "time": "3:30pm"}, {"days": "Sat", "time": "11:45am"}, {"days": "Sun", "time": "Closed"}], "id": "0474700001", "name": "USPS COLLECTION BOX - BLUE BOX", "address": {"city": "ISLAND FALLS", "state": "ME", "street": "1009 CRYSTAL RD", "postcode": "04747"}}},
{"geometry": {"type": "Point", "coordinates": [-68.2635483768, 46.0095189739]}, "type": "Feature", "properties": {"collection_times": [{"days": "Mon-Fri", "time": "3:30pm"}, {"days": "Sat", "time": "11:45am"}, {"days": "Sun", "time": "Closed"}], "id": "0474700003", "name": "USPS COLLECTION BOX - PO LOBBY", "address": {"city": "ISLAND FALLS", "state": "ME", "street": "1009 CRYSTAL RD", "postcode": "04747"}}},
{"geometry": {"type": "Point", "coordinates": [-67.8528063166, 46.9313162363]}, "type": "Feature", "properties": {"collection_times": [{"days": "Mon-Fri", "time": "3:00pm"}, {"days": "Sat", "time": "2:30pm"}, {"days": "Sun", "time": "Closed"}], "id": "0475000002", "name": "USPS COLLECTION BOX - PO LOBBY", "address": {"city": "LIMESTONE", "state": "ME", "street": "29 MAIN ST", "postcode": "04750"}}},
{"geometry": {"type": "Point", "coordinates": [-67.8528063166, 46.9313162363]}, "type": "Feature", "properties": {"collection_times": [{"days": "Mon-Fri", "time": "3:00pm"}, {"days": "Sat", "time": "2:30pm"}, {"days": "Sun", "time": "Closed"}], "id": "0475000003", "name": "USPS COLLECTION BOX - BLUE BOX", "address": {"city": "LIMESTONE", "state": "ME", "street": "29 MAIN ST", "postcode": "04750"}}},
{"geometry": {"type": "Point", "coordinates": [-67.8528063166, 46.9313162363]}, "type": "Feature", "properties": {"collection_times": [{"days": "Mon-Fri", "time": "3:00pm"}, {"days": "Sat", "time": "2:30pm"}, {"days": "Sun", "time": "Closed"}], "id": "0475000004", "name": "USPS COLLECTION BOX - PO LOBBY", "address": {"city": "LIMESTONE", "state": "ME", "street": "29 MAIN ST", "postcode": "04750"}}},
{"geometry": {"type": "Point", "coordinates": [-68.3272695604, 47.3547913889]}, "type": "Feature", "properties": {"collection_times": [{"days": "Mon-Sat", "time": "11:30am"}, {"days": "Sun", "time": "Closed"}], "id": "0475600005", "name": "USPS COLLECTION BOX - BLUE BOX", "address": {"city": "MADAWASKA", "state": "ME", "street": "328 SAINT THOMAS ST", "postcode": "04756"}}},
{"geometry": {"type": "Point", "coordinates": [-68.3218188462, 47.3529157935]}, "type": "Feature", "properties": {"collection_times": [{"days": "Mon-Sat", "time": "10:30am"}, {"days": "Sun", "time": "Closed"}], "id": "0475600006", "name": "USPS COLLECTION BOX - BLUE BOX", "address": {"city": "MADAWASKA", "state": "ME", "street": "309 SAINT THOMAS ST", "postcode": "04756"}}},
{"geometry": {"type": "Point", "coordinates": [-68.3474361357, 47.3543708498]}, "type": "Feature", "properties": {"collection_times": [{"days": "Mon-Sat", "time": "9:00am"}, {"days": "Sun", "time": "Closed"}], "id": "0475600012", "name": "USPS COLLECTION BOX - BLUE BOX", "address": {"city": "MADAWASKA", "state": "ME", "street": "58 MAIN ST", "postcode": "04756"}}},
{"geometry": {"type": "Point", "coordinates": [-68.3286345163, 47.3589142997]}, "type": "Feature", "properties": {"collection_times": [{"days": "Mon-Sat", "time": "9:20am"}, {"days": "Sun", "time": "Closed"}], "id": "0475600013", "name": "USPS COLLECTION BOX - BLUE BOX", "address": {"city": "MADAWASKA", "state": "ME", "street": "82 BRIDGE AVE", "postcode": "04756"}}},
{"geometry": {"type": "Point", "coordinates": [-68.3266215148, 47.3559590532]}, "type": "Feature", "properties": {"collection_times": [{"days": "Mon-Sat", "time": "9:30am"}, {"days": "Sun", "time": "Closed"}], "id": "0475600015", "name": "USPS COLLECTION BOX - BLUE BOX", "address": {"city": "MADAWASKA", "state": "ME", "street": "324 MAIN ST", "postcode": "04756"}}},
{"geometry": {"type": "Point", "coordinates": [-68.3243968203, 47.35564262]}, "type": "Feature", "properties": {"collection_times": [{"days": "Mon-Fri", "time": "1:45pm"}, {"days": "Sat", "time": "1:30pm"}, {"days": "Sun", "time": "Closed"}], "id": "0475600016", "name": "USPS COLLECTION BOX - BLUE BOX", "address": {"city": "MADAWASKA", "state": "ME", "street": "370 MAIN ST", "postcode": "04756"}}},
{"geometry": {"type": "Point", "coordinates": [-68.3457170665, 47.3527932305]}, "type": "Feature", "properties": {"collection_times": [{"days": "Mon-Sat", "time": "10:00am"}, {"days": "Sun", "time": "Closed"}], "id": "0475600018", "name": "USPS COLLECTION BOX - BLUE BOX", "address": {"city": "MADAWASKA", "state": "ME", "street": "78 FOX ST", "postcode": "04756"}}},
{"geometry": {"type": "Point", "coordinates": [-68.3399501533, 47.3557274109]}, "type": "Feature", "properties": {"collection_times": [{"days": "Mon-Sat", "time": "10:00am"}, {"days": "Sun", "time": "Closed"}], "id": "0475600019", "name": "USPS COLLECTION BOX - BLUE BOX", "address": {"city": "MADAWASKA", "state": "ME", "street": "131 MAIN ST", "postcode": "04756"}}},
{"geometry": {"type": "Point", "coordinates": [-68.3243968203, 47.35564262]}, "type": "Feature", "properties": {"collection_times": [{"days": "Mon-Sat", "time": "1:30pm"}, {"days": "Sun", "time": "Closed"}], "id": "0475600020", "name": "USPS COLLECTION BOX - PO LOBBY", "address": {"city": "MADAWASKA", "state": "ME", "street": "370 MAIN ST", "postcode": "04756"}}},
{"geometry": {"type": "Point", "coordinates": [-68.3243968203, 47.35564262]}, "type": "Feature", "properties": {"collection_times": [{"days": "Mon-Sat", "time": "1:30pm"}, {"days": "Sun", "time": "Closed"}], "id": "0475600021", "name": "USPS COLLECTION BOX - PO LOBBY", "address": {"city": "MADAWASKA", "state": "ME", "street": "370 MAIN ST", "postcode": "04756"}}},
{"geometry": {"type": "Point", "coordinates": [-68.1647332972, 46.6816385792]}, "type": "Feature", "properties": {"collection_times": [{"days": "Mon-Fri", "time": "2:30pm"}, {"days": "Sat", "time": "11:15am"}, {"days": "Sun", "time": "Closed"}], "id": "0475700001", "name": "USPS COLLECTION BOX - BLUE BOX", "address": {"city": "MAPLETON", "state": "ME", "street": "1754 MAIN ST", "postcode": "04757"}}},
{"geometry": {"type": "Point", "coordinates": [-68.1647332972, 46.6816385792]}, "type": "Feature", "properties": {"collection_times": [{"days": "Mon-Fri", "time": "2:30pm"}, {"days": "Sat", "time": "11:30am"}, {"days": "Sun", "time": "Closed"}], "id": "0475700005", "name": "USPS COLLECTION BOX - PO LOBBY", "address": {"city": "MAPLETON", "state": "ME", "street": "1754 MAIN ST", "postcode": "04757"}}},
{"geometry": {"type": "Point", "coordinates": [-67.8663183369, 46.5132140368]}, "type": "Feature", "properties": {"collection_times": [{"days": "Mon-Fri", "time": "3:45pm"}, {"days": "Sat", "time": "10:45am"}, {"days": "Sun", "time": "Closed"}], "id": "0475800001", "name": "USPS COLLECTION BOX - BLUE BOX", "address": {"city": "MARS HILL", "state": "ME", "street": "7 LINCOLN ST", "postcode": "04758"}}},
{"geometry": {"type": "Point", "coordinates": [-67.8663183369, 46.5132140368]}, "type": "Feature", "properties": {"collection_times": [{"days": "Mon-Fri", "time": "3:45pm"}, {"days": "Sat", "time": "11:00am"}, {"days": "Sun", "time": "Closed"}], "id": "0475800002", "name": "USPS COLLECTION BOX - PO LOBBY", "address": {"city": "MARS HILL", "state": "ME", "street": "7 LINCOLN ST", "postcode": "04758"}}},
{"geometry": {"type": "Point", "coordinates": [-67.841421415, 46.3090862466]}, "type": "Feature", "properties": {"collection_times": [{"days": "Mon-Fri", "time": "3:45pm"}, {"days": "Sat", "time": "10:45am"}, {"days": "Sun", "time": "Closed"}], "id": "0476000001", "name": "USPS COLLECTION BOX - BLUE BOX", "address": {"city": "MONTICELLO", "state": "ME", "street": "428 US HWY 1", "postcode": "04760"}}},
{"geometry": {"type": "Point", "coordinates": [-67.841421415, 46.3090862466]}, "type": "Feature", "properties": {"collection_times": [{"days": "Mon-Fri", "time": "4:00pm"}, {"days": "Sat", "time": "10:30am"}, {"days": "Sun", "time": "Closed"}], "id": "0476000002", "name": "USPS COLLECTION BOX - PO LOBBY", "address": {"city": "MONTICELLO", "state": "ME", "street": "428 US HWY 1", "postcode": "04760"}}},
{"geometry": {"type": "Point", "coordinates": [-67.9384420036, 46.1186452337]}, "type": "Feature", "properties": {"collection_times": [{"days": "Mon-Sat", "time": "11:50am"}, {"days": "Sun", "time": "Closed"}], "id": "0476100000", "name": "USPS COLLECTION BOX - BLUE BOX", "address": {"city": "NEW LIMERICK", "state": "ME", "street": "1132 COUNTY RD", "postcode": "04761"}}},
{"geometry": {"type": "Point", "coordinates": [-68.0997393734, 46.9538851914]}, "type": "Feature", "properties": {"collection_times": [{"days": "Mon-Fri", "time": "2:45pm"}, {"days": "Sat", "time": "11:15am"}, {"days": "Sun", "time": "Closed"}], "id": "0476200001", "name": "USPS COLLECTION BOX - BLUE BOX", "address": {"city": "NEW SWEDEN", "state": "ME", "street": "414 STATION RD", "postcode": "04762"}}},
{"geometry": {"type": "Point", "coordinates": [-68.0997393734, 46.9538851914]}, "type": "Feature", "properties": {"collection_times": [{"days": "Mon-Fri", "time": "2:45pm"}, {"days": "Sat", "time": "11:15am"}, {"days": "Sun", "time": "Closed"}], "id": "0476200003", "name": "USPS COLLECTION BOX - PO LOBBY", "address": {"city": "NEW SWEDEN", "state": "ME", "street": "414 STATION RD", "postcode": "04762"}}},
{"geometry": {"type": "Point", "coordinates": [-68.1312473038, 46.0987871119]}, "type": "Feature", "properties": {"collection_times": [{"days": "Mon-Fri", "time": "3:30pm"}, {"days": "Sat", "time": "10:30am"}, {"days": "Sun", "time": "Closed"}], "id": "0476300001", "name": "USPS COLLECTION BOX - BLUE BOX", "address": {"city": "OAKFIELD", "state": "ME", "street": "198 OAKFIELD SMYRNA RD", "postcode": "04763"}}},
{"geometry": {"type": "Point", "coordinates": [-68.1312473038, 46.0987871119]}, "type": "Feature", "properties": {"collection_times": [{"days": "Mon-Fri", "time": "1:00pm"}, {"days": "Sat", "time": "10:45am"}, {"days": "Sun", "time": "Closed"}], "id": "0476300003", "name": "USPS COLLECTION BOX - PO LOBBY", "address": {"city": "OAKFIELD", "state": "ME", "street": "198 OAKFIELD SMYRNA RD", "postcode": "04763"}}},
{"geometry": {"type": "Point", "coordinates": [-68.5506397953, 46.1869153743]}, "type": "Feature", "properties": {"collection_times": [{"days": "Mon-Fri", "time": "2:00pm"}, {"days": "Sat", "time": "11:00am"}, {"days": "Sun", "time": "Closed"}], "id": "0476500001", "name": "USPS COLLECTION BOX - BLUE BOX", "address": {"city": "PATTEN", "state": "ME", "street": "24 MAIN ST", "postcode": "04765"}}},
{"geometry": {"type": "Point", "coordinates": [-68.5506397953, 46.1869153743]}, "type": "Feature", "properties": {"collection_times": [{"days": "Mon-Fri", "time": "3:00pm"}, {"days": "Sat", "time": "12:00pm"}, {"days": "Sun", "time": "Closed"}], "id": "0476500003", "name": "USPS COLLECTION BOX - PO LOBBY", "address": {"city": "PATTEN", "state": "ME", "street": "24 MAIN ST", "postcode": "04765"}}},
{"geometry": {"type": "Point", "coordinates": [-68.1977943131, 46.8441259985]}, "type": "Feature", "properties": {"collection_times": [{"days": "Mon-Fri", "time": "3:00pm"}, {"days": "Sat", "time": "11:15am"}, {"days": "Sun", "time": "Closed"}], "id": "0476600001", "name": "USPS COLLECTION BOX - BLUE BOX", "address": {"city": "PERHAM", "state": "ME", "street": "2A MOUSE ISLAND RD", "postcode": "04766"}}},
{"geometry": {"type": "Point", "coordinates": [-68.1977943131, 46.8441259985]}, "type": "Feature", "properties": {"collection_times": [{"days": "Mon-Fri", "time": "3:00pm"}, {"days": "Sat", "time": "11:25am"}, {"days": "Sun", "time": "Closed"}], "id": "0476600002", "name": "USPS COLLECTION BOX - PO LOBBY", "address": {"city": "PERHAM", "state": "ME", "street": "2A MOUSE ISLAND RD", "postcode": "04766"}}},
{"geometry": {"type": "Point", "coordinates": [-68.4758901488, 46.7592875002]}, "type": "Feature", "properties": {"collection_times": [{"days": "Mon-Fri", "time": "2:30pm"}, {"days": "Sat", "time": "11:20am"}, {"days": "Sun", "time": "Closed"}], "id": "0476800001", "name": "USPS COLLECTION BOX - BLUE BOX", "address": {"city": "PORTAGE", "state": "ME", "street": "1 SCHOOL ST", "postcode": "04768"}}},
{"geometry": {"type": "Point", "coordinates": [-68.4758901488, 46.7592875002]}, "type": "Feature", "properties": {"collection_times": [{"days": "Mon-Fri", "time": "2:30pm"}, {"days": "Sat", "time": "11:20am"}, {"days": "Sun", "time": "Closed"}], "id": "0476800002", "name": "USPS COLLECTION BOX - PO LOBBY", "address": {"city": "PORTAGE", "state": "ME", "street": "1 SCHOOL ST", "postcode": "04768"}}},
{"geometry": {"type": "Point", "coordinates": [-68.0306735677, 46.6927699533]}, "type": "Feature", "properties": {"collection_times": [{"days": "Mon-Fri", "time": "12:00pm"}, {"days": "Sat-Sun", "time": "Closed"}], "id": "0476900005", "name": "USPS COLLECTION BOX - BLUE BOX", "address": {"city": "PRESQUE ISLE", "state": "ME", "street": "33 EDGEMONT DR", "postcode": "04769"}}},
{"geometry": {"type": "Point", "coordinates": [-68.0104969759, 46.6999223382]}, "type": "Feature", "properties": {"collection_times": [{"days": "Mon-Sat", "time": "10:00am"}, {"days": "Sun", "time": "Closed"}], "id": "0476900006", "name": "USPS COLLECTION BOX - BLUE BOX", "address": {"city": "PRESQUE ISLE", "state": "ME", "street": "781 MAIN ST", "postcode": "04769"}}},
{"geometry": {"type": "Point", "coordinates": [-68.0081637159, 46.678414832]}, "type": "Feature", "properties": {"collection_times": [{"days": "Mon-Sat", "time": "9:30am"}, {"days": "Sun", "time": "Closed"}], "id": "0476900009", "name": "USPS COLLECTION BOX - BLUE BOX", "address": {"city": "PRESQUE ISLE", "state": "ME", "street": "140 ACADEMY ST", "postcode": "04769"}}},
{"geometry": {"type": "Point", "coordinates": [-68.0075797576, 46.6842896383]}, "type": "Feature", "properties": {"collection_times": [{"days": "Mon-Sat", "time": "9:00am"}, {"days": "Sun", "time": "Closed"}], "id": "0476900013", "name": "USPS COLLECTION BOX - BLUE BOX", "address": {"city": "PRESQUE ISLE", "state": "ME", "street": "60 STATE ST", "postcode": "04769"}}},
{"geometry": {"type": "Point", "coordinates": [-68.0075797576, 46.6842896383]}, "type": "Feature", "properties": {"collection_times": [{"days": "Mon-Sat", "time": "10:00am"}, {"days": "Sun", "time": "Closed"}], "id": "0476900017", "name": "USPS COLLECTION BOX - BLUE BOX", "address": {"city": "PRESQUE ISLE", "state": "ME", "street": "797 MAIN ST", "postcode": "04769"}}},
{"geometry": {"type": "Point", "coordinates": [-68.0140690123, 46.6823109492]}, "type": "Feature", "properties": {"collection_times": [{"days": "Mon-Fri", "time": "3:30pm"}, {"days": "Sat", "time": "12:00pm"}, {"days": "Sun", "time": "Closed"}], "id": "0476900024", "name": "USPS COLLECTION BOX - BLUE BOX", "address": {"city": "PRESQUE ISLE", "state": "ME", "street": "23 2ND ST", "postcode": "04769"}}},
{"geometry": {"type": "Point", "coordinates": [-68.0075884477, 46.6842982822]}, "type": "Feature", "properties": {"collection_times": [{"days": "Mon-Fri", "time": "2:00pm"}, {"days": "Sat", "time": "9:30am"}, {"days": "Sun", "time": "Closed"}], "id": "0476900027", "name": "USPS COLLECTION BOX - EXPRESS", "address": {"city": "PRESQUE ISLE", "state": "ME", "street": "580 MAIN ST", "postcode": "04769"}}},
{"geometry": {"type": "Point", "coordinates": [-68.0166407369, 46.6826910887]}, "type": "Feature", "properties": {"collection_times": [{"days": "Mon-Fri", "time": "12:00pm"}, {"days": "Sat-Sun", "time": "Closed"}], "id": "0476900028", "name": "USPS COLLECTION BOX - BLUE BOX", "address": {"city": "PRESQUE ISLE", "state": "ME", "street": "27 RIVERSIDE DR", "postcode": "04769"}}},
{"geometry": {"type": "Point", "coordinates": [-68.0065568517, 46.6882820645]}, "type": "Feature", "properties": {"collection_times": [{"days": "Mon-Fri", "time": "12:00pm"}, {"days": "Sat-Sun", "time": "Closed"}], "id": "0476900031", "name": "USPS COLLECTION BOX - BLUE BOX", "address": {"city": "PRESQUE ISLE", "state": "ME", "street": "55 NORTH ST", "postcode": "04769"}}},
{"geometry": {"type": "Point", "coordinates": [-68.0140690123, 46.6823109492]}, "type": "Feature", "properties": {"collection_times": [{"days": "Mon-Fri", "time": "4:00pm"}, {"days": "Sat", "time": "3:00pm"}, {"days": "Sun", "time": "Closed"}], "id": "0476900032", "name": "USPS COLLECTION BOX - PO LOBBY", "address": {"city": "PRESQUE ISLE", "state": "ME", "street": "23 2ND ST", "postcode": "04769"}}},
{"geometry": {"type": "Point", "coordinates": [-68.0140690123, 46.6823109492]}, "type": "Feature", "properties": {"collection_times": [{"days": "Mon-Fri", "time": "4:00pm"}, {"days": "Sat", "time": "3:00pm"}, {"days": "Sun", "time": "Closed"}], "id": "0476900033", "name": "USPS COLLECTION BOX - PO LOBBY", "address": {"city": "PRESQUE ISLE", "state": "ME", "street": "23 2ND ST", "postcode": "04769"}}},
{"geometry": {"type": "Point", "coordinates": [-68.0140690123, 46.6823109492]}, "type": "Feature", "properties": {"collection_times": [{"days": "Mon-Fri", "time": "4:00pm"}, {"days": "Sat", "time": "3:00pm"}, {"days": "Sun", "time": "Closed"}], "id": "0476900034", "name": "USPS COLLECTION BOX - PO LOBBY", "address": {"city": "PRESQUE ISLE", "state": "ME", "street": "23 2ND ST", "postcode": "04769"}}},
{"geometry": {"type": "Point", "coordinates": [-68.3480551513, 47.2514664631]}, "type": "Feature", "properties": {"collection_times": [{"days": "Mon-Fri", "time": "1:00pm"}, {"days": "Sat", "time": "11:45am"}, {"days": "Sun", "time": "Closed"}], "id": "0477200001", "name": "USPS COLLECTION BOX - BLUE BOX", "address": {"city": "SAINT AGATHA", "state": "ME", "street": "353 MAIN ST", "postcode": "04772"}}},
{"geometry": {"type": "Point", "coordinates": [-68.3480551513, 47.2514664631]}, "type": "Feature", "properties": {"collection_times": [{"days": "Mon-Fri", "time": "1:00pm"}, {"days": "Sat", "time": "12:00pm"}, {"days": "Sun", "time": "Closed"}], "id": "0477200002", "name": "USPS COLLECTION BOX - PO LOBBY", "address": {"city": "SAINT AGATHA", "state": "ME", "street": "353 MAIN ST", "postcode": "04772"}}},
{"geometry": {"type": "Point", "coordinates": [-68.3480551513, 47.2514664631]}, "type": "Feature", "properties": {"collection_times": [{"days": "Mon-Fri", "time": "1:00pm"}, {"days": "Sat", "time": "12:00pm"}, {"days": "Sun", "time": "Closed"}], "id": "0477200003", "name": "USPS COLLECTION BOX - PO LOBBY", "address": {"city": "SAINT AGATHA", "state": "ME", "street": "353 MAIN ST", "postcode": "04772"}}},
{"geometry": {"type": "Point", "coordinates": [-68.1811988491, 47.3273195359]}, "type": "Feature", "properties": {"collection_times": [{"days": "Mon-Fri", "time": "2:00pm"}, {"days": "Sat", "time": "11:30am"}, {"days": "Sun", "time": "Closed"}], "id": "0477300001", "name": "USPS COLLECTION BOX - BLUE BOX", "address": {"city": "SAINT DAVID", "state": "ME", "street": "994 MAIN ST", "postcode": "04773"}}},
{"geometry": {"type": "Point", "coordinates": [-68.1811988491, 47.3273195359]}, "type": "Feature", "properties": {"collection_times": [{"days": "Mon-Fri", "time": "2:15pm"}, {"days": "Sat", "time": "11:30am"}, {"days": "Sun", "time": "Closed"}], "id": "0477300002", "name": "USPS COLLECTION BOX - PO LOBBY", "address": {"city": "SAINT DAVID", "state": "ME", "street": "994 MAIN ST", "postcode": "04773"}}},
{"geometry": {"type": "Point", "coordinates": [-68.9557380799, 47.1074485633]}, "type": "Feature", "properties": {"collection_times": [{"days": "Mon-Fri", "time": "1:00pm"}, {"days": "Sat", "time": "11:15am"}, {"days": "Sun", "time": "Closed"}], "id": "0477400001", "name": "USPS COLLECTION BOX - BLUE BOX", "address": {"city": "SAINT FRANCIS", "state": "ME", "street": "890 MAIN ST", "postcode": "04774"}}},
{"geometry": {"type": "Point", "coordinates": [-68.9557380799, 47.1074485633]}, "type": "Feature", "properties": {"collection_times": [{"days": "Mon-Fri", "time": "12:45pm"}, {"days": "Sat", "time": "11:15am"}, {"days": "Sun", "time": "Closed"}], "id": "0477400002", "name": "USPS COLLECTION BOX - PO LOBBY", "address": {"city": "SAINT FRANCIS", "state": "ME", "street": "890 MAIN ST", "postcode": "04774"}}},
{"geometry": {"type": "Point", "coordinates": [-68.3310022864, 45.870630925]}, "type": "Feature", "properties": {"collection_times": [{"days": "Mon-Fri", "time": "2:30pm"}, {"days": "Sat", "time": "11:45am"}, {"days": "Sun", "time": "Closed"}], "id": "0477600001", "name": "USPS COLLECTION BOX - BLUE BOX", "address": {"city": "SHERMAN", "state": "ME", "street": "11 WOODBRIDGE CORNER RD", "postcode": "04776"}}},
{"geometry": {"type": "Point", "coordinates": [-68.3310022864, 45.870630925]}, "type": "Feature", "properties": {"collection_times": [{"days": "Mon-Fri", "time": "2:30pm"}, {"days": "Sat", "time": "11:45am"}, {"days": "Sun", "time": "Closed"}], "id": "0477600002", "name": "USPS COLLECTION BOX - PO LOBBY", "address": {"city": "SHERMAN", "state": "ME", "street": "11 WOODBRIDGE CORNER RD", "postcode": "04776"}}},
{"geometry": {"type": "Point", "coordinates": [-68.3310022864, 45.870630925]}, "type": "Feature", "properties": {"collection_times": [{"days": "Mon-Fri", "time": "2:30pm"}, {"days": "Sat", "time": "11:45am"}, {"days": "Sun", "time": "Closed"}], "id": "0477600003", "name": "USPS COLLECTION BOX - PO LOBBY", "address": {"city": "SHERMAN", "state": "ME", "street": "11 WOODBRIDGE CORNER RD", "postcode": "04776"}}},
{"geometry": {"type": "Point", "coordinates": [-68.4310822666, 45.9004625283]}, "type": "Feature", "properties": {"collection_times": [{"days": "Mon-Fri", "time": "2:45pm"}, {"days": "Sat", "time": "11:30am"}, {"days": "Sun", "time": "Closed"}], "id": "0477700001", "name": "USPS COLLECTION BOX - BLUE BOX", "address": {"city": "STACYVILLE", "state": "ME", "street": "418 STATION RD", "postcode": "04777"}}},
{"geometry": {"type": "Point", "coordinates": [-68.4310822666, 45.9004625283]}, "type": "Feature", "properties": {"collection_times": [{"days": "Mon-Fri", "time": "2:45pm"}, {"days": "Sat", "time": "11:30am"}, {"days": "Sun", "time": "Closed"}], "id": "0477700003", "name": "USPS COLLECTION BOX - PO LOBBY", "address": {"city": "STACYVILLE", "state": "ME", "street": "418 STATION RD", "postcode": "04777"}}},
{"geometry": {"type": "Point", "coordinates": [-68.208430938, 47.1572788598]}, "type": "Feature", "properties": {"collection_times": [{"days": "Mon-Fri", "time": "12:45pm"}, {"days": "Sat", "time": "12:00pm"}, {"days": "Sun", "time": "Closed"}], "id": "0477900001", "name": "USPS COLLECTION BOX - BLUE BOX", "address": {"city": "SINCLAIR", "state": "ME", "street": "251 SINCLAIR RD", "postcode": "04779"}}},
{"geometry": {"type": "Point", "coordinates": [-68.208430938, 47.1572788598]}, "type": "Feature", "properties": {"collection_times": [{"days": "Mon-Fri", "time": "12:45pm"}, {"days": "Sat", "time": "12:00pm"}, {"days": "Sun", "time": "Closed"}], "id": "0477900002", "name": "USPS COLLECTION BOX - PO LOBBY", "address": {"city": "SINCLAIR", "state": "ME", "street": "251 SINCLAIR RD", "postcode": "04779"}}},
{"geometry": {"type": "Point", "coordinates": [-68.215397026, 46.1501363872]}, "type": "Feature", "properties": {"collection_times": [{"days": "Mon-Fri", "time": "3:50pm"}, {"days": "Sat", "time": "11:00am"}, {"days": "Sun", "time": "Closed"}], "id": "0478000001", "name": "USPS COLLECTION BOX - BLUE BOX", "address": {"city": "SMYRNA MILLS", "state": "ME", "street": "3391 US ROUTE 2", "postcode": "04780"}}},
{"geometry": {"type": "Point", "coordinates": [-68.215397026, 46.1501363872]}, "type": "Feature", "properties": {"collection_times": [{"days": "Mon-Fri", "time": "4:00pm"}, {"days": "Sat", "time": "11:15am"}, {"days": "Sun", "time": "Closed"}], "id": "0478000002", "name": "USPS COLLECTION BOX - PO LOBBY", "address": {"city": "SMYRNA MILLS", "state": "ME", "street": "3391 US ROUTE 2", "postcode": "04780"}}},
{"geometry": {"type": "Point", "coordinates": [-68.576487911, 47.154707812]}, "type": "Feature", "properties": {"collection_times": [{"days": "Mon-Fri", "time": "12:25pm"}, {"days": "Sat", "time": "11:25am"}, {"days": "Sun", "time": "Closed"}], "id": "0478100001", "name": "USPS COLLECTION BOX - BLUE BOX", "address": {"city": "WALLAGRASS", "state": "ME", "street": "174 SOLDIER POND RD", "postcode": "04781"}}},
{"geometry": {"type": "Point", "coordinates": [-68.576487911, 47.154707812]}, "type": "Feature", "properties": {"collection_times": [{"days": "Mon-Fri", "time": "12:25pm"}, {"days": "Sat", "time": "11:25am"}, {"days": "Sun", "time": "Closed"}], "id": "0478100002", "name": "USPS COLLECTION BOX - PO LOBBY", "address": {"city": "WALLAGRASS", "state": "ME", "street": "174 SOLDIER POND RD", "postcode": "04781"}}},
{"geometry": {"type": "Point", "coordinates": [-68.576487911, 47.154707812]}, "type": "Feature", "properties": {"collection_times": [{"days": "Mon-Fri", "time": "12:25pm"}, {"days": "Sat", "time": "11:25am"}, {"days": "Sun", "time": "Closed"}], "id": "0478100003", "name": "USPS COLLECTION BOX - PO LOBBY", "address": {"city": "WALLAGRASS", "state": "ME", "street": "174 SOLDIER POND RD", "postcode": "04781"}}},
{"geometry": {"type": "Point", "coordinates": [-67.9353935961, 47.1570168495]}, "type": "Feature", "properties": {"collection_times": [{"days": "Mon-Sat", "time": "11:30am"}, {"days": "Sun", "time": "Closed"}], "id": "0478500001", "name": "USPS COLLECTION BOX - BLUE BOX", "address": {"city": "VAN BUREN", "state": "ME", "street": "83 MAIN ST", "postcode": "04785"}}},
{"geometry": {"type": "Point", "coordinates": [-67.9329379546, 47.1554926952]}, "type": "Feature", "properties": {"collection_times": [{"days": "Mon-Fri", "time": "3:00pm"}, {"days": "Sat", "time": "2:30pm"}, {"days": "Sun", "time": "Closed"}], "id": "0478500002", "name": "USPS COLLECTION BOX - BLUE BOX", "address": {"city": "VAN BUREN", "state": "ME", "street": "42 MAIN ST", "postcode": "04785"}}},
{"geometry": {"type": "Point", "coordinates": [-67.9362391126, 47.1495788972]}, "type": "Feature", "properties": {"collection_times": [{"days": "Mon-Sat", "time": "8:00am"}, {"days": "Sun", "time": "Closed"}], "id": "0478500004", "name": "USPS COLLECTION BOX - BLUE BOX", "address": {"city": "VAN BUREN", "state": "ME", "street": "156 MAIN ST", "postcode": "04785"}}},
{"geometry": {"type": "Point", "coordinates": [-67.9362391126, 47.1495788972]}, "type": "Feature", "properties": {"collection_times": [{"days": "Mon-Sat", "time": "11:00am"}, {"days": "Sun", "time": "Closed"}], "id": "0478500006", "name": "USPS COLLECTION BOX - BLUE BOX", "address": {"city": "VAN BUREN", "state": "ME", "street": "49 ACADIA HTS", "postcode": "04785"}}},
{"geometry": {"type": "Point", "coordinates": [-67.9546492691, 47.1638949591]}, "type": "Feature", "properties": {"collection_times": [{"days": "Mon-Sat", "time": "11:00am"}, {"days": "Sun", "time": "Closed"}], "id": "0478500007", "name": "USPS COLLECTION BOX - BLUE BOX", "address": {"city": "VAN BUREN", "state": "ME", "street": "200 CHAMPLAIN ST", "postcode": "04785"}}},
{"geometry": {"type": "Point", "coordinates": [-67.9362391126, 47.1495788972]}, "type": "Feature", "properties": {"collection_times": [{"days": "Mon-Sat", "time": "8:45am"}, {"days": "Sun", "time": "Closed"}], "id": "0478500008", "name": "USPS COLLECTION BOX - BLUE BOX", "address": {"city": "VAN BUREN", "state": "ME", "street": "564 MAIN ST", "postcode": "04785"}}},
{"geometry": {"type": "Point", "coordinates": [-67.9329379546, 47.1554926952]}, "type": "Feature", "properties": {"collection_times": [{"days": "Mon-Fri", "time": "3:00pm"}, {"days": "Sat", "time": "2:30pm"}, {"days": "Sun", "time": "Closed"}], "id": "0478500010", "name": "USPS COLLECTION BOX - PO LOBBY", "address": {"city": "VAN BUREN", "state": "ME", "street": "42 MAIN ST", "postcode": "04785"}}},
{"geometry": {"type": "Point", "coordinates": [-68.1564882744, 46.7877698975]}, "type": "Feature", "properties": {"collection_times": [{"days": "Mon-Fri", "time": "2:15pm"}, {"days": "Sat", "time": "12:00pm"}, {"days": "Sun", "time": "Closed"}], "id": "0478600004", "name": "USPS COLLECTION BOX - BLUE BOX", "address": {"city": "WASHBURN", "state": "ME", "street": "9 WOODMAN ST", "postcode": "04786"}}},
{"geometry": {"type": "Point", "coordinates": [-68.1564882744, 46.7877698975]}, "type": "Feature", "properties": {"collection_times": [{"days": "Mon-Fri", "time": "2:15pm"}, {"days": "Sat", "time": "12:00pm"}, {"days": "Sun", "time": "Closed"}], "id": "0478600005", "name": "USPS COLLECTION BOX - PO LOBBY", "address": {"city": "WASHBURN", "state": "ME", "street": "9 WOODMAN ST", "postcode": "04786"}}},
{"geometry": {"type": "Point", "coordinates": [-67.9456764642, 46.5624991345]}, "type": "Feature", "properties": {"collection_times": [{"days": "Mon-Fri", "time": "3:00pm"}, {"days": "Sat", "time": "11:00am"}, {"days": "Sun", "time": "Closed"}], "id": "0478700001", "name": "USPS COLLECTION BOX - BLUE BOX", "address": {"city": "WESTFIELD", "state": "ME", "street": "286 BURLEIGH RD", "postcode": "04787"}}},
{"geometry": {"type": "Point", "coordinates": [-67.9456764642, 46.5624991345]}, "type": "Feature", "properties": {"collection_times": [{"days": "Mon-Fri", "time": "3:00pm"}, {"days": "Sat", "time": "11:00am"}, {"days": "Sun", "time": "Closed"}], "id": "0478700002", "name": "USPS COLLECTION BOX - PO LOBBY", "address": {"city": "WESTFIELD", "state": "ME", "street": "286 BURLEIGH RD", "postcode": "04787"}}}
]}
