{"type": "FeatureCollection", "features": [
{"geometry": {"type": "Point", "coordinates": [-69.109927326, 44.10475082]}, "type": "Feature", "properties": {"collection_times": [{"days": "Mon-Sat", "time": "5:00pm"}, {"days": "Sun", "time": "Closed"}], "id": "0484100002", "name": "USPS COLLECTION BOX - BLUE BOX", "address": {"city": "ROCKLAND", "state": "ME", "street": "21 LIMEROCK ST", "postcode": "04841"}}},
{"geometry": {"type": "Point", "coordinates": [-69.109927326, 44.10475082]}, "type": "Feature", "properties": {"collection_times": [{"days": "Mon-Sat", "time": "5:00pm"}, {"days": "Sun", "time": "Closed"}], "id": "0484100003", "name": "USPS COLLECTION BOX - BLUE BOX", "address": {"city": "ROCKLAND", "state": "ME", "street": "21 LIMEROCK ST", "postcode": "04841"}}},
{"geometry": {"type": "Point", "coordinates": [-69.1138789881, 44.1080141711]}, "type": "Feature", "properties": {"collection_times": [{"days": "Mon-Sat", "time": "5:00pm"}, {"days": "Sun", "time": "Closed"}], "id": "0484100005", "name": "USPS COLLECTION BOX - EXPRESS", "address": {"city": "ROCKLAND", "state": "ME", "street": "21 LIMEROCK ST", "postcode": "04841"}}},
{"geometry": {"type": "Point", "coordinates": [-69.1138659527, 44.108001182]}, "type": "Feature", "properties": {"collection_times": [{"days": "Mon-Fri", "time": "3:30pm"}, {"days": "Sat", "time": "10:00am"}, {"days": "Sun", "time": "Closed"}], "id": "0484100015", "name": "USPS COLLECTION BOX - BLUE BOX", "address": {"city": "ROCKLAND", "state": "ME", "street": "62 UNION ST", "postcode": "04841"}}},
{"geometry": {"type": "Point", "coordinates": [-69.1065966594, 44.1164299781]}, "type": "Feature", "properties": {"collection_times": [{"days": "Mon-Sat", "time": "2:00pm"}, {"days": "Sun", "time": "Closed"}], "id": "0484100022", "name": "USPS COLLECTION BOX - BLUE BOX", "address": {"city": "ROCKLAND", "state": "ME", "street": "75 MAVERICK ST", "postcode": "04841"}}},
{"geometry": {"type": "Point", "coordinates": [-69.1090716914, 44.1040075001]}, "type": "Feature", "properties": {"collection_times": [{"days": "Mon-Fri", "time": "3:30pm"}, {"days": "Sat", "time": "10:00am"}, {"days": "Sun", "time": "Closed"}], "id": "0484100023", "name": "USPS COLLECTION BOX - BLUE BOX", "address": {"city": "ROCKLAND", "state": "ME", "street": "331 MAIN ST", "postcode": "04841"}}},
{"geometry": {"type": "Point", "coordinates": [-69.0992101401, 44.1236300586]}, "type": "Feature", "properties": {"collection_times": [{"days": "Mon-Fri", "time": "3:30pm"}, {"days": "Sat", "time": "9:30am"}, {"days": "Sun", "time": "Closed"}], "id": "0484100029", "name": "USPS COLLECTION BOX - BLUE BOX", "address": {"city": "ROCKLAND", "state": "ME", "street": "235 CAMDEN ST", "postcode": "04841"}}},
{"geometry": {"type": "Point", "coordinates": [-69.109927326, 44.10475082]}, "type": "Feature", "properties": {"collection_times": [{"days": "Mon-Fri", "time": "5:15pm"}, {"days": "Sat", "time": "5:00pm"}, {"days": "Sun", "time": "Closed"}], "id": "0484100034", "name": "USPS COLLECTION BOX - PO LOBBY", "address": {"city": "ROCKLAND", "state": "ME", "street": "21 LIMEROCK ST", "postcode": "04841"}}},
{"geometry": {"type": "Point", "coordinates": [-69.109927326, 44.10475082]}, "type": "Feature", "properties": {"collection_times": [{"days": "Mon-Fri", "time": "5:15pm"}, {"days": "Sat", "time": "5:00pm"}, {"days": "Sun", "time": "Closed"}], "id": "0484100035", "name": "USPS COLLECTION BOX - PO LOBBY", "address": {"city": "ROCKLAND", "state": "ME", "street": "21 LIMEROCK ST", "postcode": "04841"}}},
{"geometry": {"type": "Point", "coordinates": [-69.109927326, 44.10475082]}, "type": "Feature", "properties": {"collection_times": [{"days": "Mon-Fri", "time": "5:15pm"}, {"days": "Sat", "time": "5:00pm"}, {"days": "Sun", "time": "Closed"}], "id": "0484100036", "name": "USPS COLLECTION BOX - PO LOBBY", "address": {"city": "ROCKLAND", "state": "ME", "street": "21 LIMEROCK ST", "postcode": "04841"}}},
{"geometry": {"type": "Point", "coordinates": [-69.109927326, 44.10475082]}, "type": "Feature", "properties": {"collection_times": [{"days": "Mon-Sat", "time": "5:00pm"}, {"days": "Sun", "time": "Closed"}], "id": "0484100037", "name": "USPS COLLECTION BOX - BLUE BOX", "address": {"city": "ROCKLAND", "state": "ME", "street": "21 LIMEROCK ST", "postcode": "04841"}}},
{"geometry": {"type": "Point", "coordinates": [-69.0639318976, 44.2081919432]}, "type": "Feature", "properties": {"collection_times": [{"days": "Mon-Fri", "time": "4:00pm"}, {"days": "Sat", "time": "3:30pm"}, {"days": "Sun", "time": "Closed"}], "id": "0484300005", "name": "USPS COLLECTION BOX - BLUE BOX", "address": {"city": "CAMDEN", "state": "ME", "street": "28 CHESTNUT ST", "postcode": "04843"}}},
{"geometry": {"type": "Point", "coordinates": [-69.0639318976, 44.2081919432]}, "type": "Feature", "properties": {"collection_times": [{"days": "Mon-Fri", "time": "4:00pm"}, {"days": "Sat", "time": "3:30pm"}, {"days": "Sun", "time": "Closed"}], "id": "0484300006", "name": "USPS COLLECTION BOX - BLUE BOX", "address": {"city": "CAMDEN", "state": "ME", "street": "28 CHESTNUT ST", "postcode": "04843"}}},
{"geometry": {"type": "Point", "coordinates": [-69.0720193049, 44.204489027]}, "type": "Feature", "properties": {"collection_times": [{"days": "Mon-Sat", "time": "9:00am"}, {"days": "Sun", "time": "Closed"}], "id": "0484300008", "name": "USPS COLLECTION BOX - BLUE BOX", "address": {"city": "CAMDEN", "state": "ME", "street": "83 ELM ST", "postcode": "04843"}}},
{"geometry": {"type": "Point", "coordinates": [-69.0679032946, 44.2089198675]}, "type": "Feature", "properties": {"collection_times": [{"days": "Mon-Sat", "time": "9:00am"}, {"days": "Sun", "time": "Closed"}], "id": "0484300013", "name": "USPS COLLECTION BOX - BLUE BOX", "address": {"city": "CAMDEN", "state": "ME", "street": "14 FREE ST", "postcode": "04843"}}},
{"geometry": {"type": "Point", "coordinates": [-69.0761241529, 44.2014835369]}, "type": "Feature", "properties": {"collection_times": [{"days": "Mon-Sat", "time": "10:00am"}, {"days": "Sun", "time": "Closed"}], "id": "0484300020", "name": "USPS COLLECTION BOX - BLUE BOX", "address": {"city": "CAMDEN", "state": "ME", "street": "4 CAMDEN SQ", "postcode": "04843"}}},
{"geometry": {"type": "Point", "coordinates": [-69.0668272976, 44.2071496256]}, "type": "Feature", "properties": {"collection_times": [{"days": "Mon-Sat", "time": "9:00am"}, {"days": "Sun", "time": "Closed"}], "id": "0484300022", "name": "USPS COLLECTION BOX - BLUE BOX", "address": {"city": "CAMDEN", "state": "ME", "street": "2 UNION ST", "postcode": "04843"}}},
{"geometry": {"type": "Point", "coordinates": [-69.077678794, 44.2163444525]}, "type": "Feature", "properties": {"collection_times": [{"days": "Mon-Sat", "time": "12:00pm"}, {"days": "Sun", "time": "Closed"}], "id": "0484300023", "name": "USPS COLLECTION BOX - BLUE BOX", "address": {"city": "CAMDEN", "state": "ME", "street": "4 GOULD ST", "postcode": "04843"}}},
{"geometry": {"type": "Point", "coordinates": [-69.0647618962, 44.21083584]}, "type": "Feature", "properties": {"collection_times": [{"days": "Mon-Sat", "time": "2:00pm"}, {"days": "Sun", "time": "Closed"}], "id": "0484300025", "name": "USPS COLLECTION BOX - BLUE BOX", "address": {"city": "CAMDEN", "state": "ME", "street": "20 MAIN ST", "postcode": "04843"}}},
{"geometry": {"type": "Point", "coordinates": [-69.0639318976, 44.2081919432]}, "type": "Feature", "properties": {"collection_times": [{"days": "Mon-Fri", "time": "4:30pm"}, {"days": "Sat", "time": "3:30pm"}, {"days": "Sun", "time": "Closed"}], "id": "0484300028", "name": "USPS COLLECTION BOX - PO LOBBY", "address": {"city": "CAMDEN", "state": "ME", "street": "28 CHESTNUT ST", "postcode": "04843"}}},
{"geometry": {"type": "Point", "coordinates": [-69.0682907061, 44.2072303261]}, "type": "Feature", "properties": {"collection_times": [{"days": "Mon-Sat", "time": "2:00pm"}, {"days": "Sun", "time": "Closed"}], "id": "0484300029", "name": "USPS COLLECTION BOX - BLUE BOX", "address": {"city": "CAMDEN", "state": "ME", "street": "21 ELM ST", "postcode": "04843"}}},
{"geometry": {"type": "Point", "coordinates": [-69.0717993689, 44.2000951647]}, "type": "Feature", "properties": {"collection_times": [{"days": "Mon-Sat", "time": "10:00am"}, {"days": "Sun", "time": "Closed"}], "id": "0484300030", "name": "USPS COLLECTION BOX - BLUE BOX", "address": {"city": "CAMDEN", "state": "ME", "street": "30 COMMUNITY DR", "postcode": "04843"}}},
{"geometry": {"type": "Point", "coordinates": [-69.0713066241, 44.1885836542]}, "type": "Feature", "properties": {"collection_times": [{"days": "Mon-Fri", "time": "3:30pm"}, {"days": "Sat", "time": "11:30am"}, {"days": "Sun", "time": "Closed"}], "id": "0484600001", "name": "USPS COLLECTION BOX - BLUE BOX", "address": {"city": "ROCKPORT", "state": "ME", "street": "849 COMMERCIAL ST", "postcode": "04846"}}},
{"geometry": {"type": "Point", "coordinates": [-69.064567227, 44.2089437109]}, "type": "Feature", "properties": {"collection_times": [{"days": "Mon-Sat", "time": "10:00am"}, {"days": "Sun", "time": "Closed"}], "id": "0484700001", "name": "USPS COLLECTION BOX - BLUE BOX", "address": {"city": "CAMDEN", "state": "ME", "street": "449 CAMDEN RD", "postcode": "04847"}}},
{"geometry": {"type": "Point", "coordinates": [-68.9081558925, 44.2900808847]}, "type": "Feature", "properties": {"collection_times": [{"days": "Mon-Fri", "time": "2:30pm"}, {"days": "Sat", "time": "11:30am"}, {"days": "Sun", "time": "Closed"}], "id": "0484800001", "name": "USPS COLLECTION BOX - BLUE BOX", "address": {"city": "ISLESBORO", "state": "ME", "street": "114 MAIN RD", "postcode": "04848"}}},
{"geometry": {"type": "Point", "coordinates": [-68.9081558925, 44.2900808847]}, "type": "Feature", "properties": {"collection_times": [{"days": "Mon-Fri", "time": "2:30pm"}, {"days": "Sat", "time": "11:30am"}, {"days": "Sun", "time": "Closed"}], "id": "0484800002", "name": "USPS COLLECTION BOX - PO LOBBY", "address": {"city": "ISLESBORO", "state": "ME", "street": "114 MAIN RD", "postcode": "04848"}}},
{"geometry": {"type": "Point", "coordinates": [-69.0534755022, 44.3169548632]}, "type": "Feature", "properties": {"collection_times": [{"days": "Mon-Fri", "time": "3:30pm"}, {"days": "Sat", "time": "11:45am"}, {"days": "Sun", "time": "Closed"}], "id": "0484900001", "name": "USPS COLLECTION BOX - BLUE BOX", "address": {"city": "LINCOLNVILLE", "state": "ME", "street": "2512 ATLANTIC HWY", "postcode": "04849"}}},
{"geometry": {"type": "Point", "coordinates": [-69.0534755022, 44.3169548632]}, "type": "Feature", "properties": {"collection_times": [{"days": "Mon-Fri", "time": "4:00pm"}, {"days": "Sat", "time": "12:00pm"}, {"days": "Sun", "time": "Closed"}], "id": "0484900003", "name": "USPS COLLECTION BOX - PO LOBBY", "address": {"city": "LINCOLNVILLE", "state": "ME", "street": "2512 ATLANTIC HWY", "postcode": "04849"}}},
{"geometry": {"type": "Point", "coordinates": [-69.0534755022, 44.3169548632]}, "type": "Feature", "properties": {"collection_times": [{"days": "Mon-Fri", "time": "4:00pm"}, {"days": "Sat", "time": "12:00pm"}, {"days": "Sun", "time": "Closed"}], "id": "0484900004", "name": "USPS COLLECTION BOX - PO LOBBY", "address": {"city": "LINCOLNVILLE", "state": "ME", "street": "2512 ATLANTIC HWY", "postcode": "04849"}}},
{"geometry": {"type": "Point", "coordinates": [-68.8939611273, 43.8619257304]}, "type": "Feature", "properties": {"collection_times": [{"days": "Mon-Fri", "time": "10:00am"}, {"days": "Sat-Sun", "time": "Closed"}], "id": "0485100001", "name": "USPS COLLECTION BOX - BLUE BOX", "address": {"city": "MATINICUS", "state": "ME", "street": "50 SOUTH RD", "postcode": "04851"}}},
{"geometry": {"type": "Point", "coordinates": [-68.8939611273, 43.8619257304]}, "type": "Feature", "properties": {"collection_times": [{"days": "Mon-Fri", "time": "10:00am"}, {"days": "Sat-Sun", "time": "Closed"}], "id": "0485100002", "name": "USPS COLLECTION BOX - PO LOBBY", "address": {"city": "MATINICUS", "state": "ME", "street": "50 SOUTH RD", "postcode": "04851"}}},
{"geometry": {"type": "Point", "coordinates": [-69.3206344865, 43.7627368793]}, "type": "Feature", "properties": {"collection_times": [{"days": "Mon-Sat", "time": "10:00am"}, {"days": "Sun", "time": "Closed"}], "id": "0485200001", "name": "USPS COLLECTION BOX - BLUE BOX", "address": {"city": "MONHEGAN", "state": "ME", "street": "258 MONHEGAN AVE", "postcode": "04852"}}},
{"geometry": {"type": "Point", "coordinates": [-69.3206344865, 43.7627368793]}, "type": "Feature", "properties": {"collection_times": [{"days": "Mon-Sat", "time": "10:00am"}, {"days": "Sun", "time": "Closed"}], "id": "0485200002", "name": "USPS COLLECTION BOX - PO LOBBY", "address": {"city": "MONHEGAN", "state": "ME", "street": "258 MONHEGAN AVE", "postcode": "04852"}}},
{"geometry": {"type": "Point", "coordinates": [-68.8720465278, 44.1276343957]}, "type": "Feature", "properties": {"collection_times": [{"days": "Mon-Fri", "time": "2:30pm"}, {"days": "Sat", "time": "11:30am"}, {"days": "Sun", "time": "Closed"}], "id": "0485300001", "name": "USPS COLLECTION BOX - BLUE BOX", "address": {"city": "NORTH HAVEN", "state": "ME", "street": "27 MAIN ST", "postcode": "04853"}}},
{"geometry": {"type": "Point", "coordinates": [-68.8720465278, 44.1276343957]}, "type": "Feature", "properties": {"collection_times": [{"days": "Mon-Fri", "time": "2:30pm"}, {"days": "Sat", "time": "11:30am"}, {"days": "Sun", "time": "Closed"}], "id": "0485300002", "name": "USPS COLLECTION BOX - PO LOBBY", "address": {"city": "NORTH HAVEN", "state": "ME", "street": "27 MAIN ST", "postcode": "04853"}}},
{"geometry": {"type": "Point", "coordinates": [-68.8720465278, 44.1276343957]}, "type": "Feature", "properties": {"collection_times": [{"days": "Mon-Fri", "time": "2:30pm"}, {"days": "Sat", "time": "11:30am"}, {"days": "Sun", "time": "Closed"}], "id": "0485300003", "name": "USPS COLLECTION BOX - PO LOBBY", "address": {"city": "NORTH HAVEN", "state": "ME", "street": "27 MAIN ST", "postcode": "04853"}}},
{"geometry": {"type": "Point", "coordinates": [-69.0913990958, 44.0680986852]}, "type": "Feature", "properties": {"collection_times": [{"days": "Mon-Fri", "time": "4:15pm"}, {"days": "Sat", "time": "11:15am"}, {"days": "Sun", "time": "Closed"}], "id": "0485400001", "name": "USPS COLLECTION BOX - BLUE BOX", "address": {"city": "OWLS HEAD", "state": "ME", "street": "5 MAIN ST", "postcode": "04854"}}},
{"geometry": {"type": "Point", "coordinates": [-69.0913990958, 44.0680986852]}, "type": "Feature", "properties": {"collection_times": [{"days": "Mon-Fri", "time": "4:15pm"}, {"days": "Sat", "time": "11:15am"}, {"days": "Sun", "time": "Closed"}], "id": "0485400003", "name": "USPS COLLECTION BOX - PO LOBBY", "address": {"city": "OWLS HEAD", "state": "ME", "street": "5 MAIN ST", "postcode": "04854"}}},
{"geometry": {"type": "Point", "coordinates": [-69.0718986155, 44.189413066]}, "type": "Feature", "properties": {"collection_times": [{"days": "Mon-Fri", "time": "4:30pm"}, {"days": "Sat", "time": "11:30am"}, {"days": "Sun", "time": "Closed"}], "id": "0485600002", "name": "USPS COLLECTION BOX - BLUE BOX", "address": {"city": "ROCKPORT", "state": "ME", "street": "223 UNION ST", "postcode": "04856"}}},
{"geometry": {"type": "Point", "coordinates": [-69.0718986155, 44.189413066]}, "type": "Feature", "properties": {"collection_times": [{"days": "Mon-Fri", "time": "4:30pm"}, {"days": "Sat", "time": "11:30am"}, {"days": "Sun", "time": "Closed"}], "id": "0485600003", "name": "USPS COLLECTION BOX - PO LOBBY", "address": {"city": "ROCKPORT", "state": "ME", "street": "223 UNION ST", "postcode": "04856"}}},
{"geometry": {"type": "Point", "coordinates": [-69.1020475381, 44.1743841301]}, "type": "Feature", "properties": {"collection_times": [{"days": "Mon-Fri", "time": "3:30pm"}, {"days": "Sat", "time": "10:00am"}, {"days": "Sun", "time": "Closed"}], "id": "0485600004", "name": "USPS COLLECTION BOX - BLUE BOX", "address": {"city": "ROCKPORT", "state": "ME", "street": "4 GLEN COVE DR", "postcode": "04856"}}},
{"geometry": {"type": "Point", "coordinates": [-69.1249686358, 44.052387804]}, "type": "Feature", "properties": {"collection_times": [{"days": "Mon-Fri", "time": "4:00pm"}, {"days": "Sat", "time": "11:00am"}, {"days": "Sun", "time": "Closed"}], "id": "0485800001", "name": "USPS COLLECTION BOX - BLUE BOX", "address": {"city": "SOUTH THOMASTON", "state": "ME", "street": "8 ELM ST", "postcode": "04858"}}},
{"geometry": {"type": "Point", "coordinates": [-69.1249686358, 44.052387804]}, "type": "Feature", "properties": {"collection_times": [{"days": "Mon-Fri", "time": "4:00pm"}, {"days": "Sat", "time": "11:00am"}, {"days": "Sun", "time": "Closed"}], "id": "0485800002", "name": "USPS COLLECTION BOX - PO LOBBY", "address": {"city": "SOUTH THOMASTON", "state": "ME", "street": "8 ELM ST", "postcode": "04858"}}},
{"geometry": {"type": "Point", "coordinates": [-69.1313842733, 44.0104856995]}, "type": "Feature", "properties": {"collection_times": [{"days": "Mon-Fri", "time": "4:00pm"}, {"days": "Sat", "time": "11:45am"}, {"days": "Sun", "time": "Closed"}], "id": "0485900001", "name": "USPS COLLECTION BOX - BLUE BOX", "address": {"city": "SPRUCEHEAD", "state": "ME", "street": "11 POST OFFICE RD", "postcode": "04859"}}},
{"geometry": {"type": "Point", "coordinates": [-69.1313842733, 44.0104856995]}, "type": "Feature", "properties": {"collection_times": [{"days": "Mon-Fri", "time": "4:00pm"}, {"days": "Sat", "time": "11:45am"}, {"days": "Sun", "time": "Closed"}], "id": "0485900002", "name": "USPS COLLECTION BOX - PO LOBBY", "address": {"city": "SPRUCEHEAD", "state": "ME", "street": "11 POST OFFICE RD", "postcode": "04859"}}},
{"geometry": {"type": "Point", "coordinates": [-69.1313842733, 44.0104856995]}, "type": "Feature", "properties": {"collection_times": [{"days": "Mon-Fri", "time": "4:00pm"}, {"days": "Sat", "time": "11:45am"}, {"days": "Sun", "time": "Closed"}], "id": "0485900003", "name": "USPS COLLECTION BOX - PO LOBBY", "address": {"city": "SPRUCEHEAD", "state": "ME", "street": "11 POST OFFICE RD", "postcode": "04859"}}},
{"geometry": {"type": "Point", "coordinates": [-69.2172960577, 43.9662813809]}, "type": "Feature", "properties": {"collection_times": [{"days": "Mon-Fri", "time": "3:30pm"}, {"days": "Sat", "time": "11:45am"}, {"days": "Sun", "time": "Closed"}], "id": "0486000001", "name": "USPS COLLECTION BOX - BLUE BOX", "address": {"city": "TENANTS HARBOR", "state": "ME", "street": "4 MAIN ST", "postcode": "04860"}}},
{"geometry": {"type": "Point", "coordinates": [-69.2308406201, 43.9628597185]}, "type": "Feature", "properties": {"collection_times": [{"days": "Mon-Fri", "time": "10:30am"}, {"days": "Sat-Sun", "time": "Closed"}], "id": "0486000002", "name": "USPS COLLECTION BOX - BLUE BOX", "address": {"city": "TENANTS HARBOR", "state": "ME", "street": "24 WILEYS CORNER RD", "postcode": "04860"}}},
{"geometry": {"type": "Point", "coordinates": [-69.2172960577, 43.9662813809]}, "type": "Feature", "properties": {"collection_times": [{"days": "Mon-Fri", "time": "3:45pm"}, {"days": "Sat", "time": "12:00pm"}, {"days": "Sun", "time": "Closed"}], "id": "0486000003", "name": "USPS COLLECTION BOX - PO LOBBY", "address": {"city": "TENANTS HARBOR", "state": "ME", "street": "4 MAIN ST", "postcode": "04860"}}},
{"geometry": {"type": "Point", "coordinates": [-69.1820335154, 44.0790898332]}, "type": "Feature", "properties": {"collection_times": [{"days": "Mon-Fri", "time": "4:30pm"}, {"days": "Sat", "time": "2:30pm"}, {"days": "Sun", "time": "Closed"}], "id": "0486100004", "name": "USPS COLLECTION BOX - BLUE BOX", "address": {"city": "THOMASTON", "state": "ME", "street": "135 MAIN ST", "postcode": "04861"}}},
{"geometry": {"type": "Point", "coordinates": [-69.1820335154, 44.0790898332]}, "type": "Feature", "properties": {"collection_times": [{"days": "Mon-Fri", "time": "4:30pm"}, {"days": "Sat", "time": "2:30pm"}, {"days": "Sun", "time": "Closed"}], "id": "0486100007", "name": "USPS COLLECTION BOX - PO LOBBY", "address": {"city": "THOMASTON", "state": "ME", "street": "135 MAIN ST", "postcode": "04861"}}},
{"geometry": {"type": "Point", "coordinates": [-69.2636858649, 44.2122903391]}, "type": "Feature", "properties": {"collection_times": [{"days": "Mon-Fri", "time": "4:00pm"}, {"days": "Sat", "time": "12:00pm"}, {"days": "Sun", "time": "Closed"}], "id": "0486200001", "name": "USPS COLLECTION BOX - BLUE BOX", "address": {"city": "UNION", "state": "ME", "street": "309 COMMON RD", "postcode": "04862"}}},
{"geometry": {"type": "Point", "coordinates": [-69.2636858649, 44.2122903391]}, "type": "Feature", "properties": {"collection_times": [{"days": "Mon-Fri", "time": "4:00pm"}, {"days": "Sat", "time": "12:00pm"}, {"days": "Sun", "time": "Closed"}], "id": "0486200002", "name": "USPS COLLECTION BOX - PO LOBBY", "address": {"city": "UNION", "state": "ME", "street": "309 COMMON RD", "postcode": "04862"}}},
{"geometry": {"type": "Point", "coordinates": [-68.8385951875, 44.0444391983]}, "type": "Feature", "properties": {"collection_times": [{"days": "Mon-Fri", "time": "2:15pm"}, {"days": "Sat", "time": "11:30am"}, {"days": "Sun", "time": "Closed"}], "id": "0486300001", "name": "USPS COLLECTION BOX - BLUE BOX", "address": {"city": "VINALHAVEN", "state": "ME", "street": "42 MAIN ST", "postcode": "04863"}}},
{"geometry": {"type": "Point", "coordinates": [-68.8385951875, 44.0444391983]}, "type": "Feature", "properties": {"collection_times": [{"days": "Mon-Fri", "time": "2:15pm"}, {"days": "Sat", "time": "11:30am"}, {"days": "Sun", "time": "Closed"}], "id": "0486300003", "name": "USPS COLLECTION BOX - PO LOBBY", "address": {"city": "VINALHAVEN", "state": "ME", "street": "42 MAIN ST", "postcode": "04863"}}},
{"geometry": {"type": "Point", "coordinates": [-69.2363407674, 44.1216922604]}, "type": "Feature", "properties": {"collection_times": [{"days": "Mon-Fri", "time": "4:30pm"}, {"days": "Sat", "time": "12:00pm"}, {"days": "Sun", "time": "Closed"}], "id": "0486400001", "name": "USPS COLLECTION BOX - BLUE BOX", "address": {"city": "WARREN", "state": "ME", "street": "21 MAIN ST", "postcode": "04864"}}},
{"geometry": {"type": "Point", "coordinates": [-69.2363407674, 44.1216922604]}, "type": "Feature", "properties": {"collection_times": [{"days": "Mon-Fri", "time": "4:30pm"}, {"days": "Sat", "time": "12:00pm"}, {"days": "Sun", "time": "Closed"}], "id": "0486400003", "name": "USPS COLLECTION BOX - PO LOBBY", "address": {"city": "WARREN", "state": "ME", "street": "21 MAIN ST", "postcode": "04864"}}},
{"geometry": {"type": "Point", "coordinates": [-69.1345481789, 44.1810016193]}, "type": "Feature", "properties": {"collection_times": [{"days": "Mon-Fri", "time": "3:30pm"}, {"days": "Sat", "time": "11:15am"}, {"days": "Sun", "time": "Closed"}], "id": "0486500001", "name": "USPS COLLECTION BOX - BLUE BOX", "address": {"city": "WEST ROCKPORT", "state": "ME", "street": "642 ROCKLAND ST", "postcode": "04865"}}},
{"geometry": {"type": "Point", "coordinates": [-69.1345481789, 44.1810016193]}, "type": "Feature", "properties": {"collection_times": [{"days": "Mon-Fri", "time": "3:30pm"}, {"days": "Sat", "time": "11:15am"}, {"days": "Sun", "time": "Closed"}], "id": "0486500002", "name": "USPS COLLECTION BOX - PO LOBBY", "address": {"city": "WEST ROCKPORT", "state": "ME", "street": "642 ROCKLAND ST", "postcode": "04865"}}}
]}
