{"type": "FeatureCollection", "features": [
{"geometry": {"type": "Point", "coordinates": [-69.6189076673, 44.5501097907]}, "type": "Feature", "properties": {"collection_times": [{"days": "Mon-Sat", "time": "5:45pm"}, {"days": "Sun", "time": "Closed"}], "id": "0490100001", "name": "USPS COLLECTION BOX - EXPRESS", "address": {"city": "WINSLOW", "state": "ME", "street": "33 COLLEGE AVE", "postcode": "04901"}}},
{"geometry": {"type": "Point", "coordinates": [-69.6301100396, 44.55486111]}, "type": "Feature", "properties": {"collection_times": [{"days": "Mon-Sat", "time": "5:45pm"}, {"days": "Sun", "time": "Closed"}], "id": "0490100002", "name": "USPS COLLECTION BOX - BLUE BOX", "address": {"city": "WINSLOW", "state": "ME", "street": "33 COLLEGE AVE", "postcode": "04901"}}},
{"geometry": {"type": "Point", "coordinates": [-69.6301100396, 44.55486111]}, "type": "Feature", "properties": {"collection_times": [{"days": "Mon-Sat", "time": "5:45pm"}, {"days": "Sun", "time": "Closed"}], "id": "0490100003", "name": "USPS COLLECTION BOX - BLUE BOX", "address": {"city": "WINSLOW", "state": "ME", "street": "33 COLLEGE AVE", "postcode": "04901"}}},
{"geometry": {"type": "Point", "coordinates": [-69.639570024, 44.5690748991]}, "type": "Feature", "properties": {"collection_times": [{"days": "Mon-Sat", "time": "10:00am"}, {"days": "Sun", "time": "Closed"}], "id": "0490100006", "name": "USPS COLLECTION BOX - BLUE BOX", "address": {"city": "WINSLOW", "state": "ME", "street": "15 ELM PLZ", "postcode": "04901"}}},
{"geometry": {"type": "Point", "coordinates": [-69.629036467, 44.5493155666]}, "type": "Feature", "properties": {"collection_times": [{"days": "Mon-Sat", "time": "3:30pm"}, {"days": "Sun", "time": "Closed"}], "id": "0490100011", "name": "USPS COLLECTION BOX - BLUE BOX", "address": {"city": "WINSLOW", "state": "ME", "street": "28 COMMON ST", "postcode": "04901"}}},
{"geometry": {"type": "Point", "coordinates": [-69.6303409915, 44.5503140568]}, "type": "Feature", "properties": {"collection_times": [{"days": "Mon-Sat", "time": "3:00pm"}, {"days": "Sun", "time": "Closed"}], "id": "0490100015", "name": "USPS COLLECTION BOX - BLUE BOX", "address": {"city": "WINSLOW", "state": "ME", "street": "110 MAIN ST", "postcode": "04901"}}},
{"geometry": {"type": "Point", "coordinates": [-69.6299211467, 44.5488501574]}, "type": "Feature", "properties": {"collection_times": [{"days": "Mon-Sat", "time": "3:00pm"}, {"days": "Sun", "time": "Closed"}], "id": "0490100018", "name": "USPS COLLECTION BOX - BLUE BOX", "address": {"city": "WINSLOW", "state": "ME", "street": "5 SILVER ST", "postcode": "04901"}}},
{"geometry": {"type": "Point", "coordinates": [-69.634249112, 44.5488222314]}, "type": "Feature", "properties": {"collection_times": [{"days": "Mon-Sat", "time": "8:30am"}, {"days": "Sun", "time": "Closed"}], "id": "0490100020", "name": "USPS COLLECTION BOX - BLUE BOX", "address": {"city": "WINSLOW", "state": "ME", "street": "2 SCHOOL ST", "postcode": "04901"}}},
{"geometry": {"type": "Point", "coordinates": [-69.6638076667, 44.5430270181]}, "type": "Feature", "properties": {"collection_times": [{"days": "Mon-Fri", "time": "2:30pm"}, {"days": "Sat", "time": "2:00pm"}, {"days": "Sun", "time": "Closed"}], "id": "0490100023", "name": "USPS COLLECTION BOX - BLUE BOX", "address": {"city": "WINSLOW", "state": "ME", "street": "222 KENNEDY MEMORIAL DR", "postcode": "04901"}}},
{"geometry": {"type": "Point", "coordinates": [-69.6563874854, 44.5567038463]}, "type": "Feature", "properties": {"collection_times": [{"days": "Mon-Fri", "time": "2:00pm"}, {"days": "Sat", "time": "7:00am"}, {"days": "Sun", "time": "Closed"}], "id": "0490100027", "name": "USPS COLLECTION BOX - BLUE BOX", "address": {"city": "WINSLOW", "state": "ME", "street": "150 MAYFLOWER HILL DR", "postcode": "04901"}}},
{"geometry": {"type": "Point", "coordinates": [-69.6235689127, 44.5456765586]}, "type": "Feature", "properties": {"collection_times": [{"days": "Mon-Sat", "time": "8:30am"}, {"days": "Sun", "time": "Closed"}], "id": "0490100030", "name": "USPS COLLECTION BOX - BLUE BOX", "address": {"city": "WINSLOW", "state": "ME", "street": "12 MONUMENT ST", "postcode": "04901"}}},
{"geometry": {"type": "Point", "coordinates": [-69.6156620841, 44.545811259]}, "type": "Feature", "properties": {"collection_times": [{"days": "Mon-Sat", "time": "2:00pm"}, {"days": "Sun", "time": "Closed"}], "id": "0490100032", "name": "USPS COLLECTION BOX - BLUE BOX", "address": {"city": "WINSLOW", "state": "ME", "street": "107 CLINTON AVE", "postcode": "04901"}}},
{"geometry": {"type": "Point", "coordinates": [-69.6274601914, 44.5377454662]}, "type": "Feature", "properties": {"collection_times": [{"days": "Mon-Sat", "time": "11:00am"}, {"days": "Sun", "time": "Closed"}], "id": "0490100034", "name": "USPS COLLECTION BOX - BLUE BOX", "address": {"city": "WINSLOW", "state": "ME", "street": "30 CHINA RD", "postcode": "04901"}}},
{"geometry": {"type": "Point", "coordinates": [-69.6531797549, 44.540535232]}, "type": "Feature", "properties": {"collection_times": [{"days": "Mon-Fri", "time": "2:30pm"}, {"days": "Sat", "time": "2:00pm"}, {"days": "Sun", "time": "Closed"}], "id": "0490100039", "name": "USPS COLLECTION BOX - BLUE BOX", "address": {"city": "WINSLOW", "state": "ME", "street": "180 JFK PLZ", "postcode": "04901"}}},
{"geometry": {"type": "Point", "coordinates": [-69.6189076671, 44.550109837]}, "type": "Feature", "properties": {"collection_times": [{"days": "Mon-Sat", "time": "11:00am"}, {"days": "Sun", "time": "Closed"}], "id": "0490100043", "name": "USPS COLLECTION BOX - BLUE BOX", "address": {"city": "WINSLOW", "state": "ME", "street": "139 1ST RANGEWAY", "postcode": "04901"}}},
{"geometry": {"type": "Point", "coordinates": [-69.6686971671, 44.5439514146]}, "type": "Feature", "properties": {"collection_times": [{"days": "Mon-Fri", "time": "2:30pm"}, {"days": "Sat", "time": "2:00pm"}, {"days": "Sun", "time": "Closed"}], "id": "0490100045", "name": "USPS COLLECTION BOX - BLUE BOX", "address": {"city": "WINSLOW", "state": "ME", "street": "325 KENNEDY MEMORIAL DR", "postcode": "04901"}}},
{"geometry": {"type": "Point", "coordinates": [-69.6655031645, 44.5434221476]}, "type": "Feature", "properties": {"collection_times": [{"days": "Mon-Sat", "time": "10:00am"}, {"days": "Sun", "time": "Closed"}], "id": "0490100047", "name": "USPS COLLECTION BOX - BLUE BOX", "address": {"city": "WINSLOW", "state": "ME", "street": "251 KENNEDY MEMORIAL DR", "postcode": "04901"}}},
{"geometry": {"type": "Point", "coordinates": [-69.6595586249, 44.5358730685]}, "type": "Feature", "properties": {"collection_times": [{"days": "Mon-Sat", "time": "11:00am"}, {"days": "Sun", "time": "Closed"}], "id": "0490100049", "name": "USPS COLLECTION BOX - BLUE BOX", "address": {"city": "WINSLOW", "state": "ME", "street": "1 CARVER ST", "postcode": "04901"}}},
{"geometry": {"type": "Point", "coordinates": [-69.6234536538, 44.5506636061]}, "type": "Feature", "properties": {"collection_times": [{"days": "Mon-Fri", "time": "2:00pm"}, {"days": "Sat", "time": "12:00pm"}, {"days": "Sun", "time": "Closed"}], "id": "0490100052", "name": "USPS COLLECTION BOX - BLUE BOX", "address": {"city": "WINSLOW", "state": "ME", "street": "114 BENTON AVE", "postcode": "04901"}}},
{"geometry": {"type": "Point", "coordinates": [-69.6420794397, 44.5698819151]}, "type": "Feature", "properties": {"collection_times": [{"days": "Mon-Sat", "time": "10:00am"}, {"days": "Sun", "time": "Closed"}], "id": "0490100054", "name": "USPS COLLECTION BOX - BLUE BOX", "address": {"city": "WINSLOW", "state": "ME", "street": "80 WATERVILLE COMMONS DR", "postcode": "04901"}}},
{"geometry": {"type": "Point", "coordinates": [-69.6301100396, 44.55486111]}, "type": "Feature", "properties": {"collection_times": [{"days": "Mon-Sat", "time": "5:45pm"}, {"days": "Sun", "time": "Closed"}], "id": "0490100056", "name": "USPS COLLECTION BOX - PO LOBBY", "address": {"city": "WINSLOW", "state": "ME", "street": "33 COLLEGE AVE", "postcode": "04901"}}},
{"geometry": {"type": "Point", "coordinates": [-69.6301100396, 44.55486111]}, "type": "Feature", "properties": {"collection_times": [{"days": "Mon-Sat", "time": "5:45pm"}, {"days": "Sun", "time": "Closed"}], "id": "0490100057", "name": "USPS COLLECTION BOX - PO LOBBY", "address": {"city": "WINSLOW", "state": "ME", "street": "33 COLLEGE AVE", "postcode": "04901"}}},
{"geometry": {"type": "Point", "coordinates": [-69.6301100396, 44.55486111]}, "type": "Feature", "properties": {"collection_times": [{"days": "Mon-Sat", "time": "5:45pm"}, {"days": "Sun", "time": "Closed"}], "id": "0490100058", "name": "USPS COLLECTION BOX - PO LOBBY", "address": {"city": "WINSLOW", "state": "ME", "street": "33 COLLEGE AVE", "postcode": "04901"}}},
{"geometry": {"type": "Point", "coordinates": [-69.6301100396, 44.55486111]}, "type": "Feature", "properties": {"collection_times": [{"days": "Mon-Sat", "time": "5:45pm"}, {"days": "Sun", "time": "Closed"}], "id": "0490100059", "name": "USPS COLLECTION BOX - PO LOBBY", "address": {"city": "WINSLOW", "state": "ME", "street": "33 COLLEGE AVE", "postcode": "04901"}}},
{"geometry": {"type": "Point", "coordinates": [-69.629036467, 44.5493155666]}, "type": "Feature", "properties": {"collection_times": [{"days": "Mon-Sat", "time": "3:30pm"}, {"days": "Sun", "time": "Closed"}], "id": "0490100061", "name": "USPS COLLECTION BOX - BLUE BOX", "address": {"city": "WINSLOW", "state": "ME", "street": "28 COMMON ST", "postcode": "04901"}}},
{"geometry": {"type": "Point", "coordinates": [-69.6301100396, 44.55486111]}, "type": "Feature", "properties": {"collection_times": [{"days": "Mon-Sat", "time": "5:45pm"}, {"days": "Sun", "time": "Closed"}], "id": "0490100062", "name": "USPS COLLECTION BOX - PO LOBBY", "address": {"city": "WINSLOW", "state": "ME", "street": "33 COLLEGE AVE", "postcode": "04901"}}},
{"geometry": {"type": "Point", "coordinates": [-69.4337061529, 44.5167184699]}, "type": "Feature", "properties": {"collection_times": [{"days": "Mon-Fri", "time": "3:45pm"}, {"days": "Sat", "time": "10:45am"}, {"days": "Sun", "time": "Closed"}], "id": "0491000001", "name": "USPS COLLECTION BOX - BLUE BOX", "address": {"city": "ALBION", "state": "ME", "street": "36 MAIN ST", "postcode": "04910"}}},
{"geometry": {"type": "Point", "coordinates": [-69.4337061529, 44.5167184699]}, "type": "Feature", "properties": {"collection_times": [{"days": "Mon-Fri", "time": "2:00pm"}, {"days": "Sat", "time": "10:45am"}, {"days": "Sun", "time": "Closed"}], "id": "0491000003", "name": "USPS COLLECTION BOX - PO LOBBY", "address": {"city": "ALBION", "state": "ME", "street": "36 MAIN ST", "postcode": "04910"}}},
{"geometry": {"type": "Point", "coordinates": [-69.8907674288, 44.7972273893]}, "type": "Feature", "properties": {"collection_times": [{"days": "Mon-Fri", "time": "4:30pm"}, {"days": "Sat", "time": "10:30am"}, {"days": "Sun", "time": "Closed"}], "id": "0491100001", "name": "USPS COLLECTION BOX - BLUE BOX", "address": {"city": "ANSON", "state": "ME", "street": "72 MAIN ST", "postcode": "04911"}}},
{"geometry": {"type": "Point", "coordinates": [-69.8907674288, 44.7972273893]}, "type": "Feature", "properties": {"collection_times": [{"days": "Mon-Fri", "time": "4:30pm"}, {"days": "Sat", "time": "10:30am"}, {"days": "Sun", "time": "Closed"}], "id": "0491100002", "name": "USPS COLLECTION BOX - PO LOBBY", "address": {"city": "ANSON", "state": "ME", "street": "72 MAIN ST", "postcode": "04911"}}},
{"geometry": {"type": "Point", "coordinates": [-69.6744122656, 44.9277469538]}, "type": "Feature", "properties": {"collection_times": [{"days": "Mon-Fri", "time": "4:15pm"}, {"days": "Sat", "time": "11:30am"}, {"days": "Sun", "time": "Closed"}], "id": "0491200001", "name": "USPS COLLECTION BOX - BLUE BOX", "address": {"city": "ATHENS", "state": "ME", "street": "4 BRIGHTON RD", "postcode": "04912"}}},
{"geometry": {"type": "Point", "coordinates": [-69.6744122656, 44.9277469538]}, "type": "Feature", "properties": {"collection_times": [{"days": "Mon-Fri", "time": "4:00pm"}, {"days": "Sat", "time": "11:30am"}, {"days": "Sun", "time": "Closed"}], "id": "0491200002", "name": "USPS COLLECTION BOX - PO LOBBY", "address": {"city": "ATHENS", "state": "ME", "street": "4 BRIGHTON RD", "postcode": "04912"}}},
{"geometry": {"type": "Point", "coordinates": [-69.0224926421, 44.4236386558]}, "type": "Feature", "properties": {"collection_times": [{"days": "Mon-Sat", "time": "9:00am"}, {"days": "Sun", "time": "Closed"}], "id": "0491500000", "name": "USPS COLLECTION BOX - BLUE BOX", "address": {"city": "BELFAST", "state": "ME", "street": "1D1 BELMONT AVE", "postcode": "04915"}}},
{"geometry": {"type": "Point", "coordinates": [-69.0236766741, 44.4511697161]}, "type": "Feature", "properties": {"collection_times": [{"days": "Mon-Sat", "time": "1:00pm"}, {"days": "Sun", "time": "Closed"}], "id": "0491500001", "name": "USPS COLLECTION BOX - BLUE BOX", "address": {"city": "BELFAST", "state": "ME", "street": "116 NORTHPORT AVE", "postcode": "04915"}}},
{"geometry": {"type": "Point", "coordinates": [-69.002727303, 44.4242094966]}, "type": "Feature", "properties": {"collection_times": [{"days": "Mon-Sat", "time": "9:30am"}, {"days": "Sun", "time": "Closed"}], "id": "0491500002", "name": "USPS COLLECTION BOX - BLUE BOX", "address": {"city": "BELFAST", "state": "ME", "street": "123 HIGH ST", "postcode": "04915"}}},
{"geometry": {"type": "Point", "coordinates": [-69.0236766741, 44.4511697161]}, "type": "Feature", "properties": {"collection_times": [{"days": "Mon-Sat", "time": "11:00am"}, {"days": "Sun", "time": "Closed"}], "id": "0491500017", "name": "USPS COLLECTION BOX - BLUE BOX", "address": {"city": "BELFAST", "state": "ME", "street": "979 SWAN LAKE AVE", "postcode": "04915"}}},
{"geometry": {"type": "Point", "coordinates": [-69.0236766741, 44.4511697161]}, "type": "Feature", "properties": {"collection_times": [{"days": "Mon-Sat", "time": "9:00am"}, {"days": "Sun", "time": "Closed"}], "id": "0491500018", "name": "USPS COLLECTION BOX - BLUE BOX", "address": {"city": "BELFAST", "state": "ME", "street": "93 LINCOLNVILLE AVE", "postcode": "04915"}}},
{"geometry": {"type": "Point", "coordinates": [-69.0099467381, 44.4232118339]}, "type": "Feature", "properties": {"collection_times": [{"days": "Mon-Fri", "time": "5:00pm"}, {"days": "Sat", "time": "4:00pm"}, {"days": "Sun", "time": "Closed"}], "id": "0491500021", "name": "USPS COLLECTION BOX - BLUE BOX", "address": {"city": "BELFAST", "state": "ME", "street": "1 FRANKLIN ST", "postcode": "04915"}}},
{"geometry": {"type": "Point", "coordinates": [-69.0099467381, 44.4232118339]}, "type": "Feature", "properties": {"collection_times": [{"days": "Mon-Fri", "time": "5:00pm"}, {"days": "Sat", "time": "4:00pm"}, {"days": "Sun", "time": "Closed"}], "id": "0491500026", "name": "USPS COLLECTION BOX - PO LOBBY", "address": {"city": "BELFAST", "state": "ME", "street": "1 FRANKLIN ST", "postcode": "04915"}}},
{"geometry": {"type": "Point", "coordinates": [-69.0099467381, 44.4232118339]}, "type": "Feature", "properties": {"collection_times": [{"days": "Mon-Fri", "time": "5:00pm"}, {"days": "Sat", "time": "4:00pm"}, {"days": "Sun", "time": "Closed"}], "id": "0491500027", "name": "USPS COLLECTION BOX - PO LOBBY", "address": {"city": "BELFAST", "state": "ME", "street": "1 FRANKLIN ST", "postcode": "04915"}}},
{"geometry": {"type": "Point", "coordinates": [-69.8317045205, 44.4646939667]}, "type": "Feature", "properties": {"collection_times": [{"days": "Mon-Fri", "time": "4:15pm"}, {"days": "Sat", "time": "10:45am"}, {"days": "Sun", "time": "Closed"}], "id": "0491700001", "name": "USPS COLLECTION BOX - BLUE BOX", "address": {"city": "BELGRADE", "state": "ME", "street": "1010 AUGUSTA RD", "postcode": "04917"}}},
{"geometry": {"type": "Point", "coordinates": [-69.8317045205, 44.4646939667]}, "type": "Feature", "properties": {"collection_times": [{"days": "Mon-Fri", "time": "4:15pm"}, {"days": "Sat", "time": "11:00am"}, {"days": "Sun", "time": "Closed"}], "id": "0491700003", "name": "USPS COLLECTION BOX - PO LOBBY", "address": {"city": "BELGRADE", "state": "ME", "street": "1010 AUGUSTA RD", "postcode": "04917"}}},
{"geometry": {"type": "Point", "coordinates": [-69.8563738999, 44.5076355782]}, "type": "Feature", "properties": {"collection_times": [{"days": "Mon-Fri", "time": "3:00pm"}, {"days": "Sat", "time": "10:45am"}, {"days": "Sun", "time": "Closed"}], "id": "0491800001", "name": "USPS COLLECTION BOX - BLUE BOX", "address": {"city": "BELGRADE LAKES", "state": "ME", "street": "171 MAIN ST", "postcode": "04918"}}},
{"geometry": {"type": "Point", "coordinates": [-69.8563738999, 44.5076355782]}, "type": "Feature", "properties": {"collection_times": [{"days": "Mon-Fri", "time": "3:00pm"}, {"days": "Sat", "time": "10:45am"}, {"days": "Sun", "time": "Closed"}], "id": "0491800002", "name": "USPS COLLECTION BOX - PO LOBBY", "address": {"city": "BELGRADE LAKES", "state": "ME", "street": "171 MAIN ST", "postcode": "04918"}}},
{"geometry": {"type": "Point", "coordinates": [-69.8807328602, 45.0508567615]}, "type": "Feature", "properties": {"collection_times": [{"days": "Mon-Fri", "time": "3:35pm"}, {"days": "Sat", "time": "11:25am"}, {"days": "Sun", "time": "Closed"}], "id": "0492000001", "name": "USPS COLLECTION BOX - BLUE BOX", "address": {"city": "BINGHAM", "state": "ME", "street": "301 MAIN ST", "postcode": "04920"}}},
{"geometry": {"type": "Point", "coordinates": [-69.8807328602, 45.0508567615]}, "type": "Feature", "properties": {"collection_times": [{"days": "Mon-Fri", "time": "3:35pm"}, {"days": "Sat", "time": "11:25am"}, {"days": "Sun", "time": "Closed"}], "id": "0492000002", "name": "USPS COLLECTION BOX - PO LOBBY", "address": {"city": "BINGHAM", "state": "ME", "street": "301 MAIN ST", "postcode": "04920"}}},
{"geometry": {"type": "Point", "coordinates": [-69.1238137545, 44.5526529885]}, "type": "Feature", "properties": {"collection_times": [{"days": "Mon-Fri", "time": "4:00pm"}, {"days": "Sat", "time": "11:15am"}, {"days": "Sun", "time": "Closed"}], "id": "0492100001", "name": "USPS COLLECTION BOX - BLUE BOX", "address": {"city": "BROOKS", "state": "ME", "street": "20 PURPLE HEART HWY", "postcode": "04921"}}},
{"geometry": {"type": "Point", "coordinates": [-69.1238137545, 44.5526529885]}, "type": "Feature", "properties": {"collection_times": [{"days": "Mon-Fri", "time": "4:30pm"}, {"days": "Sat", "time": "11:30am"}, {"days": "Sun", "time": "Closed"}], "id": "0492100002", "name": "USPS COLLECTION BOX - PO LOBBY", "address": {"city": "BROOKS", "state": "ME", "street": "20 PURPLE HEART HWY", "postcode": "04921"}}},
{"geometry": {"type": "Point", "coordinates": [-69.3641165446, 44.673447163]}, "type": "Feature", "properties": {"collection_times": [{"days": "Mon-Fri", "time": "4:00pm"}, {"days": "Sat", "time": "11:00am"}, {"days": "Sun", "time": "Closed"}], "id": "0492200000", "name": "USPS COLLECTION BOX - BLUE BOX", "address": {"city": "BURNHAM", "state": "ME", "street": "26 TROY RD", "postcode": "04922"}}},
{"geometry": {"type": "Point", "coordinates": [-69.3641165446, 44.673447163]}, "type": "Feature", "properties": {"collection_times": [{"days": "Mon-Fri", "time": "4:00pm"}, {"days": "Sat", "time": "11:00am"}, {"days": "Sun", "time": "Closed"}], "id": "0492200002", "name": "USPS COLLECTION BOX - PO LOBBY", "address": {"city": "BURNHAM", "state": "ME", "street": "26 TROY RD", "postcode": "04922"}}},
{"geometry": {"type": "Point", "coordinates": [-69.4467368239, 45.0353470159]}, "type": "Feature", "properties": {"collection_times": [{"days": "Mon-Fri", "time": "3:45pm"}, {"days": "Sat", "time": "11:00am"}, {"days": "Sun", "time": "Closed"}], "id": "0492300001", "name": "USPS COLLECTION BOX - BLUE BOX", "address": {"city": "CAMBRIDGE", "state": "ME", "street": "9 MAIN ST", "postcode": "04923"}}},
{"geometry": {"type": "Point", "coordinates": [-69.4467368239, 45.0353470159]}, "type": "Feature", "properties": {"collection_times": [{"days": "Mon-Fri", "time": "3:45pm"}, {"days": "Sat", "time": "11:15am"}, {"days": "Sun", "time": "Closed"}], "id": "0492300002", "name": "USPS COLLECTION BOX - PO LOBBY", "address": {"city": "CAMBRIDGE", "state": "ME", "street": "9 MAIN ST", "postcode": "04923"}}},
{"geometry": {"type": "Point", "coordinates": [-69.5620203726, 44.7618929112]}, "type": "Feature", "properties": {"collection_times": [{"days": "Mon-Fri", "time": "3:30pm"}, {"days": "Sat", "time": "10:30am"}, {"days": "Sun", "time": "Closed"}], "id": "0492400001", "name": "USPS COLLECTION BOX - BLUE BOX", "address": {"city": "CANAAN", "state": "ME", "street": "273 MAIN ST", "postcode": "04924"}}},
{"geometry": {"type": "Point", "coordinates": [-69.5620203726, 44.7618929112]}, "type": "Feature", "properties": {"collection_times": [{"days": "Mon-Fri", "time": "4:00pm"}, {"days": "Sat", "time": "11:00am"}, {"days": "Sun", "time": "Closed"}], "id": "0492400002", "name": "USPS COLLECTION BOX - PO LOBBY", "address": {"city": "CANAAN", "state": "ME", "street": "273 MAIN ST", "postcode": "04924"}}},
{"geometry": {"type": "Point", "coordinates": [-69.9916706998, 45.2339283286]}, "type": "Feature", "properties": {"collection_times": [{"days": "Mon-Fri", "time": "3:00pm"}, {"days": "Sat", "time": "11:15am"}, {"days": "Sun", "time": "Closed"}], "id": "0492500001", "name": "USPS COLLECTION BOX - BLUE BOX", "address": {"city": "CARATUNK", "state": "ME", "street": "172 MAIN ST", "postcode": "04925"}}},
{"geometry": {"type": "Point", "coordinates": [-69.9916706998, 45.2339283286]}, "type": "Feature", "properties": {"collection_times": [{"days": "Mon-Fri", "time": "3:00pm"}, {"days": "Sat", "time": "11:15am"}, {"days": "Sun", "time": "Closed"}], "id": "0492500002", "name": "USPS COLLECTION BOX - PO LOBBY", "address": {"city": "CARATUNK", "state": "ME", "street": "172 MAIN ST", "postcode": "04925"}}},
{"geometry": {"type": "Point", "coordinates": [-69.5028490797, 44.6376415714]}, "type": "Feature", "properties": {"collection_times": [{"days": "Mon-Fri", "time": "4:00pm"}, {"days": "Sat", "time": "11:00am"}, {"days": "Sun", "time": "Closed"}], "id": "0492700001", "name": "USPS COLLECTION BOX - BLUE BOX", "address": {"city": "CLINTON", "state": "ME", "street": "15 RAILROAD ST", "postcode": "04927"}}},
{"geometry": {"type": "Point", "coordinates": [-69.5028490797, 44.6376415714]}, "type": "Feature", "properties": {"collection_times": [{"days": "Mon-Fri", "time": "4:00pm"}, {"days": "Sat", "time": "11:00am"}, {"days": "Sun", "time": "Closed"}], "id": "0492700003", "name": "USPS COLLECTION BOX - PO LOBBY", "address": {"city": "CLINTON", "state": "ME", "street": "15 RAILROAD ST", "postcode": "04927"}}},
{"geometry": {"type": "Point", "coordinates": [-69.2593837489, 44.9217103537]}, "type": "Feature", "properties": {"collection_times": [{"days": "Mon-Fri", "time": "4:45pm"}, {"days": "Sat", "time": "11:45am"}, {"days": "Sun", "time": "Closed"}], "id": "0492800001", "name": "USPS COLLECTION BOX - BLUE BOX", "address": {"city": "CORINNA", "state": "ME", "street": "15 EXETER RD", "postcode": "04928"}}},
{"geometry": {"type": "Point", "coordinates": [-69.2593837489, 44.9217103537]}, "type": "Feature", "properties": {"collection_times": [{"days": "Mon-Fri", "time": "2:00pm"}, {"days": "Sat", "time": "11:45am"}, {"days": "Sun", "time": "Closed"}], "id": "0492800002", "name": "USPS COLLECTION BOX - PO LOBBY", "address": {"city": "CORINNA", "state": "ME", "street": "15 EXETER RD", "postcode": "04928"}}},
{"geometry": {"type": "Point", "coordinates": [-69.3002185529, 44.7977088462]}, "type": "Feature", "properties": {"collection_times": [{"days": "Mon-Fri", "time": "3:45pm"}, {"days": "Sat", "time": "10:45am"}, {"days": "Sun", "time": "Closed"}], "id": "0492900001", "name": "USPS COLLECTION BOX - BLUE BOX", "address": {"city": "DETROIT", "state": "ME", "street": "21 MAIN ST", "postcode": "04929"}}},
{"geometry": {"type": "Point", "coordinates": [-69.3002185529, 44.7977088462]}, "type": "Feature", "properties": {"collection_times": [{"days": "Mon-Fri", "time": "3:45pm"}, {"days": "Sat", "time": "10:45am"}, {"days": "Sun", "time": "Closed"}], "id": "0492900002", "name": "USPS COLLECTION BOX - PO LOBBY", "address": {"city": "DETROIT", "state": "ME", "street": "21 MAIN ST", "postcode": "04929"}}},
{"geometry": {"type": "Point", "coordinates": [-69.3002185529, 44.7977088462]}, "type": "Feature", "properties": {"collection_times": [{"days": "Mon-Fri", "time": "3:45pm"}, {"days": "Sat", "time": "10:45am"}, {"days": "Sun", "time": "Closed"}], "id": "0492900003", "name": "USPS COLLECTION BOX - PO LOBBY", "address": {"city": "DETROIT", "state": "ME", "street": "21 MAIN ST", "postcode": "04929"}}},
{"geometry": {"type": "Point", "coordinates": [-69.288821897, 45.0261549117]}, "type": "Feature", "properties": {"collection_times": [{"days": "Mon-Sat", "time": "9:00am"}, {"days": "Sun", "time": "Closed"}], "id": "0493000003", "name": "USPS COLLECTION BOX - BLUE BOX", "address": {"city": "DEXTER", "state": "ME", "street": "27 CHURCH ST", "postcode": "04930"}}},
{"geometry": {"type": "Point", "coordinates": [-69.2894504487, 45.0143071302]}, "type": "Feature", "properties": {"collection_times": [{"days": "Mon-Sat", "time": "9:00am"}, {"days": "Sun", "time": "Closed"}], "id": "0493000005", "name": "USPS COLLECTION BOX - BLUE BOX", "address": {"city": "DEXTER", "state": "ME", "street": "175 SPRING ST", "postcode": "04930"}}},
{"geometry": {"type": "Point", "coordinates": [-69.2889123194, 45.0240809512]}, "type": "Feature", "properties": {"collection_times": [{"days": "Mon-Sat", "time": "3:00pm"}, {"days": "Sun", "time": "Closed"}], "id": "0493000006", "name": "USPS COLLECTION BOX - BLUE BOX", "address": {"city": "DEXTER", "state": "ME", "street": "22 MAIN ST", "postcode": "04930"}}},
{"geometry": {"type": "Point", "coordinates": [-69.2894848335, 45.0241192412]}, "type": "Feature", "properties": {"collection_times": [{"days": "Mon-Fri", "time": "5:00pm"}, {"days": "Sat", "time": "2:45pm"}, {"days": "Sun", "time": "Closed"}], "id": "0493000007", "name": "USPS COLLECTION BOX - BLUE BOX", "address": {"city": "DEXTER", "state": "ME", "street": "2 POST OFFICE RD", "postcode": "04930"}}},
{"geometry": {"type": "Point", "coordinates": [-69.2894848335, 45.0241192412]}, "type": "Feature", "properties": {"collection_times": [{"days": "Mon-Fri", "time": "5:00pm"}, {"days": "Sat", "time": "1:00pm"}, {"days": "Sun", "time": "Closed"}], "id": "0493000008", "name": "USPS COLLECTION BOX - PO LOBBY", "address": {"city": "DEXTER", "state": "ME", "street": "2 POST OFFICE RD", "postcode": "04930"}}},
{"geometry": {"type": "Point", "coordinates": [-69.2894848335, 45.0241192412]}, "type": "Feature", "properties": {"collection_times": [{"days": "Mon-Fri", "time": "5:00pm"}, {"days": "Sat", "time": "1:00pm"}, {"days": "Sun", "time": "Closed"}], "id": "0493000009", "name": "USPS COLLECTION BOX - PO LOBBY", "address": {"city": "DEXTER", "state": "ME", "street": "2 POST OFFICE RD", "postcode": "04930"}}},
{"geometry": {"type": "Point", "coordinates": [-69.191338794, 44.6734171157]}, "type": "Feature", "properties": {"collection_times": [{"days": "Mon-Fri", "time": "3:40pm"}, {"days": "Sat", "time": "10:40am"}, {"days": "Sun", "time": "Closed"}], "id": "0493200001", "name": "USPS COLLECTION BOX - BLUE BOX", "address": {"city": "DIXMONT", "state": "ME", "street": "975 WESTERN AVE", "postcode": "04932"}}},
{"geometry": {"type": "Point", "coordinates": [-69.191338794, 44.6734171157]}, "type": "Feature", "properties": {"collection_times": [{"days": "Mon-Fri", "time": "3:45pm"}, {"days": "Sat", "time": "10:45am"}, {"days": "Sun", "time": "Closed"}], "id": "0493200002", "name": "USPS COLLECTION BOX - PO LOBBY", "address": {"city": "DIXMONT", "state": "ME", "street": "975 WESTERN AVE", "postcode": "04932"}}},
{"geometry": {"type": "Point", "coordinates": [-69.2212487632, 44.8226376226]}, "type": "Feature", "properties": {"collection_times": [{"days": "Mon-Fri", "time": "3:45pm"}, {"days": "Sat", "time": "11:45am"}, {"days": "Sun", "time": "Closed"}], "id": "0493300001", "name": "USPS COLLECTION BOX - BLUE BOX", "address": {"city": "EAST NEWPORT", "state": "ME", "street": "679 ELM ST", "postcode": "04933"}}},
{"geometry": {"type": "Point", "coordinates": [-69.2212487632, 44.8226376226]}, "type": "Feature", "properties": {"collection_times": [{"days": "Mon-Fri", "time": "3:45pm"}, {"days": "Sat", "time": "11:45am"}, {"days": "Sun", "time": "Closed"}], "id": "0493300002", "name": "USPS COLLECTION BOX - PO LOBBY", "address": {"city": "EAST NEWPORT", "state": "ME", "street": "679 ELM ST", "postcode": "04933"}}},
{"geometry": {"type": "Point", "coordinates": [-69.6056962754, 44.4478631527]}, "type": "Feature", "properties": {"collection_times": [{"days": "Mon-Fri", "time": "4:30pm"}, {"days": "Sat", "time": "11:15am"}, {"days": "Sun", "time": "Closed"}], "id": "0493500001", "name": "USPS COLLECTION BOX - BLUE BOX", "address": {"city": "EAST VASSALBORO", "state": "ME", "street": "351 MAIN ST", "postcode": "04935"}}},
{"geometry": {"type": "Point", "coordinates": [-69.6056962754, 44.4478631527]}, "type": "Feature", "properties": {"collection_times": [{"days": "Mon-Fri", "time": "4:45pm"}, {"days": "Sat", "time": "11:15am"}, {"days": "Sun", "time": "Closed"}], "id": "0493500002", "name": "USPS COLLECTION BOX - PO LOBBY", "address": {"city": "EAST VASSALBORO", "state": "ME", "street": "351 MAIN ST", "postcode": "04935"}}},
{"geometry": {"type": "Point", "coordinates": [-70.6160093939, 45.3041802252]}, "type": "Feature", "properties": {"collection_times": [{"days": "Mon-Fri", "time": "2:40pm"}, {"days": "Sat", "time": "11:40am"}, {"days": "Sun", "time": "Closed"}], "id": "0493600001", "name": "USPS COLLECTION BOX - BLUE BOX", "address": {"city": "EUSTIS", "state": "ME", "street": "1050 THE ARNOLD TRL", "postcode": "04936"}}},
{"geometry": {"type": "Point", "coordinates": [-70.6160093939, 45.3041802252]}, "type": "Feature", "properties": {"collection_times": [{"days": "Mon-Fri", "time": "3:00pm"}, {"days": "Sat", "time": "11:45am"}, {"days": "Sun", "time": "Closed"}], "id": "0493600002", "name": "USPS COLLECTION BOX - PO LOBBY", "address": {"city": "EUSTIS", "state": "ME", "street": "1050 THE ARNOLD TRL", "postcode": "04936"}}},
{"geometry": {"type": "Point", "coordinates": [-69.6056405205, 44.5806854867]}, "type": "Feature", "properties": {"collection_times": [{"days": "Mon-Fri", "time": "4:00pm"}, {"days": "Sat", "time": "1:00pm"}, {"days": "Sun", "time": "Closed"}], "id": "0493700001", "name": "USPS COLLECTION BOX - BLUE BOX", "address": {"city": "FAIRFIELD", "state": "ME", "street": "130 MAIN ST", "postcode": "04937"}}},
{"geometry": {"type": "Point", "coordinates": [-69.5993183221, 44.5913888978]}, "type": "Feature", "properties": {"collection_times": [{"days": "Mon-Sat", "time": "11:00am"}, {"days": "Sun", "time": "Closed"}], "id": "0493700007", "name": "USPS COLLECTION BOX - BLUE BOX", "address": {"city": "FAIRFIELD", "state": "ME", "street": "37 WESTERN AVE", "postcode": "04937"}}},
{"geometry": {"type": "Point", "coordinates": [-69.6056405205, 44.5806854867]}, "type": "Feature", "properties": {"collection_times": [{"days": "Mon-Fri", "time": "4:15pm"}, {"days": "Sat", "time": "11:45am"}, {"days": "Sun", "time": "Closed"}], "id": "0493700009", "name": "USPS COLLECTION BOX - PO LOBBY", "address": {"city": "FAIRFIELD", "state": "ME", "street": "130 MAIN ST", "postcode": "04937"}}},
{"geometry": {"type": "Point", "coordinates": [-69.6056405205, 44.5806854867]}, "type": "Feature", "properties": {"collection_times": [{"days": "Mon-Fri", "time": "4:00pm"}, {"days": "Sat", "time": "1:00pm"}, {"days": "Sun", "time": "Closed"}], "id": "0493700010", "name": "USPS COLLECTION BOX - BLUE BOX", "address": {"city": "FAIRFIELD", "state": "ME", "street": "130 MAIN ST", "postcode": "04937"}}},
{"geometry": {"type": "Point", "coordinates": [-70.1523498656, 44.6617792328]}, "type": "Feature", "properties": {"collection_times": [{"days": "Mon-Fri", "time": "4:30pm"}, {"days": "Sat", "time": "2:45pm"}, {"days": "Sun", "time": "Closed"}], "id": "0493800002", "name": "USPS COLLECTION BOX - BLUE BOX", "address": {"city": "FARMINGTON", "state": "ME", "street": "196 MAIN ST", "postcode": "04938"}}},
{"geometry": {"type": "Point", "coordinates": [-70.1523498656, 44.6617792328]}, "type": "Feature", "properties": {"collection_times": [{"days": "Mon-Fri", "time": "4:30pm"}, {"days": "Sat", "time": "2:45pm"}, {"days": "Sun", "time": "Closed"}], "id": "0493800004", "name": "USPS COLLECTION BOX - BLUE BOX", "address": {"city": "FARMINGTON", "state": "ME", "street": "196 MAIN ST", "postcode": "04938"}}},
{"geometry": {"type": "Point", "coordinates": [-70.1458324555, 44.6627919921]}, "type": "Feature", "properties": {"collection_times": [{"days": "Mon-Fri", "time": "2:30pm"}, {"days": "Sat-Sun", "time": "Closed"}], "id": "0493800006", "name": "USPS COLLECTION BOX - BLUE BOX", "address": {"city": "FARMINGTON", "state": "ME", "street": "140 MAIN ST", "postcode": "04938"}}},
{"geometry": {"type": "Point", "coordinates": [-70.1523498656, 44.6617792328]}, "type": "Feature", "properties": {"collection_times": [{"days": "Mon-Fri", "time": "2:30pm"}, {"days": "Sat-Sun", "time": "Closed"}], "id": "0493800007", "name": "USPS COLLECTION BOX - BLUE BOX", "address": {"city": "FARMINGTON", "state": "ME", "street": "129 MAIN ST", "postcode": "04938"}}},
{"geometry": {"type": "Point", "coordinates": [-70.1509497084, 44.6702659236]}, "type": "Feature", "properties": {"collection_times": [{"days": "Mon-Sat", "time": "10:15am"}, {"days": "Sun", "time": "Closed"}], "id": "0493800009", "name": "USPS COLLECTION BOX - BLUE BOX", "address": {"city": "FARMINGTON", "state": "ME", "street": "615 WILTON RD", "postcode": "04938"}}},
{"geometry": {"type": "Point", "coordinates": [-70.1474508692, 44.6673202052]}, "type": "Feature", "properties": {"collection_times": [{"days": "Mon-Sat", "time": "10:30am"}, {"days": "Sun", "time": "Closed"}], "id": "0493800010", "name": "USPS COLLECTION BOX - BLUE BOX", "address": {"city": "FARMINGTON", "state": "ME", "street": "111 SOUTH ST", "postcode": "04938"}}},
{"geometry": {"type": "Point", "coordinates": [-70.1422135848, 44.6596554861]}, "type": "Feature", "properties": {"collection_times": [{"days": "Mon-Fri", "time": "11:00am"}, {"days": "Sat", "time": "10:45am"}, {"days": "Sun", "time": "Closed"}], "id": "0493800011", "name": "USPS COLLECTION BOX - BLUE BOX", "address": {"city": "FARMINGTON", "state": "ME", "street": "144 FRANKLIN AVE", "postcode": "04938"}}},
{"geometry": {"type": "Point", "coordinates": [-70.1507458841, 44.6519242477]}, "type": "Feature", "properties": {"collection_times": [{"days": "Mon-Sat", "time": "10:00am"}, {"days": "Sun", "time": "Closed"}], "id": "0493800012", "name": "USPS COLLECTION BOX - BLUE BOX", "address": {"city": "FARMINGTON", "state": "ME", "street": "131 HANNAFORD DR", "postcode": "04938"}}},
{"geometry": {"type": "Point", "coordinates": [-70.1509497084, 44.6702659236]}, "type": "Feature", "properties": {"collection_times": [{"days": "Mon-Fri", "time": "11:15am"}, {"days": "Sat", "time": "11:00am"}, {"days": "Sun", "time": "Closed"}], "id": "0493800013", "name": "USPS COLLECTION BOX - BLUE BOX", "address": {"city": "FARMINGTON", "state": "ME", "street": "650 WILTON RD", "postcode": "04938"}}},
{"geometry": {"type": "Point", "coordinates": [-70.1523498656, 44.6617792328]}, "type": "Feature", "properties": {"collection_times": [{"days": "Mon-Fri", "time": "5:00pm"}, {"days": "Sat", "time": "2:45pm"}, {"days": "Sun", "time": "Closed"}], "id": "0493800015", "name": "USPS COLLECTION BOX - PO LOBBY", "address": {"city": "FARMINGTON", "state": "ME", "street": "196 MAIN ST", "postcode": "04938"}}},
{"geometry": {"type": "Point", "coordinates": [-70.1523498656, 44.6617792328]}, "type": "Feature", "properties": {"collection_times": [{"days": "Mon-Fri", "time": "5:00pm"}, {"days": "Sat", "time": "2:45pm"}, {"days": "Sun", "time": "Closed"}], "id": "0493800016", "name": "USPS COLLECTION BOX - PO LOBBY", "address": {"city": "FARMINGTON", "state": "ME", "street": "196 MAIN ST", "postcode": "04938"}}},
{"geometry": {"type": "Point", "coordinates": [-70.1523498656, 44.6617792328]}, "type": "Feature", "properties": {"collection_times": [{"days": "Mon-Fri", "time": "5:00pm"}, {"days": "Sat", "time": "2:45pm"}, {"days": "Sun", "time": "Closed"}], "id": "0493800017", "name": "USPS COLLECTION BOX - PO LOBBY", "address": {"city": "FARMINGTON", "state": "ME", "street": "196 MAIN ST", "postcode": "04938"}}},
{"geometry": {"type": "Point", "coordinates": [-69.1593600979, 45.039163599]}, "type": "Feature", "properties": {"collection_times": [{"days": "Mon-Fri", "time": "4:00pm"}, {"days": "Sat", "time": "12:00pm"}, {"days": "Sun", "time": "Closed"}], "id": "0493900001", "name": "USPS COLLECTION BOX - BLUE BOX", "address": {"city": "GARLAND", "state": "ME", "street": "1 OLIVER HILL RD", "postcode": "04939"}}},
{"geometry": {"type": "Point", "coordinates": [-69.1593600979, 45.039163599]}, "type": "Feature", "properties": {"collection_times": [{"days": "Mon-Fri", "time": "4:00pm"}, {"days": "Sat", "time": "12:00pm"}, {"days": "Sun", "time": "Closed"}], "id": "0493900002", "name": "USPS COLLECTION BOX - PO LOBBY", "address": {"city": "GARLAND", "state": "ME", "street": "1 OLIVER HILL RD", "postcode": "04939"}}},
{"geometry": {"type": "Point", "coordinates": [-70.0761167723, 44.6211719293]}, "type": "Feature", "properties": {"collection_times": [{"days": "Mon-Fri", "time": "4:00pm"}, {"days": "Sat", "time": "11:30am"}, {"days": "Sun", "time": "Closed"}], "id": "0494000001", "name": "USPS COLLECTION BOX - BLUE BOX", "address": {"city": "FARMINGTN FLS", "state": "ME", "street": "174 CROSWELL RD", "postcode": "04940"}}},
{"geometry": {"type": "Point", "coordinates": [-70.0761167723, 44.6211719293]}, "type": "Feature", "properties": {"collection_times": [{"days": "Mon-Fri", "time": "4:00pm"}, {"days": "Sat", "time": "11:30am"}, {"days": "Sun", "time": "Closed"}], "id": "0494000002", "name": "USPS COLLECTION BOX - PO LOBBY", "address": {"city": "FARMINGTN FLS", "state": "ME", "street": "174 CROSWELL RD", "postcode": "04940"}}},
{"geometry": {"type": "Point", "coordinates": [-69.5476728867, 44.9769236149]}, "type": "Feature", "properties": {"collection_times": [{"days": "Mon-Fri", "time": "4:15pm"}, {"days": "Sat", "time": "11:00am"}, {"days": "Sun", "time": "Closed"}], "id": "0494200001", "name": "USPS COLLECTION BOX - BLUE BOX", "address": {"city": "HARMONY", "state": "ME", "street": "17 MAIN ST", "postcode": "04942"}}},
{"geometry": {"type": "Point", "coordinates": [-69.5474088402, 44.9786244862]}, "type": "Feature", "properties": {"collection_times": [{"days": "Mon-Fri", "time": "2:30pm"}, {"days": "Sat", "time": "11:00am"}, {"days": "Sun", "time": "Closed"}], "id": "0494200002", "name": "USPS COLLECTION BOX - PO LOBBY", "address": {"city": "HARMONY", "state": "ME", "street": "17 MAIN ST", "postcode": "04942"}}},
{"geometry": {"type": "Point", "coordinates": [-69.5026657348, 44.8959288243]}, "type": "Feature", "properties": {"collection_times": [{"days": "Mon-Fri", "time": "3:45pm"}, {"days": "Sat", "time": "10:15am"}, {"days": "Sun", "time": "Closed"}], "id": "0494300001", "name": "USPS COLLECTION BOX - BLUE BOX", "address": {"city": "HARTLAND", "state": "ME", "street": "90 MAIN ST", "postcode": "04943"}}},
{"geometry": {"type": "Point", "coordinates": [-69.5026657348, 44.8959288243]}, "type": "Feature", "properties": {"collection_times": [{"days": "Mon-Fri", "time": "2:00pm"}, {"days": "Sat", "time": "10:15am"}, {"days": "Sun", "time": "Closed"}], "id": "0494300004", "name": "USPS COLLECTION BOX - PO LOBBY", "address": {"city": "HARTLAND", "state": "ME", "street": "90 MAIN ST", "postcode": "04943"}}},
{"geometry": {"type": "Point", "coordinates": [-69.6336672699, 44.6854354562]}, "type": "Feature", "properties": {"collection_times": [{"days": "Mon-Fri", "time": "4:30pm"}, {"days": "Sat", "time": "11:30am"}, {"days": "Sun", "time": "Closed"}], "id": "0494400001", "name": "USPS COLLECTION BOX - BLUE BOX", "address": {"city": "HINCKLEY", "state": "ME", "street": "753 SKOWHEGAN RD", "postcode": "04944"}}},
{"geometry": {"type": "Point", "coordinates": [-69.6336672699, 44.6854354562]}, "type": "Feature", "properties": {"collection_times": [{"days": "Mon-Fri", "time": "4:30pm"}, {"days": "Sat", "time": "11:30am"}, {"days": "Sun", "time": "Closed"}], "id": "0494400002", "name": "USPS COLLECTION BOX - PO LOBBY", "address": {"city": "HINCKLEY", "state": "ME", "street": "753 SKOWHEGAN RD", "postcode": "04944"}}},
{"geometry": {"type": "Point", "coordinates": [-70.2579797788, 45.6265443931]}, "type": "Feature", "properties": {"collection_times": [{"days": "Mon-Fri", "time": "2:00pm"}, {"days": "Sat", "time": "11:30am"}, {"days": "Sun", "time": "Closed"}], "id": "0494500001", "name": "USPS COLLECTION BOX - BLUE BOX", "address": {"city": "JACKMAN", "state": "ME", "street": "552 MAIN ST", "postcode": "04945"}}},
{"geometry": {"type": "Point", "coordinates": [-70.2579797788, 45.6265443931]}, "type": "Feature", "properties": {"collection_times": [{"days": "Mon-Fri", "time": "2:00pm"}, {"days": "Sat", "time": "11:45am"}, {"days": "Sun", "time": "Closed"}], "id": "0494500002", "name": "USPS COLLECTION BOX - PO LOBBY", "address": {"city": "JACKMAN", "state": "ME", "street": "552 MAIN ST", "postcode": "04945"}}},
{"geometry": {"type": "Point", "coordinates": [-70.1558281683, 44.9585970289]}, "type": "Feature", "properties": {"collection_times": [{"days": "Mon-Fri", "time": "3:00pm"}, {"days": "Sat", "time": "11:15am"}, {"days": "Sun", "time": "Closed"}], "id": "0494700001", "name": "USPS COLLECTION BOX - BLUE BOX", "address": {"city": "KINGFIELD", "state": "ME", "street": "8 DEPOT ST", "postcode": "04947"}}},
{"geometry": {"type": "Point", "coordinates": [-70.2155023105, 45.0818881415]}, "type": "Feature", "properties": {"collection_times": [{"days": "Mon-Fri", "time": "12:00pm"}, {"days": "Sat-Sun", "time": "Closed"}], "id": "0494700002", "name": "USPS COLLECTION BOX - BLUE BOX", "address": {"city": "KINGFIELD", "state": "ME", "street": "1215 CARRABASSETT DR", "postcode": "04947"}}},
{"geometry": {"type": "Point", "coordinates": [-70.1934998845, 45.007547671]}, "type": "Feature", "properties": {"collection_times": [{"days": "Mon-Fri", "time": "11:00am"}, {"days": "Sat-Sun", "time": "Closed"}], "id": "0494700003", "name": "USPS COLLECTION BOX - BLUE BOX", "address": {"city": "KINGFIELD", "state": "ME", "street": "9000 MAIN ST", "postcode": "04947"}}},
{"geometry": {"type": "Point", "coordinates": [-70.1558281683, 44.9585970289]}, "type": "Feature", "properties": {"collection_times": [{"days": "Mon-Fri", "time": "3:45pm"}, {"days": "Sat", "time": "11:45am"}, {"days": "Sun", "time": "Closed"}], "id": "0494700005", "name": "USPS COLLECTION BOX - PO LOBBY", "address": {"city": "KINGFIELD", "state": "ME", "street": "8 DEPOT ST", "postcode": "04947"}}},
{"geometry": {"type": "Point", "coordinates": [-70.1558281683, 44.9585970289]}, "type": "Feature", "properties": {"collection_times": [{"days": "Mon-Fri", "time": "3:45pm"}, {"days": "Sat", "time": "11:45am"}, {"days": "Sun", "time": "Closed"}], "id": "0494700006", "name": "USPS COLLECTION BOX - PO LOBBY", "address": {"city": "KINGFIELD", "state": "ME", "street": "8 DEPOT ST", "postcode": "04947"}}},
{"geometry": {"type": "Point", "coordinates": [-69.3364388601, 44.3759229117]}, "type": "Feature", "properties": {"collection_times": [{"days": "Mon-Fri", "time": "4:00pm"}, {"days": "Sat", "time": "10:30am"}, {"days": "Sun", "time": "Closed"}], "id": "0494900001", "name": "USPS COLLECTION BOX - BLUE BOX", "address": {"city": "LIBERTY", "state": "ME", "street": "76 MAIN ST", "postcode": "04949"}}},
{"geometry": {"type": "Point", "coordinates": [-69.3364388601, 44.3759229117]}, "type": "Feature", "properties": {"collection_times": [{"days": "Mon-Fri", "time": "2:00pm"}, {"days": "Sat", "time": "10:30am"}, {"days": "Sun", "time": "Closed"}], "id": "0494900002", "name": "USPS COLLECTION BOX - PO LOBBY", "address": {"city": "LIBERTY", "state": "ME", "street": "76 MAIN ST", "postcode": "04949"}}},
{"geometry": {"type": "Point", "coordinates": [-69.8793730123, 44.7988670319]}, "type": "Feature", "properties": {"collection_times": [{"days": "Mon-Fri", "time": "4:00pm"}, {"days": "Sat", "time": "3:00pm"}, {"days": "Sun", "time": "Closed"}], "id": "0495000002", "name": "USPS COLLECTION BOX - BLUE BOX", "address": {"city": "MADISON", "state": "ME", "street": "24 WESTON AVE", "postcode": "04950"}}},
{"geometry": {"type": "Point", "coordinates": [-69.8811398747, 44.7977615466]}, "type": "Feature", "properties": {"collection_times": [{"days": "Mon-Sat", "time": "10:00am"}, {"days": "Sun", "time": "Closed"}], "id": "0495000009", "name": "USPS COLLECTION BOX - BLUE BOX", "address": {"city": "MADISON", "state": "ME", "street": "225 MAIN ST", "postcode": "04950"}}},
{"geometry": {"type": "Point", "coordinates": [-69.8793730123, 44.7988670319]}, "type": "Feature", "properties": {"collection_times": [{"days": "Mon-Fri", "time": "4:45pm"}, {"days": "Sat", "time": "3:45pm"}, {"days": "Sun", "time": "Closed"}], "id": "0495000011", "name": "USPS COLLECTION BOX - PO LOBBY", "address": {"city": "MADISON", "state": "ME", "street": "24 WESTON AVE", "postcode": "04950"}}},
{"geometry": {"type": "Point", "coordinates": [-69.0213080811, 44.6147561229]}, "type": "Feature", "properties": {"collection_times": [{"days": "Mon-Fri", "time": "4:00pm"}, {"days": "Sat", "time": "11:00am"}, {"days": "Sun", "time": "Closed"}], "id": "0495100001", "name": "USPS COLLECTION BOX - BLUE BOX", "address": {"city": "MONROE", "state": "ME", "street": "59 W MAIN ST", "postcode": "04951"}}},
{"geometry": {"type": "Point", "coordinates": [-69.0213080811, 44.6147561229]}, "type": "Feature", "properties": {"collection_times": [{"days": "Mon-Fri", "time": "4:00pm"}, {"days": "Sat", "time": "11:00am"}, {"days": "Sun", "time": "Closed"}], "id": "0495100002", "name": "USPS COLLECTION BOX - PO LOBBY", "address": {"city": "MONROE", "state": "ME", "street": "59 W MAIN ST", "postcode": "04951"}}},
{"geometry": {"type": "Point", "coordinates": [-69.0213080811, 44.6147561229]}, "type": "Feature", "properties": {"collection_times": [{"days": "Mon-Fri", "time": "4:00pm"}, {"days": "Sat", "time": "11:00am"}, {"days": "Sun", "time": "Closed"}], "id": "0495100003", "name": "USPS COLLECTION BOX - PO LOBBY", "address": {"city": "MONROE", "state": "ME", "street": "59 W MAIN ST", "postcode": "04951"}}},
{"geometry": {"type": "Point", "coordinates": [-69.1367771665, 44.4010804936]}, "type": "Feature", "properties": {"collection_times": [{"days": "Mon-Fri", "time": "4:00pm"}, {"days": "Sat", "time": "11:00am"}, {"days": "Sun", "time": "Closed"}], "id": "0495200001", "name": "USPS COLLECTION BOX - BLUE BOX", "address": {"city": "MORRILL", "state": "ME", "street": "63 N MAIN ST", "postcode": "04952"}}},
{"geometry": {"type": "Point", "coordinates": [-69.1367771665, 44.4010804936]}, "type": "Feature", "properties": {"collection_times": [{"days": "Mon-Fri", "time": "4:00pm"}, {"days": "Sat", "time": "11:00am"}, {"days": "Sun", "time": "Closed"}], "id": "0495200002", "name": "USPS COLLECTION BOX - PO LOBBY", "address": {"city": "MORRILL", "state": "ME", "street": "63 N MAIN ST", "postcode": "04952"}}},
{"geometry": {"type": "Point", "coordinates": [-69.1367771665, 44.4010804936]}, "type": "Feature", "properties": {"collection_times": [{"days": "Mon-Fri", "time": "4:00pm"}, {"days": "Sat", "time": "11:00am"}, {"days": "Sun", "time": "Closed"}], "id": "0495200003", "name": "USPS COLLECTION BOX - PO LOBBY", "address": {"city": "MORRILL", "state": "ME", "street": "63 N MAIN ST", "postcode": "04952"}}},
{"geometry": {"type": "Point", "coordinates": [-69.2709484714, 44.8352093813]}, "type": "Feature", "properties": {"collection_times": [{"days": "Mon-Fri", "time": "11:00am"}, {"days": "Sat", "time": "10:30am"}, {"days": "Sun", "time": "Closed"}], "id": "0495300001", "name": "USPS COLLECTION BOX - BLUE BOX", "address": {"city": "NEWPORT", "state": "ME", "street": "26 MAIN ST", "postcode": "04953"}}},
{"geometry": {"type": "Point", "coordinates": [-69.2792987008, 44.8355030519]}, "type": "Feature", "properties": {"collection_times": [{"days": "Mon-Fri", "time": "4:30pm"}, {"days": "Sat", "time": "12:00pm"}, {"days": "Sun", "time": "Closed"}], "id": "0495300007", "name": "USPS COLLECTION BOX - BLUE BOX", "address": {"city": "NEWPORT", "state": "ME", "street": "85 MAIN ST", "postcode": "04953"}}},
{"geometry": {"type": "Point", "coordinates": [-69.2792987008, 44.8355030519]}, "type": "Feature", "properties": {"collection_times": [{"days": "Mon-Fri", "time": "4:30pm"}, {"days": "Sat", "time": "12:00pm"}, {"days": "Sun", "time": "Closed"}], "id": "0495300009", "name": "USPS COLLECTION BOX - PO LOBBY", "address": {"city": "NEWPORT", "state": "ME", "street": "85 MAIN ST", "postcode": "04953"}}},
{"geometry": {"type": "Point", "coordinates": [-70.0100867306, 44.6360855923]}, "type": "Feature", "properties": {"collection_times": [{"days": "Mon-Fri", "time": "2:00pm"}, {"days": "Sat", "time": "11:00am"}, {"days": "Sun", "time": "Closed"}], "id": "0495500001", "name": "USPS COLLECTION BOX - BLUE BOX", "address": {"city": "NEW SHARON", "state": "ME", "street": "18 POST OFFICE RD", "postcode": "04955"}}},
{"geometry": {"type": "Point", "coordinates": [-70.0100867306, 44.6360855923]}, "type": "Feature", "properties": {"collection_times": [{"days": "Mon-Fri", "time": "2:00pm"}, {"days": "Sat", "time": "11:00am"}, {"days": "Sun", "time": "Closed"}], "id": "0495500002", "name": "USPS COLLECTION BOX - PO LOBBY", "address": {"city": "NEW SHARON", "state": "ME", "street": "18 POST OFFICE RD", "postcode": "04955"}}},
{"geometry": {"type": "Point", "coordinates": [-70.1225425565, 44.8050960144]}, "type": "Feature", "properties": {"collection_times": [{"days": "Mon-Fri", "time": "4:10pm"}, {"days": "Sat", "time": "11:15am"}, {"days": "Sun", "time": "Closed"}], "id": "0495600001", "name": "USPS COLLECTION BOX - BLUE BOX", "address": {"city": "NEW VINEYARD", "state": "ME", "street": "18 LAKE ST", "postcode": "04956"}}},
{"geometry": {"type": "Point", "coordinates": [-70.1225425565, 44.8050960144]}, "type": "Feature", "properties": {"collection_times": [{"days": "Mon-Fri", "time": "4:00pm"}, {"days": "Sat", "time": "11:15am"}, {"days": "Sun", "time": "Closed"}], "id": "0495600003", "name": "USPS COLLECTION BOX - PO LOBBY", "address": {"city": "NEW VINEYARD", "state": "ME", "street": "18 LAKE ST", "postcode": "04956"}}},
{"geometry": {"type": "Point", "coordinates": [-69.7970357028, 44.7139427614]}, "type": "Feature", "properties": {"collection_times": [{"days": "Mon-Fri", "time": "4:30pm"}, {"days": "Sat", "time": "11:30am"}, {"days": "Sun", "time": "Closed"}], "id": "0495700002", "name": "USPS COLLECTION BOX - BLUE BOX", "address": {"city": "NORRIDGEWOCK", "state": "ME", "street": "2 CLARK ST", "postcode": "04957"}}},
{"geometry": {"type": "Point", "coordinates": [-69.7970357028, 44.7139427614]}, "type": "Feature", "properties": {"collection_times": [{"days": "Mon-Fri", "time": "4:30pm"}, {"days": "Sat", "time": "11:30am"}, {"days": "Sun", "time": "Closed"}], "id": "0495700004", "name": "USPS COLLECTION BOX - PO LOBBY", "address": {"city": "NORRIDGEWOCK", "state": "ME", "street": "2 CLARK ST", "postcode": "04957"}}},
{"geometry": {"type": "Point", "coordinates": [-69.9166361345, 44.9048969159]}, "type": "Feature", "properties": {"collection_times": [{"days": "Mon-Fri", "time": "4:15pm"}, {"days": "Sat", "time": "12:00pm"}, {"days": "Sun", "time": "Closed"}], "id": "0495800001", "name": "USPS COLLECTION BOX - BLUE BOX", "address": {"city": "NORTH ANSON", "state": "ME", "street": "9 MADISON ST", "postcode": "04958"}}},
{"geometry": {"type": "Point", "coordinates": [-69.9166361345, 44.9048969159]}, "type": "Feature", "properties": {"collection_times": [{"days": "Mon-Fri", "time": "4:15pm"}, {"days": "Sat", "time": "12:00pm"}, {"days": "Sun", "time": "Closed"}], "id": "0495800002", "name": "USPS COLLECTION BOX - PO LOBBY", "address": {"city": "NORTH ANSON", "state": "ME", "street": "9 MADISON ST", "postcode": "04958"}}},
{"geometry": {"type": "Point", "coordinates": [-70.0723176813, 44.941885948]}, "type": "Feature", "properties": {"collection_times": [{"days": "Mon-Fri", "time": "3:30pm"}, {"days": "Sat", "time": "10:30am"}, {"days": "Sun", "time": "Closed"}], "id": "0496100001", "name": "USPS COLLECTION BOX - BLUE BOX", "address": {"city": "NEW PORTLAND", "state": "ME", "street": "186 MEADOW BROOK RD", "postcode": "04961"}}},
{"geometry": {"type": "Point", "coordinates": [-70.0723176813, 44.941885948]}, "type": "Feature", "properties": {"collection_times": [{"days": "Mon-Fri", "time": "3:30pm"}, {"days": "Sat", "time": "10:30am"}, {"days": "Sun", "time": "Closed"}], "id": "0496100002", "name": "USPS COLLECTION BOX - PO LOBBY", "address": {"city": "NEW PORTLAND", "state": "ME", "street": "186 MEADOW BROOK RD", "postcode": "04961"}}},
{"geometry": {"type": "Point", "coordinates": [-69.5168176482, 44.4810143294]}, "type": "Feature", "properties": {"collection_times": [{"days": "Mon-Fri", "time": "2:30pm"}, {"days": "Sat", "time": "11:30am"}, {"days": "Sun", "time": "Closed"}], "id": "0496200001", "name": "USPS COLLECTION BOX - BLUE BOX", "address": {"city": "N VASSALBORO", "state": "ME", "street": "847 MAIN ST", "postcode": "04962"}}},
{"geometry": {"type": "Point", "coordinates": [-69.5168176482, 44.4810143294]}, "type": "Feature", "properties": {"collection_times": [{"days": "Mon-Fri", "time": "2:30pm"}, {"days": "Sat", "time": "11:30am"}, {"days": "Sun", "time": "Closed"}], "id": "0496200002", "name": "USPS COLLECTION BOX - PO LOBBY", "address": {"city": "N VASSALBORO", "state": "ME", "street": "847 MAIN ST", "postcode": "04962"}}},
{"geometry": {"type": "Point", "coordinates": [-69.7210895749, 44.5444952953]}, "type": "Feature", "properties": {"collection_times": [{"days": "Mon-Sat", "time": "9:00am"}, {"days": "Sun", "time": "Closed"}], "id": "0496300001", "name": "USPS COLLECTION BOX - BLUE BOX", "address": {"city": "OAKLAND", "state": "ME", "street": "45 CHURCH ST", "postcode": "04963"}}},
{"geometry": {"type": "Point", "coordinates": [-69.7724384366, 44.5599469291]}, "type": "Feature", "properties": {"collection_times": [{"days": "Mon-Fri", "time": "5:00pm"}, {"days": "Sat", "time": "2:30pm"}, {"days": "Sun", "time": "Closed"}], "id": "0496300004", "name": "USPS COLLECTION BOX - BLUE BOX", "address": {"city": "OAKLAND", "state": "ME", "street": "62 WATER ST", "postcode": "04963"}}},
{"geometry": {"type": "Point", "coordinates": [-69.7724384366, 44.5599469291]}, "type": "Feature", "properties": {"collection_times": [{"days": "Mon-Fri", "time": "5:00pm"}, {"days": "Sat", "time": "2:30pm"}, {"days": "Sun", "time": "Closed"}], "id": "0496300005", "name": "USPS COLLECTION BOX - BLUE BOX", "address": {"city": "OAKLAND", "state": "ME", "street": "62 WATER ST", "postcode": "04963"}}},
{"geometry": {"type": "Point", "coordinates": [-69.7169342823, 44.5476720529]}, "type": "Feature", "properties": {"collection_times": [{"days": "Mon-Sat", "time": "2:00pm"}, {"days": "Sun", "time": "Closed"}], "id": "0496300006", "name": "USPS COLLECTION BOX - BLUE BOX", "address": {"city": "OAKLAND", "state": "ME", "street": "51 MAIN ST", "postcode": "04963"}}},
{"geometry": {"type": "Point", "coordinates": [-69.7137658339, 44.5478179708]}, "type": "Feature", "properties": {"collection_times": [{"days": "Mon-Sat", "time": "2:00pm"}, {"days": "Sun", "time": "Closed"}], "id": "0496300008", "name": "USPS COLLECTION BOX - BLUE BOX", "address": {"city": "OAKLAND", "state": "ME", "street": "7 MAIN ST", "postcode": "04963"}}},
{"geometry": {"type": "Point", "coordinates": [-69.7724384366, 44.5599469291]}, "type": "Feature", "properties": {"collection_times": [{"days": "Mon-Fri", "time": "5:00pm"}, {"days": "Sat", "time": "2:30pm"}, {"days": "Sun", "time": "Closed"}], "id": "0496300010", "name": "USPS COLLECTION BOX - PO LOBBY", "address": {"city": "OAKLAND", "state": "ME", "street": "62 WATER ST", "postcode": "04963"}}},
{"geometry": {"type": "Point", "coordinates": [-69.3663043818, 44.8481529106]}, "type": "Feature", "properties": {"collection_times": [{"days": "Mon-Fri", "time": "4:30pm"}, {"days": "Sat", "time": "10:30am"}, {"days": "Sun", "time": "Closed"}], "id": "0496500001", "name": "USPS COLLECTION BOX - BLUE BOX", "address": {"city": "PALMYRA", "state": "ME", "street": "3 WARREN HILL RD", "postcode": "04965"}}},
{"geometry": {"type": "Point", "coordinates": [-69.3663043818, 44.8481529106]}, "type": "Feature", "properties": {"collection_times": [{"days": "Mon-Fri", "time": "2:00pm"}, {"days": "Sat", "time": "10:30am"}, {"days": "Sun", "time": "Closed"}], "id": "0496500002", "name": "USPS COLLECTION BOX - PO LOBBY", "address": {"city": "PALMYRA", "state": "ME", "street": "3 WARREN HILL RD", "postcode": "04965"}}},
{"geometry": {"type": "Point", "coordinates": [-70.3416558945, 44.8169775829]}, "type": "Feature", "properties": {"collection_times": [{"days": "Mon-Fri", "time": "2:30pm"}, {"days": "Sat", "time": "11:30am"}, {"days": "Sun", "time": "Closed"}], "id": "0496600001", "name": "USPS COLLECTION BOX - BLUE BOX", "address": {"city": "PHILLIPS", "state": "ME", "street": "91 DODGE RD", "postcode": "04966"}}},
{"geometry": {"type": "Point", "coordinates": [-70.3416558945, 44.8169775829]}, "type": "Feature", "properties": {"collection_times": [{"days": "Mon-Fri", "time": "2:30pm"}, {"days": "Sat", "time": "11:30am"}, {"days": "Sun", "time": "Closed"}], "id": "0496600003", "name": "USPS COLLECTION BOX - PO LOBBY", "address": {"city": "PHILLIPS", "state": "ME", "street": "91 DODGE RD", "postcode": "04966"}}},
{"geometry": {"type": "Point", "coordinates": [-69.4283027419, 44.7559731697]}, "type": "Feature", "properties": {"collection_times": [{"days": "Mon-Fri", "time": "5:00pm"}, {"days": "Sat", "time": "3:00pm"}, {"days": "Sun", "time": "Closed"}], "id": "0496700002", "name": "USPS COLLECTION BOX - BLUE BOX", "address": {"city": "PITTSFIELD", "state": "ME", "street": "131 CENTRAL ST", "postcode": "04967"}}},
{"geometry": {"type": "Point", "coordinates": [-69.3839152672, 44.7847886017]}, "type": "Feature", "properties": {"collection_times": [{"days": "Mon-Sat", "time": "8:30am"}, {"days": "Sun", "time": "Closed"}], "id": "0496700007", "name": "USPS COLLECTION BOX - BLUE BOX", "address": {"city": "PITTSFIELD", "state": "ME", "street": "101 SOMERSET PLZ", "postcode": "04967"}}},
{"geometry": {"type": "Point", "coordinates": [-69.4283027419, 44.7559731697]}, "type": "Feature", "properties": {"collection_times": [{"days": "Mon-Fri", "time": "5:00pm"}, {"days": "Sat", "time": "3:00pm"}, {"days": "Sun", "time": "Closed"}], "id": "0496700011", "name": "USPS COLLECTION BOX - PO LOBBY", "address": {"city": "PITTSFIELD", "state": "ME", "street": "131 CENTRAL ST", "postcode": "04967"}}},
{"geometry": {"type": "Point", "coordinates": [-69.2210398588, 44.7687070638]}, "type": "Feature", "properties": {"collection_times": [{"days": "Mon-Fri", "time": "3:30pm"}, {"days": "Sat", "time": "10:30am"}, {"days": "Sun", "time": "Closed"}], "id": "0496900001", "name": "USPS COLLECTION BOX - BLUE BOX", "address": {"city": "PLYMOUTH", "state": "ME", "street": "1947 MOOSEHEAD TRL", "postcode": "04969"}}},
{"geometry": {"type": "Point", "coordinates": [-69.2210398588, 44.7687070638]}, "type": "Feature", "properties": {"collection_times": [{"days": "Mon-Fri", "time": "3:45pm"}, {"days": "Sat", "time": "10:45am"}, {"days": "Sun", "time": "Closed"}], "id": "0496900002", "name": "USPS COLLECTION BOX - PO LOBBY", "address": {"city": "PLYMOUTH", "state": "ME", "street": "1947 MOOSEHEAD TRL", "postcode": "04969"}}},
{"geometry": {"type": "Point", "coordinates": [-70.6433110299, 44.9656319144]}, "type": "Feature", "properties": {"collection_times": [{"days": "Mon-Fri", "time": "2:40pm"}, {"days": "Sat", "time": "11:45am"}, {"days": "Sun", "time": "Closed"}], "id": "0497000001", "name": "USPS COLLECTION BOX - BLUE BOX", "address": {"city": "RANGELEY", "state": "ME", "street": "2517 MAIN ST", "postcode": "04970"}}},
{"geometry": {"type": "Point", "coordinates": [-70.6433110299, 44.9656319144]}, "type": "Feature", "properties": {"collection_times": [{"days": "Mon-Fri", "time": "2:55pm"}, {"days": "Sat", "time": "12:00pm"}, {"days": "Sun", "time": "Closed"}], "id": "0497000002", "name": "USPS COLLECTION BOX - PO LOBBY", "address": {"city": "RANGELEY", "state": "ME", "street": "2517 MAIN ST", "postcode": "04970"}}},
{"geometry": {"type": "Point", "coordinates": [-69.4110297969, 44.911890711]}, "type": "Feature", "properties": {"collection_times": [{"days": "Mon-Fri", "time": "4:15pm"}, {"days": "Sat", "time": "10:15am"}, {"days": "Sun", "time": "Closed"}], "id": "0497100001", "name": "USPS COLLECTION BOX - BLUE BOX", "address": {"city": "SAINT ALBANS", "state": "ME", "street": "27 MAIN ST", "postcode": "04971"}}},
{"geometry": {"type": "Point", "coordinates": [-69.4110297969, 44.911890711]}, "type": "Feature", "properties": {"collection_times": [{"days": "Mon-Fri", "time": "2:00pm"}, {"days": "Sat", "time": "10:15am"}, {"days": "Sun", "time": "Closed"}], "id": "0497100002", "name": "USPS COLLECTION BOX - PO LOBBY", "address": {"city": "SAINT ALBANS", "state": "ME", "street": "27 MAIN ST", "postcode": "04971"}}},
{"geometry": {"type": "Point", "coordinates": [-68.9263630837, 44.4577189637]}, "type": "Feature", "properties": {"collection_times": [{"days": "Mon-Fri", "time": "4:15pm"}, {"days": "Sat", "time": "11:15am"}, {"days": "Sun", "time": "Closed"}], "id": "0497400001", "name": "USPS COLLECTION BOX - BLUE BOX", "address": {"city": "SEARSPORT", "state": "ME", "street": "4 WATER ST", "postcode": "04974"}}},
{"geometry": {"type": "Point", "coordinates": [-68.9263630837, 44.4577189637]}, "type": "Feature", "properties": {"collection_times": [{"days": "Mon-Fri", "time": "4:30pm"}, {"days": "Sat", "time": "11:30am"}, {"days": "Sun", "time": "Closed"}], "id": "0497400002", "name": "USPS COLLECTION BOX - PO LOBBY", "address": {"city": "SEARSPORT", "state": "ME", "street": "4 WATER ST", "postcode": "04974"}}},
{"geometry": {"type": "Point", "coordinates": [-68.9263630837, 44.4577189637]}, "type": "Feature", "properties": {"collection_times": [{"days": "Mon-Fri", "time": "4:00pm"}, {"days": "Sat", "time": "11:00am"}, {"days": "Sun", "time": "Closed"}], "id": "0497400003", "name": "USPS COLLECTION BOX - BLUE BOX", "address": {"city": "SEARSPORT", "state": "ME", "street": "4 WATER ST", "postcode": "04974"}}},
{"geometry": {"type": "Point", "coordinates": [-69.5907084143, 44.6273239284]}, "type": "Feature", "properties": {"collection_times": [{"days": "Mon-Fri", "time": "3:30pm"}, {"days": "Sat", "time": "10:30am"}, {"days": "Sun", "time": "Closed"}], "id": "0497500001", "name": "USPS COLLECTION BOX - BLUE BOX", "address": {"city": "SHAWMUT", "state": "ME", "street": "117 BRAY AVE", "postcode": "04975"}}},
{"geometry": {"type": "Point", "coordinates": [-69.5907084143, 44.6273239284]}, "type": "Feature", "properties": {"collection_times": [{"days": "Mon-Fri", "time": "3:30pm"}, {"days": "Sat", "time": "10:30am"}, {"days": "Sun", "time": "Closed"}], "id": "0497500002", "name": "USPS COLLECTION BOX - PO LOBBY", "address": {"city": "SHAWMUT", "state": "ME", "street": "117 BRAY AVE", "postcode": "04975"}}},
{"geometry": {"type": "Point", "coordinates": [-69.7160332914, 44.7668174789]}, "type": "Feature", "properties": {"collection_times": [{"days": "Mon-Fri", "time": "5:00pm"}, {"days": "Sat", "time": "3:45pm"}, {"days": "Sun", "time": "Closed"}], "id": "0497600001", "name": "USPS COLLECTION BOX - BLUE BOX", "address": {"city": "SKOWHEGAN", "state": "ME", "street": "242 WATER ST", "postcode": "04976"}}},
{"geometry": {"type": "Point", "coordinates": [-69.7224924592, 44.77170904]}, "type": "Feature", "properties": {"collection_times": [{"days": "Mon-Fri", "time": "4:15pm"}, {"days": "Sat", "time": "2:00pm"}, {"days": "Sun", "time": "Closed"}], "id": "0497600003", "name": "USPS COLLECTION BOX - BLUE BOX", "address": {"city": "SKOWHEGAN", "state": "ME", "street": "225 MADISON AVE", "postcode": "04976"}}},
{"geometry": {"type": "Point", "coordinates": [-69.7211786893, 44.7691337408]}, "type": "Feature", "properties": {"collection_times": [{"days": "Mon-Fri", "time": "11:30am"}, {"days": "Sat", "time": "10:30am"}, {"days": "Sun", "time": "Closed"}], "id": "0497600006", "name": "USPS COLLECTION BOX - BLUE BOX", "address": {"city": "SKOWHEGAN", "state": "ME", "street": "140 MADISON AVE", "postcode": "04976"}}},
{"geometry": {"type": "Point", "coordinates": [-69.7173133341, 44.7701337448]}, "type": "Feature", "properties": {"collection_times": [{"days": "Mon-Fri", "time": "4:10pm"}, {"days": "Sat", "time": "2:00pm"}, {"days": "Sun", "time": "Closed"}], "id": "0497600010", "name": "USPS COLLECTION BOX - BLUE BOX", "address": {"city": "SKOWHEGAN", "state": "ME", "street": "55 NORTH AVE", "postcode": "04976"}}},
{"geometry": {"type": "Point", "coordinates": [-69.7159159498, 44.7668080311]}, "type": "Feature", "properties": {"collection_times": [{"days": "Mon-Fri", "time": "4:10pm"}, {"days": "Sat", "time": "2:00pm"}, {"days": "Sun", "time": "Closed"}], "id": "0497600012", "name": "USPS COLLECTION BOX - BLUE BOX", "address": {"city": "SKOWHEGAN", "state": "ME", "street": "98 NORTH AVE", "postcode": "04976"}}},
{"geometry": {"type": "Point", "coordinates": [-69.7220894387, 44.7711899641]}, "type": "Feature", "properties": {"collection_times": [{"days": "Mon-Fri", "time": "4:15pm"}, {"days": "Sat", "time": "12:00pm"}, {"days": "Sun", "time": "Closed"}], "id": "0497600015", "name": "USPS COLLECTION BOX - BLUE BOX", "address": {"city": "SKOWHEGAN", "state": "ME", "street": "214 MADISON AVE", "postcode": "04976"}}},
{"geometry": {"type": "Point", "coordinates": [-69.7077898017, 44.7521499666]}, "type": "Feature", "properties": {"collection_times": [{"days": "Mon-Fri", "time": "4:20pm"}, {"days": "Sat", "time": "1:00pm"}, {"days": "Sun", "time": "Closed"}], "id": "0497600018", "name": "USPS COLLECTION BOX - BLUE BOX", "address": {"city": "SKOWHEGAN", "state": "ME", "street": "46 FAIRVIEW AVE", "postcode": "04976"}}},
{"geometry": {"type": "Point", "coordinates": [-69.7182704272, 44.7692654749]}, "type": "Feature", "properties": {"collection_times": [{"days": "Mon-Fri", "time": "4:10pm"}, {"days": "Sat", "time": "2:00pm"}, {"days": "Sun", "time": "Closed"}], "id": "0497600019", "name": "USPS COLLECTION BOX - BLUE BOX", "address": {"city": "SKOWHEGAN", "state": "ME", "street": "30 LEAVITT ST", "postcode": "04976"}}},
{"geometry": {"type": "Point", "coordinates": [-69.7094726637, 44.7631178804]}, "type": "Feature", "properties": {"collection_times": [{"days": "Mon-Fri", "time": "4:25pm"}, {"days": "Sat", "time": "1:00pm"}, {"days": "Sun", "time": "Closed"}], "id": "0497600020", "name": "USPS COLLECTION BOX - BLUE BOX", "address": {"city": "SKOWHEGAN", "state": "ME", "street": "78 WATERVILLE RD", "postcode": "04976"}}},
{"geometry": {"type": "Point", "coordinates": [-69.7183843679, 44.7658105453]}, "type": "Feature", "properties": {"collection_times": [{"days": "Mon-Fri", "time": "4:45pm"}, {"days": "Sat", "time": "2:30pm"}, {"days": "Sun", "time": "Closed"}], "id": "0497600021", "name": "USPS COLLECTION BOX - BLUE BOX", "address": {"city": "SKOWHEGAN", "state": "ME", "street": "23 COMMERCIAL ST", "postcode": "04976"}}},
{"geometry": {"type": "Point", "coordinates": [-69.7159159498, 44.7668080311]}, "type": "Feature", "properties": {"collection_times": [{"days": "Mon-Fri", "time": "4:10pm"}, {"days": "Sat", "time": "2:00pm"}, {"days": "Sun", "time": "Closed"}], "id": "0497600024", "name": "USPS COLLECTION BOX - BLUE BOX", "address": {"city": "SKOWHEGAN", "state": "ME", "street": "98 NORTH AVE", "postcode": "04976"}}},
{"geometry": {"type": "Point", "coordinates": [-69.7279479623, 44.7791987454]}, "type": "Feature", "properties": {"collection_times": [{"days": "Mon-Fri", "time": "10:00am"}, {"days": "Sat", "time": "9:00am"}, {"days": "Sun", "time": "Closed"}], "id": "0497600026", "name": "USPS COLLECTION BOX - BLUE BOX", "address": {"city": "SKOWHEGAN", "state": "ME", "street": "60 FAIRGROUNDS MKT PL", "postcode": "04976"}}},
{"geometry": {"type": "Point", "coordinates": [-69.6636643039, 44.8115699081]}, "type": "Feature", "properties": {"collection_times": [{"days": "Mon-Fri", "time": "10:00am"}, {"days": "Sat", "time": "9:00am"}, {"days": "Sun", "time": "Closed"}], "id": "0497600027", "name": "USPS COLLECTION BOX - BLUE BOX", "address": {"city": "SKOWHEGAN", "state": "ME", "street": "100 FAIRGROUNDS MKT PL", "postcode": "04976"}}},
{"geometry": {"type": "Point", "coordinates": [-69.7187531054, 44.773821974]}, "type": "Feature", "properties": {"collection_times": [{"days": "Mon-Fri", "time": "4:10pm"}, {"days": "Sat", "time": "2:00pm"}, {"days": "Sun", "time": "Closed"}], "id": "0497600028", "name": "USPS COLLECTION BOX - BLUE BOX", "address": {"city": "SKOWHEGAN", "state": "ME", "street": "121 NORTH AVE", "postcode": "04976"}}},
{"geometry": {"type": "Point", "coordinates": [-69.7160332914, 44.7668174789]}, "type": "Feature", "properties": {"collection_times": [{"days": "Mon-Fri", "time": "5:00pm"}, {"days": "Sat", "time": "3:45pm"}, {"days": "Sun", "time": "Closed"}], "id": "0497600029", "name": "USPS COLLECTION BOX - PO LOBBY", "address": {"city": "SKOWHEGAN", "state": "ME", "street": "242 WATER ST", "postcode": "04976"}}},
{"geometry": {"type": "Point", "coordinates": [-69.7160332914, 44.7668174789]}, "type": "Feature", "properties": {"collection_times": [{"days": "Mon-Fri", "time": "5:00pm"}, {"days": "Sat", "time": "3:45pm"}, {"days": "Sun", "time": "Closed"}], "id": "0497600030", "name": "USPS COLLECTION BOX - PO LOBBY", "address": {"city": "SKOWHEGAN", "state": "ME", "street": "242 WATER ST", "postcode": "04976"}}},
{"geometry": {"type": "Point", "coordinates": [-69.7160332914, 44.7668174789]}, "type": "Feature", "properties": {"collection_times": [{"days": "Mon-Fri", "time": "5:00pm"}, {"days": "Sat", "time": "3:45pm"}, {"days": "Sun", "time": "Closed"}], "id": "0497600031", "name": "USPS COLLECTION BOX - PO LOBBY", "address": {"city": "SKOWHEGAN", "state": "ME", "street": "242 WATER ST", "postcode": "04976"}}},
{"geometry": {"type": "Point", "coordinates": [-69.8244090471, 44.6340162377]}, "type": "Feature", "properties": {"collection_times": [{"days": "Mon-Fri", "time": "4:15pm"}, {"days": "Sat", "time": "11:45am"}, {"days": "Sun", "time": "Closed"}], "id": "0497800001", "name": "USPS COLLECTION BOX - BLUE BOX", "address": {"city": "SMITHFIELD", "state": "ME", "street": "860 VILLAGE RD", "postcode": "04978"}}},
{"geometry": {"type": "Point", "coordinates": [-69.8244090471, 44.6340162377]}, "type": "Feature", "properties": {"collection_times": [{"days": "Mon-Fri", "time": "4:30pm"}, {"days": "Sat", "time": "11:45am"}, {"days": "Sun", "time": "Closed"}], "id": "0497800002", "name": "USPS COLLECTION BOX - PO LOBBY", "address": {"city": "SMITHFIELD", "state": "ME", "street": "860 VILLAGE RD", "postcode": "04978"}}},
{"geometry": {"type": "Point", "coordinates": [-69.8602101125, 44.9496632533]}, "type": "Feature", "properties": {"collection_times": [{"days": "Mon-Fri", "time": "4:00pm"}, {"days": "Sat", "time": "10:30am"}, {"days": "Sun", "time": "Closed"}], "id": "0497900001", "name": "USPS COLLECTION BOX - BLUE BOX", "address": {"city": "SOLON", "state": "ME", "street": "8 FERRY ST", "postcode": "04979"}}},
{"geometry": {"type": "Point", "coordinates": [-69.8602101125, 44.9496632533]}, "type": "Feature", "properties": {"collection_times": [{"days": "Mon-Fri", "time": "2:00pm"}, {"days": "Sat", "time": "10:30am"}, {"days": "Sun", "time": "Closed"}], "id": "0497900003", "name": "USPS COLLECTION BOX - PO LOBBY", "address": {"city": "SOLON", "state": "ME", "street": "8 FERRY ST", "postcode": "04979"}}},
{"geometry": {"type": "Point", "coordinates": [-68.8561009577, 44.4898801183]}, "type": "Feature", "properties": {"collection_times": [{"days": "Mon-Fri", "time": "4:45pm"}, {"days": "Sat", "time": "11:15am"}, {"days": "Sun", "time": "Closed"}], "id": "0498100002", "name": "USPS COLLECTION BOX - BLUE BOX", "address": {"city": "STOCKTON SPGS", "state": "ME", "street": "221 MAIN ST", "postcode": "04981"}}},
{"geometry": {"type": "Point", "coordinates": [-68.8561009577, 44.4898801183]}, "type": "Feature", "properties": {"collection_times": [{"days": "Mon-Fri", "time": "2:15pm"}, {"days": "Sat", "time": "11:15am"}, {"days": "Sun", "time": "Closed"}], "id": "0498100003", "name": "USPS COLLECTION BOX - PO LOBBY", "address": {"city": "STOCKTON SPGS", "state": "ME", "street": "221 MAIN ST", "postcode": "04981"}}},
{"geometry": {"type": "Point", "coordinates": [-70.218227818, 44.8158580042]}, "type": "Feature", "properties": {"collection_times": [{"days": "Mon-Fri", "time": "2:30pm"}, {"days": "Sat", "time": "11:30am"}, {"days": "Sun", "time": "Closed"}], "id": "0498300001", "name": "USPS COLLECTION BOX - BLUE BOX", "address": {"city": "STRONG", "state": "ME", "street": "136 N MAIN ST", "postcode": "04983"}}},
{"geometry": {"type": "Point", "coordinates": [-70.218227818, 44.8158580042]}, "type": "Feature", "properties": {"collection_times": [{"days": "Mon-Fri", "time": "2:30pm"}, {"days": "Sat", "time": "11:30am"}, {"days": "Sun", "time": "Closed"}], "id": "0498300002", "name": "USPS COLLECTION BOX - PO LOBBY", "address": {"city": "STRONG", "state": "ME", "street": "136 N MAIN ST", "postcode": "04983"}}},
{"geometry": {"type": "Point", "coordinates": [-70.222608143, 44.6710015584]}, "type": "Feature", "properties": {"collection_times": [{"days": "Mon-Fri", "time": "4:00pm"}, {"days": "Sat", "time": "11:30am"}, {"days": "Sun", "time": "Closed"}], "id": "0498400001", "name": "USPS COLLECTION BOX - BLUE BOX", "address": {"city": "TEMPLE", "state": "ME", "street": "12 TEMPLE RD", "postcode": "04984"}}},
{"geometry": {"type": "Point", "coordinates": [-70.222608143, 44.6710015584]}, "type": "Feature", "properties": {"collection_times": [{"days": "Mon-Fri", "time": "4:00pm"}, {"days": "Sat", "time": "11:30am"}, {"days": "Sun", "time": "Closed"}], "id": "0498400002", "name": "USPS COLLECTION BOX - PO LOBBY", "address": {"city": "TEMPLE", "state": "ME", "street": "12 TEMPLE RD", "postcode": "04984"}}},
{"geometry": {"type": "Point", "coordinates": [-69.9893663553, 45.2528490896]}, "type": "Feature", "properties": {"collection_times": [{"days": "Mon-Fri", "time": "2:45pm"}, {"days": "Sat", "time": "11:30am"}, {"days": "Sun", "time": "Closed"}], "id": "0498500001", "name": "USPS COLLECTION BOX - BLUE BOX", "address": {"city": "WEST FORKS", "state": "ME", "street": "2933 US RTE 201", "postcode": "04985"}}},
{"geometry": {"type": "Point", "coordinates": [-69.9893663553, 45.2528490896]}, "type": "Feature", "properties": {"collection_times": [{"days": "Mon-Fri", "time": "2:45pm"}, {"days": "Sat", "time": "11:30am"}, {"days": "Sun", "time": "Closed"}], "id": "0498500002", "name": "USPS COLLECTION BOX - PO LOBBY", "address": {"city": "WEST FORKS", "state": "ME", "street": "2933 US RTE 201", "postcode": "04985"}}},
{"geometry": {"type": "Point", "coordinates": [-69.2768187977, 44.5758579788]}, "type": "Feature", "properties": {"collection_times": [{"days": "Mon-Fri", "time": "3:30pm"}, {"days": "Sat", "time": "10:30am"}, {"days": "Sun", "time": "Closed"}], "id": "0498600001", "name": "USPS COLLECTION BOX - BLUE BOX", "address": {"city": "THORNDIKE", "state": "ME", "street": "58 MOUNT VIEW RD", "postcode": "04986"}}},
{"geometry": {"type": "Point", "coordinates": [-69.2768187977, 44.5758579788]}, "type": "Feature", "properties": {"collection_times": [{"days": "Mon-Fri", "time": "3:30pm"}, {"days": "Sat", "time": "10:30am"}, {"days": "Sun", "time": "Closed"}], "id": "0498600002", "name": "USPS COLLECTION BOX - PO LOBBY", "address": {"city": "THORNDIKE", "state": "ME", "street": "58 MOUNT VIEW RD", "postcode": "04986"}}},
{"geometry": {"type": "Point", "coordinates": [-69.253297179, 44.6831582502]}, "type": "Feature", "properties": {"collection_times": [{"days": "Mon-Fri", "time": "3:30pm"}, {"days": "Sat", "time": "11:30am"}, {"days": "Sun", "time": "Closed"}], "id": "0498700001", "name": "USPS COLLECTION BOX - BLUE BOX", "address": {"city": "TROY", "state": "ME", "street": "846 BANGOR RD", "postcode": "04987"}}},
{"geometry": {"type": "Point", "coordinates": [-69.253297179, 44.6831582502]}, "type": "Feature", "properties": {"collection_times": [{"days": "Mon-Fri", "time": "3:30pm"}, {"days": "Sat", "time": "11:30am"}, {"days": "Sun", "time": "Closed"}], "id": "0498700002", "name": "USPS COLLECTION BOX - PO LOBBY", "address": {"city": "TROY", "state": "ME", "street": "846 BANGOR RD", "postcode": "04987"}}},
{"geometry": {"type": "Point", "coordinates": [-69.3637195384, 44.5993600378]}, "type": "Feature", "properties": {"collection_times": [{"days": "Mon-Fri", "time": "3:45pm"}, {"days": "Sat", "time": "11:30am"}, {"days": "Sun", "time": "Closed"}], "id": "0498800002", "name": "USPS COLLECTION BOX - BLUE BOX", "address": {"city": "UNITY", "state": "ME", "street": "4 CLIFFORD COMMONS 1", "postcode": "04988"}}},
{"geometry": {"type": "Point", "coordinates": [-69.3637195384, 44.5993600378]}, "type": "Feature", "properties": {"collection_times": [{"days": "Mon-Fri", "time": "3:45pm"}, {"days": "Sat", "time": "11:30am"}, {"days": "Sun", "time": "Closed"}], "id": "0498800003", "name": "USPS COLLECTION BOX - PO LOBBY", "address": {"city": "UNITY", "state": "ME", "street": "4 CLIFFORD COMMONS 1", "postcode": "04988"}}},
{"geometry": {"type": "Point", "coordinates": [-69.3637195384, 44.5993600378]}, "type": "Feature", "properties": {"collection_times": [{"days": "Mon-Fri", "time": "3:45pm"}, {"days": "Sat", "time": "11:30am"}, {"days": "Sun", "time": "Closed"}], "id": "0498800004", "name": "USPS COLLECTION BOX - PO LOBBY", "address": {"city": "UNITY", "state": "ME", "street": "4 CLIFFORD COMMONS 1", "postcode": "04988"}}},
{"geometry": {"type": "Point", "coordinates": [-69.6785765965, 44.4589875626]}, "type": "Feature", "properties": {"collection_times": [{"days": "Mon-Fri", "time": "4:00pm"}, {"days": "Sat", "time": "12:00pm"}, {"days": "Sun", "time": "Closed"}], "id": "0498900001", "name": "USPS COLLECTION BOX - BLUE BOX", "address": {"city": "VASSALBORO", "state": "ME", "street": "25 ALPINE ST", "postcode": "04989"}}},
{"geometry": {"type": "Point", "coordinates": [-69.6785765965, 44.4589875626]}, "type": "Feature", "properties": {"collection_times": [{"days": "Mon-Fri", "time": "4:00pm"}, {"days": "Sat", "time": "12:00pm"}, {"days": "Sun", "time": "Closed"}], "id": "0498900003", "name": "USPS COLLECTION BOX - PO LOBBY", "address": {"city": "VASSALBORO", "state": "ME", "street": "25 ALPINE ST", "postcode": "04989"}}},
{"geometry": {"type": "Point", "coordinates": [-70.1547459374, 44.662539481]}, "type": "Feature", "properties": {"collection_times": [{"days": "Mon-Fri", "time": "4:00pm"}, {"days": "Sat", "time": "11:00am"}, {"days": "Sun", "time": "Closed"}], "id": "0499200001", "name": "USPS COLLECTION BOX - BLUE BOX", "address": {"city": "WEST FARMINGTON", "state": "ME", "street": "126 BRIDGE ST", "postcode": "04992"}}},
{"geometry": {"type": "Point", "coordinates": [-70.1547459374, 44.662539481]}, "type": "Feature", "properties": {"collection_times": [{"days": "Mon-Fri", "time": "4:00pm"}, {"days": "Sat", "time": "11:00am"}, {"days": "Sun", "time": "Closed"}], "id": "0499200002", "name": "USPS COLLECTION BOX - PO LOBBY", "address": {"city": "WEST FARMINGTON", "state": "ME", "street": "126 BRIDGE ST", "postcode": "04992"}}},
{"geometry": {"type": "Point", "coordinates": [-70.1547459374, 44.662539481]}, "type": "Feature", "properties": {"collection_times": [{"days": "Mon-Fri", "time": "4:00pm"}, {"days": "Sat", "time": "11:00am"}, {"days": "Sun", "time": "Closed"}], "id": "0499200003", "name": "USPS COLLECTION BOX - PO LOBBY", "address": {"city": "WEST FARMINGTON", "state": "ME", "street": "126 BRIDGE ST", "postcode": "04992"}}}
]}
