{"type": "FeatureCollection", "features": [
{"geometry": {"type": "Point", "coordinates": [-109.497098756, 45.5219788959]}, "type": "Feature", "properties": {"collection_times": [{"days": "Mon-Fri", "time": "4:45pm"}, {"days": "Sat", "time": "1:30pm"}, {"days": "Sun", "time": "Closed"}], "id": "5900100000", "name": "USPS COLLECTION BOX - BLUE BOX", "address": {"city": "ABSAROKEE", "state": "MT", "street": "25 N MONTANA AVE", "postcode": "59001"}}},
{"geometry": {"type": "Point", "coordinates": [-109.497098756, 45.5219788959]}, "type": "Feature", "properties": {"collection_times": [{"days": "Mon-Fri", "time": "4:45pm"}, {"days": "Sat", "time": "1:30pm"}, {"days": "Sun", "time": "Closed"}], "id": "5900100001", "name": "USPS COLLECTION BOX - PO LOBBY", "address": {"city": "ABSAROKEE", "state": "MT", "street": "25 N MONTANA AVE", "postcode": "59001"}}},
{"geometry": {"type": "Point", "coordinates": [-109.497098756, 45.5219788959]}, "type": "Feature", "properties": {"collection_times": [{"days": "Mon-Fri", "time": "4:45pm"}, {"days": "Sat", "time": "1:30pm"}, {"days": "Sun", "time": "Closed"}], "id": "5900100004", "name": "USPS COLLECTION BOX - PO LOBBY", "address": {"city": "ABSAROKEE", "state": "MT", "street": "25 N MONTANA AVE", "postcode": "59001"}}},
{"geometry": {"type": "Point", "coordinates": [-106.2590668252, 45.5573982133]}, "type": "Feature", "properties": {"collection_times": [{"days": "Mon-Fri", "time": "3:15pm"}, {"days": "Sat", "time": "1:15pm"}, {"days": "Sun", "time": "Closed"}], "id": "5900300000", "name": "USPS COLLECTION BOX - BLUE BOX", "address": {"city": "ASHLAND", "state": "MT", "street": "304 MAIN ST", "postcode": "59003"}}},
{"geometry": {"type": "Point", "coordinates": [-106.2590668252, 45.5573982133]}, "type": "Feature", "properties": {"collection_times": [{"days": "Mon-Fri", "time": "3:15pm"}, {"days": "Sat", "time": "11:00am"}, {"days": "Sun", "time": "Closed"}], "id": "5900300001", "name": "USPS COLLECTION BOX - PO LOBBY", "address": {"city": "ASHLAND", "state": "MT", "street": "304 MAIN ST", "postcode": "59003"}}},
{"geometry": {"type": "Point", "coordinates": [-106.2590668252, 45.5573982133]}, "type": "Feature", "properties": {"collection_times": [{"days": "Mon-Fri", "time": "3:15pm"}, {"days": "Sat", "time": "11:00am"}, {"days": "Sun", "time": "Closed"}], "id": "5900300002", "name": "USPS COLLECTION BOX - PO LOBBY", "address": {"city": "ASHLAND", "state": "MT", "street": "304 MAIN ST", "postcode": "59003"}}},
{"geometry": {"type": "Point", "coordinates": [-108.1511717169, 45.9469552012]}, "type": "Feature", "properties": {"collection_times": [{"days": "Mon-Fri", "time": "2:00pm"}, {"days": "Sat", "time": "9:30am"}, {"days": "Sun", "time": "Closed"}], "id": "5900600000", "name": "USPS COLLECTION BOX - PO LOBBY", "address": {"city": "BALLANTINE", "state": "MT", "street": "1605 ASH ST", "postcode": "59006"}}},
{"geometry": {"type": "Point", "coordinates": [-108.1511717169, 45.9469552012]}, "type": "Feature", "properties": {"collection_times": [{"days": "Mon-Sat", "time": "4:45pm"}, {"days": "Sun", "time": "Closed"}], "id": "5900600001", "name": "USPS COLLECTION BOX - BLUE BOX", "address": {"city": "BALLANTINE", "state": "MT", "street": "1605 ASH ST", "postcode": "59006"}}},
{"geometry": {"type": "Point", "coordinates": [-108.1511717169, 45.9469552012]}, "type": "Feature", "properties": {"collection_times": [{"days": "Mon-Fri", "time": "2:00pm"}, {"days": "Sat", "time": "9:30am"}, {"days": "Sun", "time": "Closed"}], "id": "5900600002", "name": "USPS COLLECTION BOX - PO LOBBY", "address": {"city": "BALLANTINE", "state": "MT", "street": "1605 ASH ST", "postcode": "59006"}}},
{"geometry": {"type": "Point", "coordinates": [-109.1040623629, 45.1736384983]}, "type": "Feature", "properties": {"collection_times": [{"days": "Mon-Sat", "time": "8:20am"}, {"days": "Sun", "time": "Closed"}], "id": "5900700000", "name": "USPS COLLECTION BOX - BLUE BOX", "address": {"city": "BEARCREEK", "state": "MT", "street": "139 MAIN ST", "postcode": "59007"}}},
{"geometry": {"type": "Point", "coordinates": [-109.1040623629, 45.1736384983]}, "type": "Feature", "properties": {"collection_times": [{"days": "Mon-Sat", "time": "8:20am"}, {"days": "Sun", "time": "Closed"}], "id": "5900700001", "name": "USPS COLLECTION BOX - PO LOBBY", "address": {"city": "BEARCREEK", "state": "MT", "street": "139 MAIN ST", "postcode": "59007"}}},
{"geometry": {"type": "Point", "coordinates": [-109.0066800613, 45.1419473146]}, "type": "Feature", "properties": {"collection_times": [{"days": "Mon-Fri", "time": "4:00pm"}, {"days": "Sat", "time": "9:15am"}, {"days": "Sun", "time": "Closed"}], "id": "5900800000", "name": "USPS COLLECTION BOX - BLUE BOX", "address": {"city": "BELFRY", "state": "MT", "street": "115 VAILL AVE", "postcode": "59008"}}},
{"geometry": {"type": "Point", "coordinates": [-109.0060110809, 45.1418583297]}, "type": "Feature", "properties": {"collection_times": [{"days": "Mon-Fri", "time": "11:30am"}, {"days": "Sat", "time": "9:15am"}, {"days": "Sun", "time": "Closed"}], "id": "5900800001", "name": "USPS COLLECTION BOX - PO LOBBY", "address": {"city": "BELFRY", "state": "MT", "street": "115 VAILL AVE", "postcode": "59008"}}},
{"geometry": {"type": "Point", "coordinates": [-109.0060110809, 45.1418583297]}, "type": "Feature", "properties": {"collection_times": [{"days": "Mon-Fri", "time": "11:30am"}, {"days": "Sat", "time": "9:15am"}, {"days": "Sun", "time": "Closed"}], "id": "5900800002", "name": "USPS COLLECTION BOX - PO LOBBY", "address": {"city": "BELFRY", "state": "MT", "street": "115 VAILL AVE", "postcode": "59008"}}},
{"geometry": {"type": "Point", "coordinates": [-109.0060110809, 45.1418583297]}, "type": "Feature", "properties": {"collection_times": [{"days": "Mon-Fri", "time": "11:30am"}, {"days": "Sat", "time": "9:15am"}, {"days": "Sun", "time": "Closed"}], "id": "5900800003", "name": "USPS COLLECTION BOX - PO LOBBY", "address": {"city": "BELFRY", "state": "MT", "street": "115 VAILL AVE", "postcode": "59008"}}},
{"geometry": {"type": "Point", "coordinates": [-109.0060110809, 45.1418583297]}, "type": "Feature", "properties": {"collection_times": [{"days": "Mon-Fri", "time": "11:30am"}, {"days": "Sat", "time": "9:15am"}, {"days": "Sun", "time": "Closed"}], "id": "5900800004", "name": "USPS COLLECTION BOX - PO LOBBY", "address": {"city": "BELFRY", "state": "MT", "street": "115 VAILL AVE", "postcode": "59008"}}},
{"geometry": {"type": "Point", "coordinates": [-107.1815584249, 46.0772662538]}, "type": "Feature", "properties": {"collection_times": [{"days": "Mon-Fri", "time": "2:00pm"}, {"days": "Sat", "time": "1:15pm"}, {"days": "Sun", "time": "Closed"}], "id": "5901000000", "name": "USPS COLLECTION BOX - BLUE BOX", "address": {"city": "BIGHORN", "state": "MT", "street": "1 SITTING BULL AVE", "postcode": "59010"}}},
{"geometry": {"type": "Point", "coordinates": [-107.1815584249, 46.0772662538]}, "type": "Feature", "properties": {"collection_times": [{"days": "Mon-Fri", "time": "2:00pm"}, {"days": "Sat", "time": "1:15pm"}, {"days": "Sun", "time": "Closed"}], "id": "5901000001", "name": "USPS COLLECTION BOX - PO LOBBY", "address": {"city": "BIGHORN", "state": "MT", "street": "1 SITTING BULL AVE", "postcode": "59010"}}},
{"geometry": {"type": "Point", "coordinates": [-110.0122181974, 45.9650185918]}, "type": "Feature", "properties": {"collection_times": [{"days": "Mon-Fri", "time": "4:30pm"}, {"days": "Sat", "time": "1:00pm"}, {"days": "Sun", "time": "Closed"}], "id": "5901100001", "name": "USPS COLLECTION BOX - PO LOBBY", "address": {"city": "BIG TIMBER", "state": "MT", "street": "415 WALNUT ST", "postcode": "59011"}}},
{"geometry": {"type": "Point", "coordinates": [-110.0122181974, 45.9650185918]}, "type": "Feature", "properties": {"collection_times": [{"days": "Mon-Fri", "time": "4:30pm"}, {"days": "Sat", "time": "1:00pm"}, {"days": "Sun", "time": "Closed"}], "id": "5901100002", "name": "USPS COLLECTION BOX - PO LOBBY", "address": {"city": "BIG TIMBER", "state": "MT", "street": "415 WALNUT ST", "postcode": "59011"}}},
{"geometry": {"type": "Point", "coordinates": [-110.0122181974, 45.9650185918]}, "type": "Feature", "properties": {"collection_times": [{"days": "Mon-Fri", "time": "4:30pm"}, {"days": "Sat", "time": "12:45pm"}, {"days": "Sun", "time": "Closed"}], "id": "5901100003", "name": "USPS COLLECTION BOX - BLUE BOX", "address": {"city": "BIG TIMBER", "state": "MT", "street": "415 WALNUT ST", "postcode": "59011"}}},
{"geometry": {"type": "Point", "coordinates": [-109.9340976842, 45.8465594968]}, "type": "Feature", "properties": {"collection_times": [{"days": "Mon-Fri", "time": "4:30pm"}, {"days": "Sat-Sun", "time": "Closed"}], "id": "5901100004", "name": "USPS COLLECTION BOX - BLUE BOX", "address": {"city": "BIG TIMBER", "state": "MT", "street": "136 MCLEOD ST", "postcode": "59011"}}},
{"geometry": {"type": "Point", "coordinates": [-110.0122181974, 45.9650185918]}, "type": "Feature", "properties": {"collection_times": [{"days": "Mon-Fri", "time": "4:30pm"}, {"days": "Sat", "time": "1:00pm"}, {"days": "Sun", "time": "Closed"}], "id": "5901100005", "name": "USPS COLLECTION BOX - PO LOBBY", "address": {"city": "BIG TIMBER", "state": "MT", "street": "415 WALNUT ST", "postcode": "59011"}}},
{"geometry": {"type": "Point", "coordinates": [-110.0122181974, 45.9650185918]}, "type": "Feature", "properties": {"collection_times": [{"days": "Mon-Fri", "time": "4:30pm"}, {"days": "Sat", "time": "1:00pm"}, {"days": "Sun", "time": "Closed"}], "id": "5901100006", "name": "USPS COLLECTION BOX - PO LOBBY", "address": {"city": "BIG TIMBER", "state": "MT", "street": "415 WALNUT ST", "postcode": "59011"}}},
{"geometry": {"type": "Point", "coordinates": [-106.500656958, 45.3106595534]}, "type": "Feature", "properties": {"collection_times": [{"days": "Mon-Sat", "time": "12:00pm"}, {"days": "Sun", "time": "Closed"}], "id": "5901200000", "name": "USPS COLLECTION BOX - PO LOBBY", "address": {"city": "BIRNEY", "state": "MT", "street": "302 COMMERCIAL ST", "postcode": "59012"}}},
{"geometry": {"type": "Point", "coordinates": [-106.500656958, 45.3106595534]}, "type": "Feature", "properties": {"collection_times": [{"days": "Mon-Sat", "time": "12:00pm"}, {"days": "Sun", "time": "Closed"}], "id": "5901200001", "name": "USPS COLLECTION BOX - PO LOBBY", "address": {"city": "BIRNEY", "state": "MT", "street": "302 COMMERCIAL ST", "postcode": "59012"}}},
{"geometry": {"type": "Point", "coordinates": [-108.9142578849, 45.2958703827]}, "type": "Feature", "properties": {"collection_times": [{"days": "Mon-Fri", "time": "4:00pm"}, {"days": "Sat", "time": "9:30am"}, {"days": "Sun", "time": "Closed"}], "id": "5901400000", "name": "USPS COLLECTION BOX - BLUE BOX", "address": {"city": "BRIDGER", "state": "MT", "street": "113 N MAIN ST", "postcode": "59014"}}},
{"geometry": {"type": "Point", "coordinates": [-108.9142578849, 45.2958703827]}, "type": "Feature", "properties": {"collection_times": [{"days": "Mon-Fri", "time": "4:30pm"}, {"days": "Sat", "time": "9:30am"}, {"days": "Sun", "time": "Closed"}], "id": "5901400001", "name": "USPS COLLECTION BOX - PO LOBBY", "address": {"city": "BRIDGER", "state": "MT", "street": "113 N MAIN ST", "postcode": "59014"}}},
{"geometry": {"type": "Point", "coordinates": [-108.9142578849, 45.2958703827]}, "type": "Feature", "properties": {"collection_times": [{"days": "Mon-Fri", "time": "4:30pm"}, {"days": "Sat", "time": "9:30am"}, {"days": "Sun", "time": "Closed"}], "id": "5901400002", "name": "USPS COLLECTION BOX - PO LOBBY", "address": {"city": "BRIDGER", "state": "MT", "street": "113 N MAIN ST", "postcode": "59014"}}},
{"geometry": {"type": "Point", "coordinates": [-108.8758199771, 46.1012290834]}, "type": "Feature", "properties": {"collection_times": [{"days": "Mon-Fri", "time": "5:35pm"}, {"days": "Sat", "time": "1:30pm"}, {"days": "Sun", "time": "Closed"}], "id": "5901500000", "name": "USPS COLLECTION BOX - BLUE BOX", "address": {"city": "BROADVIEW", "state": "MT", "street": "16713 IOWA AVE", "postcode": "59015"}}},
{"geometry": {"type": "Point", "coordinates": [-108.8758199771, 46.1012290834]}, "type": "Feature", "properties": {"collection_times": [{"days": "Mon-Fri", "time": "2:00pm"}, {"days": "Sat", "time": "8:45am"}, {"days": "Sun", "time": "Closed"}], "id": "5901500001", "name": "USPS COLLECTION BOX - PO LOBBY", "address": {"city": "BROADVIEW", "state": "MT", "street": "16713 IOWA AVE", "postcode": "59015"}}},
{"geometry": {"type": "Point", "coordinates": [-108.8758199771, 46.1012290834]}, "type": "Feature", "properties": {"collection_times": [{"days": "Mon-Fri", "time": "2:00pm"}, {"days": "Sat", "time": "8:45am"}, {"days": "Sun", "time": "Closed"}], "id": "5901500002", "name": "USPS COLLECTION BOX - PO LOBBY", "address": {"city": "BROADVIEW", "state": "MT", "street": "16713 IOWA AVE", "postcode": "59015"}}},
{"geometry": {"type": "Point", "coordinates": [-106.8750538505, 45.5176133914]}, "type": "Feature", "properties": {"collection_times": [{"days": "Mon-Fri", "time": "4:30pm"}, {"days": "Sat", "time": "10:30am"}, {"days": "Sun", "time": "Closed"}], "id": "5901600000", "name": "USPS COLLECTION BOX - BLUE BOX", "address": {"city": "BUSBY", "state": "MT", "street": "301 US HIGHWAY 212 E", "postcode": "59016"}}},
{"geometry": {"type": "Point", "coordinates": [-106.8750538505, 45.5176133914]}, "type": "Feature", "properties": {"collection_times": [{"days": "Mon-Fri", "time": "1:30pm"}, {"days": "Sat", "time": "9:00am"}, {"days": "Sun", "time": "Closed"}], "id": "5901600001", "name": "USPS COLLECTION BOX - PO LOBBY", "address": {"city": "BUSBY", "state": "MT", "street": "301 US HIGHWAY 212 E", "postcode": "59016"}}},
{"geometry": {"type": "Point", "coordinates": [-106.8750538505, 45.5176133914]}, "type": "Feature", "properties": {"collection_times": [{"days": "Mon-Fri", "time": "1:30pm"}, {"days": "Sat", "time": "9:00am"}, {"days": "Sun", "time": "Closed"}], "id": "5901600002", "name": "USPS COLLECTION BOX - PO LOBBY", "address": {"city": "BUSBY", "state": "MT", "street": "301 US HIGHWAY 212 E", "postcode": "59016"}}},
{"geometry": {"type": "Point", "coordinates": [-110.6042293814, 45.8820529872]}, "type": "Feature", "properties": {"collection_times": [{"days": "Mon-Fri", "time": "3:45pm"}, {"days": "Sat", "time": "9:45am"}, {"days": "Sun", "time": "Closed"}], "id": "5901800000", "name": "USPS COLLECTION BOX - BLUE BOX", "address": {"city": "CLYDE PARK", "state": "MT", "street": "103 1ST AVE N", "postcode": "59018"}}},
{"geometry": {"type": "Point", "coordinates": [-110.6042293814, 45.8820529872]}, "type": "Feature", "properties": {"collection_times": [{"days": "Mon-Fri", "time": "3:45pm"}, {"days": "Sat", "time": "9:45am"}, {"days": "Sun", "time": "Closed"}], "id": "5901800001", "name": "USPS COLLECTION BOX - PO LOBBY", "address": {"city": "CLYDE PARK", "state": "MT", "street": "103 1ST AVE N", "postcode": "59018"}}},
{"geometry": {"type": "Point", "coordinates": [-110.6042293814, 45.8820529872]}, "type": "Feature", "properties": {"collection_times": [{"days": "Mon-Fri", "time": "3:45pm"}, {"days": "Sat", "time": "9:45am"}, {"days": "Sun", "time": "Closed"}], "id": "5901800002", "name": "USPS COLLECTION BOX - PO LOBBY", "address": {"city": "CLYDE PARK", "state": "MT", "street": "103 1ST AVE N", "postcode": "59018"}}},
{"geometry": {"type": "Point", "coordinates": [-110.6042293814, 45.8820529872]}, "type": "Feature", "properties": {"collection_times": [{"days": "Mon-Fri", "time": "3:45pm"}, {"days": "Sat", "time": "9:45am"}, {"days": "Sun", "time": "Closed"}], "id": "5901800003", "name": "USPS COLLECTION BOX - PO LOBBY", "address": {"city": "CLYDE PARK", "state": "MT", "street": "103 1ST AVE N", "postcode": "59018"}}},
{"geometry": {"type": "Point", "coordinates": [-110.6042293814, 45.8820529872]}, "type": "Feature", "properties": {"collection_times": [{"days": "Mon-Fri", "time": "3:45pm"}, {"days": "Sat", "time": "9:45am"}, {"days": "Sun", "time": "Closed"}], "id": "5901800004", "name": "USPS COLLECTION BOX - PO LOBBY", "address": {"city": "CLYDE PARK", "state": "MT", "street": "103 1ST AVE N", "postcode": "59018"}}},
{"geometry": {"type": "Point", "coordinates": [-109.2518458674, 45.6382425813]}, "type": "Feature", "properties": {"collection_times": [{"days": "Mon-Fri", "time": "5:15pm"}, {"days": "Sat", "time": "12:00pm"}, {"days": "Sun", "time": "Closed"}], "id": "5901900000", "name": "USPS COLLECTION BOX - BLUE BOX", "address": {"city": "COLUMBUS", "state": "MT", "street": "139 N PRATTEN ST", "postcode": "59019"}}},
{"geometry": {"type": "Point", "coordinates": [-109.2518458674, 45.6382425813]}, "type": "Feature", "properties": {"collection_times": [{"days": "Mon-Fri", "time": "5:15pm"}, {"days": "Sat", "time": "12:00pm"}, {"days": "Sun", "time": "Closed"}], "id": "5901900001", "name": "USPS COLLECTION BOX - PO LOBBY", "address": {"city": "COLUMBUS", "state": "MT", "street": "139 N PRATTEN ST", "postcode": "59019"}}},
{"geometry": {"type": "Point", "coordinates": [-109.2518458674, 45.6382425813]}, "type": "Feature", "properties": {"collection_times": [{"days": "Mon-Fri", "time": "5:15pm"}, {"days": "Sat", "time": "12:00pm"}, {"days": "Sun", "time": "Closed"}], "id": "5901900002", "name": "USPS COLLECTION BOX - PO LOBBY", "address": {"city": "COLUMBUS", "state": "MT", "street": "139 N PRATTEN ST", "postcode": "59019"}}},
{"geometry": {"type": "Point", "coordinates": [-109.2518458674, 45.6382425813]}, "type": "Feature", "properties": {"collection_times": [{"days": "Mon-Fri", "time": "5:15pm"}, {"days": "Sat", "time": "12:00pm"}, {"days": "Sun", "time": "Closed"}], "id": "5901900003", "name": "USPS COLLECTION BOX - PO LOBBY", "address": {"city": "COLUMBUS", "state": "MT", "street": "139 N PRATTEN ST", "postcode": "59019"}}},
{"geometry": {"type": "Point", "coordinates": [-109.8911445817, 45.0266980707]}, "type": "Feature", "properties": {"collection_times": [{"days": "Mon-Fri", "time": "11:40am"}, {"days": "Sat-Sun", "time": "Closed"}], "id": "5902000000", "name": "USPS COLLECTION BOX - BLUE BOX", "address": {"city": "COOKE CITY", "state": "MT", "street": "208 MAIN ST E", "postcode": "59020"}}},
{"geometry": {"type": "Point", "coordinates": [-109.8911445817, 45.0266980707]}, "type": "Feature", "properties": {"collection_times": [{"days": "Mon-Fri", "time": "11:45am"}, {"days": "Sat-Sun", "time": "Closed"}], "id": "5902000002", "name": "USPS COLLECTION BOX - PO LOBBY", "address": {"city": "COOKE CITY", "state": "MT", "street": "208 MAIN ST E", "postcode": "59020"}}},
{"geometry": {"type": "Point", "coordinates": [-109.8911445817, 45.0266980707]}, "type": "Feature", "properties": {"collection_times": [{"days": "Mon-Fri", "time": "11:45am"}, {"days": "Sat-Sun", "time": "Closed"}], "id": "5902000003", "name": "USPS COLLECTION BOX - PO LOBBY", "address": {"city": "COOKE CITY", "state": "MT", "street": "208 MAIN ST E", "postcode": "59020"}}},
{"geometry": {"type": "Point", "coordinates": [-107.458869711, 45.6020486573]}, "type": "Feature", "properties": {"collection_times": [{"days": "Mon-Fri", "time": "5:00pm"}, {"days": "Sat", "time": "11:45am"}, {"days": "Sun", "time": "Closed"}], "id": "5902200000", "name": "USPS COLLECTION BOX - PO LOBBY", "address": {"city": "CROW AGENCY", "state": "MT", "street": "7001 E MAKAWASHA AVE", "postcode": "59022"}}},
{"geometry": {"type": "Point", "coordinates": [-107.458869711, 45.6020486573]}, "type": "Feature", "properties": {"collection_times": [{"days": "Mon-Fri", "time": "4:45pm"}, {"days": "Sat", "time": "11:45am"}, {"days": "Sun", "time": "Closed"}], "id": "5902200001", "name": "USPS COLLECTION BOX - BLUE BOX", "address": {"city": "CROW AGENCY", "state": "MT", "street": "7001 E MAKAWASHA AVE", "postcode": "59022"}}},
{"geometry": {"type": "Point", "coordinates": [-107.458869711, 45.6020486573]}, "type": "Feature", "properties": {"collection_times": [{"days": "Mon-Fri", "time": "5:00pm"}, {"days": "Sat", "time": "11:45am"}, {"days": "Sun", "time": "Closed"}], "id": "5902200002", "name": "USPS COLLECTION BOX - PO LOBBY", "address": {"city": "CROW AGENCY", "state": "MT", "street": "7001 E MAKAWASHA AVE", "postcode": "59022"}}},
{"geometry": {"type": "Point", "coordinates": [-107.7125995115, 46.2248830122]}, "type": "Feature", "properties": {"collection_times": [{"days": "Mon-Fri", "time": "4:20pm"}, {"days": "Sat", "time": "9:15am"}, {"days": "Sun", "time": "Closed"}], "id": "5902400000", "name": "USPS COLLECTION BOX - BLUE BOX", "address": {"city": "CUSTER", "state": "MT", "street": "413 2ND AVE", "postcode": "59024"}}},
{"geometry": {"type": "Point", "coordinates": [-107.7125995115, 46.2248830122]}, "type": "Feature", "properties": {"collection_times": [{"days": "Mon-Fri", "time": "2:30pm"}, {"days": "Sat", "time": "9:15am"}, {"days": "Sun", "time": "Closed"}], "id": "5902400001", "name": "USPS COLLECTION BOX - PO LOBBY", "address": {"city": "CUSTER", "state": "MT", "street": "413 2ND AVE", "postcode": "59024"}}},
{"geometry": {"type": "Point", "coordinates": [-107.7125995115, 46.2248830122]}, "type": "Feature", "properties": {"collection_times": [{"days": "Mon-Fri", "time": "2:30pm"}, {"days": "Sat", "time": "9:15am"}, {"days": "Sun", "time": "Closed"}], "id": "5902400002", "name": "USPS COLLECTION BOX - PO LOBBY", "address": {"city": "CUSTER", "state": "MT", "street": "413 2ND AVE", "postcode": "59024"}}},
{"geometry": {"type": "Point", "coordinates": [-106.6420848904, 45.0863426256]}, "type": "Feature", "properties": {"collection_times": [{"days": "Mon-Fri", "time": "1:00pm"}, {"days": "Sat", "time": "11:15am"}, {"days": "Sun", "time": "Closed"}], "id": "5902500001", "name": "USPS COLLECTION BOX - PO LOBBY", "address": {"city": "DECKER", "state": "MT", "street": "1 HIGHWAY 314", "postcode": "59025"}}},
{"geometry": {"type": "Point", "coordinates": [-106.6420848904, 45.0863426256]}, "type": "Feature", "properties": {"collection_times": [{"days": "Mon-Fri", "time": "1:00pm"}, {"days": "Sat", "time": "11:15am"}, {"days": "Sun", "time": "Closed"}], "id": "5902500002", "name": "USPS COLLECTION BOX - PO LOBBY", "address": {"city": "DECKER", "state": "MT", "street": "1 HIGHWAY 314", "postcode": "59025"}}},
{"geometry": {"type": "Point", "coordinates": [-108.8552806805, 45.4646716803]}, "type": "Feature", "properties": {"collection_times": [{"days": "Mon-Fri", "time": "3:15pm"}, {"days": "Sat", "time": "11:15am"}, {"days": "Sun", "time": "Closed"}], "id": "5902600000", "name": "USPS COLLECTION BOX - BLUE BOX", "address": {"city": "EDGAR", "state": "MT", "street": "201 ELWELL ST", "postcode": "59026"}}},
{"geometry": {"type": "Point", "coordinates": [-108.8552806805, 45.4646716803]}, "type": "Feature", "properties": {"collection_times": [{"days": "Mon-Fri", "time": "12:00pm"}, {"days": "Sat", "time": "11:15am"}, {"days": "Sun", "time": "Closed"}], "id": "5902600001", "name": "USPS COLLECTION BOX - PO LOBBY", "address": {"city": "EDGAR", "state": "MT", "street": "201 ELWELL ST", "postcode": "59026"}}},
{"geometry": {"type": "Point", "coordinates": [-110.9645135598, 45.2560667616]}, "type": "Feature", "properties": {"collection_times": [{"days": "Mon-Fri", "time": "3:45pm"}, {"days": "Sat", "time": "10:00am"}, {"days": "Sun", "time": "Closed"}], "id": "5902700000", "name": "USPS COLLECTION BOX - BLUE BOX", "address": {"city": "EMIGRANT", "state": "MT", "street": "305 STORY RD", "postcode": "59027"}}},
{"geometry": {"type": "Point", "coordinates": [-110.9645135598, 45.2560667616]}, "type": "Feature", "properties": {"collection_times": [{"days": "Mon-Fri", "time": "4:00pm"}, {"days": "Sat", "time": "10:00am"}, {"days": "Sun", "time": "Closed"}], "id": "5902700001", "name": "USPS COLLECTION BOX - PO LOBBY", "address": {"city": "EMIGRANT", "state": "MT", "street": "305 STORY RD", "postcode": "59027"}}},
{"geometry": {"type": "Point", "coordinates": [-110.9645135598, 45.2560667616]}, "type": "Feature", "properties": {"collection_times": [{"days": "Mon-Fri", "time": "4:00pm"}, {"days": "Sat", "time": "10:00am"}, {"days": "Sun", "time": "Closed"}], "id": "5902700002", "name": "USPS COLLECTION BOX - PO LOBBY", "address": {"city": "EMIGRANT", "state": "MT", "street": "305 STORY RD", "postcode": "59027"}}},
{"geometry": {"type": "Point", "coordinates": [-110.9645135598, 45.2560667616]}, "type": "Feature", "properties": {"collection_times": [{"days": "Mon-Fri", "time": "4:00pm"}, {"days": "Sat", "time": "10:00am"}, {"days": "Sun", "time": "Closed"}], "id": "5902700003", "name": "USPS COLLECTION BOX - PO LOBBY", "address": {"city": "EMIGRANT", "state": "MT", "street": "305 STORY RD", "postcode": "59027"}}},
{"geometry": {"type": "Point", "coordinates": [-110.9645135598, 45.2560667616]}, "type": "Feature", "properties": {"collection_times": [{"days": "Mon-Fri", "time": "4:00pm"}, {"days": "Sat", "time": "10:00am"}, {"days": "Sun", "time": "Closed"}], "id": "5902700004", "name": "USPS COLLECTION BOX - PO LOBBY", "address": {"city": "EMIGRANT", "state": "MT", "street": "305 STORY RD", "postcode": "59027"}}},
{"geometry": {"type": "Point", "coordinates": [-109.5015630362, 45.4533120237]}, "type": "Feature", "properties": {"collection_times": [{"days": "Mon-Fri", "time": "3:45pm"}, {"days": "Sat", "time": "11:15am"}, {"days": "Sun", "time": "Closed"}], "id": "5902800000", "name": "USPS COLLECTION BOX - BLUE BOX", "address": {"city": "FISHTAIL", "state": "MT", "street": "200 W MAIN ST", "postcode": "59028"}}},
{"geometry": {"type": "Point", "coordinates": [-109.5015630362, 45.4533120237]}, "type": "Feature", "properties": {"collection_times": [{"days": "Mon-Fri", "time": "12:00pm"}, {"days": "Sat", "time": "11:15am"}, {"days": "Sun", "time": "Closed"}], "id": "5902800001", "name": "USPS COLLECTION BOX - PO LOBBY", "address": {"city": "FISHTAIL", "state": "MT", "street": "200 W MAIN ST", "postcode": "59028"}}},
{"geometry": {"type": "Point", "coordinates": [-108.90833813, 45.3918411288]}, "type": "Feature", "properties": {"collection_times": [{"days": "Mon-Fri", "time": "4:30pm"}, {"days": "Sat", "time": "9:30am"}, {"days": "Sun", "time": "Closed"}], "id": "5902900000", "name": "USPS COLLECTION BOX - BLUE BOX", "address": {"city": "FROMBERG", "state": "MT", "street": "123 W RIVER ST", "postcode": "59029"}}},
{"geometry": {"type": "Point", "coordinates": [-108.90833813, 45.3918411288]}, "type": "Feature", "properties": {"collection_times": [{"days": "Mon-Fri", "time": "3:00pm"}, {"days": "Sat", "time": "9:30am"}, {"days": "Sun", "time": "Closed"}], "id": "5902900001", "name": "USPS COLLECTION BOX - PO LOBBY", "address": {"city": "FROMBERG", "state": "MT", "street": "123 W RIVER ST", "postcode": "59029"}}},
{"geometry": {"type": "Point", "coordinates": [-108.90833813, 45.3918411288]}, "type": "Feature", "properties": {"collection_times": [{"days": "Mon-Fri", "time": "3:00pm"}, {"days": "Sat", "time": "9:30am"}, {"days": "Sun", "time": "Closed"}], "id": "5902900002", "name": "USPS COLLECTION BOX - PO LOBBY", "address": {"city": "FROMBERG", "state": "MT", "street": "123 W RIVER ST", "postcode": "59029"}}},
{"geometry": {"type": "Point", "coordinates": [-110.7105900398, 45.0347520066]}, "type": "Feature", "properties": {"collection_times": [{"days": "Mon-Fri", "time": "3:15pm"}, {"days": "Sat", "time": "11:15am"}, {"days": "Sun", "time": "Closed"}], "id": "5903000001", "name": "USPS COLLECTION BOX - PO LOBBY", "address": {"city": "GARDINER", "state": "MT", "street": "707 SCOTT ST W", "postcode": "59030"}}},
{"geometry": {"type": "Point", "coordinates": [-110.7105900398, 45.0347520066]}, "type": "Feature", "properties": {"collection_times": [{"days": "Mon-Fri", "time": "3:15pm"}, {"days": "Sat", "time": "11:15am"}, {"days": "Sun", "time": "Closed"}], "id": "5903000002", "name": "USPS COLLECTION BOX - PO LOBBY", "address": {"city": "GARDINER", "state": "MT", "street": "707 SCOTT ST W", "postcode": "59030"}}},
{"geometry": {"type": "Point", "coordinates": [-110.7105900398, 45.0347520066]}, "type": "Feature", "properties": {"collection_times": [{"days": "Mon-Fri", "time": "3:15pm"}, {"days": "Sat", "time": "11:15am"}, {"days": "Sun", "time": "Closed"}], "id": "5903000003", "name": "USPS COLLECTION BOX - PO LOBBY", "address": {"city": "GARDINER", "state": "MT", "street": "707 SCOTT ST W", "postcode": "59030"}}},
{"geometry": {"type": "Point", "coordinates": [-110.7105900398, 45.0347520066]}, "type": "Feature", "properties": {"collection_times": [{"days": "Mon-Fri", "time": "3:15pm"}, {"days": "Sat", "time": "11:15am"}, {"days": "Sun", "time": "Closed"}], "id": "5903000004", "name": "USPS COLLECTION BOX - PO LOBBY", "address": {"city": "GARDINER", "state": "MT", "street": "707 SCOTT ST W", "postcode": "59030"}}},
{"geometry": {"type": "Point", "coordinates": [-110.7105900398, 45.0347520066]}, "type": "Feature", "properties": {"collection_times": [{"days": "Mon-Fri", "time": "3:00pm"}, {"days": "Sat", "time": "11:00am"}, {"days": "Sun", "time": "Closed"}], "id": "5903000005", "name": "USPS COLLECTION BOX - BLUE BOX", "address": {"city": "GARDINER", "state": "MT", "street": "707 SCOTT ST W", "postcode": "59030"}}},
{"geometry": {"type": "Point", "coordinates": [-109.9391046337, 45.018378144]}, "type": "Feature", "properties": {"collection_times": [{"days": "Mon-Fri", "time": "12:30pm"}, {"days": "Sat-Sun", "time": "Closed"}], "id": "5903000006", "name": "USPS COLLECTION BOX - BLUE BOX", "address": {"city": "GARDINER", "state": "MT", "street": "109B HIGHWAY 212 W", "postcode": "59030"}}},
{"geometry": {"type": "Point", "coordinates": [-107.2613454044, 45.4716808327]}, "type": "Feature", "properties": {"collection_times": [{"days": "Mon-Fri", "time": "4:15pm"}, {"days": "Sat", "time": "12:45pm"}, {"days": "Sun", "time": "Closed"}], "id": "5903100000", "name": "USPS COLLECTION BOX - BLUE BOX", "address": {"city": "GARRYOWEN", "state": "MT", "street": "4185 GARRYOWEN RD", "postcode": "59031"}}},
{"geometry": {"type": "Point", "coordinates": [-107.2613454044, 45.4716808327]}, "type": "Feature", "properties": {"collection_times": [{"days": "Mon-Fri", "time": "10:00am"}, {"days": "Sat", "time": "12:45pm"}, {"days": "Sun", "time": "Closed"}], "id": "5903100001", "name": "USPS COLLECTION BOX - PO LOBBY", "address": {"city": "GARRYOWEN", "state": "MT", "street": "4185 GARRYOWEN RD", "postcode": "59031"}}},
{"geometry": {"type": "Point", "coordinates": [-107.2613454044, 45.4716808327]}, "type": "Feature", "properties": {"collection_times": [{"days": "Mon-Fri", "time": "10:00am"}, {"days": "Sat", "time": "12:45pm"}, {"days": "Sun", "time": "Closed"}], "id": "5903100002", "name": "USPS COLLECTION BOX - PO LOBBY", "address": {"city": "GARRYOWEN", "state": "MT", "street": "4185 GARRYOWEN RD", "postcode": "59031"}}},
{"geometry": {"type": "Point", "coordinates": [-108.7515698636, 46.9819170488]}, "type": "Feature", "properties": {"collection_times": [{"days": "Mon-Fri", "time": "3:15pm"}, {"days": "Sat", "time": "9:45am"}, {"days": "Sun", "time": "Closed"}], "id": "5903200001", "name": "USPS COLLECTION BOX - PO LOBBY", "address": {"city": "GRASSRANGE", "state": "MT", "street": "614 MAIN ST", "postcode": "59032"}}},
{"geometry": {"type": "Point", "coordinates": [-108.7515698636, 46.9819170488]}, "type": "Feature", "properties": {"collection_times": [{"days": "Mon-Fri", "time": "3:15pm"}, {"days": "Sat", "time": "9:45am"}, {"days": "Sun", "time": "Closed"}], "id": "5903200002", "name": "USPS COLLECTION BOX - PO LOBBY", "address": {"city": "GRASSRANGE", "state": "MT", "street": "614 MAIN ST", "postcode": "59032"}}},
{"geometry": {"type": "Point", "coordinates": [-109.749704013, 45.7362949374]}, "type": "Feature", "properties": {"collection_times": [{"days": "Mon-Fri", "time": "9:50am"}, {"days": "Sat", "time": "11:30am"}, {"days": "Sun", "time": "Closed"}], "id": "5903300000", "name": "USPS COLLECTION BOX - PO LOBBY", "address": {"city": "GREY CLIFF", "state": "MT", "street": "217 A ST", "postcode": "59033"}}},
{"geometry": {"type": "Point", "coordinates": [-109.749704013, 45.7362949374]}, "type": "Feature", "properties": {"collection_times": [{"days": "Mon-Fri", "time": "9:50am"}, {"days": "Sat", "time": "11:30am"}, {"days": "Sun", "time": "Closed"}], "id": "5903300001", "name": "USPS COLLECTION BOX - PO LOBBY", "address": {"city": "GREY CLIFF", "state": "MT", "street": "217 A ST", "postcode": "59033"}}},
{"geometry": {"type": "Point", "coordinates": [-109.579858076, 45.7110891548]}, "type": "Feature", "properties": {"collection_times": [{"days": "Mon-Sat", "time": "11:50am"}, {"days": "Sun", "time": "Closed"}], "id": "5903300002", "name": "USPS COLLECTION BOX - BLUE BOX", "address": {"city": "GREY CLIFF", "state": "MT", "street": "217 A ST", "postcode": "59033"}}},
{"geometry": {"type": "Point", "coordinates": [-107.6043761552, 45.7333998721]}, "type": "Feature", "properties": {"collection_times": [{"days": "Mon-Fri", "time": "5:00pm"}, {"days": "Sat", "time": "12:30pm"}, {"days": "Sun", "time": "Closed"}], "id": "5903400000", "name": "USPS COLLECTION BOX - BLUE BOX", "address": {"city": "HARDIN", "state": "MT", "street": "502 N CHEYENNE AVE", "postcode": "59034"}}},
{"geometry": {"type": "Point", "coordinates": [-107.6043761552, 45.7333998721]}, "type": "Feature", "properties": {"collection_times": [{"days": "Mon-Fri", "time": "5:00pm"}, {"days": "Sat", "time": "12:30pm"}, {"days": "Sun", "time": "Closed"}], "id": "5903400001", "name": "USPS COLLECTION BOX - BLUE BOX", "address": {"city": "HARDIN", "state": "MT", "street": "502 N CHEYENNE AVE", "postcode": "59034"}}},
{"geometry": {"type": "Point", "coordinates": [-107.6058694621, 45.7302671524]}, "type": "Feature", "properties": {"collection_times": [{"days": "Mon-Fri", "time": "3:00pm"}, {"days": "Sat", "time": "12:30pm"}, {"days": "Sun", "time": "Closed"}], "id": "5903400002", "name": "USPS COLLECTION BOX - BLUE BOX", "address": {"city": "HARDIN", "state": "MT", "street": "200 N CENTER AVE", "postcode": "59034"}}},
{"geometry": {"type": "Point", "coordinates": [-107.6043761552, 45.7333998721]}, "type": "Feature", "properties": {"collection_times": [{"days": "Mon-Fri", "time": "5:00pm"}, {"days": "Sat", "time": "12:30pm"}, {"days": "Sun", "time": "Closed"}], "id": "5903400004", "name": "USPS COLLECTION BOX - PO LOBBY", "address": {"city": "HARDIN", "state": "MT", "street": "502 N CHEYENNE AVE", "postcode": "59034"}}},
{"geometry": {"type": "Point", "coordinates": [-107.7714953126, 45.8336414433]}, "type": "Feature", "properties": {"collection_times": [{"days": "Mon-Sat", "time": "10:45am"}, {"days": "Sun", "time": "Closed"}], "id": "5903400005", "name": "USPS COLLECTION BOX - BLUE BOX", "address": {"city": "HARDIN", "state": "MT", "street": "1 PARKDALE CT", "postcode": "59034"}}},
{"geometry": {"type": "Point", "coordinates": [-107.6043761552, 45.7333998721]}, "type": "Feature", "properties": {"collection_times": [{"days": "Mon-Fri", "time": "5:00pm"}, {"days": "Sat", "time": "12:30pm"}, {"days": "Sun", "time": "Closed"}], "id": "5903400006", "name": "USPS COLLECTION BOX - PO LOBBY", "address": {"city": "HARDIN", "state": "MT", "street": "502 N CHEYENNE AVE", "postcode": "59034"}}},
{"geometry": {"type": "Point", "coordinates": [-109.8307200159, 46.4342640995]}, "type": "Feature", "properties": {"collection_times": [{"days": "Mon-Fri", "time": "4:15pm"}, {"days": "Sat", "time": "11:15am"}, {"days": "Sun", "time": "Closed"}], "id": "5903600000", "name": "USPS COLLECTION BOX - BLUE BOX", "address": {"city": "HARLOWTON", "state": "MT", "street": "12 1ST ST SE", "postcode": "59036"}}},
{"geometry": {"type": "Point", "coordinates": [-109.8307200159, 46.4342640995]}, "type": "Feature", "properties": {"collection_times": [{"days": "Mon-Fri", "time": "4:15pm"}, {"days": "Sat", "time": "11:15am"}, {"days": "Sun", "time": "Closed"}], "id": "5903600001", "name": "USPS COLLECTION BOX - PO LOBBY", "address": {"city": "HARLOWTON", "state": "MT", "street": "12 1ST ST SE", "postcode": "59036"}}},
{"geometry": {"type": "Point", "coordinates": [-109.8307200159, 46.4342640995]}, "type": "Feature", "properties": {"collection_times": [{"days": "Mon-Fri", "time": "4:15pm"}, {"days": "Sat", "time": "11:15am"}, {"days": "Sun", "time": "Closed"}], "id": "5903600002", "name": "USPS COLLECTION BOX - PO LOBBY", "address": {"city": "HARLOWTON", "state": "MT", "street": "12 1ST ST SE", "postcode": "59036"}}},
{"geometry": {"type": "Point", "coordinates": [-108.3087550488, 45.8957049575]}, "type": "Feature", "properties": {"collection_times": [{"days": "Mon-Fri", "time": "5:45pm"}, {"days": "Sat", "time": "3:00pm"}, {"days": "Sun", "time": "Closed"}], "id": "5903700000", "name": "USPS COLLECTION BOX - BLUE BOX", "address": {"city": "HUNTLEY", "state": "MT", "street": "155 NORTHERN AVE", "postcode": "59037"}}},
{"geometry": {"type": "Point", "coordinates": [-108.3087550488, 45.8957049575]}, "type": "Feature", "properties": {"collection_times": [{"days": "Mon-Fri", "time": "4:30pm"}, {"days": "Sat", "time": "8:00am"}, {"days": "Sun", "time": "Closed"}], "id": "5903700001", "name": "USPS COLLECTION BOX - PO LOBBY", "address": {"city": "HUNTLEY", "state": "MT", "street": "155 NORTHERN AVE", "postcode": "59037"}}},
{"geometry": {"type": "Point", "coordinates": [-108.3087550488, 45.8957049575]}, "type": "Feature", "properties": {"collection_times": [{"days": "Mon-Fri", "time": "4:30pm"}, {"days": "Sat", "time": "8:00am"}, {"days": "Sun", "time": "Closed"}], "id": "5903700002", "name": "USPS COLLECTION BOX - PO LOBBY", "address": {"city": "HUNTLEY", "state": "MT", "street": "155 NORTHERN AVE", "postcode": "59037"}}},
{"geometry": {"type": "Point", "coordinates": [-108.3087550488, 45.8957049575]}, "type": "Feature", "properties": {"collection_times": [{"days": "Mon-Fri", "time": "4:30pm"}, {"days": "Sat", "time": "8:00am"}, {"days": "Sun", "time": "Closed"}], "id": "5903700003", "name": "USPS COLLECTION BOX - PO LOBBY", "address": {"city": "HUNTLEY", "state": "MT", "street": "155 NORTHERN AVE", "postcode": "59037"}}},
{"geometry": {"type": "Point", "coordinates": [-108.3087550488, 45.8957049575]}, "type": "Feature", "properties": {"collection_times": [{"days": "Mon-Fri", "time": "4:30pm"}, {"days": "Sat", "time": "8:00am"}, {"days": "Sun", "time": "Closed"}], "id": "5903700004", "name": "USPS COLLECTION BOX - PO LOBBY", "address": {"city": "HUNTLEY", "state": "MT", "street": "155 NORTHERN AVE", "postcode": "59037"}}},
{"geometry": {"type": "Point", "coordinates": [-107.2337652425, 46.2928992047]}, "type": "Feature", "properties": {"collection_times": [{"days": "Mon-Fri", "time": "4:00pm"}, {"days": "Sat", "time": "2:00pm"}, {"days": "Sun", "time": "Closed"}], "id": "5903800000", "name": "USPS COLLECTION BOX - BLUE BOX", "address": {"city": "HYSHAM", "state": "MT", "street": "118 SPURLING ST", "postcode": "59038"}}},
{"geometry": {"type": "Point", "coordinates": [-107.2337652425, 46.2928992047]}, "type": "Feature", "properties": {"collection_times": [{"days": "Mon-Fri", "time": "4:00pm"}, {"days": "Sat", "time": "9:30am"}, {"days": "Sun", "time": "Closed"}], "id": "5903800001", "name": "USPS COLLECTION BOX - PO LOBBY", "address": {"city": "HYSHAM", "state": "MT", "street": "118 SPURLING ST", "postcode": "59038"}}},
{"geometry": {"type": "Point", "coordinates": [-107.2337652425, 46.2928992047]}, "type": "Feature", "properties": {"collection_times": [{"days": "Mon-Fri", "time": "4:00pm"}, {"days": "Sat", "time": "9:30am"}, {"days": "Sun", "time": "Closed"}], "id": "5903800002", "name": "USPS COLLECTION BOX - PO LOBBY", "address": {"city": "HYSHAM", "state": "MT", "street": "118 SPURLING ST", "postcode": "59038"}}},
{"geometry": {"type": "Point", "coordinates": [-107.2337652425, 46.2928992047]}, "type": "Feature", "properties": {"collection_times": [{"days": "Mon-Fri", "time": "4:00pm"}, {"days": "Sat", "time": "9:30am"}, {"days": "Sun", "time": "Closed"}], "id": "5903800003", "name": "USPS COLLECTION BOX - PO LOBBY", "address": {"city": "HYSHAM", "state": "MT", "street": "118 SPURLING ST", "postcode": "59038"}}},
{"geometry": {"type": "Point", "coordinates": [-107.2337652425, 46.2928992047]}, "type": "Feature", "properties": {"collection_times": [{"days": "Mon-Fri", "time": "4:00pm"}, {"days": "Sat", "time": "9:30am"}, {"days": "Sun", "time": "Closed"}], "id": "5903800004", "name": "USPS COLLECTION BOX - PO LOBBY", "address": {"city": "HYSHAM", "state": "MT", "street": "118 SPURLING ST", "postcode": "59038"}}},
{"geometry": {"type": "Point", "coordinates": [-108.9690434601, 45.4859047392]}, "type": "Feature", "properties": {"collection_times": [{"days": "Mon-Fri", "time": "4:30pm"}, {"days": "Sat", "time": "9:00am"}, {"days": "Sun", "time": "Closed"}], "id": "5904100000", "name": "USPS COLLECTION BOX - BLUE BOX", "address": {"city": "JOLIET", "state": "MT", "street": "120 E FRONT AVE", "postcode": "59041"}}},
{"geometry": {"type": "Point", "coordinates": [-108.9690434601, 45.4859047392]}, "type": "Feature", "properties": {"collection_times": [{"days": "Mon-Fri", "time": "4:30pm"}, {"days": "Sat", "time": "9:00am"}, {"days": "Sun", "time": "Closed"}], "id": "5904100001", "name": "USPS COLLECTION BOX - PO LOBBY", "address": {"city": "JOLIET", "state": "MT", "street": "120 E FRONT AVE", "postcode": "59041"}}},
{"geometry": {"type": "Point", "coordinates": [-108.9690434601, 45.4859047392]}, "type": "Feature", "properties": {"collection_times": [{"days": "Mon-Fri", "time": "4:30pm"}, {"days": "Sat", "time": "9:00am"}, {"days": "Sun", "time": "Closed"}], "id": "5904100002", "name": "USPS COLLECTION BOX - PO LOBBY", "address": {"city": "JOLIET", "state": "MT", "street": "120 E FRONT AVE", "postcode": "59041"}}},
{"geometry": {"type": "Point", "coordinates": [-108.9690434601, 45.4859047392]}, "type": "Feature", "properties": {"collection_times": [{"days": "Mon-Fri", "time": "4:30pm"}, {"days": "Sat", "time": "9:00am"}, {"days": "Sun", "time": "Closed"}], "id": "5904100003", "name": "USPS COLLECTION BOX - PO LOBBY", "address": {"city": "JOLIET", "state": "MT", "street": "120 E FRONT AVE", "postcode": "59041"}}},
{"geometry": {"type": "Point", "coordinates": [-108.9690434601, 45.4859047392]}, "type": "Feature", "properties": {"collection_times": [{"days": "Mon-Fri", "time": "4:30pm"}, {"days": "Sat", "time": "9:00am"}, {"days": "Sun", "time": "Closed"}], "id": "5904100004", "name": "USPS COLLECTION BOX - PO LOBBY", "address": {"city": "JOLIET", "state": "MT", "street": "120 E FRONT AVE", "postcode": "59041"}}},
{"geometry": {"type": "Point", "coordinates": [-106.5089385385, 45.5654376409]}, "type": "Feature", "properties": {"collection_times": [{"days": "Mon-Fri", "time": "4:00pm"}, {"days": "Sat", "time": "11:15am"}, {"days": "Sun", "time": "Closed"}], "id": "5904300000", "name": "USPS COLLECTION BOX - BLUE BOX", "address": {"city": "LAME DEER", "state": "MT", "street": "346 LAME DEER RD", "postcode": "59043"}}},
{"geometry": {"type": "Point", "coordinates": [-106.5089385385, 45.5654376409]}, "type": "Feature", "properties": {"collection_times": [{"days": "Mon-Fri", "time": "4:00pm"}, {"days": "Sat", "time": "11:15am"}, {"days": "Sun", "time": "Closed"}], "id": "5904300001", "name": "USPS COLLECTION BOX - PO LOBBY", "address": {"city": "LAME DEER", "state": "MT", "street": "346 LAME DEER RD", "postcode": "59043"}}},
{"geometry": {"type": "Point", "coordinates": [-106.5089385385, 45.5654376409]}, "type": "Feature", "properties": {"collection_times": [{"days": "Mon-Fri", "time": "4:00pm"}, {"days": "Sat", "time": "11:15am"}, {"days": "Sun", "time": "Closed"}], "id": "5904300002", "name": "USPS COLLECTION BOX - PO LOBBY", "address": {"city": "LAME DEER", "state": "MT", "street": "346 LAME DEER RD", "postcode": "59043"}}},
{"geometry": {"type": "Point", "coordinates": [-106.5089385385, 45.5654376409]}, "type": "Feature", "properties": {"collection_times": [{"days": "Mon-Fri", "time": "4:00pm"}, {"days": "Sat", "time": "11:15am"}, {"days": "Sun", "time": "Closed"}], "id": "5904300003", "name": "USPS COLLECTION BOX - PO LOBBY", "address": {"city": "LAME DEER", "state": "MT", "street": "346 LAME DEER RD", "postcode": "59043"}}},
{"geometry": {"type": "Point", "coordinates": [-106.5089385385, 45.5654376409]}, "type": "Feature", "properties": {"collection_times": [{"days": "Mon-Fri", "time": "4:00pm"}, {"days": "Sat", "time": "11:15am"}, {"days": "Sun", "time": "Closed"}], "id": "5904300004", "name": "USPS COLLECTION BOX - PO LOBBY", "address": {"city": "LAME DEER", "state": "MT", "street": "346 LAME DEER RD", "postcode": "59043"}}},
{"geometry": {"type": "Point", "coordinates": [-108.7714496133, 45.6746925713]}, "type": "Feature", "properties": {"collection_times": [{"days": "Mon-Fri", "time": "5:00pm"}, {"days": "Sat", "time": "3:00pm"}, {"days": "Sun", "time": "Closed"}], "id": "5904400000", "name": "USPS COLLECTION BOX - BLUE BOX", "address": {"city": "LAUREL", "state": "MT", "street": "614 1ST AVE", "postcode": "59044"}}},
{"geometry": {"type": "Point", "coordinates": [-108.7714496133, 45.6746925713]}, "type": "Feature", "properties": {"collection_times": [{"days": "Mon-Fri", "time": "5:00pm"}, {"days": "Sat", "time": "3:00pm"}, {"days": "Sun", "time": "Closed"}], "id": "5904400001", "name": "USPS COLLECTION BOX - PO LOBBY", "address": {"city": "LAUREL", "state": "MT", "street": "614 1ST AVE", "postcode": "59044"}}},
{"geometry": {"type": "Point", "coordinates": [-108.7713694074, 45.6677782322]}, "type": "Feature", "properties": {"collection_times": [{"days": "Mon-Sat", "time": "12:00pm"}, {"days": "Sun", "time": "Closed"}], "id": "5904400004", "name": "USPS COLLECTION BOX - BLUE BOX", "address": {"city": "LAUREL", "state": "MT", "street": "205 S 1ST AVE", "postcode": "59044"}}},
{"geometry": {"type": "Point", "coordinates": [-108.7719467065, 45.6702730333]}, "type": "Feature", "properties": {"collection_times": [{"days": "Mon-Sat", "time": "2:00pm"}, {"days": "Sun", "time": "Closed"}], "id": "5904400009", "name": "USPS COLLECTION BOX - BLUE BOX", "address": {"city": "LAUREL", "state": "MT", "street": "112 W 1ST ST", "postcode": "59044"}}},
{"geometry": {"type": "Point", "coordinates": [-108.7714496133, 45.6746925713]}, "type": "Feature", "properties": {"collection_times": [{"days": "Mon-Fri", "time": "5:00pm"}, {"days": "Sat", "time": "3:00pm"}, {"days": "Sun", "time": "Closed"}], "id": "5904400011", "name": "USPS COLLECTION BOX - BLUE BOX", "address": {"city": "LAUREL", "state": "MT", "street": "614 1ST AVE", "postcode": "59044"}}},
{"geometry": {"type": "Point", "coordinates": [-108.7714496133, 45.6746925713]}, "type": "Feature", "properties": {"collection_times": [{"days": "Mon-Fri", "time": "5:00pm"}, {"days": "Sat", "time": "3:00pm"}, {"days": "Sun", "time": "Closed"}], "id": "5904400012", "name": "USPS COLLECTION BOX - PO LOBBY", "address": {"city": "LAUREL", "state": "MT", "street": "614 1ST AVE", "postcode": "59044"}}},
{"geometry": {"type": "Point", "coordinates": [-108.7714496133, 45.6746925713]}, "type": "Feature", "properties": {"collection_times": [{"days": "Mon-Fri", "time": "5:00pm"}, {"days": "Sat", "time": "3:00pm"}, {"days": "Sun", "time": "Closed"}], "id": "5904400013", "name": "USPS COLLECTION BOX - PO LOBBY", "address": {"city": "LAUREL", "state": "MT", "street": "614 1ST AVE", "postcode": "59044"}}},
{"geometry": {"type": "Point", "coordinates": [-108.7714496133, 45.6746925713]}, "type": "Feature", "properties": {"collection_times": [{"days": "Mon-Fri", "time": "5:00pm"}, {"days": "Sat", "time": "3:00pm"}, {"days": "Sun", "time": "Closed"}], "id": "5904400014", "name": "USPS COLLECTION BOX - PO LOBBY", "address": {"city": "LAUREL", "state": "MT", "street": "614 1ST AVE", "postcode": "59044"}}},
{"geometry": {"type": "Point", "coordinates": [-108.9378996919, 46.295570943]}, "type": "Feature", "properties": {"collection_times": [{"days": "Mon-Fri", "time": "5:45pm"}, {"days": "Sat", "time": "1:15pm"}, {"days": "Sun", "time": "Closed"}], "id": "5904600001", "name": "USPS COLLECTION BOX - BLUE BOX", "address": {"city": "LAVINA", "state": "MT", "street": "2 MAIN ST", "postcode": "59046"}}},
{"geometry": {"type": "Point", "coordinates": [-108.9378996919, 46.295570943]}, "type": "Feature", "properties": {"collection_times": [{"days": "Mon-Fri", "time": "2:30pm"}, {"days": "Sat", "time": "9:15am"}, {"days": "Sun", "time": "Closed"}], "id": "5904600002", "name": "USPS COLLECTION BOX - PO LOBBY", "address": {"city": "LAVINA", "state": "MT", "street": "2 MAIN ST", "postcode": "59046"}}},
{"geometry": {"type": "Point", "coordinates": [-108.9378996919, 46.295570943]}, "type": "Feature", "properties": {"collection_times": [{"days": "Mon-Fri", "time": "2:30pm"}, {"days": "Sat", "time": "9:15am"}, {"days": "Sun", "time": "Closed"}], "id": "5904600003", "name": "USPS COLLECTION BOX - PO LOBBY", "address": {"city": "LAVINA", "state": "MT", "street": "2 MAIN ST", "postcode": "59046"}}},
{"geometry": {"type": "Point", "coordinates": [-108.9378996919, 46.295570943]}, "type": "Feature", "properties": {"collection_times": [{"days": "Mon-Fri", "time": "2:30pm"}, {"days": "Sat", "time": "9:15am"}, {"days": "Sun", "time": "Closed"}], "id": "5904600004", "name": "USPS COLLECTION BOX - PO LOBBY", "address": {"city": "LAVINA", "state": "MT", "street": "2 MAIN ST", "postcode": "59046"}}},
{"geometry": {"type": "Point", "coordinates": [-108.9378996919, 46.295570943]}, "type": "Feature", "properties": {"collection_times": [{"days": "Mon-Fri", "time": "2:30pm"}, {"days": "Sat", "time": "9:15am"}, {"days": "Sun", "time": "Closed"}], "id": "5904600005", "name": "USPS COLLECTION BOX - PO LOBBY", "address": {"city": "LAVINA", "state": "MT", "street": "2 MAIN ST", "postcode": "59046"}}},
{"geometry": {"type": "Point", "coordinates": [-110.5612982847, 45.6608258337]}, "type": "Feature", "properties": {"collection_times": [{"days": "Mon-Fri", "time": "5:00pm"}, {"days": "Sat", "time": "12:30pm"}, {"days": "Sun", "time": "Closed"}], "id": "5904700002", "name": "USPS COLLECTION BOX - BLUE BOX", "address": {"city": "LIVINGSTON", "state": "MT", "street": "105 N 2ND ST", "postcode": "59047"}}},
{"geometry": {"type": "Point", "coordinates": [-110.5612982847, 45.6608258337]}, "type": "Feature", "properties": {"collection_times": [{"days": "Mon-Fri", "time": "5:00pm"}, {"days": "Sat", "time": "12:30pm"}, {"days": "Sun", "time": "Closed"}], "id": "5904700004", "name": "USPS COLLECTION BOX - BLUE BOX", "address": {"city": "LIVINGSTON", "state": "MT", "street": "105 N 2ND ST", "postcode": "59047"}}},
{"geometry": {"type": "Point", "coordinates": [-110.5715067071, 45.6529959072]}, "type": "Feature", "properties": {"collection_times": [{"days": "Mon-Sat", "time": "10:00am"}, {"days": "Sun", "time": "Closed"}], "id": "5904700007", "name": "USPS COLLECTION BOX - BLUE BOX", "address": {"city": "LIVINGSTON", "state": "MT", "street": "1217 W PARK ST", "postcode": "59047"}}},
{"geometry": {"type": "Point", "coordinates": [-110.5574464404, 45.6591682818]}, "type": "Feature", "properties": {"collection_times": [{"days": "Mon-Sat", "time": "9:00am"}, {"days": "Sun", "time": "Closed"}], "id": "5904700014", "name": "USPS COLLECTION BOX - BLUE BOX", "address": {"city": "LIVINGSTON", "state": "MT", "street": "325 S MAIN ST", "postcode": "59047"}}},
{"geometry": {"type": "Point", "coordinates": [-110.5612982847, 45.6608258337]}, "type": "Feature", "properties": {"collection_times": [{"days": "Mon-Fri", "time": "5:00pm"}, {"days": "Sat", "time": "12:30pm"}, {"days": "Sun", "time": "Closed"}], "id": "5904700015", "name": "USPS COLLECTION BOX - BLUE BOX", "address": {"city": "LIVINGSTON", "state": "MT", "street": "105 N 2ND ST", "postcode": "59047"}}},
{"geometry": {"type": "Point", "coordinates": [-110.5612982847, 45.6608258337]}, "type": "Feature", "properties": {"collection_times": [{"days": "Mon-Fri", "time": "5:00pm"}, {"days": "Sat", "time": "12:30pm"}, {"days": "Sun", "time": "Closed"}], "id": "5904700016", "name": "USPS COLLECTION BOX - BLUE BOX", "address": {"city": "LIVINGSTON", "state": "MT", "street": "105 N 2ND ST", "postcode": "59047"}}},
{"geometry": {"type": "Point", "coordinates": [-110.5763686611, 45.6563087711]}, "type": "Feature", "properties": {"collection_times": [{"days": "Mon-Fri", "time": "5:20pm"}, {"days": "Sat", "time": "4:00pm"}, {"days": "Sun", "time": "Closed"}], "id": "5904700019", "name": "USPS COLLECTION BOX - BLUE BOX", "address": {"city": "LIVINGSTON", "state": "MT", "street": "230 JEFFERSON ST", "postcode": "59047"}}},
{"geometry": {"type": "Point", "coordinates": [-110.5612982847, 45.6608258337]}, "type": "Feature", "properties": {"collection_times": [{"days": "Mon-Fri", "time": "5:00pm"}, {"days": "Sat", "time": "12:30pm"}, {"days": "Sun", "time": "Closed"}], "id": "5904700022", "name": "USPS COLLECTION BOX - PO LOBBY", "address": {"city": "LIVINGSTON", "state": "MT", "street": "105 N 2ND ST", "postcode": "59047"}}},
{"geometry": {"type": "Point", "coordinates": [-110.5742061479, 45.6419838558]}, "type": "Feature", "properties": {"collection_times": [{"days": "Mon-Sat", "time": "8:30am"}, {"days": "Sun", "time": "Closed"}], "id": "5904700023", "name": "USPS COLLECTION BOX - BLUE BOX", "address": {"city": "LIVINGSTON", "state": "MT", "street": "2120 PARK ST S", "postcode": "59047"}}},
{"geometry": {"type": "Point", "coordinates": [-110.5612982847, 45.6608258337]}, "type": "Feature", "properties": {"collection_times": [{"days": "Mon-Fri", "time": "5:00pm"}, {"days": "Sat", "time": "12:30pm"}, {"days": "Sun", "time": "Closed"}], "id": "5904700024", "name": "USPS COLLECTION BOX - BLUE BOX", "address": {"city": "LIVINGSTON", "state": "MT", "street": "105 N 2ND ST", "postcode": "59047"}}},
{"geometry": {"type": "Point", "coordinates": [-110.5612982847, 45.6608258337]}, "type": "Feature", "properties": {"collection_times": [{"days": "Mon-Fri", "time": "5:00pm"}, {"days": "Sat", "time": "12:30pm"}, {"days": "Sun", "time": "Closed"}], "id": "5904700025", "name": "USPS COLLECTION BOX - PO LOBBY", "address": {"city": "LIVINGSTON", "state": "MT", "street": "105 N 2ND ST", "postcode": "59047"}}},
{"geometry": {"type": "Point", "coordinates": [-110.5612982847, 45.6608258337]}, "type": "Feature", "properties": {"collection_times": [{"days": "Mon-Fri", "time": "5:00pm"}, {"days": "Sat", "time": "12:30pm"}, {"days": "Sun", "time": "Closed"}], "id": "5904700026", "name": "USPS COLLECTION BOX - PO LOBBY", "address": {"city": "LIVINGSTON", "state": "MT", "street": "105 N 2ND ST", "postcode": "59047"}}},
{"geometry": {"type": "Point", "coordinates": [-110.5709456742, 45.6545682407]}, "type": "Feature", "properties": {"collection_times": [{"days": "Mon-Fri", "time": "3:00pm"}, {"days": "Sat", "time": "2:00pm"}, {"days": "Sun", "time": "Closed"}], "id": "5904700027", "name": "USPS COLLECTION BOX - BLUE BOX", "address": {"city": "LIVINGSTON", "state": "MT", "street": "1106 W PARK ST", "postcode": "59047"}}},
{"geometry": {"type": "Point", "coordinates": [-110.5612982847, 45.6608258337]}, "type": "Feature", "properties": {"collection_times": [{"days": "Mon-Fri", "time": "5:00pm"}, {"days": "Sat", "time": "12:30pm"}, {"days": "Sun", "time": "Closed"}], "id": "5904700028", "name": "USPS COLLECTION BOX - PO LOBBY", "address": {"city": "LIVINGSTON", "state": "MT", "street": "105 N 2ND ST", "postcode": "59047"}}},
{"geometry": {"type": "Point", "coordinates": [-110.5612982847, 45.6608258337]}, "type": "Feature", "properties": {"collection_times": [{"days": "Mon-Fri", "time": "5:00pm"}, {"days": "Sat", "time": "12:30pm"}, {"days": "Sun", "time": "Closed"}], "id": "5904700029", "name": "USPS COLLECTION BOX - PO LOBBY", "address": {"city": "LIVINGSTON", "state": "MT", "street": "105 N 2ND ST", "postcode": "59047"}}},
{"geometry": {"type": "Point", "coordinates": [-110.5612982847, 45.6608258337]}, "type": "Feature", "properties": {"collection_times": [{"days": "Mon-Fri", "time": "5:00pm"}, {"days": "Sat", "time": "12:30pm"}, {"days": "Sun", "time": "Closed"}], "id": "5904700030", "name": "USPS COLLECTION BOX - PO LOBBY", "address": {"city": "LIVINGSTON", "state": "MT", "street": "105 N 2ND ST", "postcode": "59047"}}},
{"geometry": {"type": "Point", "coordinates": [-107.8180643829, 45.2938482766]}, "type": "Feature", "properties": {"collection_times": [{"days": "Mon-Fri", "time": "2:30pm"}, {"days": "Sat", "time": "9:30am"}, {"days": "Sun", "time": "Closed"}], "id": "5905000000", "name": "USPS COLLECTION BOX - PO LOBBY", "address": {"city": "LODGE GRASS", "state": "MT", "street": "14 S MAIN ST", "postcode": "59050"}}},
{"geometry": {"type": "Point", "coordinates": [-107.8180643829, 45.2938482766]}, "type": "Feature", "properties": {"collection_times": [{"days": "Mon-Fri", "time": "4:30pm"}, {"days": "Sat", "time": "9:30am"}, {"days": "Sun", "time": "Closed"}], "id": "5905000001", "name": "USPS COLLECTION BOX - BLUE BOX", "address": {"city": "LODGE GRASS", "state": "MT", "street": "14 S MAIN ST", "postcode": "59050"}}},
{"geometry": {"type": "Point", "coordinates": [-110.0376459864, 45.4982054685]}, "type": "Feature", "properties": {"collection_times": [{"days": "Mon-Sat", "time": "10:00am"}, {"days": "Sun", "time": "Closed"}], "id": "5905200000", "name": "USPS COLLECTION BOX - BLUE BOX", "address": {"city": "MCLEOD", "state": "MT", "street": "18 MCLEOD MAIN ST", "postcode": "59052"}}},
{"geometry": {"type": "Point", "coordinates": [-110.0376459864, 45.4982054685]}, "type": "Feature", "properties": {"collection_times": [{"days": "Mon-Sat", "time": "10:30am"}, {"days": "Sun", "time": "Closed"}], "id": "5905200001", "name": "USPS COLLECTION BOX - PO LOBBY", "address": {"city": "MCLEOD", "state": "MT", "street": "18 MCLEOD MAIN ST", "postcode": "59052"}}},
{"geometry": {"type": "Point", "coordinates": [-110.3148956261, 46.4572107941]}, "type": "Feature", "properties": {"collection_times": [{"days": "Mon-Fri", "time": "3:15pm"}, {"days": "Sat", "time": "10:15am"}, {"days": "Sun", "time": "Closed"}], "id": "5905300000", "name": "USPS COLLECTION BOX - BLUE BOX", "address": {"city": "MARTINSDALE", "state": "MT", "street": "202 MAIN ST", "postcode": "59053"}}},
{"geometry": {"type": "Point", "coordinates": [-110.3148956261, 46.4572107941]}, "type": "Feature", "properties": {"collection_times": [{"days": "Mon-Fri", "time": "3:15pm"}, {"days": "Sat", "time": "10:15am"}, {"days": "Sun", "time": "Closed"}], "id": "5905300002", "name": "USPS COLLECTION BOX - PO LOBBY", "address": {"city": "MARTINSDALE", "state": "MT", "street": "202 MAIN ST", "postcode": "59053"}}},
{"geometry": {"type": "Point", "coordinates": [-110.3148956261, 46.4572107941]}, "type": "Feature", "properties": {"collection_times": [{"days": "Mon-Fri", "time": "3:15pm"}, {"days": "Sat", "time": "10:15am"}, {"days": "Sun", "time": "Closed"}], "id": "5905300003", "name": "USPS COLLECTION BOX - PO LOBBY", "address": {"city": "MARTINSDALE", "state": "MT", "street": "202 MAIN ST", "postcode": "59053"}}},
{"geometry": {"type": "Point", "coordinates": [-107.86903642, 46.597547706]}, "type": "Feature", "properties": {"collection_times": [{"days": "Mon-Fri", "time": "4:00pm"}, {"days": "Sat", "time": "9:00am"}, {"days": "Sun", "time": "Closed"}], "id": "5905400000", "name": "USPS COLLECTION BOX - BLUE BOX", "address": {"city": "MELSTONE", "state": "MT", "street": "310 1ST ST W", "postcode": "59054"}}},
{"geometry": {"type": "Point", "coordinates": [-107.86903642, 46.597547706]}, "type": "Feature", "properties": {"collection_times": [{"days": "Mon-Fri", "time": "3:00pm"}, {"days": "Sat", "time": "9:00am"}, {"days": "Sun", "time": "Closed"}], "id": "5905400001", "name": "USPS COLLECTION BOX - PO LOBBY", "address": {"city": "MELSTONE", "state": "MT", "street": "310 1ST ST W", "postcode": "59054"}}},
{"geometry": {"type": "Point", "coordinates": [-107.86903642, 46.597547706]}, "type": "Feature", "properties": {"collection_times": [{"days": "Mon-Fri", "time": "3:00pm"}, {"days": "Sat", "time": "9:00am"}, {"days": "Sun", "time": "Closed"}], "id": "5905400002", "name": "USPS COLLECTION BOX - PO LOBBY", "address": {"city": "MELSTONE", "state": "MT", "street": "310 1ST ST W", "postcode": "59054"}}},
{"geometry": {"type": "Point", "coordinates": [-109.6926140296, 46.0562599846]}, "type": "Feature", "properties": {"collection_times": [{"days": "Mon-Sat", "time": "11:15am"}, {"days": "Sun", "time": "Closed"}], "id": "5905500001", "name": "USPS COLLECTION BOX - PO LOBBY", "address": {"city": "MELVILLE", "state": "MT", "street": "371 HIGHWAY 191 W", "postcode": "59055"}}},
{"geometry": {"type": "Point", "coordinates": [-109.6926140296, 46.0562599846]}, "type": "Feature", "properties": {"collection_times": [{"days": "Mon-Sat", "time": "11:15am"}, {"days": "Sun", "time": "Closed"}], "id": "5905500002", "name": "USPS COLLECTION BOX - BLUE BOX", "address": {"city": "MELVILLE", "state": "MT", "street": "371 HIGHWAY 191 W", "postcode": "59055"}}},
{"geometry": {"type": "Point", "coordinates": [-108.9280774781, 45.8601184564]}, "type": "Feature", "properties": {"collection_times": [{"days": "Mon-Fri", "time": "4:00pm"}, {"days": "Sat", "time": "12:30pm"}, {"days": "Sun", "time": "Closed"}], "id": "5905700000", "name": "USPS COLLECTION BOX - BLUE BOX", "address": {"city": "MOLT", "state": "MT", "street": "118 WOLFSKILL AVE", "postcode": "59057"}}},
{"geometry": {"type": "Point", "coordinates": [-108.9280774781, 45.8601184564]}, "type": "Feature", "properties": {"collection_times": [{"days": "Mon-Fri", "time": "2:00pm"}, {"days": "Sat", "time": "10:30am"}, {"days": "Sun", "time": "Closed"}], "id": "5905700001", "name": "USPS COLLECTION BOX - PO LOBBY", "address": {"city": "MOLT", "state": "MT", "street": "118 WOLFSKILL AVE", "postcode": "59057"}}},
{"geometry": {"type": "Point", "coordinates": [-108.9280774781, 45.8601184564]}, "type": "Feature", "properties": {"collection_times": [{"days": "Mon-Fri", "time": "2:00pm"}, {"days": "Sat", "time": "10:30am"}, {"days": "Sun", "time": "Closed"}], "id": "5905700002", "name": "USPS COLLECTION BOX - PO LOBBY", "address": {"city": "MOLT", "state": "MT", "street": "118 WOLFSKILL AVE", "postcode": "59057"}}},
{"geometry": {"type": "Point", "coordinates": [-108.0926380309, 46.5261649988]}, "type": "Feature", "properties": {"collection_times": [{"days": "Mon-Fri", "time": "12:00pm"}, {"days": "Sat", "time": "11:00am"}, {"days": "Sun", "time": "Closed"}], "id": "5905900001", "name": "USPS COLLECTION BOX - PO LOBBY", "address": {"city": "MUSSELSHELL", "state": "MT", "street": "17 S MUSSELSHELL RD", "postcode": "59059"}}},
{"geometry": {"type": "Point", "coordinates": [-105.9849036243, 45.3952099214]}, "type": "Feature", "properties": {"collection_times": [{"days": "Mon-Sat", "time": "10:45am"}, {"days": "Sun", "time": "Closed"}], "id": "5906200000", "name": "USPS COLLECTION BOX - BLUE BOX", "address": {"city": "OTTER", "state": "MT", "street": "268 OTTER CREEK RD", "postcode": "59062"}}},
{"geometry": {"type": "Point", "coordinates": [-105.9849036243, 45.3952099214]}, "type": "Feature", "properties": {"collection_times": [{"days": "Mon-Sat", "time": "10:45am"}, {"days": "Sun", "time": "Closed"}], "id": "5906200001", "name": "USPS COLLECTION BOX - PO LOBBY", "address": {"city": "OTTER", "state": "MT", "street": "268 OTTER CREEK RD", "postcode": "59062"}}},
{"geometry": {"type": "Point", "coordinates": [-108.916063646, 45.6314608192]}, "type": "Feature", "properties": {"collection_times": [{"days": "Mon-Fri", "time": "4:30pm"}, {"days": "Sat", "time": "9:00am"}, {"days": "Sun", "time": "Closed"}], "id": "5906300001", "name": "USPS COLLECTION BOX - PO LOBBY", "address": {"city": "PARK CITY", "state": "MT", "street": "6 1ST AVE SW", "postcode": "59063"}}},
{"geometry": {"type": "Point", "coordinates": [-108.916063646, 45.6314608192]}, "type": "Feature", "properties": {"collection_times": [{"days": "Mon-Fri", "time": "4:30pm"}, {"days": "Sat", "time": "9:00am"}, {"days": "Sun", "time": "Closed"}], "id": "5906300002", "name": "USPS COLLECTION BOX - PO LOBBY", "address": {"city": "PARK CITY", "state": "MT", "street": "6 1ST AVE SW", "postcode": "59063"}}},
{"geometry": {"type": "Point", "coordinates": [-107.9353356319, 45.9964849481]}, "type": "Feature", "properties": {"collection_times": [{"days": "Mon-Fri", "time": "4:50pm"}, {"days": "Sat", "time": "3:00pm"}, {"days": "Sun", "time": "Closed"}], "id": "5906400000", "name": "USPS COLLECTION BOX - BLUE BOX", "address": {"city": "POMPEYS PILLAR", "state": "MT", "street": "3519 2ND ST S", "postcode": "59064"}}},
{"geometry": {"type": "Point", "coordinates": [-107.9353356319, 45.9964849481]}, "type": "Feature", "properties": {"collection_times": [{"days": "Mon-Fri", "time": "11:00am"}, {"days": "Sat", "time": "9:45am"}, {"days": "Sun", "time": "Closed"}], "id": "5906400001", "name": "USPS COLLECTION BOX - PO LOBBY", "address": {"city": "POMPEYS PILLAR", "state": "MT", "street": "3519 2ND ST S", "postcode": "59064"}}},
{"geometry": {"type": "Point", "coordinates": [-110.6625896408, 45.2764152445]}, "type": "Feature", "properties": {"collection_times": [{"days": "Mon-Fri", "time": "4:00pm"}, {"days": "Sat", "time": "9:20am"}, {"days": "Sun", "time": "Closed"}], "id": "5906500000", "name": "USPS COLLECTION BOX - BLUE BOX", "address": {"city": "PRAY", "state": "MT", "street": "8 PRAY RD", "postcode": "59065"}}},
{"geometry": {"type": "Point", "coordinates": [-110.6625896408, 45.2764152445]}, "type": "Feature", "properties": {"collection_times": [{"days": "Mon-Fri", "time": "12:00pm"}, {"days": "Sat", "time": "9:20am"}, {"days": "Sun", "time": "Closed"}], "id": "5906500001", "name": "USPS COLLECTION BOX - PO LOBBY", "address": {"city": "PRAY", "state": "MT", "street": "8 PRAY RD", "postcode": "59065"}}},
{"geometry": {"type": "Point", "coordinates": [-110.6625896408, 45.2764152445]}, "type": "Feature", "properties": {"collection_times": [{"days": "Mon-Fri", "time": "12:00pm"}, {"days": "Sat", "time": "9:20am"}, {"days": "Sun", "time": "Closed"}], "id": "5906500002", "name": "USPS COLLECTION BOX - PO LOBBY", "address": {"city": "PRAY", "state": "MT", "street": "8 PRAY RD", "postcode": "59065"}}},
{"geometry": {"type": "Point", "coordinates": [-108.5339837432, 45.4280130051]}, "type": "Feature", "properties": {"collection_times": [{"days": "Mon-Fri", "time": "4:15pm"}, {"days": "Sat", "time": "10:15am"}, {"days": "Sun", "time": "Closed"}], "id": "5906600000", "name": "USPS COLLECTION BOX - BLUE BOX", "address": {"city": "PRYOR", "state": "MT", "street": "130 MAKPUA ST", "postcode": "59066"}}},
{"geometry": {"type": "Point", "coordinates": [-108.5339837432, 45.4280130051]}, "type": "Feature", "properties": {"collection_times": [{"days": "Mon-Fri", "time": "12:00pm"}, {"days": "Sat", "time": "10:15am"}, {"days": "Sun", "time": "Closed"}], "id": "5906600001", "name": "USPS COLLECTION BOX - PO LOBBY", "address": {"city": "PRYOR", "state": "MT", "street": "130 MAKPUA ST", "postcode": "59066"}}},
{"geometry": {"type": "Point", "coordinates": [-108.5339837432, 45.4280130051]}, "type": "Feature", "properties": {"collection_times": [{"days": "Mon-Fri", "time": "12:00pm"}, {"days": "Sat", "time": "10:15am"}, {"days": "Sun", "time": "Closed"}], "id": "5906600002", "name": "USPS COLLECTION BOX - PO LOBBY", "address": {"city": "PRYOR", "state": "MT", "street": "130 MAKPUA ST", "postcode": "59066"}}},
{"geometry": {"type": "Point", "coordinates": [-109.2550170379, 45.9728869704]}, "type": "Feature", "properties": {"collection_times": [{"days": "Mon-Fri", "time": "1:30pm"}, {"days": "Sat", "time": "11:00am"}, {"days": "Sun", "time": "Closed"}], "id": "5906700000", "name": "USPS COLLECTION BOX - BLUE BOX", "address": {"city": "RAPELJE", "state": "MT", "street": "219 4TH ST", "postcode": "59067"}}},
{"geometry": {"type": "Point", "coordinates": [-109.2550170379, 45.9728869704]}, "type": "Feature", "properties": {"collection_times": [{"days": "Mon-Fri", "time": "1:30pm"}, {"days": "Sat", "time": "11:00am"}, {"days": "Sun", "time": "Closed"}], "id": "5906700001", "name": "USPS COLLECTION BOX - PO LOBBY", "address": {"city": "RAPELJE", "state": "MT", "street": "219 4TH ST", "postcode": "59067"}}},
{"geometry": {"type": "Point", "coordinates": [-109.2482106469, 45.1854734282]}, "type": "Feature", "properties": {"collection_times": [{"days": "Mon-Fri", "time": "4:15pm"}, {"days": "Sat", "time": "2:00pm"}, {"days": "Sun", "time": "Closed"}], "id": "5906800000", "name": "USPS COLLECTION BOX - BLUE BOX", "address": {"city": "RED LODGE", "state": "MT", "street": "119 S HAUSER AVE", "postcode": "59068"}}},
{"geometry": {"type": "Point", "coordinates": [-109.2482106469, 45.1854734282]}, "type": "Feature", "properties": {"collection_times": [{"days": "Mon-Fri", "time": "4:15pm"}, {"days": "Sat", "time": "2:00pm"}, {"days": "Sun", "time": "Closed"}], "id": "5906800002", "name": "USPS COLLECTION BOX - BLUE BOX", "address": {"city": "RED LODGE", "state": "MT", "street": "119 S HAUSER AVE", "postcode": "59068"}}},
{"geometry": {"type": "Point", "coordinates": [-109.2482106469, 45.1854734282]}, "type": "Feature", "properties": {"collection_times": [{"days": "Mon-Fri", "time": "4:15pm"}, {"days": "Sat", "time": "2:00pm"}, {"days": "Sun", "time": "Closed"}], "id": "5906800003", "name": "USPS COLLECTION BOX - PO LOBBY", "address": {"city": "RED LODGE", "state": "MT", "street": "119 S HAUSER AVE", "postcode": "59068"}}},
{"geometry": {"type": "Point", "coordinates": [-109.2482106469, 45.1854734282]}, "type": "Feature", "properties": {"collection_times": [{"days": "Mon-Fri", "time": "4:15pm"}, {"days": "Sat", "time": "2:00pm"}, {"days": "Sun", "time": "Closed"}], "id": "5906800004", "name": "USPS COLLECTION BOX - PO LOBBY", "address": {"city": "RED LODGE", "state": "MT", "street": "119 S HAUSER AVE", "postcode": "59068"}}},
{"geometry": {"type": "Point", "coordinates": [-109.2482106469, 45.1854734282]}, "type": "Feature", "properties": {"collection_times": [{"days": "Mon-Fri", "time": "4:15pm"}, {"days": "Sat", "time": "2:00pm"}, {"days": "Sun", "time": "Closed"}], "id": "5906800005", "name": "USPS COLLECTION BOX - PO LOBBY", "address": {"city": "RED LODGE", "state": "MT", "street": "119 S HAUSER AVE", "postcode": "59068"}}},
{"geometry": {"type": "Point", "coordinates": [-109.2482106469, 45.1854734282]}, "type": "Feature", "properties": {"collection_times": [{"days": "Mon-Fri", "time": "4:15pm"}, {"days": "Sat", "time": "2:00pm"}, {"days": "Sun", "time": "Closed"}], "id": "5906800006", "name": "USPS COLLECTION BOX - PO LOBBY", "address": {"city": "RED LODGE", "state": "MT", "street": "119 S HAUSER AVE", "postcode": "59068"}}},
{"geometry": {"type": "Point", "coordinates": [-109.5418051488, 45.7065940912]}, "type": "Feature", "properties": {"collection_times": [{"days": "Mon-Fri", "time": "2:30pm"}, {"days": "Sat", "time": "9:00am"}, {"days": "Sun", "time": "Closed"}], "id": "5906900000", "name": "USPS COLLECTION BOX - PO LOBBY", "address": {"city": "REED POINT", "state": "MT", "street": "3 DIVISION ST", "postcode": "59069"}}},
{"geometry": {"type": "Point", "coordinates": [-109.5418051488, 45.7065940912]}, "type": "Feature", "properties": {"collection_times": [{"days": "Mon-Fri", "time": "2:30pm"}, {"days": "Sat", "time": "9:00am"}, {"days": "Sun", "time": "Closed"}], "id": "5906900001", "name": "USPS COLLECTION BOX - PO LOBBY", "address": {"city": "REED POINT", "state": "MT", "street": "3 DIVISION ST", "postcode": "59069"}}},
{"geometry": {"type": "Point", "coordinates": [-109.5453587321, 45.7167176974]}, "type": "Feature", "properties": {"collection_times": [{"days": "Mon-Sat", "time": "4:00pm"}, {"days": "Sun", "time": "Closed"}], "id": "5906900002", "name": "USPS COLLECTION BOX - BLUE BOX", "address": {"city": "REED POINT", "state": "MT", "street": "3 DIVISION ST", "postcode": "59069"}}},
{"geometry": {"type": "Point", "coordinates": [-109.1686886189, 45.3569037718]}, "type": "Feature", "properties": {"collection_times": [{"days": "Mon-Sat", "time": "4:00pm"}, {"days": "Sun", "time": "Closed"}], "id": "5907000000", "name": "USPS COLLECTION BOX - BLUE BOX", "address": {"city": "ROBERTS", "state": "MT", "street": "1 N 1ST ST", "postcode": "59070"}}},
{"geometry": {"type": "Point", "coordinates": [-109.1686886189, 45.3569037718]}, "type": "Feature", "properties": {"collection_times": [{"days": "Mon-Fri", "time": "2:30pm"}, {"days": "Sat", "time": "8:30am"}, {"days": "Sun", "time": "Closed"}], "id": "5907000001", "name": "USPS COLLECTION BOX - PO LOBBY", "address": {"city": "ROBERTS", "state": "MT", "street": "1 N 1ST ST", "postcode": "59070"}}},
{"geometry": {"type": "Point", "coordinates": [-109.425988093, 45.3749040615]}, "type": "Feature", "properties": {"collection_times": [{"days": "Mon-Sat", "time": "11:30am"}, {"days": "Sun", "time": "Closed"}], "id": "5907100000", "name": "USPS COLLECTION BOX - BLUE BOX", "address": {"city": "ROSCOE", "state": "MT", "street": "111 MAIN ST", "postcode": "59071"}}},
{"geometry": {"type": "Point", "coordinates": [-109.425988093, 45.3749040615]}, "type": "Feature", "properties": {"collection_times": [{"days": "Mon-Sat", "time": "11:30am"}, {"days": "Sun", "time": "Closed"}], "id": "5907100001", "name": "USPS COLLECTION BOX - PO LOBBY", "address": {"city": "ROSCOE", "state": "MT", "street": "111 MAIN ST", "postcode": "59071"}}},
{"geometry": {"type": "Point", "coordinates": [-108.5418291479, 46.44994813]}, "type": "Feature", "properties": {"collection_times": [{"days": "Mon-Fri", "time": "5:00pm"}, {"days": "Sat", "time": "3:15pm"}, {"days": "Sun", "time": "Closed"}], "id": "5907200001", "name": "USPS COLLECTION BOX - BLUE BOX", "address": {"city": "ROUNDUP", "state": "MT", "street": "908 MAIN ST", "postcode": "59072"}}},
{"geometry": {"type": "Point", "coordinates": [-108.5418291479, 46.44994813]}, "type": "Feature", "properties": {"collection_times": [{"days": "Mon-Fri", "time": "5:00pm"}, {"days": "Sat", "time": "12:00pm"}, {"days": "Sun", "time": "Closed"}], "id": "5907200003", "name": "USPS COLLECTION BOX - PO LOBBY", "address": {"city": "ROUNDUP", "state": "MT", "street": "908 MAIN ST", "postcode": "59072"}}},
{"geometry": {"type": "Point", "coordinates": [-108.5418291479, 46.44994813]}, "type": "Feature", "properties": {"collection_times": [{"days": "Mon-Fri", "time": "5:00pm"}, {"days": "Sat", "time": "12:00pm"}, {"days": "Sun", "time": "Closed"}], "id": "5907200005", "name": "USPS COLLECTION BOX - PO LOBBY", "address": {"city": "ROUNDUP", "state": "MT", "street": "908 MAIN ST", "postcode": "59072"}}},
{"geometry": {"type": "Point", "coordinates": [-109.3519168875, 46.3067358575]}, "type": "Feature", "properties": {"collection_times": [{"days": "Mon-Fri", "time": "4:45pm"}, {"days": "Sat", "time": "11:30am"}, {"days": "Sun", "time": "Closed"}], "id": "5907400000", "name": "USPS COLLECTION BOX - BLUE BOX", "address": {"city": "RYEGATE", "state": "MT", "street": "114 1ST ST N", "postcode": "59074"}}},
{"geometry": {"type": "Point", "coordinates": [-109.3519168875, 46.3067358575]}, "type": "Feature", "properties": {"collection_times": [{"days": "Mon-Fri", "time": "2:30pm"}, {"days": "Sat", "time": "9:45am"}, {"days": "Sun", "time": "Closed"}], "id": "5907400001", "name": "USPS COLLECTION BOX - PO LOBBY", "address": {"city": "RYEGATE", "state": "MT", "street": "114 1ST ST N", "postcode": "59074"}}},
{"geometry": {"type": "Point", "coordinates": [-109.3519168875, 46.3067358575]}, "type": "Feature", "properties": {"collection_times": [{"days": "Mon-Fri", "time": "2:30pm"}, {"days": "Sat", "time": "9:45am"}, {"days": "Sun", "time": "Closed"}], "id": "5907400002", "name": "USPS COLLECTION BOX - PO LOBBY", "address": {"city": "RYEGATE", "state": "MT", "street": "114 1ST ST N", "postcode": "59074"}}},
{"geometry": {"type": "Point", "coordinates": [-107.9013493796, 45.4904337741]}, "type": "Feature", "properties": {"collection_times": [{"days": "Mon-Fri", "time": "11:30am"}, {"days": "Sat", "time": "10:45am"}, {"days": "Sun", "time": "Closed"}], "id": "5907500000", "name": "USPS COLLECTION BOX - BLUE BOX", "address": {"city": "SAINT XAVIER", "state": "MT", "street": "108 FORT SMITH AVE", "postcode": "59075"}}},
{"geometry": {"type": "Point", "coordinates": [-107.9013493796, 45.4904337741]}, "type": "Feature", "properties": {"collection_times": [{"days": "Mon-Fri", "time": "11:30am"}, {"days": "Sat", "time": "10:45am"}, {"days": "Sun", "time": "Closed"}], "id": "5907500001", "name": "USPS COLLECTION BOX - PO LOBBY", "address": {"city": "SAINT XAVIER", "state": "MT", "street": "108 FORT SMITH AVE", "postcode": "59075"}}},
{"geometry": {"type": "Point", "coordinates": [-107.9013493796, 45.4904337741]}, "type": "Feature", "properties": {"collection_times": [{"days": "Mon-Fri", "time": "11:30am"}, {"days": "Sat", "time": "10:45am"}, {"days": "Sun", "time": "Closed"}], "id": "5907500002", "name": "USPS COLLECTION BOX - PO LOBBY", "address": {"city": "SAINT XAVIER", "state": "MT", "street": "108 FORT SMITH AVE", "postcode": "59075"}}},
{"geometry": {"type": "Point", "coordinates": [-107.2100877311, 47.0366782283]}, "type": "Feature", "properties": {"collection_times": [{"days": "Mon-Fri", "time": "12:45pm"}, {"days": "Sat", "time": "12:15pm"}, {"days": "Sun", "time": "Closed"}], "id": "5907700000", "name": "USPS COLLECTION BOX - PO LOBBY", "address": {"city": "SAND SPRINGS", "state": "MT", "street": "3198 HIGHWAY 200 W", "postcode": "59077"}}},
{"geometry": {"type": "Point", "coordinates": [-109.5916999325, 46.3770405623]}, "type": "Feature", "properties": {"collection_times": [{"days": "Mon-Fri", "time": "4:30pm"}, {"days": "Sat", "time": "12:15pm"}, {"days": "Sun", "time": "Closed"}], "id": "5907800000", "name": "USPS COLLECTION BOX - BLUE BOX", "address": {"city": "SHAWMUT", "state": "MT", "street": "4 W FIRST AVE", "postcode": "59078"}}},
{"geometry": {"type": "Point", "coordinates": [-109.5916999325, 46.3770405623]}, "type": "Feature", "properties": {"collection_times": [{"days": "Mon-Fri", "time": "11:00am"}, {"days": "Sat", "time": "7:45am"}, {"days": "Sun", "time": "Closed"}], "id": "5907800001", "name": "USPS COLLECTION BOX - PO LOBBY", "address": {"city": "SHAWMUT", "state": "MT", "street": "4 W FIRST AVE", "postcode": "59078"}}},
{"geometry": {"type": "Point", "coordinates": [-108.3459327359, 45.943660016]}, "type": "Feature", "properties": {"collection_times": [{"days": "Mon-Fri", "time": "4:30pm"}, {"days": "Sat", "time": "10:30am"}, {"days": "Sun", "time": "Closed"}], "id": "5907900000", "name": "USPS COLLECTION BOX - BLUE BOX", "address": {"city": "SHEPHERD", "state": "MT", "street": "5450 CAREY AVE", "postcode": "59079"}}},
{"geometry": {"type": "Point", "coordinates": [-108.3459327359, 45.943660016]}, "type": "Feature", "properties": {"collection_times": [{"days": "Mon-Fri", "time": "4:30pm"}, {"days": "Sat", "time": "10:30am"}, {"days": "Sun", "time": "Closed"}], "id": "5907900001", "name": "USPS COLLECTION BOX - PO LOBBY", "address": {"city": "SHEPHERD", "state": "MT", "street": "5450 CAREY AVE", "postcode": "59079"}}},
{"geometry": {"type": "Point", "coordinates": [-108.3459327359, 45.943660016]}, "type": "Feature", "properties": {"collection_times": [{"days": "Mon-Fri", "time": "4:30pm"}, {"days": "Sat", "time": "10:30am"}, {"days": "Sun", "time": "Closed"}], "id": "5907900002", "name": "USPS COLLECTION BOX - PO LOBBY", "address": {"city": "SHEPHERD", "state": "MT", "street": "5450 CAREY AVE", "postcode": "59079"}}},
{"geometry": {"type": "Point", "coordinates": [-107.5507436828, 46.6183864708]}, "type": "Feature", "properties": {"collection_times": [{"days": "Mon-Fri", "time": "2:30pm"}, {"days": "Sat", "time": "9:00am"}, {"days": "Sun", "time": "Closed"}], "id": "5908300001", "name": "USPS COLLECTION BOX - PO LOBBY", "address": {"city": "SUMATRA", "state": "MT", "street": "2960 SUMATRA HYSHAM RD", "postcode": "59083"}}},
{"geometry": {"type": "Point", "coordinates": [-107.5507436828, 46.6183864708]}, "type": "Feature", "properties": {"collection_times": [{"days": "Mon-Fri", "time": "2:30pm"}, {"days": "Sat", "time": "9:00am"}, {"days": "Sun", "time": "Closed"}], "id": "5908300002", "name": "USPS COLLECTION BOX - PO LOBBY", "address": {"city": "SUMATRA", "state": "MT", "street": "2960 SUMATRA HYSHAM RD", "postcode": "59083"}}},
{"geometry": {"type": "Point", "coordinates": [-110.033255761, 46.465691864]}, "type": "Feature", "properties": {"collection_times": [{"days": "Mon-Fri", "time": "3:00pm"}, {"days": "Sat", "time": "9:30am"}, {"days": "Sun", "time": "Closed"}], "id": "5908500000", "name": "USPS COLLECTION BOX - BLUE BOX", "address": {"city": "TWO DOT", "state": "MT", "street": "105 WILSON ST", "postcode": "59085"}}},
{"geometry": {"type": "Point", "coordinates": [-110.033255761, 46.465691864]}, "type": "Feature", "properties": {"collection_times": [{"days": "Mon-Fri", "time": "12:00pm"}, {"days": "Sat", "time": "9:30am"}, {"days": "Sun", "time": "Closed"}], "id": "5908500001", "name": "USPS COLLECTION BOX - PO LOBBY", "address": {"city": "TWO DOT", "state": "MT", "street": "105 WILSON ST", "postcode": "59085"}}},
{"geometry": {"type": "Point", "coordinates": [-110.6608283142, 45.9963715197]}, "type": "Feature", "properties": {"collection_times": [{"days": "Mon-Fri", "time": "2:30pm"}, {"days": "Sat", "time": "9:45am"}, {"days": "Sun", "time": "Closed"}], "id": "5908600000", "name": "USPS COLLECTION BOX - PO LOBBY", "address": {"city": "WILSALL", "state": "MT", "street": "310 ELLIOT ST N", "postcode": "59086"}}},
{"geometry": {"type": "Point", "coordinates": [-110.6608283142, 45.9963715197]}, "type": "Feature", "properties": {"collection_times": [{"days": "Mon-Fri", "time": "2:30pm"}, {"days": "Sat", "time": "9:45am"}, {"days": "Sun", "time": "Closed"}], "id": "5908600001", "name": "USPS COLLECTION BOX - PO LOBBY", "address": {"city": "WILSALL", "state": "MT", "street": "310 ELLIOT ST N", "postcode": "59086"}}},
{"geometry": {"type": "Point", "coordinates": [-110.6608283142, 45.9963715197]}, "type": "Feature", "properties": {"collection_times": [{"days": "Mon-Fri", "time": "3:30pm"}, {"days": "Sat", "time": "9:45am"}, {"days": "Sun", "time": "Closed"}], "id": "5908600002", "name": "USPS COLLECTION BOX - BLUE BOX", "address": {"city": "WILSALL", "state": "MT", "street": "310 ELLIOT ST N", "postcode": "59086"}}},
{"geometry": {"type": "Point", "coordinates": [-110.6608283142, 45.9963715197]}, "type": "Feature", "properties": {"collection_times": [{"days": "Mon-Fri", "time": "2:30pm"}, {"days": "Sat", "time": "9:45am"}, {"days": "Sun", "time": "Closed"}], "id": "5908600003", "name": "USPS COLLECTION BOX - PO LOBBY", "address": {"city": "WILSALL", "state": "MT", "street": "310 ELLIOT ST N", "postcode": "59086"}}},
{"geometry": {"type": "Point", "coordinates": [-110.6608283142, 45.9963715197]}, "type": "Feature", "properties": {"collection_times": [{"days": "Mon-Fri", "time": "2:30pm"}, {"days": "Sat", "time": "9:45am"}, {"days": "Sun", "time": "Closed"}], "id": "5908600004", "name": "USPS COLLECTION BOX - PO LOBBY", "address": {"city": "WILSALL", "state": "MT", "street": "310 ELLIOT ST N", "postcode": "59086"}}},
{"geometry": {"type": "Point", "coordinates": [-108.250113739, 47.1175338198]}, "type": "Feature", "properties": {"collection_times": [{"days": "Mon-Fri", "time": "8:45am"}, {"days": "Sat-Sun", "time": "Closed"}], "id": "5908700000", "name": "USPS COLLECTION BOX - BLUE BOX", "address": {"city": "WINNETT", "state": "MT", "street": "1 CAT CRK", "postcode": "59087"}}},
{"geometry": {"type": "Point", "coordinates": [-108.250113739, 47.1175338198]}, "type": "Feature", "properties": {"collection_times": [{"days": "Mon-Fri", "time": "4:00pm"}, {"days": "Sat", "time": "9:30am"}, {"days": "Sun", "time": "Closed"}], "id": "5908700001", "name": "USPS COLLECTION BOX - PO LOBBY", "address": {"city": "WINNETT", "state": "MT", "street": "5 W MAIN ST", "postcode": "59087"}}},
{"geometry": {"type": "Point", "coordinates": [-108.250113739, 47.1175338198]}, "type": "Feature", "properties": {"collection_times": [{"days": "Mon-Fri", "time": "4:00pm"}, {"days": "Sat", "time": "9:30am"}, {"days": "Sun", "time": "Closed"}], "id": "5908700002", "name": "USPS COLLECTION BOX - PO LOBBY", "address": {"city": "WINNETT", "state": "MT", "street": "5 W MAIN ST", "postcode": "59087"}}},
{"geometry": {"type": "Point", "coordinates": [-108.1613839714, 45.9615581898]}, "type": "Feature", "properties": {"collection_times": [{"days": "Mon-Fri", "time": "5:30pm"}, {"days": "Sat", "time": "2:30pm"}, {"days": "Sun", "time": "Closed"}], "id": "5908800000", "name": "USPS COLLECTION BOX - BLUE BOX", "address": {"city": "WORDEN", "state": "MT", "street": "2427 MAIN ST", "postcode": "59088"}}},
{"geometry": {"type": "Point", "coordinates": [-108.1613839714, 45.9615581898]}, "type": "Feature", "properties": {"collection_times": [{"days": "Mon-Fri", "time": "4:00pm"}, {"days": "Sat", "time": "8:30am"}, {"days": "Sun", "time": "Closed"}], "id": "5908800001", "name": "USPS COLLECTION BOX - PO LOBBY", "address": {"city": "WORDEN", "state": "MT", "street": "2427 MAIN ST", "postcode": "59088"}}},
{"geometry": {"type": "Point", "coordinates": [-108.1613839714, 45.9615581898]}, "type": "Feature", "properties": {"collection_times": [{"days": "Mon-Fri", "time": "4:00pm"}, {"days": "Sat", "time": "8:30am"}, {"days": "Sun", "time": "Closed"}], "id": "5908800002", "name": "USPS COLLECTION BOX - PO LOBBY", "address": {"city": "WORDEN", "state": "MT", "street": "2427 MAIN ST", "postcode": "59088"}}},
{"geometry": {"type": "Point", "coordinates": [-108.1613839714, 45.9615581898]}, "type": "Feature", "properties": {"collection_times": [{"days": "Mon-Fri", "time": "4:00pm"}, {"days": "Sat", "time": "8:30am"}, {"days": "Sun", "time": "Closed"}], "id": "5908800003", "name": "USPS COLLECTION BOX - PO LOBBY", "address": {"city": "WORDEN", "state": "MT", "street": "2427 MAIN ST", "postcode": "59088"}}},
{"geometry": {"type": "Point", "coordinates": [-108.1613839714, 45.9615581898]}, "type": "Feature", "properties": {"collection_times": [{"days": "Mon-Fri", "time": "4:00pm"}, {"days": "Sat", "time": "8:30am"}, {"days": "Sun", "time": "Closed"}], "id": "5908800004", "name": "USPS COLLECTION BOX - PO LOBBY", "address": {"city": "WORDEN", "state": "MT", "street": "2427 MAIN ST", "postcode": "59088"}}},
{"geometry": {"type": "Point", "coordinates": [-107.6772489595, 45.0813371996]}, "type": "Feature", "properties": {"collection_times": [{"days": "Mon-Fri", "time": "4:30pm"}, {"days": "Sat", "time": "10:30am"}, {"days": "Sun", "time": "Closed"}], "id": "5908900000", "name": "USPS COLLECTION BOX - BLUE BOX", "address": {"city": "WYOLA", "state": "MT", "street": "15 S MONDELL AVE", "postcode": "59089"}}},
{"geometry": {"type": "Point", "coordinates": [-107.6772489595, 45.0813371996]}, "type": "Feature", "properties": {"collection_times": [{"days": "Mon-Fri", "time": "1:30pm"}, {"days": "Sat", "time": "10:30am"}, {"days": "Sun", "time": "Closed"}], "id": "5908900001", "name": "USPS COLLECTION BOX - PO LOBBY", "address": {"city": "WYOLA", "state": "MT", "street": "15 S MONDELL AVE", "postcode": "59089"}}}
]}
