{"type": "FeatureCollection", "features": [
{"geometry": {"type": "Point", "coordinates": [-108.5077076154, 45.7836229849]}, "type": "Feature", "properties": {"collection_times": [{"days": "Mon-Fri", "time": "5:00pm"}, {"days": "Sat-Sun", "time": "Closed"}], "id": "5910100001", "name": "USPS COLLECTION BOX - BLUE BOX", "address": {"city": "BILLINGS", "state": "MT", "street": "2822 3RD AVE N", "postcode": "59101"}}},
{"geometry": {"type": "Point", "coordinates": [-108.5090840167, 45.7830953666]}, "type": "Feature", "properties": {"collection_times": [{"days": "Mon-Fri", "time": "5:00pm"}, {"days": "Sat-Sun", "time": "Closed"}], "id": "5910100002", "name": "USPS COLLECTION BOX - BLUE BOX", "address": {"city": "BILLINGS", "state": "MT", "street": "2929 3RD AVE N", "postcode": "59101"}}},
{"geometry": {"type": "Point", "coordinates": [-108.508552968, 45.782035955]}, "type": "Feature", "properties": {"collection_times": [{"days": "Mon-Fri", "time": "4:30pm"}, {"days": "Sat-Sun", "time": "Closed"}], "id": "5910100003", "name": "USPS COLLECTION BOX - BLUE BOX", "address": {"city": "BILLINGS", "state": "MT", "street": "2913 2ND AVE N", "postcode": "59101"}}},
{"geometry": {"type": "Point", "coordinates": [-108.514148632, 45.78182383]}, "type": "Feature", "properties": {"collection_times": [{"days": "Mon-Fri", "time": "5:00pm"}, {"days": "Sat-Sun", "time": "Closed"}], "id": "5910100007", "name": "USPS COLLECTION BOX - BLUE BOX", "address": {"city": "BILLINGS", "state": "MT", "street": "3220 4TH AVE N", "postcode": "59101"}}},
{"geometry": {"type": "Point", "coordinates": [-108.5141835972, 45.7833168623]}, "type": "Feature", "properties": {"collection_times": [{"days": "Mon-Fri", "time": "4:45pm"}, {"days": "Sat-Sun", "time": "Closed"}], "id": "5910100009", "name": "USPS COLLECTION BOX - BLUE BOX", "address": {"city": "BILLINGS", "state": "MT", "street": "502 N 32ND ST", "postcode": "59101"}}},
{"geometry": {"type": "Point", "coordinates": [-108.540090785, 45.777072004]}, "type": "Feature", "properties": {"collection_times": [{"days": "Mon-Fri", "time": "8:30am"}, {"days": "Sat-Sun", "time": "Closed"}], "id": "5910100023", "name": "USPS COLLECTION BOX - BLUE BOX", "address": {"city": "BILLINGS", "state": "MT", "street": "928 BROADWATER AVE", "postcode": "59101"}}},
{"geometry": {"type": "Point", "coordinates": [-108.5503369121, 45.7535200474]}, "type": "Feature", "properties": {"collection_times": [{"days": "Mon-Fri", "time": "4:30pm"}, {"days": "Sat-Sun", "time": "Closed"}], "id": "5910100027", "name": "USPS COLLECTION BOX - BLUE BOX", "address": {"city": "BILLINGS", "state": "MT", "street": "5400 SOUTHGATE DR", "postcode": "59101"}}},
{"geometry": {"type": "Point", "coordinates": [-108.4943464405, 45.7742409555]}, "type": "Feature", "properties": {"collection_times": [{"days": "Mon-Sat", "time": "6:00pm"}, {"days": "Sun", "time": "Closed"}], "id": "5910100039", "name": "USPS COLLECTION BOX - BLUE BOX", "address": {"city": "BILLINGS", "state": "MT", "street": "841 S 26TH ST", "postcode": "59101"}}},
{"geometry": {"type": "Point", "coordinates": [-108.5050284349, 45.7832515931]}, "type": "Feature", "properties": {"collection_times": [{"days": "Mon-Fri", "time": "5:15pm"}, {"days": "Sat-Sun", "time": "Closed"}], "id": "5910100044", "name": "USPS COLLECTION BOX - BLUE BOX", "address": {"city": "BILLINGS", "state": "MT", "street": "175 N 27TH ST", "postcode": "59101"}}},
{"geometry": {"type": "Point", "coordinates": [-108.5087562617, 45.7871215343]}, "type": "Feature", "properties": {"collection_times": [{"days": "Mon-Sat", "time": "4:30pm"}, {"days": "Sun", "time": "Closed"}], "id": "5910100047", "name": "USPS COLLECTION BOX - BLUE BOX", "address": {"city": "BILLINGS", "state": "MT", "street": "611 N 27TH ST", "postcode": "59101"}}},
{"geometry": {"type": "Point", "coordinates": [-108.497712583, 45.773395557]}, "type": "Feature", "properties": {"collection_times": [{"days": "Mon-Fri", "time": "4:45pm"}, {"days": "Sat-Sun", "time": "Closed"}], "id": "5910100050", "name": "USPS COLLECTION BOX - BLUE BOX", "address": {"city": "BILLINGS", "state": "MT", "street": "2825 8TH AVE N", "postcode": "59101"}}},
{"geometry": {"type": "Point", "coordinates": [-108.513703403, 45.78643696]}, "type": "Feature", "properties": {"collection_times": [{"days": "Mon-Fri", "time": "10:00am"}, {"days": "Sat-Sun", "time": "Closed"}], "id": "5910100051", "name": "USPS COLLECTION BOX - BLUE BOX", "address": {"city": "BILLINGS", "state": "MT", "street": "710 N 30TH ST", "postcode": "59101"}}},
{"geometry": {"type": "Point", "coordinates": [-108.505484153, 45.785447434]}, "type": "Feature", "properties": {"collection_times": [{"days": "Mon-Fri", "time": "4:45pm"}, {"days": "Sat-Sun", "time": "Closed"}], "id": "5910100053", "name": "USPS COLLECTION BOX - BLUE BOX", "address": {"city": "BILLINGS", "state": "MT", "street": "316 N 26TH ST", "postcode": "59101"}}},
{"geometry": {"type": "Point", "coordinates": [-108.510242973, 45.779945012]}, "type": "Feature", "properties": {"collection_times": [{"days": "Mon-Fri", "time": "4:30pm"}, {"days": "Sat-Sun", "time": "Closed"}], "id": "5910100054", "name": "USPS COLLECTION BOX - BLUE BOX", "address": {"city": "BILLINGS", "state": "MT", "street": "3115 1ST AVE N", "postcode": "59101"}}},
{"geometry": {"type": "Point", "coordinates": [-108.5055499633, 45.7833926464]}, "type": "Feature", "properties": {"collection_times": [{"days": "Mon-Fri", "time": "5:15pm"}, {"days": "Sat-Sun", "time": "Closed"}], "id": "5910100056", "name": "USPS COLLECTION BOX - BLUE BOX", "address": {"city": "BILLINGS", "state": "MT", "street": "2712 2ND AVE N", "postcode": "59101"}}},
{"geometry": {"type": "Point", "coordinates": [-108.506878116, 45.784033657]}, "type": "Feature", "properties": {"collection_times": [{"days": "Mon-Fri", "time": "5:00pm"}, {"days": "Sat", "time": "4:45pm"}, {"days": "Sun", "time": "Closed"}], "id": "5910100058", "name": "USPS COLLECTION BOX - BLUE BOX", "address": {"city": "BILLINGS", "state": "MT", "street": "2716 3RD AVE N", "postcode": "59101"}}},
{"geometry": {"type": "Point", "coordinates": [-108.507528476, 45.78396256]}, "type": "Feature", "properties": {"collection_times": [{"days": "Mon-Fri", "time": "5:00pm"}, {"days": "Sat-Sun", "time": "Closed"}], "id": "5910100059", "name": "USPS COLLECTION BOX - BLUE BOX", "address": {"city": "BILLINGS", "state": "MT", "street": "303 N 28TH ST", "postcode": "59101"}}},
{"geometry": {"type": "Point", "coordinates": [-108.508797727, 45.785211998]}, "type": "Feature", "properties": {"collection_times": [{"days": "Mon-Fri", "time": "5:15pm"}, {"days": "Sat-Sun", "time": "Closed"}], "id": "5910100060", "name": "USPS COLLECTION BOX - BLUE BOX", "address": {"city": "BILLINGS", "state": "MT", "street": "401 N 28TH ST", "postcode": "59101"}}},
{"geometry": {"type": "Point", "coordinates": [-108.513183561, 45.7913932595]}, "type": "Feature", "properties": {"collection_times": [{"days": "Mon-Fri", "time": "12:30pm"}, {"days": "Sat-Sun", "time": "Closed"}], "id": "5910100061", "name": "USPS COLLECTION BOX - BLUE BOX", "address": {"city": "BILLINGS", "state": "MT", "street": "1020 N 27TH ST", "postcode": "59101"}}},
{"geometry": {"type": "Point", "coordinates": [-108.5199360663, 45.7929179437]}, "type": "Feature", "properties": {"collection_times": [{"days": "Mon-Fri", "time": "4:30pm"}, {"days": "Sat-Sun", "time": "Closed"}], "id": "5910100065", "name": "USPS COLLECTION BOX - BLUE BOX", "address": {"city": "BILLINGS", "state": "MT", "street": "1233 N 30TH ST", "postcode": "59101"}}},
{"geometry": {"type": "Point", "coordinates": [-108.5218483059, 45.7954784258]}, "type": "Feature", "properties": {"collection_times": [{"days": "Mon-Fri", "time": "8:30am"}, {"days": "Sat-Sun", "time": "Closed"}], "id": "5910100067", "name": "USPS COLLECTION BOX - BLUE BOX", "address": {"city": "BILLINGS", "state": "MT", "street": "1500 UNIVERSITY DR", "postcode": "59101"}}},
{"geometry": {"type": "Point", "coordinates": [-108.5032987391, 45.7832030648]}, "type": "Feature", "properties": {"collection_times": [{"days": "Mon-Fri", "time": "5:30pm"}, {"days": "Sat", "time": "3:00pm"}, {"days": "Sun", "time": "Closed"}], "id": "5910100083", "name": "USPS COLLECTION BOX - PO LOBBY", "address": {"city": "BILLINGS", "state": "MT", "street": "2602 1ST AVE N", "postcode": "59101"}}},
{"geometry": {"type": "Point", "coordinates": [-108.4946284859, 45.7745577012]}, "type": "Feature", "properties": {"collection_times": [{"days": "Mon-Sat", "time": "6:00pm"}, {"days": "Sun", "time": "Closed"}], "id": "5910100091", "name": "USPS COLLECTION BOX - BLUE BOX", "address": {"city": "BILLINGS", "state": "MT", "street": "841 S 26TH ST", "postcode": "59101"}}},
{"geometry": {"type": "Point", "coordinates": [-108.4946284859, 45.7745577012]}, "type": "Feature", "properties": {"collection_times": [{"days": "Mon-Sat", "time": "6:00pm"}, {"days": "Sun", "time": "Closed"}], "id": "5910100092", "name": "USPS COLLECTION BOX - BLUE BOX", "address": {"city": "BILLINGS", "state": "MT", "street": "841 S 26TH ST", "postcode": "59101"}}},
{"geometry": {"type": "Point", "coordinates": [-108.4946284859, 45.7745577012]}, "type": "Feature", "properties": {"collection_times": [{"days": "Mon-Sat", "time": "6:00pm"}, {"days": "Sun", "time": "Closed"}], "id": "5910100093", "name": "USPS COLLECTION BOX - BLUE BOX", "address": {"city": "BILLINGS", "state": "MT", "street": "841 S 26TH ST", "postcode": "59101"}}},
{"geometry": {"type": "Point", "coordinates": [-108.4946284859, 45.7745577012]}, "type": "Feature", "properties": {"collection_times": [{"days": "Mon-Sat", "time": "6:00pm"}, {"days": "Sun", "time": "Closed"}], "id": "5910100094", "name": "USPS COLLECTION BOX - BLUE BOX", "address": {"city": "BILLINGS", "state": "MT", "street": "841 S 26TH ST", "postcode": "59101"}}},
{"geometry": {"type": "Point", "coordinates": [-108.512788037, 45.7836435158]}, "type": "Feature", "properties": {"collection_times": [{"days": "Mon-Fri", "time": "5:00pm"}, {"days": "Sat-Sun", "time": "Closed"}], "id": "5910100114", "name": "USPS COLLECTION BOX - BLUE BOX", "address": {"city": "BILLINGS", "state": "MT", "street": "490 N 31ST ST", "postcode": "59101"}}},
{"geometry": {"type": "Point", "coordinates": [-108.512788037, 45.7836435158]}, "type": "Feature", "properties": {"collection_times": [{"days": "Mon-Fri", "time": "5:00pm"}, {"days": "Sat-Sun", "time": "Closed"}], "id": "5910100115", "name": "USPS COLLECTION BOX - BLUE BOX", "address": {"city": "BILLINGS", "state": "MT", "street": "490 N 31ST ST", "postcode": "59101"}}},
{"geometry": {"type": "Point", "coordinates": [-108.512788037, 45.7836435158]}, "type": "Feature", "properties": {"collection_times": [{"days": "Mon-Fri", "time": "5:00pm"}, {"days": "Sat-Sun", "time": "Closed"}], "id": "5910100116", "name": "USPS COLLECTION BOX - BLUE BOX", "address": {"city": "BILLINGS", "state": "MT", "street": "490 N 31ST ST", "postcode": "59101"}}},
{"geometry": {"type": "Point", "coordinates": [-108.4227484838, 45.8091403282]}, "type": "Feature", "properties": {"collection_times": [{"days": "Mon-Fri", "time": "6:00pm"}, {"days": "Sat", "time": "3:45pm"}, {"days": "Sun", "time": "Closed"}], "id": "5910100153", "name": "USPS COLLECTION BOX - BLUE BOX", "address": {"city": "BILLINGS", "state": "MT", "street": "2775 OLD HARDIN RD", "postcode": "59101"}}},
{"geometry": {"type": "Point", "coordinates": [-108.454871263, 45.795544018]}, "type": "Feature", "properties": {"collection_times": [{"days": "Mon-Fri", "time": "6:00pm"}, {"days": "Sat", "time": "3:45pm"}, {"days": "Sun", "time": "Closed"}], "id": "5910100154", "name": "USPS COLLECTION BOX - BLUE BOX", "address": {"city": "BILLINGS", "state": "MT", "street": "1224 US HIGHWAY 87 E", "postcode": "59101"}}},
{"geometry": {"type": "Point", "coordinates": [-108.507282551, 45.782645523]}, "type": "Feature", "properties": {"collection_times": [{"days": "Mon-Fri", "time": "4:45pm"}, {"days": "Sat-Sun", "time": "Closed"}], "id": "5910100160", "name": "USPS COLLECTION BOX - BLUE BOX", "address": {"city": "BILLINGS", "state": "MT", "street": "2813 2ND AVE N", "postcode": "59101"}}},
{"geometry": {"type": "Point", "coordinates": [-108.50253086, 45.7824433018]}, "type": "Feature", "properties": {"collection_times": [{"days": "Mon-Fri", "time": "5:45pm"}, {"days": "Sat", "time": "6:00pm"}, {"days": "Sun", "time": "Closed"}], "id": "5910100168", "name": "USPS COLLECTION BOX - BLUE BOX", "address": {"city": "BILLINGS", "state": "MT", "street": "2602 1ST AVE N", "postcode": "59101"}}},
{"geometry": {"type": "Point", "coordinates": [-108.50253086, 45.7824433018]}, "type": "Feature", "properties": {"collection_times": [{"days": "Mon-Fri", "time": "5:45pm"}, {"days": "Sat", "time": "6:00pm"}, {"days": "Sun", "time": "Closed"}], "id": "5910100170", "name": "USPS COLLECTION BOX - BLUE BOX", "address": {"city": "BILLINGS", "state": "MT", "street": "2602 1ST AVE N", "postcode": "59101"}}},
{"geometry": {"type": "Point", "coordinates": [-108.4996592934, 45.7703089953]}, "type": "Feature", "properties": {"collection_times": [{"days": "Mon-Fri", "time": "5:45pm"}, {"days": "Sat", "time": "6:00pm"}, {"days": "Sun", "time": "Closed"}], "id": "5910100172", "name": "USPS COLLECTION BOX - BLUE BOX", "address": {"city": "BILLINGS", "state": "MT", "street": "2602 1ST AVE N", "postcode": "59101"}}},
{"geometry": {"type": "Point", "coordinates": [-108.4996592934, 45.7703089953]}, "type": "Feature", "properties": {"collection_times": [{"days": "Mon-Fri", "time": "5:45pm"}, {"days": "Sat", "time": "6:00pm"}, {"days": "Sun", "time": "Closed"}], "id": "5910100173", "name": "USPS COLLECTION BOX - BLUE BOX", "address": {"city": "BILLINGS", "state": "MT", "street": "2602 1ST AVE N", "postcode": "59101"}}},
{"geometry": {"type": "Point", "coordinates": [-108.4996592934, 45.7703089953]}, "type": "Feature", "properties": {"collection_times": [{"days": "Mon-Fri", "time": "5:45pm"}, {"days": "Sat", "time": "6:00pm"}, {"days": "Sun", "time": "Closed"}], "id": "5910100174", "name": "USPS COLLECTION BOX - BLUE BOX", "address": {"city": "BILLINGS", "state": "MT", "street": "2602 1ST AVE N", "postcode": "59101"}}},
{"geometry": {"type": "Point", "coordinates": [-108.5094601253, 45.7840244086]}, "type": "Feature", "properties": {"collection_times": [{"days": "Mon-Fri", "time": "4:15pm"}, {"days": "Sat-Sun", "time": "Closed"}], "id": "5910100180", "name": "USPS COLLECTION BOX - BLUE BOX", "address": {"city": "BILLINGS", "state": "MT", "street": "2900 4TH AVE N", "postcode": "59101"}}},
{"geometry": {"type": "Point", "coordinates": [-108.5183055699, 45.7929168458]}, "type": "Feature", "properties": {"collection_times": [{"days": "Mon-Fri", "time": "4:30pm"}, {"days": "Sat-Sun", "time": "Closed"}], "id": "5910100182", "name": "USPS COLLECTION BOX - BLUE BOX", "address": {"city": "BILLINGS", "state": "MT", "street": "2900 12TH AVE N", "postcode": "59101"}}},
{"geometry": {"type": "Point", "coordinates": [-108.5058702514, 45.7819203098]}, "type": "Feature", "properties": {"collection_times": [{"days": "Mon-Fri", "time": "4:30pm"}, {"days": "Sat-Sun", "time": "Closed"}], "id": "5910100208", "name": "USPS COLLECTION BOX - BLUE BOX", "address": {"city": "BILLINGS", "state": "MT", "street": "2812 1ST AVE N", "postcode": "59101"}}},
{"geometry": {"type": "Point", "coordinates": [-108.415701787, 45.8083499087]}, "type": "Feature", "properties": {"collection_times": [{"days": "Mon-Sat", "time": "11:00am"}, {"days": "Sun", "time": "Closed"}], "id": "5910100219", "name": "USPS COLLECTION BOX - BLUE BOX", "address": {"city": "BILLINGS", "state": "MT", "street": "535 JEMSTONE DR", "postcode": "59101"}}},
{"geometry": {"type": "Point", "coordinates": [-108.4377165581, 45.802587947]}, "type": "Feature", "properties": {"collection_times": [{"days": "Mon-Sat", "time": "12:30pm"}, {"days": "Sun", "time": "Closed"}], "id": "5910100220", "name": "USPS COLLECTION BOX - BLUE BOX", "address": {"city": "BILLINGS", "state": "MT", "street": "1960 OLD HARDIN RD", "postcode": "59101"}}},
{"geometry": {"type": "Point", "coordinates": [-108.50253086, 45.7824433018]}, "type": "Feature", "properties": {"collection_times": [{"days": "Mon-Fri", "time": "5:45pm"}, {"days": "Sat", "time": "6:00pm"}, {"days": "Sun", "time": "Closed"}], "id": "5910100224", "name": "USPS COLLECTION BOX - BLUE BOX", "address": {"city": "BILLINGS", "state": "MT", "street": "2602 1ST AVE N", "postcode": "59101"}}},
{"geometry": {"type": "Point", "coordinates": [-108.4992986581, 45.7701265508]}, "type": "Feature", "properties": {"collection_times": [{"days": "Mon-Sat", "time": "11:00am"}, {"days": "Sun", "time": "Closed"}], "id": "5910100226", "name": "USPS COLLECTION BOX - BLUE BOX", "address": {"city": "BILLINGS", "state": "MT", "street": "2007 BLUE CREEK RD", "postcode": "59101"}}},
{"geometry": {"type": "Point", "coordinates": [-108.4946284859, 45.7745577012]}, "type": "Feature", "properties": {"collection_times": [{"days": "Mon-Fri", "time": "6:30pm"}, {"days": "Sat", "time": "6:00pm"}, {"days": "Sun", "time": "Closed"}], "id": "5910100227", "name": "USPS COLLECTION BOX - PO LOBBY", "address": {"city": "BILLINGS", "state": "MT", "street": "841 S 26TH ST", "postcode": "59101"}}},
{"geometry": {"type": "Point", "coordinates": [-108.5119314526, 45.7829581927]}, "type": "Feature", "properties": {"collection_times": [{"days": "Mon-Fri", "time": "5:00pm"}, {"days": "Sat-Sun", "time": "Closed"}], "id": "5910100228", "name": "USPS COLLECTION BOX - BLUE BOX", "address": {"city": "BILLINGS", "state": "MT", "street": "401 N 31ST ST", "postcode": "59101"}}},
{"geometry": {"type": "Point", "coordinates": [-108.5119314526, 45.7829581927]}, "type": "Feature", "properties": {"collection_times": [{"days": "Mon-Fri", "time": "5:00pm"}, {"days": "Sat-Sun", "time": "Closed"}], "id": "5910100229", "name": "USPS COLLECTION BOX - BLUE BOX", "address": {"city": "BILLINGS", "state": "MT", "street": "401 N 31ST ST", "postcode": "59101"}}},
{"geometry": {"type": "Point", "coordinates": [-108.4946284859, 45.7745577012]}, "type": "Feature", "properties": {"collection_times": [{"days": "Mon-Fri", "time": "6:30pm"}, {"days": "Sat", "time": "6:00pm"}, {"days": "Sun", "time": "Closed"}], "id": "5910100230", "name": "USPS COLLECTION BOX - PO LOBBY", "address": {"city": "BILLINGS", "state": "MT", "street": "841 S 26TH ST", "postcode": "59101"}}},
{"geometry": {"type": "Point", "coordinates": [-108.4946284859, 45.7745577012]}, "type": "Feature", "properties": {"collection_times": [{"days": "Mon-Fri", "time": "6:30pm"}, {"days": "Sat", "time": "6:00pm"}, {"days": "Sun", "time": "Closed"}], "id": "5910100231", "name": "USPS COLLECTION BOX - PO LOBBY", "address": {"city": "BILLINGS", "state": "MT", "street": "841 S 26TH ST", "postcode": "59101"}}},
{"geometry": {"type": "Point", "coordinates": [-108.4946284859, 45.7745577012]}, "type": "Feature", "properties": {"collection_times": [{"days": "Mon-Fri", "time": "6:30pm"}, {"days": "Sat", "time": "6:00pm"}, {"days": "Sun", "time": "Closed"}], "id": "5910100232", "name": "USPS COLLECTION BOX - PO LOBBY", "address": {"city": "BILLINGS", "state": "MT", "street": "841 S 26TH ST", "postcode": "59101"}}},
{"geometry": {"type": "Point", "coordinates": [-108.4946284859, 45.7745577012]}, "type": "Feature", "properties": {"collection_times": [{"days": "Mon-Fri", "time": "6:30pm"}, {"days": "Sat", "time": "6:00pm"}, {"days": "Sun", "time": "Closed"}], "id": "5910100233", "name": "USPS COLLECTION BOX - PO LOBBY", "address": {"city": "BILLINGS", "state": "MT", "street": "841 S 26TH ST", "postcode": "59101"}}},
{"geometry": {"type": "Point", "coordinates": [-108.5032987391, 45.7832030648]}, "type": "Feature", "properties": {"collection_times": [{"days": "Mon-Fri", "time": "5:30pm"}, {"days": "Sat", "time": "3:00pm"}, {"days": "Sun", "time": "Closed"}], "id": "5910100237", "name": "USPS COLLECTION BOX - PO LOBBY", "address": {"city": "BILLINGS", "state": "MT", "street": "2602 1ST AVE N", "postcode": "59101"}}},
{"geometry": {"type": "Point", "coordinates": [-108.5032987391, 45.7832030648]}, "type": "Feature", "properties": {"collection_times": [{"days": "Mon-Fri", "time": "5:30pm"}, {"days": "Sat", "time": "3:00pm"}, {"days": "Sun", "time": "Closed"}], "id": "5910100238", "name": "USPS COLLECTION BOX - PO LOBBY", "address": {"city": "BILLINGS", "state": "MT", "street": "2602 1ST AVE N", "postcode": "59101"}}},
{"geometry": {"type": "Point", "coordinates": [-108.5032987391, 45.7832030648]}, "type": "Feature", "properties": {"collection_times": [{"days": "Mon-Fri", "time": "5:30pm"}, {"days": "Sat", "time": "3:00pm"}, {"days": "Sun", "time": "Closed"}], "id": "5910100239", "name": "USPS COLLECTION BOX - PO LOBBY", "address": {"city": "BILLINGS", "state": "MT", "street": "2602 1ST AVE N", "postcode": "59101"}}},
{"geometry": {"type": "Point", "coordinates": [-108.5032987391, 45.7832030648]}, "type": "Feature", "properties": {"collection_times": [{"days": "Mon-Fri", "time": "5:30pm"}, {"days": "Sat", "time": "3:00pm"}, {"days": "Sun", "time": "Closed"}], "id": "5910100240", "name": "USPS COLLECTION BOX - PO LOBBY", "address": {"city": "BILLINGS", "state": "MT", "street": "2602 1ST AVE N", "postcode": "59101"}}},
{"geometry": {"type": "Point", "coordinates": [-108.5032987391, 45.7832030648]}, "type": "Feature", "properties": {"collection_times": [{"days": "Mon-Fri", "time": "5:30pm"}, {"days": "Sat", "time": "3:00pm"}, {"days": "Sun", "time": "Closed"}], "id": "5910100241", "name": "USPS COLLECTION BOX - PO LOBBY", "address": {"city": "BILLINGS", "state": "MT", "street": "2602 1ST AVE N", "postcode": "59101"}}},
{"geometry": {"type": "Point", "coordinates": [-108.5032987391, 45.7832030648]}, "type": "Feature", "properties": {"collection_times": [{"days": "Mon-Fri", "time": "5:30pm"}, {"days": "Sat", "time": "3:00pm"}, {"days": "Sun", "time": "Closed"}], "id": "5910100242", "name": "USPS COLLECTION BOX - PO LOBBY", "address": {"city": "BILLINGS", "state": "MT", "street": "2602 1ST AVE N", "postcode": "59101"}}},
{"geometry": {"type": "Point", "coordinates": [-108.4229444424, 45.8089279384]}, "type": "Feature", "properties": {"collection_times": [{"days": "Mon-Fri", "time": "6:00pm"}, {"days": "Sat", "time": "3:45pm"}, {"days": "Sun", "time": "Closed"}], "id": "5910100243", "name": "USPS COLLECTION BOX - BLUE BOX", "address": {"city": "BILLINGS", "state": "MT", "street": "2750 OLD HARDIN RD", "postcode": "59101"}}},
{"geometry": {"type": "Point", "coordinates": [-108.5129782061, 45.7798070943]}, "type": "Feature", "properties": {"collection_times": [{"days": "Mon-Fri", "time": "4:30pm"}, {"days": "Sat-Sun", "time": "Closed"}], "id": "5910100244", "name": "USPS COLLECTION BOX - BLUE BOX", "address": {"city": "BILLINGS", "state": "MT", "street": "3324 2ND AVE N", "postcode": "59101"}}},
{"geometry": {"type": "Point", "coordinates": [-108.5124171048, 45.7833616386]}, "type": "Feature", "properties": {"collection_times": [{"days": "Mon-Fri", "time": "5:00pm"}, {"days": "Sat-Sun", "time": "Closed"}], "id": "5910100245", "name": "USPS COLLECTION BOX - BLUE BOX", "address": {"city": "BILLINGS", "state": "MT", "street": "401 N 31ST ST", "postcode": "59101"}}},
{"geometry": {"type": "Point", "coordinates": [-108.5117589779, 45.7807494302]}, "type": "Feature", "properties": {"collection_times": [{"days": "Mon-Fri", "time": "4:45pm"}, {"days": "Sat-Sun", "time": "Closed"}], "id": "5910100248", "name": "USPS COLLECTION BOX - BLUE BOX", "address": {"city": "BILLINGS", "state": "MT", "street": "222 N 32ND ST", "postcode": "59101"}}},
{"geometry": {"type": "Point", "coordinates": [-108.6155105862, 45.7261846054]}, "type": "Feature", "properties": {"collection_times": [{"days": "Mon-Sat", "time": "12:00pm"}, {"days": "Sun", "time": "Closed"}], "id": "5910100250", "name": "USPS COLLECTION BOX - BLUE BOX", "address": {"city": "BILLINGS", "state": "MT", "street": "8014 S FRONTAGE RD", "postcode": "59101"}}},
{"geometry": {"type": "Point", "coordinates": [-108.5486806989, 45.7859946149]}, "type": "Feature", "properties": {"collection_times": [{"days": "Mon-Sat", "time": "4:45pm"}, {"days": "Sun", "time": "Closed"}], "id": "5910200002", "name": "USPS COLLECTION BOX - BLUE BOX", "address": {"city": "BILLINGS", "state": "MT", "street": "1300 AVENUE C", "postcode": "59102"}}},
{"geometry": {"type": "Point", "coordinates": [-108.5824601719, 45.7698532602]}, "type": "Feature", "properties": {"collection_times": [{"days": "Mon-Fri", "time": "5:00pm"}, {"days": "Sat-Sun", "time": "Closed"}], "id": "5910200004", "name": "USPS COLLECTION BOX - BLUE BOX", "address": {"city": "BILLINGS", "state": "MT", "street": "2601 CENTRAL AVE", "postcode": "59102"}}},
{"geometry": {"type": "Point", "coordinates": [-108.5539305034, 45.7772549891]}, "type": "Feature", "properties": {"collection_times": [{"days": "Mon-Fri", "time": "5:45pm"}, {"days": "Sat", "time": "3:30pm"}, {"days": "Sun", "time": "Closed"}], "id": "5910200008", "name": "USPS COLLECTION BOX - PO LOBBY", "address": {"city": "BILLINGS", "state": "MT", "street": "724 15TH ST W", "postcode": "59102"}}},
{"geometry": {"type": "Point", "coordinates": [-108.5539305034, 45.7772549891]}, "type": "Feature", "properties": {"collection_times": [{"days": "Mon-Fri", "time": "6:00pm"}, {"days": "Sat", "time": "5:15pm"}, {"days": "Sun", "time": "Closed"}], "id": "5910200009", "name": "USPS COLLECTION BOX - BLUE BOX", "address": {"city": "BILLINGS", "state": "MT", "street": "724 15TH ST W", "postcode": "59102"}}},
{"geometry": {"type": "Point", "coordinates": [-108.5547021409, 45.7871023383]}, "type": "Feature", "properties": {"collection_times": [{"days": "Mon-Fri", "time": "4:45pm"}, {"days": "Sat-Sun", "time": "Closed"}], "id": "5910200014", "name": "USPS COLLECTION BOX - BLUE BOX", "address": {"city": "BILLINGS", "state": "MT", "street": "1537 AVENUE D", "postcode": "59102"}}},
{"geometry": {"type": "Point", "coordinates": [-108.5575404516, 45.7871171227]}, "type": "Feature", "properties": {"collection_times": [{"days": "Mon-Fri", "time": "4:45pm"}, {"days": "Sat-Sun", "time": "Closed"}], "id": "5910200016", "name": "USPS COLLECTION BOX - BLUE BOX", "address": {"city": "BILLINGS", "state": "MT", "street": "1645 AVENUE D", "postcode": "59102"}}},
{"geometry": {"type": "Point", "coordinates": [-108.5535964659, 45.7950024274]}, "type": "Feature", "properties": {"collection_times": [{"days": "Mon-Fri", "time": "4:30pm"}, {"days": "Sat-Sun", "time": "Closed"}], "id": "5910200019", "name": "USPS COLLECTION BOX - BLUE BOX", "address": {"city": "BILLINGS", "state": "MT", "street": "1511 POLY DR", "postcode": "59102"}}},
{"geometry": {"type": "Point", "coordinates": [-108.570816233, 45.7531741746]}, "type": "Feature", "properties": {"collection_times": [{"days": "Mon-Sat", "time": "5:30pm"}, {"days": "Sun", "time": "Closed"}], "id": "5910200031", "name": "USPS COLLECTION BOX - BLUE BOX", "address": {"city": "BILLINGS", "state": "MT", "street": "2250 GRANT RD", "postcode": "59102"}}},
{"geometry": {"type": "Point", "coordinates": [-108.5756390326, 45.7523100625]}, "type": "Feature", "properties": {"collection_times": [{"days": "Mon-Sat", "time": "5:30pm"}, {"days": "Sun", "time": "Closed"}], "id": "5910200034", "name": "USPS COLLECTION BOX - BLUE BOX", "address": {"city": "BILLINGS", "state": "MT", "street": "2250 GRANT RD", "postcode": "59102"}}},
{"geometry": {"type": "Point", "coordinates": [-108.5539305034, 45.7772549891]}, "type": "Feature", "properties": {"collection_times": [{"days": "Mon-Fri", "time": "6:00pm"}, {"days": "Sat", "time": "5:15pm"}, {"days": "Sun", "time": "Closed"}], "id": "5910200041", "name": "USPS COLLECTION BOX - BLUE BOX", "address": {"city": "BILLINGS", "state": "MT", "street": "724 15TH ST W", "postcode": "59102"}}},
{"geometry": {"type": "Point", "coordinates": [-108.5539305034, 45.7772549891]}, "type": "Feature", "properties": {"collection_times": [{"days": "Mon-Fri", "time": "6:00pm"}, {"days": "Sat", "time": "5:15pm"}, {"days": "Sun", "time": "Closed"}], "id": "5910200042", "name": "USPS COLLECTION BOX - BLUE BOX", "address": {"city": "BILLINGS", "state": "MT", "street": "724 15TH ST W", "postcode": "59102"}}},
{"geometry": {"type": "Point", "coordinates": [-108.5539305034, 45.7772549891]}, "type": "Feature", "properties": {"collection_times": [{"days": "Mon-Fri", "time": "6:00pm"}, {"days": "Sat", "time": "5:15pm"}, {"days": "Sun", "time": "Closed"}], "id": "5910200043", "name": "USPS COLLECTION BOX - BLUE BOX", "address": {"city": "BILLINGS", "state": "MT", "street": "724 15TH ST W", "postcode": "59102"}}},
{"geometry": {"type": "Point", "coordinates": [-108.5539305034, 45.7772549891]}, "type": "Feature", "properties": {"collection_times": [{"days": "Mon-Fri", "time": "6:00pm"}, {"days": "Sat", "time": "5:15pm"}, {"days": "Sun", "time": "Closed"}], "id": "5910200044", "name": "USPS COLLECTION BOX - BLUE BOX", "address": {"city": "BILLINGS", "state": "MT", "street": "724 15TH ST W", "postcode": "59102"}}},
{"geometry": {"type": "Point", "coordinates": [-108.5539305034, 45.7772549891]}, "type": "Feature", "properties": {"collection_times": [{"days": "Mon-Fri", "time": "6:00pm"}, {"days": "Sat", "time": "5:15pm"}, {"days": "Sun", "time": "Closed"}], "id": "5910200045", "name": "USPS COLLECTION BOX - BLUE BOX", "address": {"city": "BILLINGS", "state": "MT", "street": "724 15TH ST W", "postcode": "59102"}}},
{"geometry": {"type": "Point", "coordinates": [-108.5539305034, 45.7772549891]}, "type": "Feature", "properties": {"collection_times": [{"days": "Mon-Fri", "time": "6:00pm"}, {"days": "Sat", "time": "5:15pm"}, {"days": "Sun", "time": "Closed"}], "id": "5910200046", "name": "USPS COLLECTION BOX - BLUE BOX", "address": {"city": "BILLINGS", "state": "MT", "street": "724 15TH ST W", "postcode": "59102"}}},
{"geometry": {"type": "Point", "coordinates": [-108.5539305034, 45.7772549891]}, "type": "Feature", "properties": {"collection_times": [{"days": "Mon-Fri", "time": "6:00pm"}, {"days": "Sat", "time": "5:15pm"}, {"days": "Sun", "time": "Closed"}], "id": "5910200047", "name": "USPS COLLECTION BOX - BLUE BOX", "address": {"city": "BILLINGS", "state": "MT", "street": "724 15TH ST W", "postcode": "59102"}}},
{"geometry": {"type": "Point", "coordinates": [-108.5539305034, 45.7772549891]}, "type": "Feature", "properties": {"collection_times": [{"days": "Mon-Fri", "time": "6:00pm"}, {"days": "Sat", "time": "5:15pm"}, {"days": "Sun", "time": "Closed"}], "id": "5910200049", "name": "USPS COLLECTION BOX - BLUE BOX", "address": {"city": "BILLINGS", "state": "MT", "street": "724 15TH ST W", "postcode": "59102"}}},
{"geometry": {"type": "Point", "coordinates": [-108.5539305034, 45.7772549891]}, "type": "Feature", "properties": {"collection_times": [{"days": "Mon-Fri", "time": "6:00pm"}, {"days": "Sat", "time": "5:15pm"}, {"days": "Sun", "time": "Closed"}], "id": "5910200050", "name": "USPS COLLECTION BOX - BLUE BOX", "address": {"city": "BILLINGS", "state": "MT", "street": "724 15TH ST W", "postcode": "59102"}}},
{"geometry": {"type": "Point", "coordinates": [-108.5756390326, 45.7523100625]}, "type": "Feature", "properties": {"collection_times": [{"days": "Mon-Sat", "time": "5:30pm"}, {"days": "Sun", "time": "Closed"}], "id": "5910200053", "name": "USPS COLLECTION BOX - BLUE BOX", "address": {"city": "BILLINGS", "state": "MT", "street": "2250 GRANT RD", "postcode": "59102"}}},
{"geometry": {"type": "Point", "coordinates": [-108.5533870019, 45.7948918782]}, "type": "Feature", "properties": {"collection_times": [{"days": "Mon-Fri", "time": "4:30pm"}, {"days": "Sat-Sun", "time": "Closed"}], "id": "5910200057", "name": "USPS COLLECTION BOX - BLUE BOX", "address": {"city": "BILLINGS", "state": "MT", "street": "1500 POLY DR", "postcode": "59102"}}},
{"geometry": {"type": "Point", "coordinates": [-108.5761516365, 45.7762361448]}, "type": "Feature", "properties": {"collection_times": [{"days": "Mon-Fri", "time": "5:00pm"}, {"days": "Sat-Sun", "time": "Closed"}], "id": "5910200059", "name": "USPS COLLECTION BOX - BLUE BOX", "address": {"city": "BILLINGS", "state": "MT", "street": "605 24TH ST W", "postcode": "59102"}}},
{"geometry": {"type": "Point", "coordinates": [-108.5796922997, 45.7710408877]}, "type": "Feature", "properties": {"collection_times": [{"days": "Mon-Fri", "time": "5:00pm"}, {"days": "Sat-Sun", "time": "Closed"}], "id": "5910200061", "name": "USPS COLLECTION BOX - BLUE BOX", "address": {"city": "BILLINGS", "state": "MT", "street": "71 25TH ST W", "postcode": "59102"}}},
{"geometry": {"type": "Point", "coordinates": [-108.5763004962, 45.7864198874]}, "type": "Feature", "properties": {"collection_times": [{"days": "Mon-Fri", "time": "5:00pm"}, {"days": "Sat-Sun", "time": "Closed"}], "id": "5910200066", "name": "USPS COLLECTION BOX - BLUE BOX", "address": {"city": "BILLINGS", "state": "MT", "street": "1643 24TH ST W", "postcode": "59102"}}},
{"geometry": {"type": "Point", "coordinates": [-108.5945182506, 45.7842546753]}, "type": "Feature", "properties": {"collection_times": [{"days": "Mon-Sat", "time": "5:15pm"}, {"days": "Sun", "time": "Closed"}], "id": "5910200067", "name": "USPS COLLECTION BOX - BLUE BOX", "address": {"city": "BILLINGS", "state": "MT", "street": "3137 GRAND AVE", "postcode": "59102"}}},
{"geometry": {"type": "Point", "coordinates": [-108.5762274372, 45.781975123]}, "type": "Feature", "properties": {"collection_times": [{"days": "Mon-Fri", "time": "5:15pm"}, {"days": "Sat-Sun", "time": "Closed"}], "id": "5910200068", "name": "USPS COLLECTION BOX - BLUE BOX", "address": {"city": "BILLINGS", "state": "MT", "street": "1211 24TH ST W", "postcode": "59102"}}},
{"geometry": {"type": "Point", "coordinates": [-108.5580040691, 45.7806703286]}, "type": "Feature", "properties": {"collection_times": [{"days": "Mon-Fri", "time": "5:30pm"}, {"days": "Sat-Sun", "time": "Closed"}], "id": "5910200070", "name": "USPS COLLECTION BOX - BLUE BOX", "address": {"city": "BILLINGS", "state": "MT", "street": "1643 LEWIS AVE", "postcode": "59102"}}},
{"geometry": {"type": "Point", "coordinates": [-108.5763671957, 45.7646360294]}, "type": "Feature", "properties": {"collection_times": [{"days": "Mon-Fri", "time": "4:45pm"}, {"days": "Sat", "time": "5:15pm"}, {"days": "Sun", "time": "Closed"}], "id": "5910200072", "name": "USPS COLLECTION BOX - BLUE BOX", "address": {"city": "BILLINGS", "state": "MT", "street": "300 S 24TH ST W", "postcode": "59102"}}},
{"geometry": {"type": "Point", "coordinates": [-108.576115977, 45.7675765868]}, "type": "Feature", "properties": {"collection_times": [{"days": "Mon-Fri", "time": "4:45pm"}, {"days": "Sat-Sun", "time": "Closed"}], "id": "5910200073", "name": "USPS COLLECTION BOX - BLUE BOX", "address": {"city": "BILLINGS", "state": "MT", "street": "111 S 24TH ST W", "postcode": "59102"}}},
{"geometry": {"type": "Point", "coordinates": [-108.5464922877, 45.7840279682]}, "type": "Feature", "properties": {"collection_times": [{"days": "Mon-Fri", "time": "4:45pm"}, {"days": "Sat-Sun", "time": "Closed"}], "id": "5910200074", "name": "USPS COLLECTION BOX - BLUE BOX", "address": {"city": "BILLINGS", "state": "MT", "street": "1212 GRAND AVE", "postcode": "59102"}}},
{"geometry": {"type": "Point", "coordinates": [-108.5304743301, 45.7698948446]}, "type": "Feature", "properties": {"collection_times": [{"days": "Mon-Fri", "time": "4:30pm"}, {"days": "Sat", "time": "5:45pm"}, {"days": "Sun", "time": "Closed"}], "id": "5910200078", "name": "USPS COLLECTION BOX - BLUE BOX", "address": {"city": "BILLINGS", "state": "MT", "street": "511 CENTRAL AVE", "postcode": "59102"}}},
{"geometry": {"type": "Point", "coordinates": [-108.5756390326, 45.7523100625]}, "type": "Feature", "properties": {"collection_times": [{"days": "Mon-Fri", "time": "5:30pm"}, {"days": "Sat", "time": "2:45pm"}, {"days": "Sun", "time": "Closed"}], "id": "5910200084", "name": "USPS COLLECTION BOX - PO LOBBY", "address": {"city": "BILLINGS", "state": "MT", "street": "2250 GRANT RD", "postcode": "59102"}}},
{"geometry": {"type": "Point", "coordinates": [-108.5756390326, 45.7523100625]}, "type": "Feature", "properties": {"collection_times": [{"days": "Mon-Fri", "time": "5:30pm"}, {"days": "Sat", "time": "2:45pm"}, {"days": "Sun", "time": "Closed"}], "id": "5910200085", "name": "USPS COLLECTION BOX - PO LOBBY", "address": {"city": "BILLINGS", "state": "MT", "street": "2250 GRANT RD", "postcode": "59102"}}},
{"geometry": {"type": "Point", "coordinates": [-108.5756390326, 45.7523100625]}, "type": "Feature", "properties": {"collection_times": [{"days": "Mon-Fri", "time": "5:30pm"}, {"days": "Sat", "time": "2:45pm"}, {"days": "Sun", "time": "Closed"}], "id": "5910200086", "name": "USPS COLLECTION BOX - PO LOBBY", "address": {"city": "BILLINGS", "state": "MT", "street": "2250 GRANT RD", "postcode": "59102"}}},
{"geometry": {"type": "Point", "coordinates": [-108.5756390326, 45.7523100625]}, "type": "Feature", "properties": {"collection_times": [{"days": "Mon-Fri", "time": "5:30pm"}, {"days": "Sat", "time": "2:45pm"}, {"days": "Sun", "time": "Closed"}], "id": "5910200087", "name": "USPS COLLECTION BOX - PO LOBBY", "address": {"city": "BILLINGS", "state": "MT", "street": "2250 GRANT RD", "postcode": "59102"}}},
{"geometry": {"type": "Point", "coordinates": [-108.5746708549, 45.769739869]}, "type": "Feature", "properties": {"collection_times": [{"days": "Mon-Fri", "time": "4:45pm"}, {"days": "Sat-Sun", "time": "Closed"}], "id": "5910200089", "name": "USPS COLLECTION BOX - BLUE BOX", "address": {"city": "BILLINGS", "state": "MT", "street": "2334 CENTRAL AVE", "postcode": "59102"}}},
{"geometry": {"type": "Point", "coordinates": [-108.5796628999, 45.7553134799]}, "type": "Feature", "properties": {"collection_times": [{"days": "Mon-Fri", "time": "4:45pm"}, {"days": "Sat", "time": "5:30pm"}, {"days": "Sun", "time": "Closed"}], "id": "5910200091", "name": "USPS COLLECTION BOX - BLUE BOX", "address": {"city": "BILLINGS", "state": "MT", "street": "2525 KING AVE W", "postcode": "59102"}}},
{"geometry": {"type": "Point", "coordinates": [-108.5896463961, 45.7839905273]}, "type": "Feature", "properties": {"collection_times": [{"days": "Mon-Sat", "time": "5:00pm"}, {"days": "Sun", "time": "Closed"}], "id": "5910200095", "name": "USPS COLLECTION BOX - BLUE BOX", "address": {"city": "BILLINGS", "state": "MT", "street": "3031 GRAND AVE", "postcode": "59102"}}},
{"geometry": {"type": "Point", "coordinates": [-108.5765139794, 45.7832632456]}, "type": "Feature", "properties": {"collection_times": [{"days": "Mon-Fri", "time": "5:15pm"}, {"days": "Sat-Sun", "time": "Closed"}], "id": "5910200103", "name": "USPS COLLECTION BOX - BLUE BOX", "address": {"city": "BILLINGS", "state": "MT", "street": "1302 24TH ST W", "postcode": "59102"}}},
{"geometry": {"type": "Point", "coordinates": [-108.5701042983, 45.7578530724]}, "type": "Feature", "properties": {"collection_times": [{"days": "Mon-Fri", "time": "4:30pm"}, {"days": "Sat-Sun", "time": "Closed"}], "id": "5910200104", "name": "USPS COLLECTION BOX - BLUE BOX", "address": {"city": "BILLINGS", "state": "MT", "street": "2121 ROSEBUD DR", "postcode": "59102"}}},
{"geometry": {"type": "Point", "coordinates": [-108.5756390326, 45.7523100625]}, "type": "Feature", "properties": {"collection_times": [{"days": "Mon-Fri", "time": "5:30pm"}, {"days": "Sat", "time": "2:45pm"}, {"days": "Sun", "time": "Closed"}], "id": "5910200105", "name": "USPS COLLECTION BOX - APC", "address": {"city": "BILLINGS", "state": "MT", "street": "2250 GRANT RD", "postcode": "59102"}}},
{"geometry": {"type": "Point", "coordinates": [-108.5539305034, 45.7772549891]}, "type": "Feature", "properties": {"collection_times": [{"days": "Mon-Fri", "time": "5:45pm"}, {"days": "Sat", "time": "5:15pm"}, {"days": "Sun", "time": "Closed"}], "id": "5910200106", "name": "USPS COLLECTION BOX - APC", "address": {"city": "BILLINGS", "state": "MT", "street": "724 15TH ST W", "postcode": "59102"}}},
{"geometry": {"type": "Point", "coordinates": [-108.5539305034, 45.7772549891]}, "type": "Feature", "properties": {"collection_times": [{"days": "Mon-Fri", "time": "5:45pm"}, {"days": "Sat", "time": "3:30pm"}, {"days": "Sun", "time": "Closed"}], "id": "5910200107", "name": "USPS COLLECTION BOX - PO LOBBY", "address": {"city": "BILLINGS", "state": "MT", "street": "724 15TH ST W", "postcode": "59102"}}},
{"geometry": {"type": "Point", "coordinates": [-108.5576706682, 45.7841567131]}, "type": "Feature", "properties": {"collection_times": [{"days": "Mon-Fri", "time": "4:45pm"}, {"days": "Sat-Sun", "time": "Closed"}], "id": "5910200110", "name": "USPS COLLECTION BOX - BLUE BOX", "address": {"city": "BILLINGS", "state": "MT", "street": "1603 GRAND AVE", "postcode": "59102"}}},
{"geometry": {"type": "Point", "coordinates": [-108.4706766281, 45.8185480296]}, "type": "Feature", "properties": {"collection_times": [{"days": "Mon-Fri", "time": "6:00pm"}, {"days": "Sat", "time": "3:00pm"}, {"days": "Sun", "time": "Closed"}], "id": "5910500002", "name": "USPS COLLECTION BOX - BLUE BOX", "address": {"city": "BILLINGS", "state": "MT", "street": "1327 MAIN ST", "postcode": "59105"}}},
{"geometry": {"type": "Point", "coordinates": [-108.4765208245, 45.8051253853]}, "type": "Feature", "properties": {"collection_times": [{"days": "Mon-Fri", "time": "6:00pm"}, {"days": "Sat", "time": "4:00pm"}, {"days": "Sun", "time": "Closed"}], "id": "5910500006", "name": "USPS COLLECTION BOX - BLUE BOX", "address": {"city": "BILLINGS", "state": "MT", "street": "670 MAIN ST", "postcode": "59105"}}},
{"geometry": {"type": "Point", "coordinates": [-108.475712792, 45.811904154]}, "type": "Feature", "properties": {"collection_times": [{"days": "Mon-Fri", "time": "6:00pm"}, {"days": "Sat", "time": "4:00pm"}, {"days": "Sun", "time": "Closed"}], "id": "5910500007", "name": "USPS COLLECTION BOX - BLUE BOX", "address": {"city": "BILLINGS", "state": "MT", "street": "515 HANSEN LN", "postcode": "59105"}}},
{"geometry": {"type": "Point", "coordinates": [-108.5347183129, 45.8031681699]}, "type": "Feature", "properties": {"collection_times": [{"days": "Mon-Fri", "time": "4:30pm"}, {"days": "Sat", "time": "3:00pm"}, {"days": "Sun", "time": "Closed"}], "id": "5910500009", "name": "USPS COLLECTION BOX - BLUE BOX", "address": {"city": "BILLINGS", "state": "MT", "street": "1901 TERMINAL CIR", "postcode": "59105"}}},
{"geometry": {"type": "Point", "coordinates": [-108.475712792, 45.811904154]}, "type": "Feature", "properties": {"collection_times": [{"days": "Mon-Fri", "time": "6:00pm"}, {"days": "Sat", "time": "4:00pm"}, {"days": "Sun", "time": "Closed"}], "id": "5910500010", "name": "USPS COLLECTION BOX - BLUE BOX", "address": {"city": "BILLINGS", "state": "MT", "street": "515 HANSEN LN", "postcode": "59105"}}},
{"geometry": {"type": "Point", "coordinates": [-108.4681310716, 45.8273389507]}, "type": "Feature", "properties": {"collection_times": [{"days": "Mon-Fri", "time": "5:45pm"}, {"days": "Sat", "time": "2:00pm"}, {"days": "Sun", "time": "Closed"}], "id": "5910500012", "name": "USPS COLLECTION BOX - PO LOBBY", "address": {"city": "BILLINGS", "state": "MT", "street": "710 WICKS LN", "postcode": "59105"}}},
{"geometry": {"type": "Point", "coordinates": [-108.4681310716, 45.8273389507]}, "type": "Feature", "properties": {"collection_times": [{"days": "Mon-Fri", "time": "5:45pm"}, {"days": "Sat", "time": "2:00pm"}, {"days": "Sun", "time": "Closed"}], "id": "5910500013", "name": "USPS COLLECTION BOX - PO LOBBY", "address": {"city": "BILLINGS", "state": "MT", "street": "710 WICKS LN", "postcode": "59105"}}},
{"geometry": {"type": "Point", "coordinates": [-108.4681310716, 45.8273389507]}, "type": "Feature", "properties": {"collection_times": [{"days": "Mon-Fri", "time": "5:45pm"}, {"days": "Sat", "time": "2:00pm"}, {"days": "Sun", "time": "Closed"}], "id": "5910500014", "name": "USPS COLLECTION BOX - PO LOBBY", "address": {"city": "BILLINGS", "state": "MT", "street": "710 WICKS LN", "postcode": "59105"}}},
{"geometry": {"type": "Point", "coordinates": [-108.4681310716, 45.8273389507]}, "type": "Feature", "properties": {"collection_times": [{"days": "Mon-Fri", "time": "5:45pm"}, {"days": "Sat", "time": "2:00pm"}, {"days": "Sun", "time": "Closed"}], "id": "5910500020", "name": "USPS COLLECTION BOX - BLUE BOX", "address": {"city": "BILLINGS", "state": "MT", "street": "710 WICKS LN", "postcode": "59105"}}},
{"geometry": {"type": "Point", "coordinates": [-108.4694093651, 45.8335375153]}, "type": "Feature", "properties": {"collection_times": [{"days": "Mon-Fri,Sun", "time": "Closed"}, {"days": "Sat", "time": "3:30pm"}], "id": "5910500021", "name": "USPS COLLECTION BOX - EXPRESS", "address": {"city": "BILLINGS", "state": "MT", "street": "710 WICKS LN", "postcode": "59105"}}}
]}
