{"type": "FeatureCollection", "features": [
{"geometry": {"type": "Point", "coordinates": [-105.6378557665, 48.091766934]}, "type": "Feature", "properties": {"collection_times": [{"days": "Mon-Sat", "time": "6:00pm"}, {"days": "Sun", "time": "Closed"}], "id": "5920100000", "name": "USPS COLLECTION BOX - BLUE BOX", "address": {"city": "WOLFPOINT", "state": "MT", "street": "131 FRONT ST", "postcode": "59201"}}},
{"geometry": {"type": "Point", "coordinates": [-105.6408215409, 48.0896893845]}, "type": "Feature", "properties": {"collection_times": [{"days": "Mon-Fri", "time": "11:30am"}, {"days": "Sat-Sun", "time": "Closed"}], "id": "5920100004", "name": "USPS COLLECTION BOX - BLUE BOX", "address": {"city": "WOLFPOINT", "state": "MT", "street": "217 3RD AVE S", "postcode": "59201"}}},
{"geometry": {"type": "Point", "coordinates": [-105.6374448622, 48.0881557272]}, "type": "Feature", "properties": {"collection_times": [{"days": "Mon-Fri", "time": "11:30am"}, {"days": "Sat-Sun", "time": "Closed"}], "id": "5920100005", "name": "USPS COLLECTION BOX - BLUE BOX", "address": {"city": "WOLFPOINT", "state": "MT", "street": "400 2ND AVE S", "postcode": "59201"}}},
{"geometry": {"type": "Point", "coordinates": [-105.6378557665, 48.091766934]}, "type": "Feature", "properties": {"collection_times": [{"days": "Mon-Sat", "time": "6:00pm"}, {"days": "Sun", "time": "Closed"}], "id": "5920100006", "name": "USPS COLLECTION BOX - PO LOBBY", "address": {"city": "WOLFPOINT", "state": "MT", "street": "131 FRONT ST", "postcode": "59201"}}},
{"geometry": {"type": "Point", "coordinates": [-105.6378557665, 48.091766934]}, "type": "Feature", "properties": {"collection_times": [{"days": "Mon-Sat", "time": "6:00pm"}, {"days": "Sun", "time": "Closed"}], "id": "5920100008", "name": "USPS COLLECTION BOX - PO LOBBY", "address": {"city": "WOLFPOINT", "state": "MT", "street": "131 FRONT ST", "postcode": "59201"}}},
{"geometry": {"type": "Point", "coordinates": [-105.6378557665, 48.091766934]}, "type": "Feature", "properties": {"collection_times": [{"days": "Mon-Sat", "time": "6:00pm"}, {"days": "Sun", "time": "Closed"}], "id": "5920100010", "name": "USPS COLLECTION BOX - PO LOBBY", "address": {"city": "WOLFPOINT", "state": "MT", "street": "131 FRONT ST", "postcode": "59201"}}},
{"geometry": {"type": "Point", "coordinates": [-105.6378557665, 48.091766934]}, "type": "Feature", "properties": {"collection_times": [{"days": "Mon-Sat", "time": "6:00pm"}, {"days": "Sun", "time": "Closed"}], "id": "5920100011", "name": "USPS COLLECTION BOX - PO LOBBY", "address": {"city": "WOLFPOINT", "state": "MT", "street": "131 FRONT ST", "postcode": "59201"}}},
{"geometry": {"type": "Point", "coordinates": [-104.4040202944, 48.6761903892]}, "type": "Feature", "properties": {"collection_times": [{"days": "Mon-Sat", "time": "12:00pm"}, {"days": "Sun", "time": "Closed"}], "id": "5921100000", "name": "USPS COLLECTION BOX - PO LOBBY", "address": {"city": "ANTELOPE", "state": "MT", "street": "104 MAIN ST", "postcode": "59211"}}},
{"geometry": {"type": "Point", "coordinates": [-104.1712076207, 48.1805850572]}, "type": "Feature", "properties": {"collection_times": [{"days": "Mon-Fri", "time": "3:00pm"}, {"days": "Sat", "time": "9:45am"}, {"days": "Sun", "time": "Closed"}], "id": "5921200001", "name": "USPS COLLECTION BOX - PO LOBBY", "address": {"city": "BAINVILLE", "state": "MT", "street": "306 CLINTON AVE", "postcode": "59212"}}},
{"geometry": {"type": "Point", "coordinates": [-104.1712076207, 48.1805850572]}, "type": "Feature", "properties": {"collection_times": [{"days": "Mon-Fri", "time": "3:00pm"}, {"days": "Sat", "time": "9:45am"}, {"days": "Sun", "time": "Closed"}], "id": "5921200002", "name": "USPS COLLECTION BOX - PO LOBBY", "address": {"city": "BAINVILLE", "state": "MT", "street": "306 CLINTON AVE", "postcode": "59212"}}},
{"geometry": {"type": "Point", "coordinates": [-104.918029162, 48.149787538]}, "type": "Feature", "properties": {"collection_times": [{"days": "Mon-Fri", "time": "4:45pm"}, {"days": "Sat", "time": "9:45am"}, {"days": "Sun", "time": "Closed"}], "id": "5921300000", "name": "USPS COLLECTION BOX - BLUE BOX", "address": {"city": "BROCKTON", "state": "MT", "street": "701 B ST", "postcode": "59213"}}},
{"geometry": {"type": "Point", "coordinates": [-104.918029162, 48.149787538]}, "type": "Feature", "properties": {"collection_times": [{"days": "Mon-Fri", "time": "12:00pm"}, {"days": "Sat", "time": "9:45am"}, {"days": "Sun", "time": "Closed"}], "id": "5921300001", "name": "USPS COLLECTION BOX - PO LOBBY", "address": {"city": "BROCKTON", "state": "MT", "street": "701 B ST", "postcode": "59213"}}},
{"geometry": {"type": "Point", "coordinates": [-104.918029162, 48.149787538]}, "type": "Feature", "properties": {"collection_times": [{"days": "Mon-Fri", "time": "12:00pm"}, {"days": "Sat", "time": "9:45am"}, {"days": "Sun", "time": "Closed"}], "id": "5921300002", "name": "USPS COLLECTION BOX - PO LOBBY", "address": {"city": "BROCKTON", "state": "MT", "street": "701 B ST", "postcode": "59213"}}},
{"geometry": {"type": "Point", "coordinates": [-105.7634927395, 47.2999143008]}, "type": "Feature", "properties": {"collection_times": [{"days": "Mon-Fri", "time": "4:15pm"}, {"days": "Sat", "time": "3:00pm"}, {"days": "Sun", "time": "Closed"}], "id": "5921400000", "name": "USPS COLLECTION BOX - PO LOBBY", "address": {"city": "BROCKWAY", "state": "MT", "street": "306 2ND AVE", "postcode": "59214"}}},
{"geometry": {"type": "Point", "coordinates": [-105.7634927395, 47.2999143008]}, "type": "Feature", "properties": {"collection_times": [{"days": "Mon-Fri", "time": "4:15pm"}, {"days": "Sat", "time": "3:00pm"}, {"days": "Sun", "time": "Closed"}], "id": "5921400001", "name": "USPS COLLECTION BOX - PO LOBBY", "address": {"city": "BROCKWAY", "state": "MT", "street": "306 2ND AVE", "postcode": "59214"}}},
{"geometry": {"type": "Point", "coordinates": [-105.5890564238, 47.4188138346]}, "type": "Feature", "properties": {"collection_times": [{"days": "Mon-Fri", "time": "4:20pm"}, {"days": "Sat", "time": "11:00am"}, {"days": "Sun", "time": "Closed"}], "id": "5921500000", "name": "USPS COLLECTION BOX - BLUE BOX", "address": {"city": "CIRCLE", "state": "MT", "street": "301 8TH ST", "postcode": "59215"}}},
{"geometry": {"type": "Point", "coordinates": [-105.5890564238, 47.4188138346]}, "type": "Feature", "properties": {"collection_times": [{"days": "Mon-Fri", "time": "4:45pm"}, {"days": "Sat", "time": "11:00am"}, {"days": "Sun", "time": "Closed"}], "id": "5921500001", "name": "USPS COLLECTION BOX - PO LOBBY", "address": {"city": "CIRCLE", "state": "MT", "street": "301 8TH ST", "postcode": "59215"}}},
{"geometry": {"type": "Point", "coordinates": [-105.5890564238, 47.4188138346]}, "type": "Feature", "properties": {"collection_times": [{"days": "Mon-Fri", "time": "4:45pm"}, {"days": "Sat", "time": "11:00am"}, {"days": "Sun", "time": "Closed"}], "id": "5921500002", "name": "USPS COLLECTION BOX - PO LOBBY", "address": {"city": "CIRCLE", "state": "MT", "street": "301 8TH ST", "postcode": "59215"}}},
{"geometry": {"type": "Point", "coordinates": [-104.2623793949, 47.5758279166]}, "type": "Feature", "properties": {"collection_times": [{"days": "Mon-Fri", "time": "11:00am"}, {"days": "Sat", "time": "10:45am"}, {"days": "Sun", "time": "Closed"}], "id": "5921700001", "name": "USPS COLLECTION BOX - PO LOBBY", "address": {"city": "CRANE", "state": "MT", "street": "117 GARFIELD AVE", "postcode": "59217"}}},
{"geometry": {"type": "Point", "coordinates": [-104.2623793949, 47.5758279166]}, "type": "Feature", "properties": {"collection_times": [{"days": "Mon-Fri", "time": "11:00am"}, {"days": "Sat", "time": "10:45am"}, {"days": "Sun", "time": "Closed"}], "id": "5921700002", "name": "USPS COLLECTION BOX - PO LOBBY", "address": {"city": "CRANE", "state": "MT", "street": "117 GARFIELD AVE", "postcode": "59217"}}},
{"geometry": {"type": "Point", "coordinates": [-104.4709037489, 48.169437578]}, "type": "Feature", "properties": {"collection_times": [{"days": "Mon-Fri", "time": "4:30pm"}, {"days": "Sat", "time": "10:00am"}, {"days": "Sun", "time": "Closed"}], "id": "5921800001", "name": "USPS COLLECTION BOX - PO LOBBY", "address": {"city": "CULBERTSON", "state": "MT", "street": "21 3RD ST E", "postcode": "59218"}}},
{"geometry": {"type": "Point", "coordinates": [-104.4709037489, 48.169437578]}, "type": "Feature", "properties": {"collection_times": [{"days": "Mon-Fri", "time": "4:30pm"}, {"days": "Sat", "time": "10:00am"}, {"days": "Sun", "time": "Closed"}], "id": "5921800002", "name": "USPS COLLECTION BOX - PO LOBBY", "address": {"city": "CULBERTSON", "state": "MT", "street": "21 3RD ST E", "postcode": "59218"}}},
{"geometry": {"type": "Point", "coordinates": [-104.1627425836, 48.5549320715]}, "type": "Feature", "properties": {"collection_times": [{"days": "Mon-Fri", "time": "1:15pm"}, {"days": "Sat", "time": "12:45pm"}, {"days": "Sun", "time": "Closed"}], "id": "5921900000", "name": "USPS COLLECTION BOX - PO LOBBY", "address": {"city": "DAGMAR", "state": "MT", "street": "205 W CENTRAL AVE", "postcode": "59219"}}},
{"geometry": {"type": "Point", "coordinates": [-104.1627425836, 48.5549320715]}, "type": "Feature", "properties": {"collection_times": [{"days": "Mon-Fri", "time": "1:15pm"}, {"days": "Sat", "time": "12:45pm"}, {"days": "Sun", "time": "Closed"}], "id": "5921900001", "name": "USPS COLLECTION BOX - PO LOBBY", "address": {"city": "DAGMAR", "state": "MT", "street": "205 W CENTRAL AVE", "postcode": "59219"}}},
{"geometry": {"type": "Point", "coordinates": [-104.0448035608, 47.8521330288]}, "type": "Feature", "properties": {"collection_times": [{"days": "Mon-Fri", "time": "3:15pm"}, {"days": "Sat", "time": "10:00am"}, {"days": "Sun", "time": "Closed"}], "id": "5922100000", "name": "USPS COLLECTION BOX - BLUE BOX", "address": {"city": "FAIRVIEW", "state": "MT", "street": "515 S ELLERY AVE", "postcode": "59221"}}},
{"geometry": {"type": "Point", "coordinates": [-104.0448035608, 47.8521330288]}, "type": "Feature", "properties": {"collection_times": [{"days": "Mon-Fri", "time": "3:15pm"}, {"days": "Sat", "time": "10:00am"}, {"days": "Sun", "time": "Closed"}], "id": "5922100001", "name": "USPS COLLECTION BOX - PO LOBBY", "address": {"city": "FAIRVIEW", "state": "MT", "street": "515 S ELLERY AVE", "postcode": "59221"}}},
{"geometry": {"type": "Point", "coordinates": [-104.0448035608, 47.8521330288]}, "type": "Feature", "properties": {"collection_times": [{"days": "Mon-Fri", "time": "3:15pm"}, {"days": "Sat", "time": "10:00am"}, {"days": "Sun", "time": "Closed"}], "id": "5922100002", "name": "USPS COLLECTION BOX - PO LOBBY", "address": {"city": "FAIRVIEW", "state": "MT", "street": "515 S ELLERY AVE", "postcode": "59221"}}},
{"geometry": {"type": "Point", "coordinates": [-105.1730679695, 48.8034833798]}, "type": "Feature", "properties": {"collection_times": [{"days": "Mon-Fri", "time": "12:00pm"}, {"days": "Sat", "time": "10:45am"}, {"days": "Sun", "time": "Closed"}], "id": "5922200001", "name": "USPS COLLECTION BOX - PO LOBBY", "address": {"city": "FLAXVILLE", "state": "MT", "street": "101 MAIN ST", "postcode": "59222"}}},
{"geometry": {"type": "Point", "coordinates": [-106.0441188963, 48.0586389589]}, "type": "Feature", "properties": {"collection_times": [{"days": "Mon-Fri", "time": "4:15pm"}, {"days": "Sat", "time": "9:45am"}, {"days": "Sun", "time": "Closed"}], "id": "5922500000", "name": "USPS COLLECTION BOX - BLUE BOX", "address": {"city": "FRAZER", "state": "MT", "street": "432 5TH ST", "postcode": "59225"}}},
{"geometry": {"type": "Point", "coordinates": [-106.0441188963, 48.0586389589]}, "type": "Feature", "properties": {"collection_times": [{"days": "Mon-Fri", "time": "2:00pm"}, {"days": "Sat", "time": "9:45am"}, {"days": "Sun", "time": "Closed"}], "id": "5922500001", "name": "USPS COLLECTION BOX - PO LOBBY", "address": {"city": "FRAZER", "state": "MT", "street": "432 5TH ST", "postcode": "59225"}}},
{"geometry": {"type": "Point", "coordinates": [-104.4909891959, 48.3336349191]}, "type": "Feature", "properties": {"collection_times": [{"days": "Mon-Fri", "time": "4:15pm"}, {"days": "Sat", "time": "9:45am"}, {"days": "Sun", "time": "Closed"}], "id": "5922600001", "name": "USPS COLLECTION BOX - PO LOBBY", "address": {"city": "FROID", "state": "MT", "street": "111 2ND AVE S", "postcode": "59226"}}},
{"geometry": {"type": "Point", "coordinates": [-104.4909891959, 48.3336349191]}, "type": "Feature", "properties": {"collection_times": [{"days": "Mon-Fri", "time": "4:15pm"}, {"days": "Sat", "time": "9:45am"}, {"days": "Sun", "time": "Closed"}], "id": "5922600002", "name": "USPS COLLECTION BOX - PO LOBBY", "address": {"city": "FROID", "state": "MT", "street": "111 2ND AVE S", "postcode": "59226"}}},
{"geometry": {"type": "Point", "coordinates": [-106.622063188, 48.3729763973]}, "type": "Feature", "properties": {"collection_times": [{"days": "Mon-Fri", "time": "4:10pm"}, {"days": "Sat-Sun", "time": "Closed"}], "id": "5923000000", "name": "USPS COLLECTION BOX - BLUE BOX", "address": {"city": "GLASGOW", "state": "MT", "street": "501 COURT SQ", "postcode": "59230"}}},
{"geometry": {"type": "Point", "coordinates": [-106.6374439081, 48.1941533788]}, "type": "Feature", "properties": {"collection_times": [{"days": "Mon-Fri", "time": "4:10pm"}, {"days": "Sat", "time": "4:00pm"}, {"days": "Sun", "time": "Closed"}], "id": "5923000009", "name": "USPS COLLECTION BOX - PO LOBBY", "address": {"city": "GLASGOW", "state": "MT", "street": "605 2ND AVE S", "postcode": "59230"}}},
{"geometry": {"type": "Point", "coordinates": [-106.6303334327, 48.2038711286]}, "type": "Feature", "properties": {"collection_times": [{"days": "Mon-Sat", "time": "8:30am"}, {"days": "Sun", "time": "Closed"}], "id": "5923000010", "name": "USPS COLLECTION BOX - PO LOBBY", "address": {"city": "GLASGOW", "state": "MT", "street": "528 6TH ST N", "postcode": "59230"}}},
{"geometry": {"type": "Point", "coordinates": [-106.6374439081, 48.1941533788]}, "type": "Feature", "properties": {"collection_times": [{"days": "Mon-Fri", "time": "4:10pm"}, {"days": "Sat", "time": "4:00pm"}, {"days": "Sun", "time": "Closed"}], "id": "5923000011", "name": "USPS COLLECTION BOX - PO LOBBY", "address": {"city": "GLASGOW", "state": "MT", "street": "605 2ND AVE S", "postcode": "59230"}}},
{"geometry": {"type": "Point", "coordinates": [-106.6374439081, 48.1941533788]}, "type": "Feature", "properties": {"collection_times": [{"days": "Mon-Fri", "time": "4:10pm"}, {"days": "Sat", "time": "4:00pm"}, {"days": "Sun", "time": "Closed"}], "id": "5923000012", "name": "USPS COLLECTION BOX - PO LOBBY", "address": {"city": "GLASGOW", "state": "MT", "street": "605 2ND AVE S", "postcode": "59230"}}},
{"geometry": {"type": "Point", "coordinates": [-106.6374439081, 48.1941533788]}, "type": "Feature", "properties": {"collection_times": [{"days": "Mon-Fri", "time": "4:10pm"}, {"days": "Sat", "time": "4:00pm"}, {"days": "Sun", "time": "Closed"}], "id": "5923000013", "name": "USPS COLLECTION BOX - PO LOBBY", "address": {"city": "GLASGOW", "state": "MT", "street": "605 2ND AVE S", "postcode": "59230"}}},
{"geometry": {"type": "Point", "coordinates": [-107.0850916935, 48.3940323434]}, "type": "Feature", "properties": {"collection_times": [{"days": "Mon-Fri", "time": "3:00pm"}, {"days": "Sat", "time": "9:30am"}, {"days": "Sun", "time": "Closed"}], "id": "5924100001", "name": "USPS COLLECTION BOX - PO LOBBY", "address": {"city": "HINSDALE", "state": "MT", "street": "217 MONTANA ST", "postcode": "59241"}}},
{"geometry": {"type": "Point", "coordinates": [-107.0850916935, 48.3940323434]}, "type": "Feature", "properties": {"collection_times": [{"days": "Mon-Fri", "time": "3:00pm"}, {"days": "Sat", "time": "9:30am"}, {"days": "Sun", "time": "Closed"}], "id": "5924100002", "name": "USPS COLLECTION BOX - PO LOBBY", "address": {"city": "HINSDALE", "state": "MT", "street": "217 MONTANA ST", "postcode": "59241"}}},
{"geometry": {"type": "Point", "coordinates": [-104.7394988931, 47.7580265451]}, "type": "Feature", "properties": {"collection_times": [{"days": "Mon-Fri", "time": "2:30pm"}, {"days": "Sat", "time": "11:00am"}, {"days": "Sun", "time": "Closed"}], "id": "5924300000", "name": "USPS COLLECTION BOX - PO LOBBY", "address": {"city": "LAMBERT", "state": "MT", "street": "15 MAIN ST", "postcode": "59243"}}},
{"geometry": {"type": "Point", "coordinates": [-104.7394988931, 47.7580265451]}, "type": "Feature", "properties": {"collection_times": [{"days": "Mon-Fri", "time": "2:30pm"}, {"days": "Sat", "time": "11:00am"}, {"days": "Sun", "time": "Closed"}], "id": "5924300001", "name": "USPS COLLECTION BOX - PO LOBBY", "address": {"city": "LAMBERT", "state": "MT", "street": "15 MAIN ST", "postcode": "59243"}}},
{"geometry": {"type": "Point", "coordinates": [-104.3946843161, 48.469927925]}, "type": "Feature", "properties": {"collection_times": [{"days": "Mon-Fri", "time": "2:30pm"}, {"days": "Sat", "time": "9:45am"}, {"days": "Sun", "time": "Closed"}], "id": "5924700000", "name": "USPS COLLECTION BOX - PO LOBBY", "address": {"city": "MEDICINE LAKE", "state": "MT", "street": "107 2ND AVE N", "postcode": "59247"}}},
{"geometry": {"type": "Point", "coordinates": [-104.3946843161, 48.469927925]}, "type": "Feature", "properties": {"collection_times": [{"days": "Mon-Fri", "time": "2:30pm"}, {"days": "Sat", "time": "9:45am"}, {"days": "Sun", "time": "Closed"}], "id": "5924700001", "name": "USPS COLLECTION BOX - PO LOBBY", "address": {"city": "MEDICINE LAKE", "state": "MT", "street": "107 2ND AVE N", "postcode": "59247"}}},
{"geometry": {"type": "Point", "coordinates": [-106.3603436047, 48.1325958642]}, "type": "Feature", "properties": {"collection_times": [{"days": "Mon-Fri", "time": "3:30pm"}, {"days": "Sat", "time": "9:45am"}, {"days": "Sun", "time": "Closed"}], "id": "5924800000", "name": "USPS COLLECTION BOX - PO LOBBY", "address": {"city": "NASHUA", "state": "MT", "street": "1005 FRONT ST", "postcode": "59248"}}},
{"geometry": {"type": "Point", "coordinates": [-106.3603436047, 48.1325958642]}, "type": "Feature", "properties": {"collection_times": [{"days": "Mon-Fri", "time": "4:30pm"}, {"days": "Sat", "time": "9:30am"}, {"days": "Sun", "time": "Closed"}], "id": "5924800001", "name": "USPS COLLECTION BOX - BLUE BOX", "address": {"city": "NASHUA", "state": "MT", "street": "1005 FRONT ST", "postcode": "59248"}}},
{"geometry": {"type": "Point", "coordinates": [-106.3603436047, 48.1325958642]}, "type": "Feature", "properties": {"collection_times": [{"days": "Mon-Fri", "time": "3:30pm"}, {"days": "Sat", "time": "9:45am"}, {"days": "Sun", "time": "Closed"}], "id": "5924800002", "name": "USPS COLLECTION BOX - PO LOBBY", "address": {"city": "NASHUA", "state": "MT", "street": "1005 FRONT ST", "postcode": "59248"}}},
{"geometry": {"type": "Point", "coordinates": [-106.4073962611, 48.8576227679]}, "type": "Feature", "properties": {"collection_times": [{"days": "Mon-Fri", "time": "2:50pm"}, {"days": "Sat", "time": "12:15pm"}, {"days": "Sun", "time": "Closed"}], "id": "5925000000", "name": "USPS COLLECTION BOX - PO LOBBY", "address": {"city": "OPHEIM", "state": "MT", "street": "102 MAIN ST", "postcode": "59250"}}},
{"geometry": {"type": "Point", "coordinates": [-106.4073962611, 48.8576227679]}, "type": "Feature", "properties": {"collection_times": [{"days": "Mon-Fri", "time": "2:50pm"}, {"days": "Sat", "time": "12:15pm"}, {"days": "Sun", "time": "Closed"}], "id": "5925000001", "name": "USPS COLLECTION BOX - PO LOBBY", "address": {"city": "OPHEIM", "state": "MT", "street": "102 MAIN ST", "postcode": "59250"}}},
{"geometry": {"type": "Point", "coordinates": [-104.7495978332, 48.9047037677]}, "type": "Feature", "properties": {"collection_times": [{"days": "Mon-Fri", "time": "3:00pm"}, {"days": "Sat", "time": "12:00pm"}, {"days": "Sun", "time": "Closed"}], "id": "5925200000", "name": "USPS COLLECTION BOX - PO LOBBY", "address": {"city": "OUTLOOK", "state": "MT", "street": "202 MAIN ST", "postcode": "59252"}}},
{"geometry": {"type": "Point", "coordinates": [-105.8582696199, 48.7659469672]}, "type": "Feature", "properties": {"collection_times": [{"days": "Mon-Fri", "time": "1:00pm"}, {"days": "Sat", "time": "11:30am"}, {"days": "Sun", "time": "Closed"}], "id": "5925300000", "name": "USPS COLLECTION BOX - PO LOBBY", "address": {"city": "PEERLESS", "state": "MT", "street": "106 RAILROAD AVE E", "postcode": "59253"}}},
{"geometry": {"type": "Point", "coordinates": [-105.8582696199, 48.7659469672]}, "type": "Feature", "properties": {"collection_times": [{"days": "Mon-Fri", "time": "1:00pm"}, {"days": "Sat", "time": "11:30am"}, {"days": "Sun", "time": "Closed"}], "id": "5925300001", "name": "USPS COLLECTION BOX - PO LOBBY", "address": {"city": "PEERLESS", "state": "MT", "street": "106 RAILROAD AVE E", "postcode": "59253"}}},
{"geometry": {"type": "Point", "coordinates": [-104.5567282135, 48.7780268577]}, "type": "Feature", "properties": {"collection_times": [{"days": "Mon-Sat", "time": "3:20pm"}, {"days": "Sun", "time": "Closed"}], "id": "5925400001", "name": "USPS COLLECTION BOX - BLUE BOX", "address": {"city": "PLENTYWOOD", "state": "MT", "street": "100 W LAUREL AVE", "postcode": "59254"}}},
{"geometry": {"type": "Point", "coordinates": [-104.5583862111, 48.7753530267]}, "type": "Feature", "properties": {"collection_times": [{"days": "Mon-Sat", "time": "3:20pm"}, {"days": "Sun", "time": "Closed"}], "id": "5925400005", "name": "USPS COLLECTION BOX - BLUE BOX", "address": {"city": "PLENTYWOOD", "state": "MT", "street": "302 N MAIN ST", "postcode": "59254"}}},
{"geometry": {"type": "Point", "coordinates": [-104.5583862111, 48.7753530267]}, "type": "Feature", "properties": {"collection_times": [{"days": "Mon-Sat", "time": "3:20pm"}, {"days": "Sun", "time": "Closed"}], "id": "5925400006", "name": "USPS COLLECTION BOX - BLUE BOX", "address": {"city": "PLENTYWOOD", "state": "MT", "street": "302 N MAIN ST", "postcode": "59254"}}},
{"geometry": {"type": "Point", "coordinates": [-104.5583862111, 48.7753530267]}, "type": "Feature", "properties": {"collection_times": [{"days": "Mon-Fri", "time": "3:20pm"}, {"days": "Sat", "time": "12:00pm"}, {"days": "Sun", "time": "Closed"}], "id": "5925400009", "name": "USPS COLLECTION BOX - PO LOBBY", "address": {"city": "PLENTYWOOD", "state": "MT", "street": "302 N MAIN ST", "postcode": "59254"}}},
{"geometry": {"type": "Point", "coordinates": [-105.210639728, 48.3160981109]}, "type": "Feature", "properties": {"collection_times": [{"days": "Mon-Fri", "time": "4:30pm"}, {"days": "Sat", "time": "10:30am"}, {"days": "Sun", "time": "Closed"}], "id": "5925500000", "name": "USPS COLLECTION BOX - BLUE BOX", "address": {"city": "POPLAR", "state": "MT", "street": "105 E ST W", "postcode": "59255"}}},
{"geometry": {"type": "Point", "coordinates": [-105.210639728, 48.3160981109]}, "type": "Feature", "properties": {"collection_times": [{"days": "Mon-Fri", "time": "4:45pm"}, {"days": "Sat", "time": "10:30am"}, {"days": "Sun", "time": "Closed"}], "id": "5925500001", "name": "USPS COLLECTION BOX - PO LOBBY", "address": {"city": "POPLAR", "state": "MT", "street": "105 E ST W", "postcode": "59255"}}},
{"geometry": {"type": "Point", "coordinates": [-105.210639728, 48.3160981109]}, "type": "Feature", "properties": {"collection_times": [{"days": "Mon-Fri", "time": "4:45pm"}, {"days": "Sat", "time": "10:30am"}, {"days": "Sun", "time": "Closed"}], "id": "5925500002", "name": "USPS COLLECTION BOX - PO LOBBY", "address": {"city": "POPLAR", "state": "MT", "street": "105 E ST W", "postcode": "59255"}}},
{"geometry": {"type": "Point", "coordinates": [-105.210639728, 48.3160981109]}, "type": "Feature", "properties": {"collection_times": [{"days": "Mon-Fri", "time": "4:45pm"}, {"days": "Sat", "time": "10:30am"}, {"days": "Sun", "time": "Closed"}], "id": "5925500003", "name": "USPS COLLECTION BOX - PO LOBBY", "address": {"city": "POPLAR", "state": "MT", "street": "105 E ST W", "postcode": "59255"}}},
{"geometry": {"type": "Point", "coordinates": [-104.6120885767, 48.9549867698]}, "type": "Feature", "properties": {"collection_times": [{"days": "Mon-Fri", "time": "2:45pm"}, {"days": "Sat", "time": "11:50am"}, {"days": "Sun", "time": "Closed"}], "id": "5925600000", "name": "USPS COLLECTION BOX - PO LOBBY", "address": {"city": "RAYMOND", "state": "MT", "street": "310 RAYMOND RD", "postcode": "59256"}}},
{"geometry": {"type": "Point", "coordinates": [-104.624389733, 48.5478636661]}, "type": "Feature", "properties": {"collection_times": [{"days": "Mon-Fri", "time": "12:00pm"}, {"days": "Sat", "time": "9:15am"}, {"days": "Sun", "time": "Closed"}], "id": "5925800000", "name": "USPS COLLECTION BOX - PO LOBBY", "address": {"city": "RESERVE", "state": "MT", "street": "400 E CENTRAL AVE", "postcode": "59258"}}},
{"geometry": {"type": "Point", "coordinates": [-105.0705773109, 47.6455328171]}, "type": "Feature", "properties": {"collection_times": [{"days": "Mon-Fri", "time": "3:30pm"}, {"days": "Sat", "time": "10:45am"}, {"days": "Sun", "time": "Closed"}], "id": "5925900000", "name": "USPS COLLECTION BOX - BLUE BOX", "address": {"city": "RICHEY", "state": "MT", "street": "101 S MAIN ST", "postcode": "59259"}}},
{"geometry": {"type": "Point", "coordinates": [-105.0705773109, 47.6455328171]}, "type": "Feature", "properties": {"collection_times": [{"days": "Mon-Fri", "time": "3:30pm"}, {"days": "Sat", "time": "10:45am"}, {"days": "Sun", "time": "Closed"}], "id": "5925900001", "name": "USPS COLLECTION BOX - PO LOBBY", "address": {"city": "RICHEY", "state": "MT", "street": "101 S MAIN ST", "postcode": "59259"}}},
{"geometry": {"type": "Point", "coordinates": [-105.0705773109, 47.6455328171]}, "type": "Feature", "properties": {"collection_times": [{"days": "Mon-Fri", "time": "3:30pm"}, {"days": "Sat", "time": "10:45am"}, {"days": "Sun", "time": "Closed"}], "id": "5925900002", "name": "USPS COLLECTION BOX - PO LOBBY", "address": {"city": "RICHEY", "state": "MT", "street": "101 S MAIN ST", "postcode": "59259"}}},
{"geometry": {"type": "Point", "coordinates": [-105.0705773109, 47.6455328171]}, "type": "Feature", "properties": {"collection_times": [{"days": "Mon-Fri", "time": "3:30pm"}, {"days": "Sat", "time": "10:45am"}, {"days": "Sun", "time": "Closed"}], "id": "5925900003", "name": "USPS COLLECTION BOX - PO LOBBY", "address": {"city": "RICHEY", "state": "MT", "street": "101 S MAIN ST", "postcode": "59259"}}},
{"geometry": {"type": "Point", "coordinates": [-106.0522528585, 48.8203942247]}, "type": "Feature", "properties": {"collection_times": [{"days": "Mon-Fri", "time": "2:45pm"}, {"days": "Sat", "time": "11:45am"}, {"days": "Sun", "time": "Closed"}], "id": "5926000000", "name": "USPS COLLECTION BOX - PO LOBBY", "address": {"city": "RICHLAND", "state": "MT", "street": "74 MAIN ST", "postcode": "59260"}}},
{"geometry": {"type": "Point", "coordinates": [-106.0522528585, 48.8203942247]}, "type": "Feature", "properties": {"collection_times": [{"days": "Mon-Fri", "time": "2:45pm"}, {"days": "Sat", "time": "11:45am"}, {"days": "Sun", "time": "Closed"}], "id": "5926000001", "name": "USPS COLLECTION BOX - PO LOBBY", "address": {"city": "RICHLAND", "state": "MT", "street": "74 MAIN ST", "postcode": "59260"}}},
{"geometry": {"type": "Point", "coordinates": [-107.4506095967, 48.6372409888]}, "type": "Feature", "properties": {"collection_times": [{"days": "Mon-Fri", "time": "2:45pm"}, {"days": "Sat", "time": "9:20am"}, {"days": "Sun", "time": "Closed"}], "id": "5926100001", "name": "USPS COLLECTION BOX - PO LOBBY", "address": {"city": "SACO", "state": "MT", "street": "98 HIGHWAY 243", "postcode": "59261"}}},
{"geometry": {"type": "Point", "coordinates": [-107.4506095967, 48.6372409888]}, "type": "Feature", "properties": {"collection_times": [{"days": "Mon-Fri", "time": "2:45pm"}, {"days": "Sat", "time": "9:20am"}, {"days": "Sun", "time": "Closed"}], "id": "5926100002", "name": "USPS COLLECTION BOX - PO LOBBY", "address": {"city": "SACO", "state": "MT", "street": "98 HIGHWAY 243", "postcode": "59261"}}},
{"geometry": {"type": "Point", "coordinates": [-104.342352141, 47.4534876799]}, "type": "Feature", "properties": {"collection_times": [{"days": "Mon-Fri", "time": "2:30pm"}, {"days": "Sat", "time": "9:45am"}, {"days": "Sun", "time": "Closed"}], "id": "5926200001", "name": "USPS COLLECTION BOX - PO LOBBY", "address": {"city": "SAVAGE", "state": "MT", "street": "264 MAIN ST", "postcode": "59262"}}},
{"geometry": {"type": "Point", "coordinates": [-104.342352141, 47.4534876799]}, "type": "Feature", "properties": {"collection_times": [{"days": "Mon-Fri", "time": "2:30pm"}, {"days": "Sat", "time": "9:45am"}, {"days": "Sun", "time": "Closed"}], "id": "5926200002", "name": "USPS COLLECTION BOX - PO LOBBY", "address": {"city": "SAVAGE", "state": "MT", "street": "264 MAIN ST", "postcode": "59262"}}},
{"geometry": {"type": "Point", "coordinates": [-105.4203811598, 48.7911871658]}, "type": "Feature", "properties": {"collection_times": [{"days": "Mon-Fri", "time": "4:30pm"}, {"days": "Sat", "time": "12:00pm"}, {"days": "Sun", "time": "Closed"}], "id": "5926300000", "name": "USPS COLLECTION BOX - PO LOBBY", "address": {"city": "SCOBEY", "state": "MT", "street": "221 MAIN ST", "postcode": "59263"}}},
{"geometry": {"type": "Point", "coordinates": [-105.4203811598, 48.7911871658]}, "type": "Feature", "properties": {"collection_times": [{"days": "Mon-Fri", "time": "4:30pm"}, {"days": "Sat", "time": "12:00pm"}, {"days": "Sun", "time": "Closed"}], "id": "5926300001", "name": "USPS COLLECTION BOX - PO LOBBY", "address": {"city": "SCOBEY", "state": "MT", "street": "221 MAIN ST", "postcode": "59263"}}},
{"geometry": {"type": "Point", "coordinates": [-104.1740866909, 47.7158225119]}, "type": "Feature", "properties": {"collection_times": [{"days": "Mon-Sat", "time": "3:00pm"}, {"days": "Sun", "time": "Closed"}], "id": "5927000000", "name": "USPS COLLECTION BOX - BLUE BOX", "address": {"city": "SIDNEY", "state": "MT", "street": "216 14TH AVE SW", "postcode": "59270"}}},
{"geometry": {"type": "Point", "coordinates": [-104.159271995, 47.7148234261]}, "type": "Feature", "properties": {"collection_times": [{"days": "Mon-Sat", "time": "3:00pm"}, {"days": "Sun", "time": "Closed"}], "id": "5927000001", "name": "USPS COLLECTION BOX - BLUE BOX", "address": {"city": "SIDNEY", "state": "MT", "street": "203 2ND ST", "postcode": "59270"}}},
{"geometry": {"type": "Point", "coordinates": [-104.1559299366, 47.7180474151]}, "type": "Feature", "properties": {"collection_times": [{"days": "Mon-Sat", "time": "3:35pm"}, {"days": "Sun", "time": "Closed"}], "id": "5927000002", "name": "USPS COLLECTION BOX - BLUE BOX", "address": {"city": "SIDNEY", "state": "MT", "street": "101 W HOLLY ST", "postcode": "59270"}}},
{"geometry": {"type": "Point", "coordinates": [-104.1719010535, 47.7194490148]}, "type": "Feature", "properties": {"collection_times": [{"days": "Mon-Sat", "time": "3:00pm"}, {"days": "Sun", "time": "Closed"}], "id": "5927000003", "name": "USPS COLLECTION BOX - BLUE BOX", "address": {"city": "SIDNEY", "state": "MT", "street": "300 12TH AVE NW", "postcode": "59270"}}},
{"geometry": {"type": "Point", "coordinates": [-104.1646337984, 47.7050410463]}, "type": "Feature", "properties": {"collection_times": [{"days": "Mon-Sat", "time": "3:00pm"}, {"days": "Sun", "time": "Closed"}], "id": "5927000004", "name": "USPS COLLECTION BOX - BLUE BOX", "address": {"city": "SIDNEY", "state": "MT", "street": "1159 S CENTRAL AVE", "postcode": "59270"}}},
{"geometry": {"type": "Point", "coordinates": [-104.1559299366, 47.7180474151]}, "type": "Feature", "properties": {"collection_times": [{"days": "Mon-Sat", "time": "3:35pm"}, {"days": "Sun", "time": "Closed"}], "id": "5927000005", "name": "USPS COLLECTION BOX - BLUE BOX", "address": {"city": "SIDNEY", "state": "MT", "street": "101 W HOLLY ST", "postcode": "59270"}}},
{"geometry": {"type": "Point", "coordinates": [-104.1559299366, 47.7180474151]}, "type": "Feature", "properties": {"collection_times": [{"days": "Mon-Sat", "time": "3:35pm"}, {"days": "Sun", "time": "Closed"}], "id": "5927000006", "name": "USPS COLLECTION BOX - APC", "address": {"city": "SIDNEY", "state": "MT", "street": "101 W HOLLY ST", "postcode": "59270"}}},
{"geometry": {"type": "Point", "coordinates": [-104.1559299366, 47.7180474151]}, "type": "Feature", "properties": {"collection_times": [{"days": "Mon-Sat", "time": "3:35pm"}, {"days": "Sun", "time": "Closed"}], "id": "5927000009", "name": "USPS COLLECTION BOX - PO LOBBY", "address": {"city": "SIDNEY", "state": "MT", "street": "101 W HOLLY ST", "postcode": "59270"}}},
{"geometry": {"type": "Point", "coordinates": [-104.1559299366, 47.7180474151]}, "type": "Feature", "properties": {"collection_times": [{"days": "Mon-Sat", "time": "3:35pm"}, {"days": "Sun", "time": "Closed"}], "id": "5927000010", "name": "USPS COLLECTION BOX - PO LOBBY", "address": {"city": "SIDNEY", "state": "MT", "street": "101 W HOLLY ST", "postcode": "59270"}}},
{"geometry": {"type": "Point", "coordinates": [-105.4915540587, 47.834077673]}, "type": "Feature", "properties": {"collection_times": [{"days": "Mon-Fri", "time": "12:00pm"}, {"days": "Sat", "time": "9:45am"}, {"days": "Sun", "time": "Closed"}], "id": "5927400000", "name": "USPS COLLECTION BOX - PO LOBBY", "address": {"city": "VIDA", "state": "MT", "street": "2991 MT HIGHWAY 13", "postcode": "59274"}}},
{"geometry": {"type": "Point", "coordinates": [-105.4915540587, 47.834077673]}, "type": "Feature", "properties": {"collection_times": [{"days": "Mon-Fri", "time": "5:00pm"}, {"days": "Sat", "time": "2:00pm"}, {"days": "Sun", "time": "Closed"}], "id": "5927400001", "name": "USPS COLLECTION BOX - BLUE BOX", "address": {"city": "VIDA", "state": "MT", "street": "2991 MT HIGHWAY 13", "postcode": "59274"}}},
{"geometry": {"type": "Point", "coordinates": [-104.0513024864, 48.8714003615]}, "type": "Feature", "properties": {"collection_times": [{"days": "Mon-Fri", "time": "1:00pm"}, {"days": "Sat", "time": "9:50am"}, {"days": "Sun", "time": "Closed"}], "id": "5927500001", "name": "USPS COLLECTION BOX - PO LOBBY", "address": {"city": "WESTBY", "state": "MT", "street": "201 MAIN ST", "postcode": "59275"}}},
{"geometry": {"type": "Point", "coordinates": [-104.0513024864, 48.8714003615]}, "type": "Feature", "properties": {"collection_times": [{"days": "Mon-Fri", "time": "1:00pm"}, {"days": "Sat", "time": "9:50am"}, {"days": "Sun", "time": "Closed"}], "id": "5927500002", "name": "USPS COLLECTION BOX - PO LOBBY", "address": {"city": "WESTBY", "state": "MT", "street": "201 MAIN ST", "postcode": "59275"}}},
{"geometry": {"type": "Point", "coordinates": [-104.0513024864, 48.8714003615]}, "type": "Feature", "properties": {"collection_times": [{"days": "Mon-Fri", "time": "1:00pm"}, {"days": "Sat", "time": "9:50am"}, {"days": "Sun", "time": "Closed"}], "id": "5927500003", "name": "USPS COLLECTION BOX - PO LOBBY", "address": {"city": "WESTBY", "state": "MT", "street": "201 MAIN ST", "postcode": "59275"}}},
{"geometry": {"type": "Point", "coordinates": [-104.0513024864, 48.8714003615]}, "type": "Feature", "properties": {"collection_times": [{"days": "Mon-Fri", "time": "1:00pm"}, {"days": "Sat", "time": "9:50am"}, {"days": "Sun", "time": "Closed"}], "id": "5927500004", "name": "USPS COLLECTION BOX - PO LOBBY", "address": {"city": "WESTBY", "state": "MT", "street": "201 MAIN ST", "postcode": "59275"}}},
{"geometry": {"type": "Point", "coordinates": [-105.08018776, 48.9540857054]}, "type": "Feature", "properties": {"collection_times": [{"days": "Mon-Fri", "time": "3:30pm"}, {"days": "Sat", "time": "1:15pm"}, {"days": "Sun", "time": "Closed"}], "id": "5927600000", "name": "USPS COLLECTION BOX - PO LOBBY", "address": {"city": "WHITETAIL", "state": "MT", "street": "106 MAIN ST", "postcode": "59276"}}},
{"geometry": {"type": "Point", "coordinates": [-105.08018776, 48.9540857054]}, "type": "Feature", "properties": {"collection_times": [{"days": "Mon-Fri", "time": "3:30pm"}, {"days": "Sat", "time": "1:15pm"}, {"days": "Sun", "time": "Closed"}], "id": "5927600001", "name": "USPS COLLECTION BOX - PO LOBBY", "address": {"city": "WHITETAIL", "state": "MT", "street": "106 MAIN ST", "postcode": "59276"}}}
]}
