{"type": "FeatureCollection", "features": [
{"geometry": {"type": "Point", "coordinates": [-105.8498833445, 46.4076275996]}, "type": "Feature", "properties": {"collection_times": [{"days": "Mon-Sat", "time": "5:30pm"}, {"days": "Sun", "time": "Closed"}], "id": "5930100001", "name": "USPS COLLECTION BOX - BLUE BOX", "address": {"city": "MILES CITY", "state": "MT", "street": "106 N 7TH ST", "postcode": "59301"}}},
{"geometry": {"type": "Point", "coordinates": [-105.8455579795, 46.4076193227]}, "type": "Feature", "properties": {"collection_times": [{"days": "Mon-Sat", "time": "3:05pm"}, {"days": "Sun", "time": "Closed"}], "id": "5930100007", "name": "USPS COLLECTION BOX - BLUE BOX", "address": {"city": "MILES CITY", "state": "MT", "street": "1010 MAIN ST", "postcode": "59301"}}},
{"geometry": {"type": "Point", "coordinates": [-105.8498833445, 46.4076275996]}, "type": "Feature", "properties": {"collection_times": [{"days": "Mon-Sat", "time": "5:30pm"}, {"days": "Sun", "time": "Closed"}], "id": "5930100012", "name": "USPS COLLECTION BOX - BLUE BOX", "address": {"city": "MILES CITY", "state": "MT", "street": "106 N 7TH ST", "postcode": "59301"}}},
{"geometry": {"type": "Point", "coordinates": [-105.8271787777, 46.4046415978]}, "type": "Feature", "properties": {"collection_times": [{"days": "Mon-Sat", "time": "2:55pm"}, {"days": "Sun", "time": "Closed"}], "id": "5930100013", "name": "USPS COLLECTION BOX - BLUE BOX", "address": {"city": "MILES CITY", "state": "MT", "street": "2715 DICKINSON ST", "postcode": "59301"}}},
{"geometry": {"type": "Point", "coordinates": [-105.827815846, 46.3972974268]}, "type": "Feature", "properties": {"collection_times": [{"days": "Mon-Sat", "time": "2:45pm"}, {"days": "Sun", "time": "Closed"}], "id": "5930100014", "name": "USPS COLLECTION BOX - BLUE BOX", "address": {"city": "MILES CITY", "state": "MT", "street": "2600 WILSON ST", "postcode": "59301"}}},
{"geometry": {"type": "Point", "coordinates": [-105.8227176674, 46.403022589]}, "type": "Feature", "properties": {"collection_times": [{"days": "Mon-Sat", "time": "2:50pm"}, {"days": "Sun", "time": "Closed"}], "id": "5930100017", "name": "USPS COLLECTION BOX - BLUE BOX", "address": {"city": "MILES CITY", "state": "MT", "street": "519 S HAYNES AVE", "postcode": "59301"}}},
{"geometry": {"type": "Point", "coordinates": [-105.8498833445, 46.4076275996]}, "type": "Feature", "properties": {"collection_times": [{"days": "Mon-Sat", "time": "5:30pm"}, {"days": "Sun", "time": "Closed"}], "id": "5930100020", "name": "USPS COLLECTION BOX - BLUE BOX", "address": {"city": "MILES CITY", "state": "MT", "street": "106 N 7TH ST", "postcode": "59301"}}},
{"geometry": {"type": "Point", "coordinates": [-105.8159715118, 46.4030014844]}, "type": "Feature", "properties": {"collection_times": [{"days": "Mon-Sat", "time": "2:50pm"}, {"days": "Sun", "time": "Closed"}], "id": "5930100022", "name": "USPS COLLECTION BOX - BLUE BOX", "address": {"city": "MILES CITY", "state": "MT", "street": "3205 STOWER ST", "postcode": "59301"}}},
{"geometry": {"type": "Point", "coordinates": [-105.8808368054, 46.3643955757]}, "type": "Feature", "properties": {"collection_times": [{"days": "Mon-Sat", "time": "5:30pm"}, {"days": "Sun", "time": "Closed"}], "id": "5930100027", "name": "USPS COLLECTION BOX - PO LOBBY", "address": {"city": "MILES CITY", "state": "MT", "street": "106 N 7TH ST", "postcode": "59301"}}},
{"geometry": {"type": "Point", "coordinates": [-104.1512399081, 45.173911289]}, "type": "Feature", "properties": {"collection_times": [{"days": "Mon-Sat", "time": "12:00pm"}, {"days": "Sun", "time": "Closed"}], "id": "5931100000", "name": "USPS COLLECTION BOX - BLUE BOX", "address": {"city": "ALZADA", "state": "MT", "street": "13700 HIGHWAY 212", "postcode": "59311"}}},
{"geometry": {"type": "Point", "coordinates": [-104.1512399081, 45.173911289]}, "type": "Feature", "properties": {"collection_times": [{"days": "Mon-Sat", "time": "12:00pm"}, {"days": "Sun", "time": "Closed"}], "id": "5931100001", "name": "USPS COLLECTION BOX - PO LOBBY", "address": {"city": "ALZADA", "state": "MT", "street": "13700 HIGHWAY 212", "postcode": "59311"}}},
{"geometry": {"type": "Point", "coordinates": [-104.1512399081, 45.173911289]}, "type": "Feature", "properties": {"collection_times": [{"days": "Mon-Sat", "time": "12:00pm"}, {"days": "Sun", "time": "Closed"}], "id": "5931100002", "name": "USPS COLLECTION BOX - PO LOBBY", "address": {"city": "ALZADA", "state": "MT", "street": "13700 HIGHWAY 212", "postcode": "59311"}}},
{"geometry": {"type": "Point", "coordinates": [-106.2925632526, 46.719537839]}, "type": "Feature", "properties": {"collection_times": [{"days": "Mon-Fri", "time": "2:30pm"}, {"days": "Sat", "time": "11:30am"}, {"days": "Sun", "time": "Closed"}], "id": "5931200000", "name": "USPS COLLECTION BOX - PO LOBBY", "address": {"city": "ANGELA", "state": "MT", "street": "1 ANGELA RD S", "postcode": "59312"}}},
{"geometry": {"type": "Point", "coordinates": [-104.2767935629, 46.3675323909]}, "type": "Feature", "properties": {"collection_times": [{"days": "Mon-Fri", "time": "3:20pm"}, {"days": "Sat", "time": "10:30am"}, {"days": "Sun", "time": "Closed"}], "id": "5931300000", "name": "USPS COLLECTION BOX - BLUE BOX", "address": {"city": "BAKER", "state": "MT", "street": "130 S 1ST ST W", "postcode": "59313"}}},
{"geometry": {"type": "Point", "coordinates": [-104.2767935629, 46.3675323909]}, "type": "Feature", "properties": {"collection_times": [{"days": "Mon-Fri", "time": "3:20pm"}, {"days": "Sat", "time": "10:30am"}, {"days": "Sun", "time": "Closed"}], "id": "5931300001", "name": "USPS COLLECTION BOX - PO LOBBY", "address": {"city": "BAKER", "state": "MT", "street": "130 S 1ST ST W", "postcode": "59313"}}},
{"geometry": {"type": "Point", "coordinates": [-104.2767935629, 46.3675323909]}, "type": "Feature", "properties": {"collection_times": [{"days": "Mon-Fri", "time": "3:20pm"}, {"days": "Sat", "time": "10:30am"}, {"days": "Sun", "time": "Closed"}], "id": "5931300002", "name": "USPS COLLECTION BOX - PO LOBBY", "address": {"city": "BAKER", "state": "MT", "street": "130 S 1ST ST W", "postcode": "59313"}}},
{"geometry": {"type": "Point", "coordinates": [-104.2767935629, 46.3675323909]}, "type": "Feature", "properties": {"collection_times": [{"days": "Mon-Fri", "time": "3:20pm"}, {"days": "Sat", "time": "10:30am"}, {"days": "Sun", "time": "Closed"}], "id": "5931300003", "name": "USPS COLLECTION BOX - PO LOBBY", "address": {"city": "BAKER", "state": "MT", "street": "130 S 1ST ST W", "postcode": "59313"}}},
{"geometry": {"type": "Point", "coordinates": [-104.2767935629, 46.3675323909]}, "type": "Feature", "properties": {"collection_times": [{"days": "Mon-Fri", "time": "3:20pm"}, {"days": "Sat", "time": "10:30am"}, {"days": "Sun", "time": "Closed"}], "id": "5931300004", "name": "USPS COLLECTION BOX - PO LOBBY", "address": {"city": "BAKER", "state": "MT", "street": "130 S 1ST ST W", "postcode": "59313"}}},
{"geometry": {"type": "Point", "coordinates": [-105.3160960748, 45.2859700237]}, "type": "Feature", "properties": {"collection_times": [{"days": "Mon-Fri", "time": "9:30am"}, {"days": "Sat", "time": "12:00pm"}, {"days": "Sun", "time": "Closed"}], "id": "5931400000", "name": "USPS COLLECTION BOX - BLUE BOX", "address": {"city": "BIDDLE", "state": "MT", "street": "218 S STATE HIGHWAY 59", "postcode": "59314"}}},
{"geometry": {"type": "Point", "coordinates": [-105.3160960748, 45.2859700237]}, "type": "Feature", "properties": {"collection_times": [{"days": "Mon-Fri", "time": "9:30am"}, {"days": "Sat", "time": "12:00pm"}, {"days": "Sun", "time": "Closed"}], "id": "5931400001", "name": "USPS COLLECTION BOX - PO LOBBY", "address": {"city": "BIDDLE", "state": "MT", "street": "218 S STATE HIGHWAY 59", "postcode": "59314"}}},
{"geometry": {"type": "Point", "coordinates": [-105.041140076, 47.4233549522]}, "type": "Feature", "properties": {"collection_times": [{"days": "Mon-Fri", "time": "11:15am"}, {"days": "Sat", "time": "10:45am"}, {"days": "Sun", "time": "Closed"}], "id": "5931500001", "name": "USPS COLLECTION BOX - PO LOBBY", "address": {"city": "BLOOMFIELD", "state": "MT", "street": "2 RD 532", "postcode": "59315"}}},
{"geometry": {"type": "Point", "coordinates": [-105.0310457478, 45.2689779157]}, "type": "Feature", "properties": {"collection_times": [{"days": "Mon-Sat", "time": "1:00pm"}, {"days": "Sun", "time": "Closed"}], "id": "5931600000", "name": "USPS COLLECTION BOX - PO LOBBY", "address": {"city": "BOYES", "state": "MT", "street": "10203 HIGHWAY 212", "postcode": "59316"}}},
{"geometry": {"type": "Point", "coordinates": [-105.4066946148, 45.4446294196]}, "type": "Feature", "properties": {"collection_times": [{"days": "Mon-Fri", "time": "3:15pm"}, {"days": "Sat", "time": "2:45pm"}, {"days": "Sun", "time": "Closed"}], "id": "5931700000", "name": "USPS COLLECTION BOX - BLUE BOX", "address": {"city": "BROADUS", "state": "MT", "street": "202 N LINCOLN ST", "postcode": "59317"}}},
{"geometry": {"type": "Point", "coordinates": [-105.4066946148, 45.4446294196]}, "type": "Feature", "properties": {"collection_times": [{"days": "Mon-Fri", "time": "3:15pm"}, {"days": "Sat", "time": "2:45pm"}, {"days": "Sun", "time": "Closed"}], "id": "5931700002", "name": "USPS COLLECTION BOX - PO LOBBY", "address": {"city": "BROADUS", "state": "MT", "street": "202 N LINCOLN ST", "postcode": "59317"}}},
{"geometry": {"type": "Point", "coordinates": [-105.4066946148, 45.4446294196]}, "type": "Feature", "properties": {"collection_times": [{"days": "Mon-Fri", "time": "3:15pm"}, {"days": "Sat", "time": "2:45pm"}, {"days": "Sun", "time": "Closed"}], "id": "5931700003", "name": "USPS COLLECTION BOX - PO LOBBY", "address": {"city": "BROADUS", "state": "MT", "street": "202 N LINCOLN ST", "postcode": "59317"}}},
{"geometry": {"type": "Point", "coordinates": [-107.6279704522, 47.3140198624]}, "type": "Feature", "properties": {"collection_times": [{"days": "Mon-Fri", "time": "9:00am"}, {"days": "Sat-Sun", "time": "Closed"}], "id": "5931800000", "name": "USPS COLLECTION BOX - BLUE BOX", "address": {"city": "BRUSETT", "state": "MT", "street": "2198 BRUSETT RD", "postcode": "59318"}}},
{"geometry": {"type": "Point", "coordinates": [-106.6280872793, 45.8904092923]}, "type": "Feature", "properties": {"collection_times": [{"days": "Mon-Fri", "time": "3:00pm"}, {"days": "Sat", "time": "11:30am"}, {"days": "Sun", "time": "Closed"}], "id": "5932300000", "name": "USPS COLLECTION BOX - PO LOBBY", "address": {"city": "COLSTRIP", "state": "MT", "street": "6 LOCUST ST", "postcode": "59323"}}},
{"geometry": {"type": "Point", "coordinates": [-106.6280872793, 45.8904092923]}, "type": "Feature", "properties": {"collection_times": [{"days": "Mon-Fri", "time": "3:00pm"}, {"days": "Sat", "time": "11:30am"}, {"days": "Sun", "time": "Closed"}], "id": "5932300001", "name": "USPS COLLECTION BOX - PO LOBBY", "address": {"city": "COLSTRIP", "state": "MT", "street": "6 LOCUST ST", "postcode": "59323"}}},
{"geometry": {"type": "Point", "coordinates": [-106.6280872793, 45.8904092923]}, "type": "Feature", "properties": {"collection_times": [{"days": "Mon-Fri", "time": "3:00pm"}, {"days": "Sat", "time": "11:30am"}, {"days": "Sun", "time": "Closed"}], "id": "5932300002", "name": "USPS COLLECTION BOX - PO LOBBY", "address": {"city": "COLSTRIP", "state": "MT", "street": "6 LOCUST ST", "postcode": "59323"}}},
{"geometry": {"type": "Point", "coordinates": [-106.6280872793, 45.8904092923]}, "type": "Feature", "properties": {"collection_times": [{"days": "Mon-Fri", "time": "3:00pm"}, {"days": "Sat", "time": "11:30am"}, {"days": "Sun", "time": "Closed"}], "id": "5932300003", "name": "USPS COLLECTION BOX - PO LOBBY", "address": {"city": "COLSTRIP", "state": "MT", "street": "6 LOCUST ST", "postcode": "59323"}}},
{"geometry": {"type": "Point", "coordinates": [-104.546697627, 45.8897841779]}, "type": "Feature", "properties": {"collection_times": [{"days": "Mon-Fri", "time": "2:20pm"}, {"days": "Sat", "time": "10:00am"}, {"days": "Sun", "time": "Closed"}], "id": "5932400000", "name": "USPS COLLECTION BOX - PO LOBBY", "address": {"city": "EKALAKA", "state": "MT", "street": "116 CHURCH AVE", "postcode": "59324"}}},
{"geometry": {"type": "Point", "coordinates": [-104.546697627, 45.8897841779]}, "type": "Feature", "properties": {"collection_times": [{"days": "Mon-Fri", "time": "2:20pm"}, {"days": "Sat", "time": "10:00am"}, {"days": "Sun", "time": "Closed"}], "id": "5932400001", "name": "USPS COLLECTION BOX - PO LOBBY", "address": {"city": "EKALAKA", "state": "MT", "street": "116 CHURCH AVE", "postcode": "59324"}}},
{"geometry": {"type": "Point", "coordinates": [-105.1214522079, 46.8353345358]}, "type": "Feature", "properties": {"collection_times": [{"days": "Mon-Fri", "time": "2:45pm"}, {"days": "Sat", "time": "8:45am"}, {"days": "Sun", "time": "Closed"}], "id": "5932600000", "name": "USPS COLLECTION BOX - BLUE BOX", "address": {"city": "FALLON", "state": "MT", "street": "500 N RAILWAY AVE", "postcode": "59326"}}},
{"geometry": {"type": "Point", "coordinates": [-105.1214522079, 46.8353345358]}, "type": "Feature", "properties": {"collection_times": [{"days": "Mon-Fri", "time": "11:00am"}, {"days": "Sat", "time": "8:45am"}, {"days": "Sun", "time": "Closed"}], "id": "5932600001", "name": "USPS COLLECTION BOX - PO LOBBY", "address": {"city": "FALLON", "state": "MT", "street": "500 N RAILWAY AVE", "postcode": "59326"}}},
{"geometry": {"type": "Point", "coordinates": [-106.820566678, 46.2596391697]}, "type": "Feature", "properties": {"collection_times": [{"days": "Mon-Fri", "time": "4:00pm"}, {"days": "Sat", "time": "12:00pm"}, {"days": "Sun", "time": "Closed"}], "id": "5932700000", "name": "USPS COLLECTION BOX - BLUE BOX", "address": {"city": "FORSYTH", "state": "MT", "street": "216 N 10 TH AVE", "postcode": "59327"}}},
{"geometry": {"type": "Point", "coordinates": [-106.820566678, 46.2596391697]}, "type": "Feature", "properties": {"collection_times": [{"days": "Mon-Fri", "time": "4:00pm"}, {"days": "Sat", "time": "12:00pm"}, {"days": "Sun", "time": "Closed"}], "id": "5932700001", "name": "USPS COLLECTION BOX - PO LOBBY", "address": {"city": "FORSYTH", "state": "MT", "street": "216 N 10 TH AVE", "postcode": "59327"}}},
{"geometry": {"type": "Point", "coordinates": [-106.820566678, 46.2596391697]}, "type": "Feature", "properties": {"collection_times": [{"days": "Mon-Fri", "time": "4:00pm"}, {"days": "Sat", "time": "12:00pm"}, {"days": "Sun", "time": "Closed"}], "id": "5932700002", "name": "USPS COLLECTION BOX - PO LOBBY", "address": {"city": "FORSYTH", "state": "MT", "street": "216 N 10 TH AVE", "postcode": "59327"}}},
{"geometry": {"type": "Point", "coordinates": [-106.820566678, 46.2596391697]}, "type": "Feature", "properties": {"collection_times": [{"days": "Mon-Fri", "time": "4:00pm"}, {"days": "Sat", "time": "12:00pm"}, {"days": "Sun", "time": "Closed"}], "id": "5932700003", "name": "USPS COLLECTION BOX - PO LOBBY", "address": {"city": "FORSYTH", "state": "MT", "street": "216 N 10 TH AVE", "postcode": "59327"}}},
{"geometry": {"type": "Point", "coordinates": [-106.820566678, 46.2596391697]}, "type": "Feature", "properties": {"collection_times": [{"days": "Mon-Fri", "time": "4:00pm"}, {"days": "Sat", "time": "12:00pm"}, {"days": "Sun", "time": "Closed"}], "id": "5932700004", "name": "USPS COLLECTION BOX - PO LOBBY", "address": {"city": "FORSYTH", "state": "MT", "street": "216 N 10 TH AVE", "postcode": "59327"}}},
{"geometry": {"type": "Point", "coordinates": [-104.7017162754, 47.11650456]}, "type": "Feature", "properties": {"collection_times": [{"days": "Mon-Sat", "time": "2:30pm"}, {"days": "Sun", "time": "Closed"}], "id": "5933000002", "name": "USPS COLLECTION BOX - BLUE BOX", "address": {"city": "GLENDIVE", "state": "MT", "street": "1320 N MERRILL AVE", "postcode": "59330"}}},
{"geometry": {"type": "Point", "coordinates": [-104.7276096088, 47.1069267268]}, "type": "Feature", "properties": {"collection_times": [{"days": "Mon-Sat", "time": "2:30pm"}, {"days": "Sun", "time": "Closed"}], "id": "5933000005", "name": "USPS COLLECTION BOX - BLUE BOX", "address": {"city": "GLENDIVE", "state": "MT", "street": "307 HARMON ST", "postcode": "59330"}}},
{"geometry": {"type": "Point", "coordinates": [-104.7142016703, 47.1057552809]}, "type": "Feature", "properties": {"collection_times": [{"days": "Mon-Sat", "time": "3:35pm"}, {"days": "Sun", "time": "Closed"}], "id": "5933000007", "name": "USPS COLLECTION BOX - BLUE BOX", "address": {"city": "GLENDIVE", "state": "MT", "street": "221 N KENDRICK AVE", "postcode": "59330"}}},
{"geometry": {"type": "Point", "coordinates": [-104.7150417061, 47.1049870371]}, "type": "Feature", "properties": {"collection_times": [{"days": "Mon-Sat", "time": "3:00pm"}, {"days": "Sun", "time": "Closed"}], "id": "5933000008", "name": "USPS COLLECTION BOX - BLUE BOX", "address": {"city": "GLENDIVE", "state": "MT", "street": "207 W BELL ST", "postcode": "59330"}}},
{"geometry": {"type": "Point", "coordinates": [-104.7176896275, 47.0999045659]}, "type": "Feature", "properties": {"collection_times": [{"days": "Mon-Sat", "time": "3:00pm"}, {"days": "Sun", "time": "Closed"}], "id": "5933000009", "name": "USPS COLLECTION BOX - BLUE BOX", "address": {"city": "GLENDIVE", "state": "MT", "street": "100 S MERRILL AVE", "postcode": "59330"}}},
{"geometry": {"type": "Point", "coordinates": [-104.7142016703, 47.1057552809]}, "type": "Feature", "properties": {"collection_times": [{"days": "Mon-Sat", "time": "3:35pm"}, {"days": "Sun", "time": "Closed"}], "id": "5933000010", "name": "USPS COLLECTION BOX - BLUE BOX", "address": {"city": "GLENDIVE", "state": "MT", "street": "221 N KENDRICK AVE", "postcode": "59330"}}},
{"geometry": {"type": "Point", "coordinates": [-104.7142016703, 47.1057552809]}, "type": "Feature", "properties": {"collection_times": [{"days": "Mon-Sat", "time": "3:35pm"}, {"days": "Sun", "time": "Closed"}], "id": "5933000012", "name": "USPS COLLECTION BOX - BLUE BOX", "address": {"city": "GLENDIVE", "state": "MT", "street": "221 N KENDRICK AVE", "postcode": "59330"}}},
{"geometry": {"type": "Point", "coordinates": [-104.7142016703, 47.1057552809]}, "type": "Feature", "properties": {"collection_times": [{"days": "Mon-Sat", "time": "3:35pm"}, {"days": "Sun", "time": "Closed"}], "id": "5933000013", "name": "USPS COLLECTION BOX - PO LOBBY", "address": {"city": "GLENDIVE", "state": "MT", "street": "221 N KENDRICK AVE", "postcode": "59330"}}},
{"geometry": {"type": "Point", "coordinates": [-104.8219030031, 45.1491853675]}, "type": "Feature", "properties": {"collection_times": [{"days": "Mon-Sat", "time": "12:45pm"}, {"days": "Sun", "time": "Closed"}], "id": "5933200000", "name": "USPS COLLECTION BOX - PO LOBBY", "address": {"city": "HAMMOND", "state": "MT", "street": "102 MAIN ST", "postcode": "59332"}}},
{"geometry": {"type": "Point", "coordinates": [-104.8219030031, 45.1491853675]}, "type": "Feature", "properties": {"collection_times": [{"days": "Mon-Sat", "time": "12:45pm"}, {"days": "Sun", "time": "Closed"}], "id": "5933200001", "name": "USPS COLLECTION BOX - PO LOBBY", "address": {"city": "HAMMOND", "state": "MT", "street": "102 MAIN ST", "postcode": "59332"}}},
{"geometry": {"type": "Point", "coordinates": [-105.1116650024, 46.3504207343]}, "type": "Feature", "properties": {"collection_times": [{"days": "Mon-Fri", "time": "3:00pm"}, {"days": "Sat", "time": "10:15am"}, {"days": "Sun", "time": "Closed"}], "id": "5933600000", "name": "USPS COLLECTION BOX - PO LOBBY", "address": {"city": "ISMAY", "state": "MT", "street": "409 MAIN ST", "postcode": "59336"}}},
{"geometry": {"type": "Point", "coordinates": [-105.1116650024, 46.3504207343]}, "type": "Feature", "properties": {"collection_times": [{"days": "Mon-Fri", "time": "3:15pm"}, {"days": "Sat", "time": "10:15am"}, {"days": "Sun", "time": "Closed"}], "id": "5933600002", "name": "USPS COLLECTION BOX - BLUE BOX", "address": {"city": "ISMAY", "state": "MT", "street": "409 MAIN ST", "postcode": "59336"}}},
{"geometry": {"type": "Point", "coordinates": [-105.1116650024, 46.3504207343]}, "type": "Feature", "properties": {"collection_times": [{"days": "Mon-Fri", "time": "3:00pm"}, {"days": "Sat", "time": "10:15am"}, {"days": "Sun", "time": "Closed"}], "id": "5933600003", "name": "USPS COLLECTION BOX - PO LOBBY", "address": {"city": "ISMAY", "state": "MT", "street": "409 MAIN ST", "postcode": "59336"}}},
{"geometry": {"type": "Point", "coordinates": [-106.7941827676, 47.5418867835]}, "type": "Feature", "properties": {"collection_times": [{"days": "Mon-Fri", "time": "3:15pm"}, {"days": "Sat", "time": "10:15am"}, {"days": "Sun", "time": "Closed"}], "id": "5933700000", "name": "USPS COLLECTION BOX - BLUE BOX", "address": {"city": "JORDAN", "state": "MT", "street": "547 MAIN ST", "postcode": "59337"}}},
{"geometry": {"type": "Point", "coordinates": [-106.7941827676, 47.5418867835]}, "type": "Feature", "properties": {"collection_times": [{"days": "Mon-Fri", "time": "3:15pm"}, {"days": "Sat", "time": "10:15am"}, {"days": "Sun", "time": "Closed"}], "id": "5933700001", "name": "USPS COLLECTION BOX - PO LOBBY", "address": {"city": "JORDAN", "state": "MT", "street": "547 MAIN ST", "postcode": "59337"}}},
{"geometry": {"type": "Point", "coordinates": [-106.7941827676, 47.5418867835]}, "type": "Feature", "properties": {"collection_times": [{"days": "Mon-Fri", "time": "3:15pm"}, {"days": "Sat", "time": "10:15am"}, {"days": "Sun", "time": "Closed"}], "id": "5933700002", "name": "USPS COLLECTION BOX - PO LOBBY", "address": {"city": "JORDAN", "state": "MT", "street": "547 MAIN ST", "postcode": "59337"}}},
{"geometry": {"type": "Point", "coordinates": [-105.1936488886, 47.2755883557]}, "type": "Feature", "properties": {"collection_times": [{"days": "Mon-Fri", "time": "11:30am"}, {"days": "Sat", "time": "10:30am"}, {"days": "Sun", "time": "Closed"}], "id": "5933900000", "name": "USPS COLLECTION BOX - BLUE BOX", "address": {"city": "LINDSAY", "state": "MT", "street": "2117 FAS 470", "postcode": "59339"}}},
{"geometry": {"type": "Point", "coordinates": [-105.1936488886, 47.2755883557]}, "type": "Feature", "properties": {"collection_times": [{"days": "Mon-Fri", "time": "11:30am"}, {"days": "Sat", "time": "10:30am"}, {"days": "Sun", "time": "Closed"}], "id": "5933900001", "name": "USPS COLLECTION BOX - PO LOBBY", "address": {"city": "LINDSAY", "state": "MT", "street": "2117 FAS 470", "postcode": "59339"}}},
{"geometry": {"type": "Point", "coordinates": [-104.5974417037, 46.4132691594]}, "type": "Feature", "properties": {"collection_times": [{"days": "Mon-Fri", "time": "2:30pm"}, {"days": "Sat", "time": "9:30am"}, {"days": "Sun", "time": "Closed"}], "id": "5934400001", "name": "USPS COLLECTION BOX - PO LOBBY", "address": {"city": "PLEVNA", "state": "MT", "street": "125 N MAIN ST", "postcode": "59344"}}},
{"geometry": {"type": "Point", "coordinates": [-106.3321775804, 46.1486721041]}, "type": "Feature", "properties": {"collection_times": [{"days": "Mon-Fri", "time": "4:15pm"}, {"days": "Sat", "time": "9:15am"}, {"days": "Sun", "time": "Closed"}], "id": "5934700000", "name": "USPS COLLECTION BOX - BLUE BOX", "address": {"city": "ROSEBUD", "state": "MT", "street": "125 MAIN ST", "postcode": "59347"}}},
{"geometry": {"type": "Point", "coordinates": [-106.3321775804, 46.1486721041]}, "type": "Feature", "properties": {"collection_times": [{"days": "Mon-Fri", "time": "4:00pm"}, {"days": "Sat", "time": "9:15am"}, {"days": "Sun", "time": "Closed"}], "id": "5934700001", "name": "USPS COLLECTION BOX - PO LOBBY", "address": {"city": "ROSEBUD", "state": "MT", "street": "125 MAIN ST", "postcode": "59347"}}},
{"geometry": {"type": "Point", "coordinates": [-106.3321775804, 46.1486721041]}, "type": "Feature", "properties": {"collection_times": [{"days": "Mon-Fri", "time": "4:00pm"}, {"days": "Sat", "time": "9:15am"}, {"days": "Sun", "time": "Closed"}], "id": "5934700002", "name": "USPS COLLECTION BOX - PO LOBBY", "address": {"city": "ROSEBUD", "state": "MT", "street": "125 MAIN ST", "postcode": "59347"}}},
{"geometry": {"type": "Point", "coordinates": [-105.3130385673, 46.7916478525]}, "type": "Feature", "properties": {"collection_times": [{"days": "Mon-Sat", "time": "4:30pm"}, {"days": "Sun", "time": "Closed"}], "id": "5934900000", "name": "USPS COLLECTION BOX - BLUE BOX", "address": {"city": "TERRY", "state": "MT", "street": "303 LOGAN AVE", "postcode": "59349"}}},
{"geometry": {"type": "Point", "coordinates": [-105.3130385673, 46.7916478525]}, "type": "Feature", "properties": {"collection_times": [{"days": "Mon-Fri", "time": "4:00pm"}, {"days": "Sat", "time": "10:00am"}, {"days": "Sun", "time": "Closed"}], "id": "5934900002", "name": "USPS COLLECTION BOX - PO LOBBY", "address": {"city": "TERRY", "state": "MT", "street": "303 LOGAN AVE", "postcode": "59349"}}},
{"geometry": {"type": "Point", "coordinates": [-105.3130385673, 46.7916478525]}, "type": "Feature", "properties": {"collection_times": [{"days": "Mon-Fri", "time": "4:00pm"}, {"days": "Sat", "time": "10:00am"}, {"days": "Sun", "time": "Closed"}], "id": "5934900003", "name": "USPS COLLECTION BOX - PO LOBBY", "address": {"city": "TERRY", "state": "MT", "street": "303 LOGAN AVE", "postcode": "59349"}}},
{"geometry": {"type": "Point", "coordinates": [-105.3130385673, 46.7916478525]}, "type": "Feature", "properties": {"collection_times": [{"days": "Mon-Fri", "time": "4:00pm"}, {"days": "Sat", "time": "10:00am"}, {"days": "Sun", "time": "Closed"}], "id": "5934900004", "name": "USPS COLLECTION BOX - PO LOBBY", "address": {"city": "TERRY", "state": "MT", "street": "303 LOGAN AVE", "postcode": "59349"}}},
{"geometry": {"type": "Point", "coordinates": [-105.3130385673, 46.7916478525]}, "type": "Feature", "properties": {"collection_times": [{"days": "Mon-Fri", "time": "4:00pm"}, {"days": "Sat", "time": "10:00am"}, {"days": "Sun", "time": "Closed"}], "id": "5934900005", "name": "USPS COLLECTION BOX - PO LOBBY", "address": {"city": "TERRY", "state": "MT", "street": "303 LOGAN AVE", "postcode": "59349"}}},
{"geometry": {"type": "Point", "coordinates": [-105.6238793112, 46.0344836127]}, "type": "Feature", "properties": {"collection_times": [{"days": "Mon-Fri", "time": "3:15pm"}, {"days": "Sat", "time": "8:45am"}, {"days": "Sun", "time": "Closed"}], "id": "5935100000", "name": "USPS COLLECTION BOX - BLUE BOX", "address": {"city": "VOLBORG", "state": "MT", "street": "2708 HIGHWAY 59", "postcode": "59351"}}},
{"geometry": {"type": "Point", "coordinates": [-105.6238793112, 46.0344836127]}, "type": "Feature", "properties": {"collection_times": [{"days": "Mon-Fri", "time": "1:30pm"}, {"days": "Sat", "time": "8:45am"}, {"days": "Sun", "time": "Closed"}], "id": "5935100001", "name": "USPS COLLECTION BOX - PO LOBBY", "address": {"city": "VOLBORG", "state": "MT", "street": "2708 HIGHWAY 59", "postcode": "59351"}}},
{"geometry": {"type": "Point", "coordinates": [-104.1868876908, 46.9898236243]}, "type": "Feature", "properties": {"collection_times": [{"days": "Mon-Fri", "time": "2:45pm"}, {"days": "Sat", "time": "10:10am"}, {"days": "Sun", "time": "Closed"}], "id": "5935300000", "name": "USPS COLLECTION BOX - PO LOBBY", "address": {"city": "WIBAUX", "state": "MT", "street": "211 WIBAUX ST S", "postcode": "59353"}}},
{"geometry": {"type": "Point", "coordinates": [-104.1868876908, 46.9898236243]}, "type": "Feature", "properties": {"collection_times": [{"days": "Mon-Fri", "time": "2:45pm"}, {"days": "Sat", "time": "10:10am"}, {"days": "Sun", "time": "Closed"}], "id": "5935300001", "name": "USPS COLLECTION BOX - PO LOBBY", "address": {"city": "WIBAUX", "state": "MT", "street": "211 WIBAUX ST S", "postcode": "59353"}}},
{"geometry": {"type": "Point", "coordinates": [-104.1868876908, 46.9898236243]}, "type": "Feature", "properties": {"collection_times": [{"days": "Mon-Fri", "time": "2:45pm"}, {"days": "Sat", "time": "10:10am"}, {"days": "Sun", "time": "Closed"}], "id": "5935300002", "name": "USPS COLLECTION BOX - PO LOBBY", "address": {"city": "WIBAUX", "state": "MT", "street": "211 WIBAUX ST S", "postcode": "59353"}}},
{"geometry": {"type": "Point", "coordinates": [-104.1868876908, 46.9898236243]}, "type": "Feature", "properties": {"collection_times": [{"days": "Mon-Fri", "time": "2:45pm"}, {"days": "Sat", "time": "10:10am"}, {"days": "Sun", "time": "Closed"}], "id": "5935300003", "name": "USPS COLLECTION BOX - PO LOBBY", "address": {"city": "WIBAUX", "state": "MT", "street": "211 WIBAUX ST S", "postcode": "59353"}}}
]}
