{"type": "FeatureCollection", "features": [
{"geometry": {"type": "Point", "coordinates": [-111.2798067176, 47.5089759811]}, "type": "Feature", "properties": {"collection_times": [{"days": "Mon-Fri", "time": "3:00pm"}, {"days": "Sat-Sun", "time": "Closed"}], "id": "5940100018", "name": "USPS COLLECTION BOX - BLUE BOX", "address": {"city": "GREAT FALLS", "state": "MT", "street": "215 1ST AVE S", "postcode": "59401"}}},
{"geometry": {"type": "Point", "coordinates": [-111.3026367472, 47.5054356692]}, "type": "Feature", "properties": {"collection_times": [{"days": "Mon-Fri", "time": "5:00pm"}, {"days": "Sat-Sun", "time": "Closed"}], "id": "5940100023", "name": "USPS COLLECTION BOX - BLUE BOX", "address": {"city": "GREAT FALLS", "state": "MT", "street": "8 3RD ST N", "postcode": "59401"}}},
{"geometry": {"type": "Point", "coordinates": [-111.302472658, 47.5055825505]}, "type": "Feature", "properties": {"collection_times": [{"days": "Mon-Fri", "time": "3:30pm"}, {"days": "Sat-Sun", "time": "Closed"}], "id": "5940100026", "name": "USPS COLLECTION BOX - BLUE BOX", "address": {"city": "GREAT FALLS", "state": "MT", "street": "21 3RD ST N", "postcode": "59401"}}},
{"geometry": {"type": "Point", "coordinates": [-111.3040014519, 47.5064906746]}, "type": "Feature", "properties": {"collection_times": [{"days": "Mon-Sat", "time": "5:30pm"}, {"days": "Sun", "time": "Closed"}], "id": "5940100034", "name": "USPS COLLECTION BOX - BLUE BOX", "address": {"city": "GREAT FALLS", "state": "MT", "street": "215 1ST AVE N", "postcode": "59401"}}},
{"geometry": {"type": "Point", "coordinates": [-111.3043412449, 47.5075719489]}, "type": "Feature", "properties": {"collection_times": [{"days": "Mon-Sat", "time": "5:30pm"}, {"days": "Sun", "time": "Closed"}], "id": "5940100035", "name": "USPS COLLECTION BOX - BLUE BOX", "address": {"city": "GREAT FALLS", "state": "MT", "street": "200 2ND ST N", "postcode": "59401"}}},
{"geometry": {"type": "Point", "coordinates": [-111.2798067176, 47.5089759811]}, "type": "Feature", "properties": {"collection_times": [{"days": "Mon-Fri", "time": "3:00pm"}, {"days": "Sat-Sun", "time": "Closed"}], "id": "5940100042", "name": "USPS COLLECTION BOX - BLUE BOX", "address": {"city": "GREAT FALLS", "state": "MT", "street": "215 1ST AVE S", "postcode": "59401"}}},
{"geometry": {"type": "Point", "coordinates": [-111.2798067176, 47.5089759811]}, "type": "Feature", "properties": {"collection_times": [{"days": "Mon-Fri", "time": "2:00pm"}, {"days": "Sat-Sun", "time": "Closed"}], "id": "5940100048", "name": "USPS COLLECTION BOX - BLUE BOX", "address": {"city": "GREAT FALLS", "state": "MT", "street": "600 CENTRAL AVE", "postcode": "59401"}}},
{"geometry": {"type": "Point", "coordinates": [-111.2798067176, 47.5089759811]}, "type": "Feature", "properties": {"collection_times": [{"days": "Mon-Fri", "time": "2:25pm"}, {"days": "Sat-Sun", "time": "Closed"}], "id": "5940100069", "name": "USPS COLLECTION BOX - BLUE BOX", "address": {"city": "GREAT FALLS", "state": "MT", "street": "1601 2ND AVE N", "postcode": "59401"}}},
{"geometry": {"type": "Point", "coordinates": [-111.2640259636, 47.5117741684]}, "type": "Feature", "properties": {"collection_times": [{"days": "Mon-Sat", "time": "2:10pm"}, {"days": "Sun", "time": "Closed"}], "id": "5940100103", "name": "USPS COLLECTION BOX - BLUE BOX", "address": {"city": "GREAT FALLS", "state": "MT", "street": "2507 6TH AVE N", "postcode": "59401"}}},
{"geometry": {"type": "Point", "coordinates": [-111.301951002, 47.505282314]}, "type": "Feature", "properties": {"collection_times": [{"days": "Mon-Fri", "time": "3:00pm"}, {"days": "Sat-Sun", "time": "Closed"}], "id": "5940100109", "name": "USPS COLLECTION BOX - BLUE BOX", "address": {"city": "GREAT FALLS", "state": "MT", "street": "300 CENTRAL AVE", "postcode": "59401"}}},
{"geometry": {"type": "Point", "coordinates": [-111.3005870903, 47.5052691716]}, "type": "Feature", "properties": {"collection_times": [{"days": "Mon-Fri", "time": "3:00pm"}, {"days": "Sat-Sun", "time": "Closed"}], "id": "5940100112", "name": "USPS COLLECTION BOX - BLUE BOX", "address": {"city": "GREAT FALLS", "state": "MT", "street": "410 CENTRAL AVE", "postcode": "59401"}}},
{"geometry": {"type": "Point", "coordinates": [-111.3040014519, 47.5064906746]}, "type": "Feature", "properties": {"collection_times": [{"days": "Mon-Sat", "time": "5:30pm"}, {"days": "Sun", "time": "Closed"}], "id": "5940100119", "name": "USPS COLLECTION BOX - PO LOBBY", "address": {"city": "GREAT FALLS", "state": "MT", "street": "215 1ST AVE N", "postcode": "59401"}}},
{"geometry": {"type": "Point", "coordinates": [-111.3040014519, 47.5064906746]}, "type": "Feature", "properties": {"collection_times": [{"days": "Mon-Sat", "time": "5:30pm"}, {"days": "Sun", "time": "Closed"}], "id": "5940100120", "name": "USPS COLLECTION BOX - PO LOBBY", "address": {"city": "GREAT FALLS", "state": "MT", "street": "215 1ST AVE N", "postcode": "59401"}}},
{"geometry": {"type": "Point", "coordinates": [-111.3040014519, 47.5064906746]}, "type": "Feature", "properties": {"collection_times": [{"days": "Mon-Sat", "time": "5:30pm"}, {"days": "Sun", "time": "Closed"}], "id": "5940100121", "name": "USPS COLLECTION BOX - PO LOBBY", "address": {"city": "GREAT FALLS", "state": "MT", "street": "215 1ST AVE N", "postcode": "59401"}}},
{"geometry": {"type": "Point", "coordinates": [-111.3040014519, 47.5064906746]}, "type": "Feature", "properties": {"collection_times": [{"days": "Mon-Sat", "time": "5:30pm"}, {"days": "Sun", "time": "Closed"}], "id": "5940100125", "name": "USPS COLLECTION BOX - APC", "address": {"city": "GREAT FALLS", "state": "MT", "street": "215 1ST AVE N", "postcode": "59401"}}},
{"geometry": {"type": "Point", "coordinates": [-111.2798067176, 47.5089759811]}, "type": "Feature", "properties": {"collection_times": [{"days": "Mon-Fri", "time": "4:30pm"}, {"days": "Sat", "time": "2:40pm"}, {"days": "Sun", "time": "Closed"}], "id": "5940100126", "name": "USPS COLLECTION BOX - BLUE BOX", "address": {"city": "GREAT FALLS", "state": "MT", "street": "825 5TH AVE S", "postcode": "59401"}}},
{"geometry": {"type": "Point", "coordinates": [-111.292009731, 47.5065850495]}, "type": "Feature", "properties": {"collection_times": [{"days": "Mon-Fri", "time": "3:00pm"}, {"days": "Sat-Sun", "time": "Closed"}], "id": "5940100129", "name": "USPS COLLECTION BOX - BLUE BOX", "address": {"city": "GREAT FALLS", "state": "MT", "street": "117 9TH ST N", "postcode": "59401"}}},
{"geometry": {"type": "Point", "coordinates": [-111.3056021354, 47.5053691289]}, "type": "Feature", "properties": {"collection_times": [{"days": "Mon-Fri", "time": "2:00pm"}, {"days": "Sat-Sun", "time": "Closed"}], "id": "5940100130", "name": "USPS COLLECTION BOX - BLUE BOX", "address": {"city": "GREAT FALLS", "state": "MT", "street": "125 CENTRAL AVE W", "postcode": "59401"}}},
{"geometry": {"type": "Point", "coordinates": [-111.3088054467, 47.5246411634]}, "type": "Feature", "properties": {"collection_times": [{"days": "Mon-Sat", "time": "2:15pm"}, {"days": "Sun", "time": "Closed"}], "id": "5940400000", "name": "USPS COLLECTION BOX - BLUE BOX", "address": {"city": "GREAT FALLS", "state": "MT", "street": "105 SMELTER AVE NE", "postcode": "59404"}}},
{"geometry": {"type": "Point", "coordinates": [-111.3223701144, 47.5087145519]}, "type": "Feature", "properties": {"collection_times": [{"days": "Mon-Fri", "time": "3:00pm"}, {"days": "Sat-Sun", "time": "Closed"}], "id": "5940400008", "name": "USPS COLLECTION BOX - BLUE BOX", "address": {"city": "GREAT FALLS", "state": "MT", "street": "616 1ST AVE NW", "postcode": "59404"}}},
{"geometry": {"type": "Point", "coordinates": [-111.3381222434, 47.4898843394]}, "type": "Feature", "properties": {"collection_times": [{"days": "Mon-Sat", "time": "7:00pm"}, {"days": "Sun", "time": "Closed"}], "id": "5940400017", "name": "USPS COLLECTION BOX - BLUE BOX", "address": {"city": "GREAT FALLS", "state": "MT", "street": "1409 14TH ST SW", "postcode": "59404"}}},
{"geometry": {"type": "Point", "coordinates": [-111.3422309371, 47.4823389459]}, "type": "Feature", "properties": {"collection_times": [{"days": "Mon-Sat", "time": "5:00pm"}, {"days": "Sun", "time": "Closed"}], "id": "5940400020", "name": "USPS COLLECTION BOX - BLUE BOX", "address": {"city": "GREAT FALLS", "state": "MT", "street": "1601 MARKET PLACE DR STE 15", "postcode": "59404"}}},
{"geometry": {"type": "Point", "coordinates": [-111.32288, 47.50092]}, "type": "Feature", "properties": {"collection_times": [{"days": "Mon-Fri", "time": "3:00pm"}, {"days": "Sat-Sun", "time": "Closed"}], "id": "5940400025", "name": "USPS COLLECTION BOX - BLUE BOX", "address": {"city": "GREAT FALLS", "state": "MT", "street": "601 6TH ST SW", "postcode": "59404"}}},
{"geometry": {"type": "Point", "coordinates": [-111.3103840324, 47.5188871155]}, "type": "Feature", "properties": {"collection_times": [{"days": "Mon-Sat", "time": "2:15pm"}, {"days": "Sun", "time": "Closed"}], "id": "5940400026", "name": "USPS COLLECTION BOX - BLUE BOX", "address": {"city": "GREAT FALLS", "state": "MT", "street": "1414 3RD ST NW", "postcode": "59404"}}},
{"geometry": {"type": "Point", "coordinates": [-111.297831193, 47.5247941449]}, "type": "Feature", "properties": {"collection_times": [{"days": "Mon-Sat", "time": "2:30pm"}, {"days": "Sun", "time": "Closed"}], "id": "5940400028", "name": "USPS COLLECTION BOX - BLUE BOX", "address": {"city": "GREAT FALLS", "state": "MT", "street": "701 SMELTER AVE NE", "postcode": "59404"}}},
{"geometry": {"type": "Point", "coordinates": [-111.3069505512, 47.5245723845]}, "type": "Feature", "properties": {"collection_times": [{"days": "Mon-Sat", "time": "2:15pm"}, {"days": "Sun", "time": "Closed"}], "id": "5940400030", "name": "USPS COLLECTION BOX - BLUE BOX", "address": {"city": "GREAT FALLS", "state": "MT", "street": "300 SMELTER AVE NE", "postcode": "59404"}}},
{"geometry": {"type": "Point", "coordinates": [-111.3349491824, 47.503327474]}, "type": "Feature", "properties": {"collection_times": [{"days": "Mon-Sat", "time": "2:05pm"}, {"days": "Sun", "time": "Closed"}], "id": "5940400033", "name": "USPS COLLECTION BOX - BLUE BOX", "address": {"city": "GREAT FALLS", "state": "MT", "street": "301 NORTHWEST BYP", "postcode": "59404"}}},
{"geometry": {"type": "Point", "coordinates": [-111.2996153126, 47.4888170411]}, "type": "Feature", "properties": {"collection_times": [{"days": "Mon-Sat", "time": "2:00pm"}, {"days": "Sun", "time": "Closed"}], "id": "5940500001", "name": "USPS COLLECTION BOX - BLUE BOX", "address": {"city": "GREAT FALLS", "state": "MT", "street": "500 15TH AVE S", "postcode": "59405"}}},
{"geometry": {"type": "Point", "coordinates": [-111.2642314234, 47.4984411701]}, "type": "Feature", "properties": {"collection_times": [{"days": "Mon-Fri", "time": "3:30pm"}, {"days": "Sat-Sun", "time": "Closed"}], "id": "5940500004", "name": "USPS COLLECTION BOX - BLUE BOX", "address": {"city": "GREAT FALLS", "state": "MT", "street": "2500 6TH AVE S", "postcode": "59405"}}},
{"geometry": {"type": "Point", "coordinates": [-111.2670205292, 47.4922923618]}, "type": "Feature", "properties": {"collection_times": [{"days": "Mon-Fri", "time": "1:00pm"}, {"days": "Sat-Sun", "time": "Closed"}], "id": "5940500005", "name": "USPS COLLECTION BOX - BLUE BOX", "address": {"city": "GREAT FALLS", "state": "MT", "street": "2300 12TH AVE S", "postcode": "59405"}}},
{"geometry": {"type": "Point", "coordinates": [-111.2656209432, 47.4942041854]}, "type": "Feature", "properties": {"collection_times": [{"days": "Mon-Sat", "time": "1:00pm"}, {"days": "Sun", "time": "Closed"}], "id": "5940500007", "name": "USPS COLLECTION BOX - BLUE BOX", "address": {"city": "GREAT FALLS", "state": "MT", "street": "2425 10TH AVE S", "postcode": "59405"}}},
{"geometry": {"type": "Point", "coordinates": [-111.3411167808, 47.1967184309]}, "type": "Feature", "properties": {"collection_times": [{"days": "Mon-Sat", "time": "1:00pm"}, {"days": "Sun", "time": "Closed"}], "id": "5940500026", "name": "USPS COLLECTION BOX - BLUE BOX", "address": {"city": "GREAT FALLS", "state": "MT", "street": "7008 GODDARD DR", "postcode": "59405"}}},
{"geometry": {"type": "Point", "coordinates": [-111.2246553663, 47.4947128281]}, "type": "Feature", "properties": {"collection_times": [{"days": "Mon-Sat", "time": "3:00pm"}, {"days": "Sun", "time": "Closed"}], "id": "5940500034", "name": "USPS COLLECTION BOX - BLUE BOX", "address": {"city": "GREAT FALLS", "state": "MT", "street": "4930 9TH AVE S", "postcode": "59405"}}},
{"geometry": {"type": "Point", "coordinates": [-111.2692291418, 47.4940060154]}, "type": "Feature", "properties": {"collection_times": [{"days": "Mon-Sat", "time": "3:00pm"}, {"days": "Sun", "time": "Closed"}], "id": "5940500037", "name": "USPS COLLECTION BOX - BLUE BOX", "address": {"city": "GREAT FALLS", "state": "MT", "street": "2218 10TH AVE S", "postcode": "59405"}}},
{"geometry": {"type": "Point", "coordinates": [-111.2486431585, 47.4950609615]}, "type": "Feature", "properties": {"collection_times": [{"days": "Mon-Fri", "time": "5:30pm"}, {"days": "Sat", "time": "5:15pm"}, {"days": "Sun", "time": "Closed"}], "id": "5940500040", "name": "USPS COLLECTION BOX - PO LOBBY", "address": {"city": "GREAT FALLS", "state": "MT", "street": "3400 9TH AVE S", "postcode": "59405"}}},
{"geometry": {"type": "Point", "coordinates": [-111.285036368, 47.4919727508]}, "type": "Feature", "properties": {"collection_times": [{"days": "Mon-Fri", "time": "3:00pm"}, {"days": "Sat-Sun", "time": "Closed"}], "id": "5940500046", "name": "USPS COLLECTION BOX - BLUE BOX", "address": {"city": "GREAT FALLS", "state": "MT", "street": "1308 12TH AVE S", "postcode": "59405"}}},
{"geometry": {"type": "Point", "coordinates": [-111.2486431585, 47.4950609615]}, "type": "Feature", "properties": {"collection_times": [{"days": "Mon-Fri", "time": "5:30pm"}, {"days": "Sat", "time": "5:15pm"}, {"days": "Sun", "time": "Closed"}], "id": "5940500049", "name": "USPS COLLECTION BOX - BLUE BOX", "address": {"city": "GREAT FALLS", "state": "MT", "street": "3400 9TH AVE S", "postcode": "59405"}}},
{"geometry": {"type": "Point", "coordinates": [-111.2486431585, 47.4950609615]}, "type": "Feature", "properties": {"collection_times": [{"days": "Mon-Fri", "time": "5:30pm"}, {"days": "Sat", "time": "5:15pm"}, {"days": "Sun", "time": "Closed"}], "id": "5940500050", "name": "USPS COLLECTION BOX - PO LOBBY", "address": {"city": "GREAT FALLS", "state": "MT", "street": "3400 9TH AVE S", "postcode": "59405"}}},
{"geometry": {"type": "Point", "coordinates": [-111.2625252419, 47.4926861582]}, "type": "Feature", "properties": {"collection_times": [{"days": "Mon-Sat", "time": "1:00pm"}, {"days": "Sun", "time": "Closed"}], "id": "5940500052", "name": "USPS COLLECTION BOX - BLUE BOX", "address": {"city": "GREAT FALLS", "state": "MT", "street": "1101 26TH ST S", "postcode": "59405"}}},
{"geometry": {"type": "Point", "coordinates": [-111.2486431585, 47.4950609615]}, "type": "Feature", "properties": {"collection_times": [{"days": "Mon-Fri", "time": "5:30pm"}, {"days": "Sat", "time": "5:15pm"}, {"days": "Sun", "time": "Closed"}], "id": "5940500062", "name": "USPS COLLECTION BOX - PO LOBBY", "address": {"city": "GREAT FALLS", "state": "MT", "street": "3400 9TH AVE S", "postcode": "59405"}}},
{"geometry": {"type": "Point", "coordinates": [-111.2486431585, 47.4950609615]}, "type": "Feature", "properties": {"collection_times": [{"days": "Mon-Fri", "time": "5:30pm"}, {"days": "Sat", "time": "5:15pm"}, {"days": "Sun", "time": "Closed"}], "id": "5940500063", "name": "USPS COLLECTION BOX - PO LOBBY", "address": {"city": "GREAT FALLS", "state": "MT", "street": "3400 9TH AVE S", "postcode": "59405"}}},
{"geometry": {"type": "Point", "coordinates": [-111.2817364636, 47.5027682378]}, "type": "Feature", "properties": {"collection_times": [{"days": "Mon-Fri", "time": "11:00am"}, {"days": "Sat-Sun", "time": "Closed"}], "id": "5940500064", "name": "USPS COLLECTION BOX - BLUE BOX", "address": {"city": "GREAT FALLS", "state": "MT", "street": "222 15TH ST S", "postcode": "59405"}}},
{"geometry": {"type": "Point", "coordinates": [-112.388972726, 47.4949249558]}, "type": "Feature", "properties": {"collection_times": [{"days": "Mon-Fri", "time": "4:15pm"}, {"days": "Sat", "time": "2:30pm"}, {"days": "Sun", "time": "Closed"}], "id": "5941000000", "name": "USPS COLLECTION BOX - BLUE BOX", "address": {"city": "AUGUSTA", "state": "MT", "street": "102 WALRATH ST", "postcode": "59410"}}},
{"geometry": {"type": "Point", "coordinates": [-112.388972726, 47.4949249558]}, "type": "Feature", "properties": {"collection_times": [{"days": "Mon-Fri", "time": "3:30pm"}, {"days": "Sat", "time": "11:00am"}, {"days": "Sun", "time": "Closed"}], "id": "5941000001", "name": "USPS COLLECTION BOX - PO LOBBY", "address": {"city": "AUGUSTA", "state": "MT", "street": "102 WALRATH ST", "postcode": "59410"}}},
{"geometry": {"type": "Point", "coordinates": [-112.388972726, 47.4949249558]}, "type": "Feature", "properties": {"collection_times": [{"days": "Mon-Fri", "time": "3:30pm"}, {"days": "Sat", "time": "11:00am"}, {"days": "Sun", "time": "Closed"}], "id": "5941000002", "name": "USPS COLLECTION BOX - PO LOBBY", "address": {"city": "AUGUSTA", "state": "MT", "street": "102 WALRATH ST", "postcode": "59410"}}},
{"geometry": {"type": "Point", "coordinates": [-112.388972726, 47.4949249558]}, "type": "Feature", "properties": {"collection_times": [{"days": "Mon-Fri", "time": "3:30pm"}, {"days": "Sat", "time": "11:00am"}, {"days": "Sun", "time": "Closed"}], "id": "5941000003", "name": "USPS COLLECTION BOX - PO LOBBY", "address": {"city": "AUGUSTA", "state": "MT", "street": "102 WALRATH ST", "postcode": "59410"}}},
{"geometry": {"type": "Point", "coordinates": [-112.388972726, 47.4949249558]}, "type": "Feature", "properties": {"collection_times": [{"days": "Mon-Fri", "time": "3:30pm"}, {"days": "Sat", "time": "11:00am"}, {"days": "Sun", "time": "Closed"}], "id": "5941000004", "name": "USPS COLLECTION BOX - PO LOBBY", "address": {"city": "AUGUSTA", "state": "MT", "street": "102 WALRATH ST", "postcode": "59410"}}},
{"geometry": {"type": "Point", "coordinates": [-113.4362822586, 48.860580128]}, "type": "Feature", "properties": {"collection_times": [{"days": "Mon-Fri", "time": "1:00pm"}, {"days": "Sat-Sun", "time": "Closed"}], "id": "5941100001", "name": "USPS COLLECTION BOX - BLUE BOX", "address": {"city": "BABB", "state": "MT", "street": "4016 US HIGHWAY 89", "postcode": "59411"}}},
{"geometry": {"type": "Point", "coordinates": [-113.4362822586, 48.860580128]}, "type": "Feature", "properties": {"collection_times": [{"days": "Mon-Fri", "time": "1:00pm"}, {"days": "Sat-Sun", "time": "Closed"}], "id": "5941100002", "name": "USPS COLLECTION BOX - PO LOBBY", "address": {"city": "BABB", "state": "MT", "street": "4016 US HIGHWAY 89", "postcode": "59411"}}},
{"geometry": {"type": "Point", "coordinates": [-113.4362822586, 48.860580128]}, "type": "Feature", "properties": {"collection_times": [{"days": "Mon-Fri", "time": "1:00pm"}, {"days": "Sat-Sun", "time": "Closed"}], "id": "5941100003", "name": "USPS COLLECTION BOX - PO LOBBY", "address": {"city": "BABB", "state": "MT", "street": "4016 US HIGHWAY 89", "postcode": "59411"}}},
{"geometry": {"type": "Point", "coordinates": [-110.9242039899, 47.386423874]}, "type": "Feature", "properties": {"collection_times": [{"days": "Mon-Fri", "time": "4:30pm"}, {"days": "Sat", "time": "10:45am"}, {"days": "Sun", "time": "Closed"}], "id": "5941200000", "name": "USPS COLLECTION BOX - PO LOBBY", "address": {"city": "BELT", "state": "MT", "street": "314 BRIDGE ST", "postcode": "59412"}}},
{"geometry": {"type": "Point", "coordinates": [-110.9242039899, 47.386423874]}, "type": "Feature", "properties": {"collection_times": [{"days": "Mon-Fri", "time": "4:30pm"}, {"days": "Sat", "time": "10:45am"}, {"days": "Sun", "time": "Closed"}], "id": "5941200001", "name": "USPS COLLECTION BOX - PO LOBBY", "address": {"city": "BELT", "state": "MT", "street": "314 BRIDGE ST", "postcode": "59412"}}},
{"geometry": {"type": "Point", "coordinates": [-111.2839573742, 47.5248078194]}, "type": "Feature", "properties": {"collection_times": [{"days": "Mon-Sat", "time": "3:00pm"}, {"days": "Sun", "time": "Closed"}], "id": "5941400000", "name": "USPS COLLECTION BOX - BLUE BOX", "address": {"city": "GREAT FALLS", "state": "MT", "street": "1321 SMELTER AVE NE", "postcode": "59414"}}},
{"geometry": {"type": "Point", "coordinates": [-111.2839573742, 47.5248078194]}, "type": "Feature", "properties": {"collection_times": [{"days": "Mon-Sat", "time": "3:00pm"}, {"days": "Sun", "time": "Closed"}], "id": "5941400001", "name": "USPS COLLECTION BOX - BLUE BOX", "address": {"city": "GREAT FALLS", "state": "MT", "street": "1321 SMELTER AVE NE", "postcode": "59414"}}},
{"geometry": {"type": "Point", "coordinates": [-111.2839573742, 47.5248078194]}, "type": "Feature", "properties": {"collection_times": [{"days": "Mon-Sat", "time": "3:00pm"}, {"days": "Sun", "time": "Closed"}], "id": "5941400002", "name": "USPS COLLECTION BOX - PO LOBBY", "address": {"city": "GREAT FALLS", "state": "MT", "street": "1321 SMELTER AVE NE", "postcode": "59414"}}},
{"geometry": {"type": "Point", "coordinates": [-111.2839573742, 47.5248078194]}, "type": "Feature", "properties": {"collection_times": [{"days": "Mon-Sat", "time": "3:00pm"}, {"days": "Sun", "time": "Closed"}], "id": "5941400003", "name": "USPS COLLECTION BOX - PO LOBBY", "address": {"city": "GREAT FALLS", "state": "MT", "street": "1321 SMELTER AVE NE", "postcode": "59414"}}},
{"geometry": {"type": "Point", "coordinates": [-111.2839573742, 47.5248078194]}, "type": "Feature", "properties": {"collection_times": [{"days": "Mon-Sat", "time": "3:00pm"}, {"days": "Sun", "time": "Closed"}], "id": "5941400004", "name": "USPS COLLECTION BOX - PO LOBBY", "address": {"city": "GREAT FALLS", "state": "MT", "street": "1321 SMELTER AVE NE", "postcode": "59414"}}},
{"geometry": {"type": "Point", "coordinates": [-111.8411332497, 48.0355313777]}, "type": "Feature", "properties": {"collection_times": [{"days": "Mon-Fri", "time": "11:30am"}, {"days": "Sat", "time": "9:10am"}, {"days": "Sun", "time": "Closed"}], "id": "5941600001", "name": "USPS COLLECTION BOX - PO LOBBY", "address": {"city": "BRADY", "state": "MT", "street": "107 CENTRAL AVE E", "postcode": "59416"}}},
{"geometry": {"type": "Point", "coordinates": [-111.8411332497, 48.0355313777]}, "type": "Feature", "properties": {"collection_times": [{"days": "Mon-Fri", "time": "11:30am"}, {"days": "Sat", "time": "9:10am"}, {"days": "Sun", "time": "Closed"}], "id": "5941600002", "name": "USPS COLLECTION BOX - PO LOBBY", "address": {"city": "BRADY", "state": "MT", "street": "107 CENTRAL AVE E", "postcode": "59416"}}},
{"geometry": {"type": "Point", "coordinates": [-113.0137157771, 48.558193188]}, "type": "Feature", "properties": {"collection_times": [{"days": "Mon-Fri", "time": "3:30pm"}, {"days": "Sat", "time": "11:45am"}, {"days": "Sun", "time": "Closed"}], "id": "5941700001", "name": "USPS COLLECTION BOX - BLUE BOX", "address": {"city": "BROWNING", "state": "MT", "street": "316 N PIEGAN ST", "postcode": "59417"}}},
{"geometry": {"type": "Point", "coordinates": [-113.0137157771, 48.558193188]}, "type": "Feature", "properties": {"collection_times": [{"days": "Mon-Fri", "time": "3:30pm"}, {"days": "Sat", "time": "11:45am"}, {"days": "Sun", "time": "Closed"}], "id": "5941700002", "name": "USPS COLLECTION BOX - PO LOBBY", "address": {"city": "BROWNING", "state": "MT", "street": "316 N PIEGAN ST", "postcode": "59417"}}},
{"geometry": {"type": "Point", "coordinates": [-113.0137157771, 48.558193188]}, "type": "Feature", "properties": {"collection_times": [{"days": "Mon-Fri", "time": "3:30pm"}, {"days": "Sat", "time": "11:45am"}, {"days": "Sun", "time": "Closed"}], "id": "5941700003", "name": "USPS COLLECTION BOX - PO LOBBY", "address": {"city": "BROWNING", "state": "MT", "street": "316 N PIEGAN ST", "postcode": "59417"}}},
{"geometry": {"type": "Point", "coordinates": [-113.0137157771, 48.558193188]}, "type": "Feature", "properties": {"collection_times": [{"days": "Mon-Fri", "time": "3:30pm"}, {"days": "Sat", "time": "11:45am"}, {"days": "Sun", "time": "Closed"}], "id": "5941700004", "name": "USPS COLLECTION BOX - PO LOBBY", "address": {"city": "BROWNING", "state": "MT", "street": "316 N PIEGAN ST", "postcode": "59417"}}},
{"geometry": {"type": "Point", "coordinates": [-113.0137157771, 48.558193188]}, "type": "Feature", "properties": {"collection_times": [{"days": "Mon-Fri", "time": "3:30pm"}, {"days": "Sat", "time": "11:45am"}, {"days": "Sun", "time": "Closed"}], "id": "5941700005", "name": "USPS COLLECTION BOX - PO LOBBY", "address": {"city": "BROWNING", "state": "MT", "street": "316 N PIEGAN ST", "postcode": "59417"}}},
{"geometry": {"type": "Point", "coordinates": [-109.700515015, 46.8002540563]}, "type": "Feature", "properties": {"collection_times": [{"days": "Mon-Sat", "time": "11:50am"}, {"days": "Sun", "time": "Closed"}], "id": "5941800001", "name": "USPS COLLECTION BOX - PO LOBBY", "address": {"city": "BUFFALO", "state": "MT", "street": "102 2ND ST N", "postcode": "59418"}}},
{"geometry": {"type": "Point", "coordinates": [-109.700515015, 46.8002540563]}, "type": "Feature", "properties": {"collection_times": [{"days": "Mon-Sat", "time": "11:50am"}, {"days": "Sun", "time": "Closed"}], "id": "5941800002", "name": "USPS COLLECTION BOX - PO LOBBY", "address": {"city": "BUFFALO", "state": "MT", "street": "102 2ND ST N", "postcode": "59418"}}},
{"geometry": {"type": "Point", "coordinates": [-112.2876835381, 47.9851390293]}, "type": "Feature", "properties": {"collection_times": [{"days": "Mon-Fri", "time": "10:20am"}, {"days": "Sat", "time": "11:00am"}, {"days": "Sun", "time": "Closed"}], "id": "5941900001", "name": "USPS COLLECTION BOX - PO LOBBY", "address": {"city": "BYNUM", "state": "MT", "street": "5520 HIGHWAY 89 N", "postcode": "59419"}}},
{"geometry": {"type": "Point", "coordinates": [-112.2876835381, 47.9851390293]}, "type": "Feature", "properties": {"collection_times": [{"days": "Mon-Fri", "time": "10:20am"}, {"days": "Sat", "time": "11:00am"}, {"days": "Sun", "time": "Closed"}], "id": "5941900002", "name": "USPS COLLECTION BOX - PO LOBBY", "address": {"city": "BYNUM", "state": "MT", "street": "5520 HIGHWAY 89 N", "postcode": "59419"}}},
{"geometry": {"type": "Point", "coordinates": [-110.9563714033, 47.7812511354]}, "type": "Feature", "properties": {"collection_times": [{"days": "Mon-Fri", "time": "12:00pm"}, {"days": "Sat", "time": "9:45am"}, {"days": "Sun", "time": "Closed"}], "id": "5942000000", "name": "USPS COLLECTION BOX - PO LOBBY", "address": {"city": "CARTER", "state": "MT", "street": "180 2ND ST W", "postcode": "59420"}}},
{"geometry": {"type": "Point", "coordinates": [-111.8868195887, 47.1430524687]}, "type": "Feature", "properties": {"collection_times": [{"days": "Mon-Sat", "time": "10:00am"}, {"days": "Sun", "time": "Closed"}], "id": "5942100001", "name": "USPS COLLECTION BOX - BLUE BOX", "address": {"city": "CASCADE", "state": "MT", "street": "4 COOPER DR", "postcode": "59421"}}},
{"geometry": {"type": "Point", "coordinates": [-111.7027311734, 47.2671264311]}, "type": "Feature", "properties": {"collection_times": [{"days": "Mon-Fri", "time": "4:30pm"}, {"days": "Sat", "time": "8:30am"}, {"days": "Sun", "time": "Closed"}], "id": "5942100002", "name": "USPS COLLECTION BOX - PO LOBBY", "address": {"city": "CASCADE", "state": "MT", "street": "105 3RD AVE S", "postcode": "59421"}}},
{"geometry": {"type": "Point", "coordinates": [-111.7027311734, 47.2671264311]}, "type": "Feature", "properties": {"collection_times": [{"days": "Mon-Fri", "time": "4:15pm"}, {"days": "Sat", "time": "8:30am"}, {"days": "Sun", "time": "Closed"}], "id": "5942100003", "name": "USPS COLLECTION BOX - BLUE BOX", "address": {"city": "CASCADE", "state": "MT", "street": "105 3RD AVE S", "postcode": "59421"}}},
{"geometry": {"type": "Point", "coordinates": [-111.7027311734, 47.2671264311]}, "type": "Feature", "properties": {"collection_times": [{"days": "Mon-Fri", "time": "4:30pm"}, {"days": "Sat", "time": "8:30am"}, {"days": "Sun", "time": "Closed"}], "id": "5942100005", "name": "USPS COLLECTION BOX - PO LOBBY", "address": {"city": "CASCADE", "state": "MT", "street": "105 3RD AVE S", "postcode": "59421"}}},
{"geometry": {"type": "Point", "coordinates": [-112.188701159, 47.814152762]}, "type": "Feature", "properties": {"collection_times": [{"days": "Mon-Sat", "time": "8:30am"}, {"days": "Sun", "time": "Closed"}], "id": "5942200000", "name": "USPS COLLECTION BOX - BLUE BOX", "address": {"city": "CHOTEAU", "state": "MT", "street": "424 7TH AVE NW", "postcode": "59422"}}},
{"geometry": {"type": "Point", "coordinates": [-112.1850125076, 47.8118062002]}, "type": "Feature", "properties": {"collection_times": [{"days": "Mon-Fri", "time": "4:15pm"}, {"days": "Sat", "time": "11:30am"}, {"days": "Sun", "time": "Closed"}], "id": "5942200001", "name": "USPS COLLECTION BOX - BLUE BOX", "address": {"city": "CHOTEAU", "state": "MT", "street": "103 1ST ST NW", "postcode": "59422"}}},
{"geometry": {"type": "Point", "coordinates": [-112.1850125076, 47.8118062002]}, "type": "Feature", "properties": {"collection_times": [{"days": "Mon-Fri", "time": "4:30pm"}, {"days": "Sat", "time": "11:30am"}, {"days": "Sun", "time": "Closed"}], "id": "5942200003", "name": "USPS COLLECTION BOX - PO LOBBY", "address": {"city": "CHOTEAU", "state": "MT", "street": "103 1ST ST NW", "postcode": "59422"}}},
{"geometry": {"type": "Point", "coordinates": [-112.1850125076, 47.8118062002]}, "type": "Feature", "properties": {"collection_times": [{"days": "Mon-Fri", "time": "4:30pm"}, {"days": "Sat", "time": "11:30am"}, {"days": "Sun", "time": "Closed"}], "id": "5942200004", "name": "USPS COLLECTION BOX - PO LOBBY", "address": {"city": "CHOTEAU", "state": "MT", "street": "103 1ST ST NW", "postcode": "59422"}}},
{"geometry": {"type": "Point", "coordinates": [-112.1850125076, 47.8118062002]}, "type": "Feature", "properties": {"collection_times": [{"days": "Mon-Fri", "time": "4:30pm"}, {"days": "Sat", "time": "11:30am"}, {"days": "Sun", "time": "Closed"}], "id": "5942200005", "name": "USPS COLLECTION BOX - PO LOBBY", "address": {"city": "CHOTEAU", "state": "MT", "street": "103 1ST ST NW", "postcode": "59422"}}},
{"geometry": {"type": "Point", "coordinates": [-112.1850125076, 47.8118062002]}, "type": "Feature", "properties": {"collection_times": [{"days": "Mon-Fri", "time": "4:30pm"}, {"days": "Sat", "time": "11:30am"}, {"days": "Sun", "time": "Closed"}], "id": "5942200006", "name": "USPS COLLECTION BOX - PO LOBBY", "address": {"city": "CHOTEAU", "state": "MT", "street": "103 1ST ST NW", "postcode": "59422"}}},
{"geometry": {"type": "Point", "coordinates": [-112.1850125076, 47.8118062002]}, "type": "Feature", "properties": {"collection_times": [{"days": "Mon-Fri", "time": "4:30pm"}, {"days": "Sat", "time": "11:30am"}, {"days": "Sun", "time": "Closed"}], "id": "5942200007", "name": "USPS COLLECTION BOX - PO LOBBY", "address": {"city": "CHOTEAU", "state": "MT", "street": "103 1ST ST NW", "postcode": "59422"}}},
{"geometry": {"type": "Point", "coordinates": [-112.1850125076, 47.8118062002]}, "type": "Feature", "properties": {"collection_times": [{"days": "Mon-Fri", "time": "4:30pm"}, {"days": "Sat", "time": "11:30am"}, {"days": "Sun", "time": "Closed"}], "id": "5942200008", "name": "USPS COLLECTION BOX - PO LOBBY", "address": {"city": "CHOTEAU", "state": "MT", "street": "103 1ST ST NW", "postcode": "59422"}}},
{"geometry": {"type": "Point", "coordinates": [-110.0814412615, 47.3543051198]}, "type": "Feature", "properties": {"collection_times": [{"days": "Mon-Fri", "time": "3:20pm"}, {"days": "Sat", "time": "10:20am"}, {"days": "Sun", "time": "Closed"}], "id": "5942400000", "name": "USPS COLLECTION BOX - BLUE BOX", "address": {"city": "COFFEE CREEK", "state": "MT", "street": "115 MAIN ST", "postcode": "59424"}}},
{"geometry": {"type": "Point", "coordinates": [-111.9471867869, 48.1691359306]}, "type": "Feature", "properties": {"collection_times": [{"days": "Mon-Fri", "time": "2:00pm"}, {"days": "Sat", "time": "1:00pm"}, {"days": "Sun", "time": "Closed"}], "id": "5942500000", "name": "USPS COLLECTION BOX - BLUE BOX", "address": {"city": "CONRAD", "state": "MT", "street": "20 4TH AVE SW", "postcode": "59425"}}},
{"geometry": {"type": "Point", "coordinates": [-111.9484368419, 48.166299591]}, "type": "Feature", "properties": {"collection_times": [{"days": "Mon-Fri", "time": "2:00pm"}, {"days": "Sat", "time": "1:00pm"}, {"days": "Sun", "time": "Closed"}], "id": "5942500001", "name": "USPS COLLECTION BOX - BLUE BOX", "address": {"city": "CONRAD", "state": "MT", "street": "608 S MAIN ST", "postcode": "59425"}}},
{"geometry": {"type": "Point", "coordinates": [-111.9474809264, 48.1677238027]}, "type": "Feature", "properties": {"collection_times": [{"days": "Mon-Fri", "time": "5:15pm"}, {"days": "Sat", "time": "2:00pm"}, {"days": "Sun", "time": "Closed"}], "id": "5942500002", "name": "USPS COLLECTION BOX - BLUE BOX", "address": {"city": "CONRAD", "state": "MT", "street": "14 5TH AVE SE", "postcode": "59425"}}},
{"geometry": {"type": "Point", "coordinates": [-111.9474809264, 48.1677238027]}, "type": "Feature", "properties": {"collection_times": [{"days": "Mon-Fri", "time": "5:15pm"}, {"days": "Sat", "time": "2:00pm"}, {"days": "Sun", "time": "Closed"}], "id": "5942500003", "name": "USPS COLLECTION BOX - PO LOBBY", "address": {"city": "CONRAD", "state": "MT", "street": "14 5TH AVE SE", "postcode": "59425"}}},
{"geometry": {"type": "Point", "coordinates": [-111.9474809264, 48.1677238027]}, "type": "Feature", "properties": {"collection_times": [{"days": "Mon-Fri", "time": "5:15pm"}, {"days": "Sat", "time": "2:00pm"}, {"days": "Sun", "time": "Closed"}], "id": "5942500004", "name": "USPS COLLECTION BOX - BLUE BOX", "address": {"city": "CONRAD", "state": "MT", "street": "14 5TH AVE SE", "postcode": "59425"}}},
{"geometry": {"type": "Point", "coordinates": [-111.9474809264, 48.1677238027]}, "type": "Feature", "properties": {"collection_times": [{"days": "Mon-Fri", "time": "5:15pm"}, {"days": "Sat", "time": "2:00pm"}, {"days": "Sun", "time": "Closed"}], "id": "5942500005", "name": "USPS COLLECTION BOX - PO LOBBY", "address": {"city": "CONRAD", "state": "MT", "street": "14 5TH AVE SE", "postcode": "59425"}}},
{"geometry": {"type": "Point", "coordinates": [-111.9474809264, 48.1677238027]}, "type": "Feature", "properties": {"collection_times": [{"days": "Mon-Fri", "time": "5:15pm"}, {"days": "Sat", "time": "2:00pm"}, {"days": "Sun", "time": "Closed"}], "id": "5942500006", "name": "USPS COLLECTION BOX - PO LOBBY", "address": {"city": "CONRAD", "state": "MT", "street": "14 5TH AVE SE", "postcode": "59425"}}},
{"geometry": {"type": "Point", "coordinates": [-112.3264038839, 48.6330211116]}, "type": "Feature", "properties": {"collection_times": [{"days": "Mon-Fri", "time": "3:30pm"}, {"days": "Sat-Sun", "time": "Closed"}], "id": "5942700001", "name": "USPS COLLECTION BOX - BLUE BOX", "address": {"city": "CUT BANK", "state": "MT", "street": "500 E MAIN ST", "postcode": "59427"}}},
{"geometry": {"type": "Point", "coordinates": [-112.3325941725, 48.6358219821]}, "type": "Feature", "properties": {"collection_times": [{"days": "Mon-Fri", "time": "4:15pm"}, {"days": "Sat", "time": "11:15am"}, {"days": "Sun", "time": "Closed"}], "id": "5942700005", "name": "USPS COLLECTION BOX - PO LOBBY", "address": {"city": "CUT BANK", "state": "MT", "street": "37 S CENTRAL AVE", "postcode": "59427"}}},
{"geometry": {"type": "Point", "coordinates": [-112.3325941725, 48.6358219821]}, "type": "Feature", "properties": {"collection_times": [{"days": "Mon-Fri", "time": "3:55pm"}, {"days": "Sat", "time": "11:15am"}, {"days": "Sun", "time": "Closed"}], "id": "5942700006", "name": "USPS COLLECTION BOX - BLUE BOX", "address": {"city": "CUT BANK", "state": "MT", "street": "37 S CENTRAL AVE", "postcode": "59427"}}},
{"geometry": {"type": "Point", "coordinates": [-112.3325941725, 48.6358219821]}, "type": "Feature", "properties": {"collection_times": [{"days": "Mon-Fri", "time": "4:15pm"}, {"days": "Sat", "time": "11:15am"}, {"days": "Sun", "time": "Closed"}], "id": "5942700009", "name": "USPS COLLECTION BOX - PO LOBBY", "address": {"city": "CUT BANK", "state": "MT", "street": "37 S CENTRAL AVE", "postcode": "59427"}}},
{"geometry": {"type": "Point", "coordinates": [-109.951389047, 47.3194173244]}, "type": "Feature", "properties": {"collection_times": [{"days": "Mon-Fri", "time": "2:30pm"}, {"days": "Sat", "time": "9:45am"}, {"days": "Sun", "time": "Closed"}], "id": "5943000000", "name": "USPS COLLECTION BOX - PO LOBBY", "address": {"city": "DENTON", "state": "MT", "street": "422 BROADWAY AVE", "postcode": "59430"}}},
{"geometry": {"type": "Point", "coordinates": [-109.951389047, 47.3194173244]}, "type": "Feature", "properties": {"collection_times": [{"days": "Mon-Fri", "time": "2:30pm"}, {"days": "Sat", "time": "9:45am"}, {"days": "Sun", "time": "Closed"}], "id": "5943000001", "name": "USPS COLLECTION BOX - PO LOBBY", "address": {"city": "DENTON", "state": "MT", "street": "422 BROADWAY AVE", "postcode": "59430"}}},
{"geometry": {"type": "Point", "coordinates": [-112.50060238, 48.1916273983]}, "type": "Feature", "properties": {"collection_times": [{"days": "Mon-Fri", "time": "2:15pm"}, {"days": "Sat", "time": "10:45am"}, {"days": "Sun", "time": "Closed"}], "id": "5943200000", "name": "USPS COLLECTION BOX - PO LOBBY", "address": {"city": "DUPUYER", "state": "MT", "street": "110 MONTANA ST", "postcode": "59432"}}},
{"geometry": {"type": "Point", "coordinates": [-112.50060238, 48.1916273983]}, "type": "Feature", "properties": {"collection_times": [{"days": "Mon-Fri", "time": "2:15pm"}, {"days": "Sat", "time": "10:45am"}, {"days": "Sun", "time": "Closed"}], "id": "5943200001", "name": "USPS COLLECTION BOX - PO LOBBY", "address": {"city": "DUPUYER", "state": "MT", "street": "110 MONTANA ST", "postcode": "59432"}}},
{"geometry": {"type": "Point", "coordinates": [-111.7165981869, 47.8494126705]}, "type": "Feature", "properties": {"collection_times": [{"days": "Mon-Fri", "time": "4:15pm"}, {"days": "Sat", "time": "8:00am"}, {"days": "Sun", "time": "Closed"}], "id": "5943300000", "name": "USPS COLLECTION BOX - BLUE BOX", "address": {"city": "DUTTON", "state": "MT", "street": "77 SW 1ST ST", "postcode": "59433"}}},
{"geometry": {"type": "Point", "coordinates": [-111.7165981869, 47.8494126705]}, "type": "Feature", "properties": {"collection_times": [{"days": "Mon-Fri", "time": "1:00pm"}, {"days": "Sat", "time": "8:00am"}, {"days": "Sun", "time": "Closed"}], "id": "5943300001", "name": "USPS COLLECTION BOX - PO LOBBY", "address": {"city": "DUTTON", "state": "MT", "street": "77 SW 1ST ST", "postcode": "59433"}}},
{"geometry": {"type": "Point", "coordinates": [-111.7165981869, 47.8494126705]}, "type": "Feature", "properties": {"collection_times": [{"days": "Mon-Fri", "time": "1:00pm"}, {"days": "Sat", "time": "8:00am"}, {"days": "Sun", "time": "Closed"}], "id": "5943300002", "name": "USPS COLLECTION BOX - PO LOBBY", "address": {"city": "DUTTON", "state": "MT", "street": "77 SW 1ST ST", "postcode": "59433"}}},
{"geometry": {"type": "Point", "coordinates": [-113.5973773704, 48.7113292441]}, "type": "Feature", "properties": {"collection_times": [{"days": "Mon-Fri", "time": "3:00pm"}, {"days": "Sat", "time": "10:00am"}, {"days": "Sun", "time": "Closed"}], "id": "5943400000", "name": "USPS COLLECTION BOX - BLUE BOX", "address": {"city": "E GLACIER PK", "state": "MT", "street": "15 BLACKFOOT AVE", "postcode": "59434"}}},
{"geometry": {"type": "Point", "coordinates": [-113.5973773704, 48.7113292441]}, "type": "Feature", "properties": {"collection_times": [{"days": "Mon-Fri", "time": "3:00pm"}, {"days": "Sat", "time": "10:00am"}, {"days": "Sun", "time": "Closed"}], "id": "5943400001", "name": "USPS COLLECTION BOX - PO LOBBY", "address": {"city": "E GLACIER PK", "state": "MT", "street": "15 BLACKFOOT AVE", "postcode": "59434"}}},
{"geometry": {"type": "Point", "coordinates": [-113.5973773704, 48.7113292441]}, "type": "Feature", "properties": {"collection_times": [{"days": "Mon-Fri", "time": "3:00pm"}, {"days": "Sat", "time": "10:00am"}, {"days": "Sun", "time": "Closed"}], "id": "5943400002", "name": "USPS COLLECTION BOX - PO LOBBY", "address": {"city": "E GLACIER PK", "state": "MT", "street": "15 BLACKFOOT AVE", "postcode": "59434"}}},
{"geometry": {"type": "Point", "coordinates": [-112.1210112482, 48.5553668317]}, "type": "Feature", "properties": {"collection_times": [{"days": "Mon-Fri", "time": "4:45pm"}, {"days": "Sat", "time": "4:15pm"}, {"days": "Sun", "time": "Closed"}], "id": "5943500000", "name": "USPS COLLECTION BOX - BLUE BOX", "address": {"city": "ETHRIDGE", "state": "MT", "street": "26667 US HIGHWAY 2", "postcode": "59435"}}},
{"geometry": {"type": "Point", "coordinates": [-112.1210112482, 48.5553668317]}, "type": "Feature", "properties": {"collection_times": [{"days": "Mon-Fri", "time": "9:50am"}, {"days": "Sat", "time": "11:45am"}, {"days": "Sun", "time": "Closed"}], "id": "5943500001", "name": "USPS COLLECTION BOX - PO LOBBY", "address": {"city": "ETHRIDGE", "state": "MT", "street": "26667 US HIGHWAY 2", "postcode": "59435"}}},
{"geometry": {"type": "Point", "coordinates": [-112.1210112482, 48.5553668317]}, "type": "Feature", "properties": {"collection_times": [{"days": "Mon-Fri", "time": "9:50am"}, {"days": "Sat", "time": "11:45am"}, {"days": "Sun", "time": "Closed"}], "id": "5943500002", "name": "USPS COLLECTION BOX - PO LOBBY", "address": {"city": "ETHRIDGE", "state": "MT", "street": "26667 US HIGHWAY 2", "postcode": "59435"}}},
{"geometry": {"type": "Point", "coordinates": [-111.9815568345, 47.6136316691]}, "type": "Feature", "properties": {"collection_times": [{"days": "Mon-Fri", "time": "4:30pm"}, {"days": "Sat", "time": "11:00am"}, {"days": "Sun", "time": "Closed"}], "id": "5943600000", "name": "USPS COLLECTION BOX - PO LOBBY", "address": {"city": "FAIRFIELD", "state": "MT", "street": "409 1ST AVE S", "postcode": "59436"}}},
{"geometry": {"type": "Point", "coordinates": [-111.9815568345, 47.6136316691]}, "type": "Feature", "properties": {"collection_times": [{"days": "Mon-Fri", "time": "4:30pm"}, {"days": "Sat", "time": "11:00am"}, {"days": "Sun", "time": "Closed"}], "id": "5943600001", "name": "USPS COLLECTION BOX - BLUE BOX", "address": {"city": "FAIRFIELD", "state": "MT", "street": "409 1ST AVE S", "postcode": "59436"}}},
{"geometry": {"type": "Point", "coordinates": [-111.9815568345, 47.6136316691]}, "type": "Feature", "properties": {"collection_times": [{"days": "Mon-Fri", "time": "4:30pm"}, {"days": "Sat", "time": "11:00am"}, {"days": "Sun", "time": "Closed"}], "id": "5943600002", "name": "USPS COLLECTION BOX - PO LOBBY", "address": {"city": "FAIRFIELD", "state": "MT", "street": "409 1ST AVE S", "postcode": "59436"}}},
{"geometry": {"type": "Point", "coordinates": [-110.666756879, 47.8183983813]}, "type": "Feature", "properties": {"collection_times": [{"days": "Mon-Fri", "time": "4:30pm"}, {"days": "Sat", "time": "1:00pm"}, {"days": "Sun", "time": "Closed"}], "id": "5944200000", "name": "USPS COLLECTION BOX - BLUE BOX", "address": {"city": "FORT BENTON", "state": "MT", "street": "818 16TH ST", "postcode": "59442"}}},
{"geometry": {"type": "Point", "coordinates": [-110.666756879, 47.8183983813]}, "type": "Feature", "properties": {"collection_times": [{"days": "Mon-Fri", "time": "4:45pm"}, {"days": "Sat", "time": "1:00pm"}, {"days": "Sun", "time": "Closed"}], "id": "5944200001", "name": "USPS COLLECTION BOX - PO LOBBY", "address": {"city": "FORT BENTON", "state": "MT", "street": "818 16TH ST", "postcode": "59442"}}},
{"geometry": {"type": "Point", "coordinates": [-110.666756879, 47.8183983813]}, "type": "Feature", "properties": {"collection_times": [{"days": "Mon-Fri", "time": "4:45pm"}, {"days": "Sat", "time": "1:00pm"}, {"days": "Sun", "time": "Closed"}], "id": "5944200002", "name": "USPS COLLECTION BOX - PO LOBBY", "address": {"city": "FORT BENTON", "state": "MT", "street": "818 16TH ST", "postcode": "59442"}}},
{"geometry": {"type": "Point", "coordinates": [-110.666756879, 47.8183983813]}, "type": "Feature", "properties": {"collection_times": [{"days": "Mon-Fri", "time": "4:45pm"}, {"days": "Sat", "time": "1:00pm"}, {"days": "Sun", "time": "Closed"}], "id": "5944200003", "name": "USPS COLLECTION BOX - PO LOBBY", "address": {"city": "FORT BENTON", "state": "MT", "street": "818 16TH ST", "postcode": "59442"}}},
{"geometry": {"type": "Point", "coordinates": [-110.666756879, 47.8183983813]}, "type": "Feature", "properties": {"collection_times": [{"days": "Mon-Fri", "time": "4:45pm"}, {"days": "Sat", "time": "1:00pm"}, {"days": "Sun", "time": "Closed"}], "id": "5944200004", "name": "USPS COLLECTION BOX - PO LOBBY", "address": {"city": "FORT BENTON", "state": "MT", "street": "818 16TH ST", "postcode": "59442"}}},
{"geometry": {"type": "Point", "coordinates": [-111.8108936633, 47.505366417]}, "type": "Feature", "properties": {"collection_times": [{"days": "Mon-Fri", "time": "11:30am"}, {"days": "Sat", "time": "9:45am"}, {"days": "Sun", "time": "Closed"}], "id": "5944300000", "name": "USPS COLLECTION BOX - PO LOBBY", "address": {"city": "FORT SHAW", "state": "MT", "street": "13356 MT HIGHWAY 200", "postcode": "59443"}}},
{"geometry": {"type": "Point", "coordinates": [-111.3758649198, 48.4299314061]}, "type": "Feature", "properties": {"collection_times": [{"days": "Mon-Fri", "time": "12:30pm"}, {"days": "Sat", "time": "11:30am"}, {"days": "Sun", "time": "Closed"}], "id": "5944400000", "name": "USPS COLLECTION BOX - PO LOBBY", "address": {"city": "GALATA", "state": "MT", "street": "73 GALATA RD", "postcode": "59444"}}},
{"geometry": {"type": "Point", "coordinates": [-111.3758649198, 48.4299314061]}, "type": "Feature", "properties": {"collection_times": [{"days": "Mon-Fri", "time": "12:30pm"}, {"days": "Sat", "time": "11:30am"}, {"days": "Sun", "time": "Closed"}], "id": "5944400001", "name": "USPS COLLECTION BOX - PO LOBBY", "address": {"city": "GALATA", "state": "MT", "street": "73 GALATA RD", "postcode": "59444"}}},
{"geometry": {"type": "Point", "coordinates": [-111.3927377555, 48.6968266197]}, "type": "Feature", "properties": {"collection_times": [{"days": "Mon-Fri", "time": "1:00pm"}, {"days": "Sat", "time": "11:30am"}, {"days": "Sun", "time": "Closed"}], "id": "5944400003", "name": "USPS COLLECTION BOX - BLUE BOX", "address": {"city": "GALATA", "state": "MT", "street": "73 GALATA RD", "postcode": "59444"}}},
{"geometry": {"type": "Point", "coordinates": [-110.2668526609, 47.603580207]}, "type": "Feature", "properties": {"collection_times": [{"days": "Mon-Fri", "time": "2:00pm"}, {"days": "Sat", "time": "12:00pm"}, {"days": "Sun", "time": "Closed"}], "id": "5944600000", "name": "USPS COLLECTION BOX - PO LOBBY", "address": {"city": "GERALDINE", "state": "MT", "street": "159 BROADWAY AVE W", "postcode": "59446"}}},
{"geometry": {"type": "Point", "coordinates": [-110.2668526609, 47.603580207]}, "type": "Feature", "properties": {"collection_times": [{"days": "Mon-Fri", "time": "2:00pm"}, {"days": "Sat", "time": "12:00pm"}, {"days": "Sun", "time": "Closed"}], "id": "5944600001", "name": "USPS COLLECTION BOX - PO LOBBY", "address": {"city": "GERALDINE", "state": "MT", "street": "159 BROADWAY AVE W", "postcode": "59446"}}},
{"geometry": {"type": "Point", "coordinates": [-110.4308951248, 47.2912034759]}, "type": "Feature", "properties": {"collection_times": [{"days": "Mon-Fri", "time": "3:00pm"}, {"days": "Sat", "time": "9:15am"}, {"days": "Sun", "time": "Closed"}], "id": "5944700000", "name": "USPS COLLECTION BOX - PO LOBBY", "address": {"city": "GEYSER", "state": "MT", "street": "110 E HILL AVE", "postcode": "59447"}}},
{"geometry": {"type": "Point", "coordinates": [-110.4308951248, 47.2912034759]}, "type": "Feature", "properties": {"collection_times": [{"days": "Mon-Fri", "time": "3:00pm"}, {"days": "Sat", "time": "9:15am"}, {"days": "Sun", "time": "Closed"}], "id": "5944700001", "name": "USPS COLLECTION BOX - PO LOBBY", "address": {"city": "GEYSER", "state": "MT", "street": "110 E HILL AVE", "postcode": "59447"}}},
{"geometry": {"type": "Point", "coordinates": [-112.9852008905, 48.2407425154]}, "type": "Feature", "properties": {"collection_times": [{"days": "Mon-Fri", "time": "2:45pm"}, {"days": "Sat", "time": "9:50am"}, {"days": "Sun", "time": "Closed"}], "id": "5944800000", "name": "USPS COLLECTION BOX - PO LOBBY", "address": {"city": "HEART BUTTE", "state": "MT", "street": "22 WHITETAIL CREEK RD", "postcode": "59448"}}},
{"geometry": {"type": "Point", "coordinates": [-112.9852008905, 48.2407425154]}, "type": "Feature", "properties": {"collection_times": [{"days": "Mon-Fri", "time": "2:45pm"}, {"days": "Sat", "time": "9:50am"}, {"days": "Sun", "time": "Closed"}], "id": "5944800001", "name": "USPS COLLECTION BOX - PO LOBBY", "address": {"city": "HEART BUTTE", "state": "MT", "street": "22 WHITETAIL CREEK RD", "postcode": "59448"}}},
{"geometry": {"type": "Point", "coordinates": [-110.7971928078, 47.5848666127]}, "type": "Feature", "properties": {"collection_times": [{"days": "Mon-Fri", "time": "1:00pm"}, {"days": "Sat", "time": "10:45am"}, {"days": "Sun", "time": "Closed"}], "id": "5945000000", "name": "USPS COLLECTION BOX - PO LOBBY", "address": {"city": "HIGHWOOD", "state": "MT", "street": "164 BROADWAY AVE W", "postcode": "59450"}}},
{"geometry": {"type": "Point", "coordinates": [-110.7971928078, 47.5848666127]}, "type": "Feature", "properties": {"collection_times": [{"days": "Mon-Fri", "time": "1:00pm"}, {"days": "Sat", "time": "10:45am"}, {"days": "Sun", "time": "Closed"}], "id": "5945000002", "name": "USPS COLLECTION BOX - PO LOBBY", "address": {"city": "HIGHWOOD", "state": "MT", "street": "164 BROADWAY AVE W", "postcode": "59450"}}},
{"geometry": {"type": "Point", "coordinates": [-109.4091390039, 47.3099677835]}, "type": "Feature", "properties": {"collection_times": [{"days": "Mon-Fri", "time": "11:30am"}, {"days": "Sat", "time": "9:20am"}, {"days": "Sun", "time": "Closed"}], "id": "5945100000", "name": "USPS COLLECTION BOX - PO LOBBY", "address": {"city": "HILGER", "state": "MT", "street": "39 SWOPE ST", "postcode": "59451"}}},
{"geometry": {"type": "Point", "coordinates": [-109.4091390039, 47.3099677835]}, "type": "Feature", "properties": {"collection_times": [{"days": "Mon-Fri", "time": "11:30am"}, {"days": "Sat", "time": "9:20am"}, {"days": "Sun", "time": "Closed"}], "id": "5945100001", "name": "USPS COLLECTION BOX - PO LOBBY", "address": {"city": "HILGER", "state": "MT", "street": "39 SWOPE ST", "postcode": "59451"}}},
{"geometry": {"type": "Point", "coordinates": [-109.8745544283, 47.0017399364]}, "type": "Feature", "properties": {"collection_times": [{"days": "Mon-Fri", "time": "4:00pm"}, {"days": "Sat", "time": "9:15am"}, {"days": "Sun", "time": "Closed"}], "id": "5945200000", "name": "USPS COLLECTION BOX - BLUE BOX", "address": {"city": "HOBSON", "state": "MT", "street": "109 CENTRAL AVE", "postcode": "59452"}}},
{"geometry": {"type": "Point", "coordinates": [-109.8745544283, 47.0017399364]}, "type": "Feature", "properties": {"collection_times": [{"days": "Mon-Fri", "time": "4:00pm"}, {"days": "Sat", "time": "9:15am"}, {"days": "Sun", "time": "Closed"}], "id": "5945200001", "name": "USPS COLLECTION BOX - PO LOBBY", "address": {"city": "HOBSON", "state": "MT", "street": "109 CENTRAL AVE", "postcode": "59452"}}},
{"geometry": {"type": "Point", "coordinates": [-109.8745544283, 47.0017399364]}, "type": "Feature", "properties": {"collection_times": [{"days": "Mon-Fri", "time": "4:00pm"}, {"days": "Sat", "time": "9:15am"}, {"days": "Sun", "time": "Closed"}], "id": "5945200002", "name": "USPS COLLECTION BOX - PO LOBBY", "address": {"city": "HOBSON", "state": "MT", "street": "109 CENTRAL AVE", "postcode": "59452"}}},
{"geometry": {"type": "Point", "coordinates": [-109.6004008199, 46.6041075814]}, "type": "Feature", "properties": {"collection_times": [{"days": "Mon-Fri", "time": "12:30pm"}, {"days": "Sat", "time": "10:15am"}, {"days": "Sun", "time": "Closed"}], "id": "5945300001", "name": "USPS COLLECTION BOX - PO LOBBY", "address": {"city": "JUDITH GAP", "state": "MT", "street": "115 6TH AVE N", "postcode": "59453"}}},
{"geometry": {"type": "Point", "coordinates": [-109.6004008199, 46.6041075814]}, "type": "Feature", "properties": {"collection_times": [{"days": "Mon-Fri", "time": "12:30pm"}, {"days": "Sat", "time": "10:15am"}, {"days": "Sun", "time": "Closed"}], "id": "5945300002", "name": "USPS COLLECTION BOX - PO LOBBY", "address": {"city": "JUDITH GAP", "state": "MT", "street": "115 6TH AVE N", "postcode": "59453"}}},
{"geometry": {"type": "Point", "coordinates": [-112.019106864, 48.7469454828]}, "type": "Feature", "properties": {"collection_times": [{"days": "Mon-Fri", "time": "12:00pm"}, {"days": "Sat", "time": "9:45am"}, {"days": "Sun", "time": "Closed"}], "id": "5945400001", "name": "USPS COLLECTION BOX - PO LOBBY", "address": {"city": "KEVIN", "state": "MT", "street": "11 FRONT ST", "postcode": "59454"}}},
{"geometry": {"type": "Point", "coordinates": [-112.019106864, 48.7469454828]}, "type": "Feature", "properties": {"collection_times": [{"days": "Mon-Fri", "time": "12:00pm"}, {"days": "Sat", "time": "9:45am"}, {"days": "Sun", "time": "Closed"}], "id": "5945400002", "name": "USPS COLLECTION BOX - PO LOBBY", "address": {"city": "KEVIN", "state": "MT", "street": "11 FRONT ST", "postcode": "59454"}}},
{"geometry": {"type": "Point", "coordinates": [-109.4170165071, 47.0706017155]}, "type": "Feature", "properties": {"collection_times": [{"days": "Mon-Sat", "time": "1:30pm"}, {"days": "Sun", "time": "Closed"}], "id": "5945700000", "name": "USPS COLLECTION BOX - BLUE BOX", "address": {"city": "LEWISTOWN", "state": "MT", "street": "104 HAWTHORNE AVE", "postcode": "59457"}}},
{"geometry": {"type": "Point", "coordinates": [-109.4226879887, 47.0675514876]}, "type": "Feature", "properties": {"collection_times": [{"days": "Mon-Fri", "time": "4:00pm"}, {"days": "Sat", "time": "11:30am"}, {"days": "Sun", "time": "Closed"}], "id": "5945700001", "name": "USPS COLLECTION BOX - BLUE BOX", "address": {"city": "LEWISTOWN", "state": "MT", "street": "211 E MAIN ST", "postcode": "59457"}}},
{"geometry": {"type": "Point", "coordinates": [-109.4232446996, 47.0661453562]}, "type": "Feature", "properties": {"collection_times": [{"days": "Mon-Fri", "time": "5:00pm"}, {"days": "Sat", "time": "4:00pm"}, {"days": "Sun", "time": "Closed"}], "id": "5945700002", "name": "USPS COLLECTION BOX - BLUE BOX", "address": {"city": "LEWISTOWN", "state": "MT", "street": "117 W JANEAUX ST", "postcode": "59457"}}},
{"geometry": {"type": "Point", "coordinates": [-109.4267678598, 47.0660016512]}, "type": "Feature", "properties": {"collection_times": [{"days": "Mon-Fri", "time": "5:00pm"}, {"days": "Sat", "time": "4:15pm"}, {"days": "Sun", "time": "Closed"}], "id": "5945700005", "name": "USPS COLLECTION BOX - BLUE BOX", "address": {"city": "LEWISTOWN", "state": "MT", "street": "204 3RD AVE N", "postcode": "59457"}}},
{"geometry": {"type": "Point", "coordinates": [-109.4279874961, 47.0639876772]}, "type": "Feature", "properties": {"collection_times": [{"days": "Mon-Fri", "time": "5:00pm"}, {"days": "Sat-Sun", "time": "Closed"}], "id": "5945700007", "name": "USPS COLLECTION BOX - BLUE BOX", "address": {"city": "LEWISTOWN", "state": "MT", "street": "505 W MAIN ST", "postcode": "59457"}}},
{"geometry": {"type": "Point", "coordinates": [-109.4303727945, 47.0625543571]}, "type": "Feature", "properties": {"collection_times": [{"days": "Mon-Fri", "time": "5:00pm"}, {"days": "Sat-Sun", "time": "Closed"}], "id": "5945700008", "name": "USPS COLLECTION BOX - BLUE BOX", "address": {"city": "LEWISTOWN", "state": "MT", "street": "712 W MAIN ST", "postcode": "59457"}}},
{"geometry": {"type": "Point", "coordinates": [-109.4357163113, 47.0589854746]}, "type": "Feature", "properties": {"collection_times": [{"days": "Mon-Fri", "time": "5:00pm"}, {"days": "Sat", "time": "10:45am"}, {"days": "Sun", "time": "Closed"}], "id": "5945700009", "name": "USPS COLLECTION BOX - BLUE BOX", "address": {"city": "LEWISTOWN", "state": "MT", "street": "1224 W MAIN ST", "postcode": "59457"}}},
{"geometry": {"type": "Point", "coordinates": [-109.425215794, 47.0660088941]}, "type": "Feature", "properties": {"collection_times": [{"days": "Mon-Fri", "time": "5:00pm"}, {"days": "Sat", "time": "10:15am"}, {"days": "Sun", "time": "Closed"}], "id": "5945700010", "name": "USPS COLLECTION BOX - BLUE BOX", "address": {"city": "LEWISTOWN", "state": "MT", "street": "224 W MAIN ST", "postcode": "59457"}}},
{"geometry": {"type": "Point", "coordinates": [-109.4267678598, 47.0660016512]}, "type": "Feature", "properties": {"collection_times": [{"days": "Mon-Fri", "time": "5:00pm"}, {"days": "Sat", "time": "4:15pm"}, {"days": "Sun", "time": "Closed"}], "id": "5945700011", "name": "USPS COLLECTION BOX - BLUE BOX", "address": {"city": "LEWISTOWN", "state": "MT", "street": "204 3RD AVE N", "postcode": "59457"}}},
{"geometry": {"type": "Point", "coordinates": [-109.4267678598, 47.0660016512]}, "type": "Feature", "properties": {"collection_times": [{"days": "Mon-Fri", "time": "5:00pm"}, {"days": "Sat", "time": "4:15pm"}, {"days": "Sun", "time": "Closed"}], "id": "5945700013", "name": "USPS COLLECTION BOX - BLUE BOX", "address": {"city": "LEWISTOWN", "state": "MT", "street": "204 3RD AVE N", "postcode": "59457"}}},
{"geometry": {"type": "Point", "coordinates": [-109.4244318243, 47.0643591942]}, "type": "Feature", "properties": {"collection_times": [{"days": "Mon-Fri", "time": "5:00pm"}, {"days": "Sat", "time": "9:30am"}, {"days": "Sun", "time": "Closed"}], "id": "5945700014", "name": "USPS COLLECTION BOX - BLUE BOX", "address": {"city": "LEWISTOWN", "state": "MT", "street": "305 W WATSON ST", "postcode": "59457"}}},
{"geometry": {"type": "Point", "coordinates": [-109.4267678598, 47.0660016512]}, "type": "Feature", "properties": {"collection_times": [{"days": "Mon-Fri", "time": "5:00pm"}, {"days": "Sat", "time": "4:20pm"}, {"days": "Sun", "time": "Closed"}], "id": "5945700015", "name": "USPS COLLECTION BOX - PO LOBBY", "address": {"city": "LEWISTOWN", "state": "MT", "street": "204 3RD AVE N", "postcode": "59457"}}},
{"geometry": {"type": "Point", "coordinates": [-109.4267678598, 47.0660016512]}, "type": "Feature", "properties": {"collection_times": [{"days": "Mon-Fri", "time": "5:00pm"}, {"days": "Sat", "time": "4:20pm"}, {"days": "Sun", "time": "Closed"}], "id": "5945700016", "name": "USPS COLLECTION BOX - PO LOBBY", "address": {"city": "LEWISTOWN", "state": "MT", "street": "204 3RD AVE N", "postcode": "59457"}}},
{"geometry": {"type": "Point", "coordinates": [-109.4253711874, 47.0679568496]}, "type": "Feature", "properties": {"collection_times": [{"days": "Mon-Fri", "time": "5:00pm"}, {"days": "Sat-Sun", "time": "Closed"}], "id": "5945700017", "name": "USPS COLLECTION BOX - BLUE BOX", "address": {"city": "LEWISTOWN", "state": "MT", "street": "300 1ST AVE N", "postcode": "59457"}}},
{"geometry": {"type": "Point", "coordinates": [-110.5054661687, 47.9359217779]}, "type": "Feature", "properties": {"collection_times": [{"days": "Mon-Fri", "time": "12:00pm"}, {"days": "Sat", "time": "9:45am"}, {"days": "Sun", "time": "Closed"}], "id": "5946000001", "name": "USPS COLLECTION BOX - PO LOBBY", "address": {"city": "LOMA", "state": "MT", "street": "111 2ND AVE", "postcode": "59460"}}},
{"geometry": {"type": "Point", "coordinates": [-109.8843248137, 47.1095575328]}, "type": "Feature", "properties": {"collection_times": [{"days": "Mon-Fri", "time": "3:45pm"}, {"days": "Sat", "time": "9:45am"}, {"days": "Sun", "time": "Closed"}], "id": "5946200001", "name": "USPS COLLECTION BOX - PO LOBBY", "address": {"city": "MOCCASIN", "state": "MT", "street": "202 1ST AVE W", "postcode": "59462"}}},
{"geometry": {"type": "Point", "coordinates": [-110.8362056656, 47.0964807568]}, "type": "Feature", "properties": {"collection_times": [{"days": "Mon-Fri", "time": "12:45pm"}, {"days": "Sat", "time": "11:45am"}, {"days": "Sun", "time": "Closed"}], "id": "5946300000", "name": "USPS COLLECTION BOX - PO LOBBY", "address": {"city": "MONARCH", "state": "MT", "street": "15 MISSOULA AVE", "postcode": "59463"}}},
{"geometry": {"type": "Point", "coordinates": [-109.7018146144, 46.9798206926]}, "type": "Feature", "properties": {"collection_times": [{"days": "Mon-Fri", "time": "12:30pm"}, {"days": "Sat", "time": "10:00am"}, {"days": "Sun", "time": "Closed"}], "id": "5946400000", "name": "USPS COLLECTION BOX - PO LOBBY", "address": {"city": "MOORE", "state": "MT", "street": "201 FERGUS AVE", "postcode": "59464"}}},
{"geometry": {"type": "Point", "coordinates": [-109.7018146144, 46.9798206926]}, "type": "Feature", "properties": {"collection_times": [{"days": "Mon-Fri", "time": "12:30pm"}, {"days": "Sat", "time": "10:00am"}, {"days": "Sun", "time": "Closed"}], "id": "5946400001", "name": "USPS COLLECTION BOX - PO LOBBY", "address": {"city": "MOORE", "state": "MT", "street": "201 FERGUS AVE", "postcode": "59464"}}},
{"geometry": {"type": "Point", "coordinates": [-110.7341020329, 46.9318163641]}, "type": "Feature", "properties": {"collection_times": [{"days": "Mon-Fri", "time": "12:30pm"}, {"days": "Sat", "time": "11:30am"}, {"days": "Sun", "time": "Closed"}], "id": "5946500000", "name": "USPS COLLECTION BOX - PO LOBBY", "address": {"city": "NEIHART", "state": "MT", "street": "108 N MAIN ST", "postcode": "59465"}}},
{"geometry": {"type": "Point", "coordinates": [-112.2997793786, 48.0735269368]}, "type": "Feature", "properties": {"collection_times": [{"days": "Mon-Fri", "time": "1:15pm"}, {"days": "Sat", "time": "10:45am"}, {"days": "Sun", "time": "Closed"}], "id": "5946700000", "name": "USPS COLLECTION BOX - BLUE BOX", "address": {"city": "PENDROY", "state": "MT", "street": "121 MAIN ST", "postcode": "59467"}}},
{"geometry": {"type": "Point", "coordinates": [-112.3056323151, 48.0862236206]}, "type": "Feature", "properties": {"collection_times": [{"days": "Mon-Sat", "time": "10:30am"}, {"days": "Sun", "time": "Closed"}], "id": "5946700001", "name": "USPS COLLECTION BOX - PO LOBBY", "address": {"city": "PENDROY", "state": "MT", "street": "121 MAIN ST", "postcode": "59467"}}},
{"geometry": {"type": "Point", "coordinates": [-111.6848800848, 47.7159720754]}, "type": "Feature", "properties": {"collection_times": [{"days": "Mon-Fri", "time": "11:00am"}, {"days": "Sat", "time": "8:20am"}, {"days": "Sun", "time": "Closed"}], "id": "5946800000", "name": "USPS COLLECTION BOX - PO LOBBY", "address": {"city": "POWER", "state": "MT", "street": "402 HILL AVE", "postcode": "59468"}}},
{"geometry": {"type": "Point", "coordinates": [-111.6848800848, 47.7159720754]}, "type": "Feature", "properties": {"collection_times": [{"days": "Mon-Fri", "time": "11:00am"}, {"days": "Sat", "time": "8:20am"}, {"days": "Sun", "time": "Closed"}], "id": "5946800001", "name": "USPS COLLECTION BOX - PO LOBBY", "address": {"city": "POWER", "state": "MT", "street": "402 HILL AVE", "postcode": "59468"}}},
{"geometry": {"type": "Point", "coordinates": [-110.6845535563, 47.2465283119]}, "type": "Feature", "properties": {"collection_times": [{"days": "Mon-Fri", "time": "2:00pm"}, {"days": "Sat", "time": "1:15pm"}, {"days": "Sun", "time": "Closed"}], "id": "5946900001", "name": "USPS COLLECTION BOX - PO LOBBY", "address": {"city": "RAYNESFORD", "state": "MT", "street": "101 W MAIN ST", "postcode": "59469"}}},
{"geometry": {"type": "Point", "coordinates": [-110.6845535563, 47.2465283119]}, "type": "Feature", "properties": {"collection_times": [{"days": "Mon-Fri", "time": "2:00pm"}, {"days": "Sat", "time": "1:15pm"}, {"days": "Sun", "time": "Closed"}], "id": "5946900002", "name": "USPS COLLECTION BOX - PO LOBBY", "address": {"city": "RAYNESFORD", "state": "MT", "street": "101 W MAIN ST", "postcode": "59469"}}},
{"geometry": {"type": "Point", "coordinates": [-108.7324034738, 47.4076055504]}, "type": "Feature", "properties": {"collection_times": [{"days": "Mon-Fri", "time": "2:30pm"}, {"days": "Sat", "time": "9:30am"}, {"days": "Sun", "time": "Closed"}], "id": "5947100001", "name": "USPS COLLECTION BOX - PO LOBBY", "address": {"city": "ROY", "state": "MT", "street": "228 MAIN ST", "postcode": "59471"}}},
{"geometry": {"type": "Point", "coordinates": [-111.1683828829, 47.3996388325]}, "type": "Feature", "properties": {"collection_times": [{"days": "Mon-Fri", "time": "2:00pm"}, {"days": "Sat", "time": "10:00am"}, {"days": "Sun", "time": "Closed"}], "id": "5947200002", "name": "USPS COLLECTION BOX - PO LOBBY", "address": {"city": "SAND COULEE", "state": "MT", "street": "538 E HUNTER RD", "postcode": "59472"}}},
{"geometry": {"type": "Point", "coordinates": [-111.1683828829, 47.3996388325]}, "type": "Feature", "properties": {"collection_times": [{"days": "Mon-Fri", "time": "2:00pm"}, {"days": "Sat", "time": "10:00am"}, {"days": "Sun", "time": "Closed"}], "id": "5947200003", "name": "USPS COLLECTION BOX - BLUE BOX", "address": {"city": "SAND COULEE", "state": "MT", "street": "538 E HUNTER RD", "postcode": "59472"}}},
{"geometry": {"type": "Point", "coordinates": [-111.85398878, 48.5038962254]}, "type": "Feature", "properties": {"collection_times": [{"days": "Mon-Fri", "time": "5:00pm"}, {"days": "Sat", "time": "12:00pm"}, {"days": "Sun", "time": "Closed"}], "id": "5947400005", "name": "USPS COLLECTION BOX - BLUE BOX", "address": {"city": "SHELBY", "state": "MT", "street": "145 1ST AVE SE", "postcode": "59474"}}},
{"geometry": {"type": "Point", "coordinates": [-111.8580694861, 48.5049505496]}, "type": "Feature", "properties": {"collection_times": [{"days": "Mon-Fri", "time": "2:30pm"}, {"days": "Sat-Sun", "time": "Closed"}], "id": "5947400007", "name": "USPS COLLECTION BOX - BLUE BOX", "address": {"city": "SHELBY", "state": "MT", "street": "226 1ST ST S", "postcode": "59474"}}},
{"geometry": {"type": "Point", "coordinates": [-111.85398878, 48.5038962254]}, "type": "Feature", "properties": {"collection_times": [{"days": "Mon-Fri", "time": "4:45pm"}, {"days": "Sat", "time": "12:00pm"}, {"days": "Sun", "time": "Closed"}], "id": "5947400008", "name": "USPS COLLECTION BOX - PO LOBBY", "address": {"city": "SHELBY", "state": "MT", "street": "145 1ST AVE SE", "postcode": "59474"}}},
{"geometry": {"type": "Point", "coordinates": [-111.85398878, 48.5038962254]}, "type": "Feature", "properties": {"collection_times": [{"days": "Mon-Fri", "time": "4:45pm"}, {"days": "Sat", "time": "12:00pm"}, {"days": "Sun", "time": "Closed"}], "id": "5947400009", "name": "USPS COLLECTION BOX - PO LOBBY", "address": {"city": "SHELBY", "state": "MT", "street": "145 1ST AVE SE", "postcode": "59474"}}},
{"geometry": {"type": "Point", "coordinates": [-111.85398878, 48.5038962254]}, "type": "Feature", "properties": {"collection_times": [{"days": "Mon-Fri", "time": "4:45pm"}, {"days": "Sat", "time": "12:00pm"}, {"days": "Sun", "time": "Closed"}], "id": "5947400010", "name": "USPS COLLECTION BOX - PO LOBBY", "address": {"city": "SHELBY", "state": "MT", "street": "145 1ST AVE SE", "postcode": "59474"}}},
{"geometry": {"type": "Point", "coordinates": [-111.85398878, 48.5038962254]}, "type": "Feature", "properties": {"collection_times": [{"days": "Mon-Fri", "time": "5:00pm"}, {"days": "Sat", "time": "12:00pm"}, {"days": "Sun", "time": "Closed"}], "id": "5947400012", "name": "USPS COLLECTION BOX - BLUE BOX", "address": {"city": "SHELBY", "state": "MT", "street": "145 1ST AVE SE", "postcode": "59474"}}},
{"geometry": {"type": "Point", "coordinates": [-111.9281030727, 47.4943859328]}, "type": "Feature", "properties": {"collection_times": [{"days": "Mon-Fri", "time": "4:45pm"}, {"days": "Sat", "time": "9:45am"}, {"days": "Sun", "time": "Closed"}], "id": "5947700001", "name": "USPS COLLECTION BOX - PO LOBBY", "address": {"city": "SIMMS", "state": "MT", "street": "310 N MAIN ST", "postcode": "59477"}}},
{"geometry": {"type": "Point", "coordinates": [-111.9281030727, 47.4943859328]}, "type": "Feature", "properties": {"collection_times": [{"days": "Mon-Fri", "time": "4:45pm"}, {"days": "Sat", "time": "9:45am"}, {"days": "Sun", "time": "Closed"}], "id": "5947700002", "name": "USPS COLLECTION BOX - PO LOBBY", "address": {"city": "SIMMS", "state": "MT", "street": "310 N MAIN ST", "postcode": "59477"}}},
{"geometry": {"type": "Point", "coordinates": [-111.9281030727, 47.4943859328]}, "type": "Feature", "properties": {"collection_times": [{"days": "Mon-Fri", "time": "4:15pm"}, {"days": "Sat", "time": "9:45am"}, {"days": "Sun", "time": "Closed"}], "id": "5947700003", "name": "USPS COLLECTION BOX - BLUE BOX", "address": {"city": "SIMMS", "state": "MT", "street": "310 N MAIN ST", "postcode": "59477"}}},
{"geometry": {"type": "Point", "coordinates": [-110.1595948059, 47.1454295128]}, "type": "Feature", "properties": {"collection_times": [{"days": "Mon-Fri", "time": "4:30pm"}, {"days": "Sat", "time": "9:30am"}, {"days": "Sun", "time": "Closed"}], "id": "5947900002", "name": "USPS COLLECTION BOX - PO LOBBY", "address": {"city": "STANFORD", "state": "MT", "street": "80 CENTRAL AVE", "postcode": "59479"}}},
{"geometry": {"type": "Point", "coordinates": [-110.1595948059, 47.1454295128]}, "type": "Feature", "properties": {"collection_times": [{"days": "Mon-Fri", "time": "4:30pm"}, {"days": "Sat", "time": "9:30am"}, {"days": "Sun", "time": "Closed"}], "id": "5947900003", "name": "USPS COLLECTION BOX - PO LOBBY", "address": {"city": "STANFORD", "state": "MT", "street": "80 CENTRAL AVE", "postcode": "59479"}}},
{"geometry": {"type": "Point", "coordinates": [-111.1655966576, 47.3554825544]}, "type": "Feature", "properties": {"collection_times": [{"days": "Mon-Fri", "time": "1:30pm"}, {"days": "Sat", "time": "9:45am"}, {"days": "Sun", "time": "Closed"}], "id": "5948000000", "name": "USPS COLLECTION BOX - BLUE BOX", "address": {"city": "STOCKETT", "state": "MT", "street": "15 COTTONWOOD AVE", "postcode": "59480"}}},
{"geometry": {"type": "Point", "coordinates": [-111.1655966576, 47.3554825544]}, "type": "Feature", "properties": {"collection_times": [{"days": "Mon-Fri", "time": "1:30pm"}, {"days": "Sat", "time": "9:45am"}, {"days": "Sun", "time": "Closed"}], "id": "5948000001", "name": "USPS COLLECTION BOX - PO LOBBY", "address": {"city": "STOCKETT", "state": "MT", "street": "15 COTTONWOOD AVE", "postcode": "59480"}}},
{"geometry": {"type": "Point", "coordinates": [-111.9099522272, 48.8827214566]}, "type": "Feature", "properties": {"collection_times": [{"days": "Mon-Fri", "time": "3:15pm"}, {"days": "Sat", "time": "10:15am"}, {"days": "Sun", "time": "Closed"}], "id": "5948200000", "name": "USPS COLLECTION BOX - BLUE BOX", "address": {"city": "SUNBURST", "state": "MT", "street": "28 1ST ST N", "postcode": "59482"}}},
{"geometry": {"type": "Point", "coordinates": [-111.9099522272, 48.8827214566]}, "type": "Feature", "properties": {"collection_times": [{"days": "Mon-Fri", "time": "2:30pm"}, {"days": "Sat", "time": "10:15am"}, {"days": "Sun", "time": "Closed"}], "id": "5948200001", "name": "USPS COLLECTION BOX - PO LOBBY", "address": {"city": "SUNBURST", "state": "MT", "street": "28 1ST ST N", "postcode": "59482"}}},
{"geometry": {"type": "Point", "coordinates": [-111.9099522272, 48.8827214566]}, "type": "Feature", "properties": {"collection_times": [{"days": "Mon-Fri", "time": "2:30pm"}, {"days": "Sat", "time": "10:15am"}, {"days": "Sun", "time": "Closed"}], "id": "5948200002", "name": "USPS COLLECTION BOX - PO LOBBY", "address": {"city": "SUNBURST", "state": "MT", "street": "28 1ST ST N", "postcode": "59482"}}},
{"geometry": {"type": "Point", "coordinates": [-111.7202329848, 47.5327212511]}, "type": "Feature", "properties": {"collection_times": [{"days": "Mon-Fri", "time": "4:00pm"}, {"days": "Sat", "time": "9:30am"}, {"days": "Sun", "time": "Closed"}], "id": "5948300000", "name": "USPS COLLECTION BOX - BLUE BOX", "address": {"city": "SUN RIVER", "state": "MT", "street": "220 W CARROLL ST", "postcode": "59483"}}},
{"geometry": {"type": "Point", "coordinates": [-111.7202329848, 47.5327212511]}, "type": "Feature", "properties": {"collection_times": [{"days": "Mon-Fri", "time": "12:00pm"}, {"days": "Sat", "time": "9:30am"}, {"days": "Sun", "time": "Closed"}], "id": "5948300001", "name": "USPS COLLECTION BOX - PO LOBBY", "address": {"city": "SUN RIVER", "state": "MT", "street": "220 W CARROLL ST", "postcode": "59483"}}},
{"geometry": {"type": "Point", "coordinates": [-111.7202329848, 47.5327212511]}, "type": "Feature", "properties": {"collection_times": [{"days": "Mon-Fri", "time": "12:00pm"}, {"days": "Sat", "time": "9:30am"}, {"days": "Sun", "time": "Closed"}], "id": "5948300002", "name": "USPS COLLECTION BOX - PO LOBBY", "address": {"city": "SUN RIVER", "state": "MT", "street": "220 W CARROLL ST", "postcode": "59483"}}},
{"geometry": {"type": "Point", "coordinates": [-111.8851183126, 48.9850107987]}, "type": "Feature", "properties": {"collection_times": [{"days": "Mon-Fri", "time": "3:10pm"}, {"days": "Sat", "time": "10:40am"}, {"days": "Sun", "time": "Closed"}], "id": "5948400000", "name": "USPS COLLECTION BOX - PO LOBBY", "address": {"city": "SWEETGRASS", "state": "MT", "street": "334 CHURCH ST", "postcode": "59484"}}},
{"geometry": {"type": "Point", "coordinates": [-111.8851183126, 48.9850107987]}, "type": "Feature", "properties": {"collection_times": [{"days": "Mon-Fri", "time": "3:10pm"}, {"days": "Sat", "time": "10:40am"}, {"days": "Sun", "time": "Closed"}], "id": "5948400001", "name": "USPS COLLECTION BOX - PO LOBBY", "address": {"city": "SWEETGRASS", "state": "MT", "street": "334 CHURCH ST", "postcode": "59484"}}},
{"geometry": {"type": "Point", "coordinates": [-111.8851183126, 48.9850107987]}, "type": "Feature", "properties": {"collection_times": [{"days": "Mon-Fri", "time": "3:10pm"}, {"days": "Sat", "time": "10:40am"}, {"days": "Sun", "time": "Closed"}], "id": "5948400002", "name": "USPS COLLECTION BOX - PO LOBBY", "address": {"city": "SWEETGRASS", "state": "MT", "street": "334 CHURCH ST", "postcode": "59484"}}},
{"geometry": {"type": "Point", "coordinates": [-111.8851183126, 48.9850107987]}, "type": "Feature", "properties": {"collection_times": [{"days": "Mon-Fri", "time": "3:10pm"}, {"days": "Sat", "time": "10:40am"}, {"days": "Sun", "time": "Closed"}], "id": "5948400003", "name": "USPS COLLECTION BOX - PO LOBBY", "address": {"city": "SWEETGRASS", "state": "MT", "street": "334 CHURCH ST", "postcode": "59484"}}},
{"geometry": {"type": "Point", "coordinates": [-111.5042655237, 47.4314377982]}, "type": "Feature", "properties": {"collection_times": [{"days": "Mon-Fri", "time": "2:45pm"}, {"days": "Sat", "time": "9:30am"}, {"days": "Sun", "time": "Closed"}], "id": "5948500000", "name": "USPS COLLECTION BOX - PO LOBBY", "address": {"city": "ULM", "state": "MT", "street": "6 MILLIGAN RD", "postcode": "59485"}}},
{"geometry": {"type": "Point", "coordinates": [-111.5042655237, 47.4314377982]}, "type": "Feature", "properties": {"collection_times": [{"days": "Mon-Fri", "time": "2:45pm"}, {"days": "Sat", "time": "9:30am"}, {"days": "Sun", "time": "Closed"}], "id": "5948500001", "name": "USPS COLLECTION BOX - PO LOBBY", "address": {"city": "ULM", "state": "MT", "street": "6 MILLIGAN RD", "postcode": "59485"}}},
{"geometry": {"type": "Point", "coordinates": [-112.3895097791, 48.2237897086]}, "type": "Feature", "properties": {"collection_times": [{"days": "Mon-Fri", "time": "4:00pm"}, {"days": "Sat", "time": "9:00am"}, {"days": "Sun", "time": "Closed"}], "id": "5948600000", "name": "USPS COLLECTION BOX - BLUE BOX", "address": {"city": "VALIER", "state": "MT", "street": "515 MONTANA", "postcode": "59486"}}},
{"geometry": {"type": "Point", "coordinates": [-112.3895097791, 48.2237897086]}, "type": "Feature", "properties": {"collection_times": [{"days": "Mon-Fri", "time": "4:00pm"}, {"days": "Sat", "time": "9:00am"}, {"days": "Sun", "time": "Closed"}], "id": "5948600001", "name": "USPS COLLECTION BOX - PO LOBBY", "address": {"city": "VALIER", "state": "MT", "street": "515 MONTANA", "postcode": "59486"}}},
{"geometry": {"type": "Point", "coordinates": [-112.3895097791, 48.2237897086]}, "type": "Feature", "properties": {"collection_times": [{"days": "Mon-Fri", "time": "4:00pm"}, {"days": "Sat", "time": "9:00am"}, {"days": "Sun", "time": "Closed"}], "id": "5948600002", "name": "USPS COLLECTION BOX - PO LOBBY", "address": {"city": "VALIER", "state": "MT", "street": "515 MONTANA", "postcode": "59486"}}},
{"geometry": {"type": "Point", "coordinates": [-111.6443634507, 47.583967594]}, "type": "Feature", "properties": {"collection_times": [{"days": "Mon-Fri", "time": "4:10pm"}, {"days": "Sat", "time": "10:00am"}, {"days": "Sun", "time": "Closed"}], "id": "5948700000", "name": "USPS COLLECTION BOX - BLUE BOX", "address": {"city": "VAUGHN", "state": "MT", "street": "380 POST AVE", "postcode": "59487"}}},
{"geometry": {"type": "Point", "coordinates": [-111.6443634507, 47.583967594]}, "type": "Feature", "properties": {"collection_times": [{"days": "Mon-Fri", "time": "3:00pm"}, {"days": "Sat", "time": "10:00am"}, {"days": "Sun", "time": "Closed"}], "id": "5948700001", "name": "USPS COLLECTION BOX - PO LOBBY", "address": {"city": "VAUGHN", "state": "MT", "street": "380 POST AVE", "postcode": "59487"}}},
{"geometry": {"type": "Point", "coordinates": [-111.6443634507, 47.583967594]}, "type": "Feature", "properties": {"collection_times": [{"days": "Mon-Fri", "time": "3:00pm"}, {"days": "Sat", "time": "10:00am"}, {"days": "Sun", "time": "Closed"}], "id": "5948700002", "name": "USPS COLLECTION BOX - PO LOBBY", "address": {"city": "VAUGHN", "state": "MT", "street": "380 POST AVE", "postcode": "59487"}}},
{"geometry": {"type": "Point", "coordinates": [-109.3764481795, 47.5594740048]}, "type": "Feature", "properties": {"collection_times": [{"days": "Mon-Fri", "time": "2:15pm"}, {"days": "Sat", "time": "9:45am"}, {"days": "Sun", "time": "Closed"}], "id": "5948900001", "name": "USPS COLLECTION BOX - PO LOBBY", "address": {"city": "WINIFRED", "state": "MT", "street": "210 MAIN ST", "postcode": "59489"}}},
{"geometry": {"type": "Point", "coordinates": [-109.3764481795, 47.5594740048]}, "type": "Feature", "properties": {"collection_times": [{"days": "Mon-Fri", "time": "2:15pm"}, {"days": "Sat", "time": "9:45am"}, {"days": "Sun", "time": "Closed"}], "id": "5948900003", "name": "USPS COLLECTION BOX - PO LOBBY", "address": {"city": "WINIFRED", "state": "MT", "street": "210 MAIN ST", "postcode": "59489"}}}
]}
