{"type": "FeatureCollection", "features": [
{"geometry": {"type": "Point", "coordinates": [-109.6713565912, 48.5528224849]}, "type": "Feature", "properties": {"collection_times": [{"days": "Mon-Sat", "time": "3:00pm"}, {"days": "Sun", "time": "Closed"}], "id": "5950100004", "name": "USPS COLLECTION BOX - BLUE BOX", "address": {"city": "HAVRE", "state": "MT", "street": "730 1ST ST", "postcode": "59501"}}},
{"geometry": {"type": "Point", "coordinates": [-109.6814034904, 48.5517648383]}, "type": "Feature", "properties": {"collection_times": [{"days": "Mon-Fri", "time": "5:45pm"}, {"days": "Sat", "time": "4:45pm"}, {"days": "Sun", "time": "Closed"}], "id": "5950100014", "name": "USPS COLLECTION BOX - BLUE BOX", "address": {"city": "HAVRE", "state": "MT", "street": "115 3RD ST", "postcode": "59501"}}},
{"geometry": {"type": "Point", "coordinates": [-109.6814034904, 48.5517648383]}, "type": "Feature", "properties": {"collection_times": [{"days": "Mon-Fri", "time": "5:45pm"}, {"days": "Sat", "time": "4:45pm"}, {"days": "Sun", "time": "Closed"}], "id": "5950100015", "name": "USPS COLLECTION BOX - BLUE BOX", "address": {"city": "HAVRE", "state": "MT", "street": "115 3RD ST", "postcode": "59501"}}},
{"geometry": {"type": "Point", "coordinates": [-109.6814034904, 48.5517648383]}, "type": "Feature", "properties": {"collection_times": [{"days": "Mon-Fri", "time": "5:45pm"}, {"days": "Sat", "time": "4:45pm"}, {"days": "Sun", "time": "Closed"}], "id": "5950100017", "name": "USPS COLLECTION BOX - PO LOBBY", "address": {"city": "HAVRE", "state": "MT", "street": "115 3RD ST", "postcode": "59501"}}},
{"geometry": {"type": "Point", "coordinates": [-109.6814034904, 48.5517648383]}, "type": "Feature", "properties": {"collection_times": [{"days": "Mon-Fri", "time": "5:45pm"}, {"days": "Sat", "time": "4:45pm"}, {"days": "Sun", "time": "Closed"}], "id": "5950100018", "name": "USPS COLLECTION BOX - PO LOBBY", "address": {"city": "HAVRE", "state": "MT", "street": "115 3RD ST", "postcode": "59501"}}},
{"geometry": {"type": "Point", "coordinates": [-109.6814034904, 48.5517648383]}, "type": "Feature", "properties": {"collection_times": [{"days": "Mon-Fri", "time": "5:45pm"}, {"days": "Sat", "time": "4:45pm"}, {"days": "Sun", "time": "Closed"}], "id": "5950100019", "name": "USPS COLLECTION BOX - PO LOBBY", "address": {"city": "HAVRE", "state": "MT", "street": "115 3RD ST", "postcode": "59501"}}},
{"geometry": {"type": "Point", "coordinates": [-109.6814034904, 48.5517648383]}, "type": "Feature", "properties": {"collection_times": [{"days": "Mon-Fri", "time": "5:45pm"}, {"days": "Sat", "time": "4:45pm"}, {"days": "Sun", "time": "Closed"}], "id": "5950100020", "name": "USPS COLLECTION BOX - PO LOBBY", "address": {"city": "HAVRE", "state": "MT", "street": "115 3RD ST", "postcode": "59501"}}},
{"geometry": {"type": "Point", "coordinates": [-110.1109170412, 48.1780835099]}, "type": "Feature", "properties": {"collection_times": [{"days": "Mon-Fri", "time": "4:45pm"}, {"days": "Sat", "time": "10:30am"}, {"days": "Sun", "time": "Closed"}], "id": "5952000000", "name": "USPS COLLECTION BOX - PO LOBBY", "address": {"city": "BIG SANDY", "state": "MT", "street": "103 JOHANNES AVE", "postcode": "59520"}}},
{"geometry": {"type": "Point", "coordinates": [-110.1109170412, 48.1780835099]}, "type": "Feature", "properties": {"collection_times": [{"days": "Mon-Fri", "time": "4:45pm"}, {"days": "Sat", "time": "10:30am"}, {"days": "Sun", "time": "Closed"}], "id": "5952000001", "name": "USPS COLLECTION BOX - PO LOBBY", "address": {"city": "BIG SANDY", "state": "MT", "street": "103 JOHANNES AVE", "postcode": "59520"}}},
{"geometry": {"type": "Point", "coordinates": [-109.7398110869, 48.3152598477]}, "type": "Feature", "properties": {"collection_times": [{"days": "Mon-Fri", "time": "4:15pm"}, {"days": "Sat", "time": "10:00am"}, {"days": "Sun", "time": "Closed"}], "id": "5952100000", "name": "USPS COLLECTION BOX - BLUE BOX", "address": {"city": "BOX ELDER", "state": "MT", "street": "40 1ST AVE SW", "postcode": "59521"}}},
{"geometry": {"type": "Point", "coordinates": [-109.7398110869, 48.3152598477]}, "type": "Feature", "properties": {"collection_times": [{"days": "Mon-Fri", "time": "3:00pm"}, {"days": "Sat", "time": "10:00am"}, {"days": "Sun", "time": "Closed"}], "id": "5952100002", "name": "USPS COLLECTION BOX - PO LOBBY", "address": {"city": "BOX ELDER", "state": "MT", "street": "40 1ST AVE SW", "postcode": "59521"}}},
{"geometry": {"type": "Point", "coordinates": [-109.7398110869, 48.3152598477]}, "type": "Feature", "properties": {"collection_times": [{"days": "Mon-Fri", "time": "3:00pm"}, {"days": "Sat", "time": "10:00am"}, {"days": "Sun", "time": "Closed"}], "id": "5952100003", "name": "USPS COLLECTION BOX - PO LOBBY", "address": {"city": "BOX ELDER", "state": "MT", "street": "40 1ST AVE SW", "postcode": "59521"}}},
{"geometry": {"type": "Point", "coordinates": [-110.9660495254, 48.5133370374]}, "type": "Feature", "properties": {"collection_times": [{"days": "Mon-Fri", "time": "4:30pm"}, {"days": "Sat", "time": "10:30am"}, {"days": "Sun", "time": "Closed"}], "id": "5952200000", "name": "USPS COLLECTION BOX - PO LOBBY", "address": {"city": "CHESTER", "state": "MT", "street": "25 MAIN ST", "postcode": "59522"}}},
{"geometry": {"type": "Point", "coordinates": [-110.9660495254, 48.5133370374]}, "type": "Feature", "properties": {"collection_times": [{"days": "Mon-Fri", "time": "4:30pm"}, {"days": "Sat", "time": "10:30am"}, {"days": "Sun", "time": "Closed"}], "id": "5952200001", "name": "USPS COLLECTION BOX - PO LOBBY", "address": {"city": "CHESTER", "state": "MT", "street": "25 MAIN ST", "postcode": "59522"}}},
{"geometry": {"type": "Point", "coordinates": [-109.2339349982, 48.5930604824]}, "type": "Feature", "properties": {"collection_times": [{"days": "Mon-Fri", "time": "4:30pm"}, {"days": "Sat", "time": "11:30am"}, {"days": "Sun", "time": "Closed"}], "id": "5952300000", "name": "USPS COLLECTION BOX - BLUE BOX", "address": {"city": "CHINOOK", "state": "MT", "street": "113 3RD ST W", "postcode": "59523"}}},
{"geometry": {"type": "Point", "coordinates": [-109.2339349982, 48.5930604824]}, "type": "Feature", "properties": {"collection_times": [{"days": "Mon-Fri", "time": "4:30pm"}, {"days": "Sat", "time": "11:30am"}, {"days": "Sun", "time": "Closed"}], "id": "5952300001", "name": "USPS COLLECTION BOX - PO LOBBY", "address": {"city": "CHINOOK", "state": "MT", "street": "113 3RD ST W", "postcode": "59523"}}},
{"geometry": {"type": "Point", "coordinates": [-109.2339349982, 48.5930604824]}, "type": "Feature", "properties": {"collection_times": [{"days": "Mon-Fri", "time": "4:30pm"}, {"days": "Sat", "time": "11:30am"}, {"days": "Sun", "time": "Closed"}], "id": "5952300003", "name": "USPS COLLECTION BOX - PO LOBBY", "address": {"city": "CHINOOK", "state": "MT", "street": "113 3RD ST W", "postcode": "59523"}}},
{"geometry": {"type": "Point", "coordinates": [-108.3767610942, 48.1657620072]}, "type": "Feature", "properties": {"collection_times": [{"days": "Mon-Fri", "time": "2:30pm"}, {"days": "Sat", "time": "9:45am"}, {"days": "Sun", "time": "Closed"}], "id": "5952400000", "name": "USPS COLLECTION BOX - PO LOBBY", "address": {"city": "DODSON", "state": "MT", "street": "300 BARRETT AVE", "postcode": "59524"}}},
{"geometry": {"type": "Point", "coordinates": [-108.3767610942, 48.1657620072]}, "type": "Feature", "properties": {"collection_times": [{"days": "Mon-Fri", "time": "2:30pm"}, {"days": "Sat", "time": "9:45am"}, {"days": "Sun", "time": "Closed"}], "id": "5952400001", "name": "USPS COLLECTION BOX - PO LOBBY", "address": {"city": "DODSON", "state": "MT", "street": "300 BARRETT AVE", "postcode": "59524"}}},
{"geometry": {"type": "Point", "coordinates": [-110.2661707313, 48.598969303]}, "type": "Feature", "properties": {"collection_times": [{"days": "Mon-Fri", "time": "2:00pm"}, {"days": "Sat", "time": "9:15am"}, {"days": "Sun", "time": "Closed"}], "id": "5952500000", "name": "USPS COLLECTION BOX - PO LOBBY", "address": {"city": "GILDFORD", "state": "MT", "street": "525 1ST AVE", "postcode": "59525"}}},
{"geometry": {"type": "Point", "coordinates": [-110.2661707313, 48.598969303]}, "type": "Feature", "properties": {"collection_times": [{"days": "Mon-Fri", "time": "2:00pm"}, {"days": "Sat", "time": "9:15am"}, {"days": "Sun", "time": "Closed"}], "id": "5952500001", "name": "USPS COLLECTION BOX - PO LOBBY", "address": {"city": "GILDFORD", "state": "MT", "street": "525 1ST AVE", "postcode": "59525"}}},
{"geometry": {"type": "Point", "coordinates": [-110.2661707313, 48.598969303]}, "type": "Feature", "properties": {"collection_times": [{"days": "Mon-Fri", "time": "2:00pm"}, {"days": "Sat", "time": "9:15am"}, {"days": "Sun", "time": "Closed"}], "id": "5952500002", "name": "USPS COLLECTION BOX - PO LOBBY", "address": {"city": "GILDFORD", "state": "MT", "street": "525 1ST AVE", "postcode": "59525"}}},
{"geometry": {"type": "Point", "coordinates": [-110.2661707313, 48.598969303]}, "type": "Feature", "properties": {"collection_times": [{"days": "Mon-Fri", "time": "2:00pm"}, {"days": "Sat", "time": "9:15am"}, {"days": "Sun", "time": "Closed"}], "id": "5952500003", "name": "USPS COLLECTION BOX - PO LOBBY", "address": {"city": "GILDFORD", "state": "MT", "street": "525 1ST AVE", "postcode": "59525"}}},
{"geometry": {"type": "Point", "coordinates": [-110.3027288828, 48.5687090949]}, "type": "Feature", "properties": {"collection_times": [{"days": "Mon-Fri", "time": "4:15pm"}, {"days": "Sat", "time": "11:00am"}, {"days": "Sun", "time": "Closed"}], "id": "5952500005", "name": "USPS COLLECTION BOX - BLUE BOX", "address": {"city": "GILDFORD", "state": "MT", "street": "525 1ST AVE", "postcode": "59525"}}},
{"geometry": {"type": "Point", "coordinates": [-108.7824056006, 48.5306423629]}, "type": "Feature", "properties": {"collection_times": [{"days": "Mon-Fri", "time": "4:00pm"}, {"days": "Sat", "time": "12:00pm"}, {"days": "Sun", "time": "Closed"}], "id": "5952600002", "name": "USPS COLLECTION BOX - BLUE BOX", "address": {"city": "HARLEM", "state": "MT", "street": "216 2ND ST SW", "postcode": "59526"}}},
{"geometry": {"type": "Point", "coordinates": [-108.7779699307, 48.5285793167]}, "type": "Feature", "properties": {"collection_times": [{"days": "Mon-Sat", "time": "11:30am"}, {"days": "Sun", "time": "Closed"}], "id": "5952600003", "name": "USPS COLLECTION BOX - BLUE BOX", "address": {"city": "HARLEM", "state": "MT", "street": "656 AGENCY MAIN ST", "postcode": "59526"}}},
{"geometry": {"type": "Point", "coordinates": [-108.7824056006, 48.5306423629]}, "type": "Feature", "properties": {"collection_times": [{"days": "Mon-Fri", "time": "4:00pm"}, {"days": "Sat", "time": "12:00pm"}, {"days": "Sun", "time": "Closed"}], "id": "5952600004", "name": "USPS COLLECTION BOX - PO LOBBY", "address": {"city": "HARLEM", "state": "MT", "street": "216 2ND ST SW", "postcode": "59526"}}},
{"geometry": {"type": "Point", "coordinates": [-108.7824056006, 48.5306423629]}, "type": "Feature", "properties": {"collection_times": [{"days": "Mon-Fri", "time": "4:00pm"}, {"days": "Sat", "time": "12:00pm"}, {"days": "Sun", "time": "Closed"}], "id": "5952600005", "name": "USPS COLLECTION BOX - PO LOBBY", "address": {"city": "HARLEM", "state": "MT", "street": "216 2ND ST SW", "postcode": "59526"}}},
{"geometry": {"type": "Point", "coordinates": [-108.6683559062, 48.2103405577]}, "type": "Feature", "properties": {"collection_times": [{"days": "Mon-Sat", "time": "1:00pm"}, {"days": "Sun", "time": "Closed"}], "id": "5952700000", "name": "USPS COLLECTION BOX - PO LOBBY", "address": {"city": "HAYS", "state": "MT", "street": "260 STEVENS ST", "postcode": "59527"}}},
{"geometry": {"type": "Point", "coordinates": [-108.6683559062, 48.2103405577]}, "type": "Feature", "properties": {"collection_times": [{"days": "Mon-Sat", "time": "1:00pm"}, {"days": "Sun", "time": "Closed"}], "id": "5952700001", "name": "USPS COLLECTION BOX - BLUE BOX", "address": {"city": "HAYS", "state": "MT", "street": "260 STEVENS ST", "postcode": "59527"}}},
{"geometry": {"type": "Point", "coordinates": [-108.6683559062, 48.2103405577]}, "type": "Feature", "properties": {"collection_times": [{"days": "Mon-Sat", "time": "1:00pm"}, {"days": "Sun", "time": "Closed"}], "id": "5952700002", "name": "USPS COLLECTION BOX - PO LOBBY", "address": {"city": "HAYS", "state": "MT", "street": "260 STEVENS ST", "postcode": "59527"}}},
{"geometry": {"type": "Point", "coordinates": [-110.4266278435, 48.5569662198]}, "type": "Feature", "properties": {"collection_times": [{"days": "Mon-Fri", "time": "4:15pm"}, {"days": "Sat", "time": "9:15am"}, {"days": "Sun", "time": "Closed"}], "id": "5952800001", "name": "USPS COLLECTION BOX - BLUE BOX", "address": {"city": "HINGHAM", "state": "MT", "street": "508 2ND ST", "postcode": "59528"}}},
{"geometry": {"type": "Point", "coordinates": [-110.4275548593, 48.5973680783]}, "type": "Feature", "properties": {"collection_times": [{"days": "Mon-Fri", "time": "2:00pm"}, {"days": "Sat", "time": "9:15am"}, {"days": "Sun", "time": "Closed"}], "id": "5952800002", "name": "USPS COLLECTION BOX - PO LOBBY", "address": {"city": "HINGHAM", "state": "MT", "street": "508 2ND ST", "postcode": "59528"}}},
{"geometry": {"type": "Point", "coordinates": [-108.7155472804, 48.8814313089]}, "type": "Feature", "properties": {"collection_times": [{"days": "Mon-Fri", "time": "11:00am"}, {"days": "Sat", "time": "10:00am"}, {"days": "Sun", "time": "Closed"}], "id": "5952900000", "name": "USPS COLLECTION BOX - PO LOBBY", "address": {"city": "HOGELAND", "state": "MT", "street": "125 MAIN ST", "postcode": "59529"}}},
{"geometry": {"type": "Point", "coordinates": [-108.7155472804, 48.8814313089]}, "type": "Feature", "properties": {"collection_times": [{"days": "Mon-Fri", "time": "11:00am"}, {"days": "Sat", "time": "10:00am"}, {"days": "Sun", "time": "Closed"}], "id": "5952900001", "name": "USPS COLLECTION BOX - PO LOBBY", "address": {"city": "HOGELAND", "state": "MT", "street": "125 MAIN ST", "postcode": "59529"}}},
{"geometry": {"type": "Point", "coordinates": [-110.688104098, 48.6266447742]}, "type": "Feature", "properties": {"collection_times": [{"days": "Mon-Fri", "time": "12:00pm"}, {"days": "Sat", "time": "9:30am"}, {"days": "Sun", "time": "Closed"}], "id": "5953000000", "name": "USPS COLLECTION BOX - PO LOBBY", "address": {"city": "INVERNESS", "state": "MT", "street": "130 MAIN ST", "postcode": "59530"}}},
{"geometry": {"type": "Point", "coordinates": [-110.8257767449, 48.6946449657]}, "type": "Feature", "properties": {"collection_times": [{"days": "Mon-Fri", "time": "12:00pm"}, {"days": "Sat", "time": "9:15am"}, {"days": "Sun", "time": "Closed"}], "id": "5953100000", "name": "USPS COLLECTION BOX - PO LOBBY", "address": {"city": "JOPLIN", "state": "MT", "street": "23 2ND ST", "postcode": "59531"}}},
{"geometry": {"type": "Point", "coordinates": [-110.8257767449, 48.6946449657]}, "type": "Feature", "properties": {"collection_times": [{"days": "Mon-Fri", "time": "12:00pm"}, {"days": "Sat", "time": "9:15am"}, {"days": "Sun", "time": "Closed"}], "id": "5953100002", "name": "USPS COLLECTION BOX - PO LOBBY", "address": {"city": "JOPLIN", "state": "MT", "street": "23 2ND ST", "postcode": "59531"}}},
{"geometry": {"type": "Point", "coordinates": [-110.070568417, 48.5686440677]}, "type": "Feature", "properties": {"collection_times": [{"days": "Mon-Fri", "time": "11:30am"}, {"days": "Sat", "time": "9:15am"}, {"days": "Sun", "time": "Closed"}], "id": "5953200000", "name": "USPS COLLECTION BOX - PO LOBBY", "address": {"city": "KREMLIN", "state": "MT", "street": "210 CENTRAL AVE", "postcode": "59532"}}},
{"geometry": {"type": "Point", "coordinates": [-110.070568417, 48.5686440677]}, "type": "Feature", "properties": {"collection_times": [{"days": "Mon-Fri", "time": "11:30am"}, {"days": "Sat", "time": "9:15am"}, {"days": "Sun", "time": "Closed"}], "id": "5953200001", "name": "USPS COLLECTION BOX - PO LOBBY", "address": {"city": "KREMLIN", "state": "MT", "street": "210 CENTRAL AVE", "postcode": "59532"}}},
{"geometry": {"type": "Point", "coordinates": [-110.0866518451, 48.571658936]}, "type": "Feature", "properties": {"collection_times": [{"days": "Mon-Fri", "time": "4:15pm"}, {"days": "Sat", "time": "11:15am"}, {"days": "Sun", "time": "Closed"}], "id": "5953200003", "name": "USPS COLLECTION BOX - BLUE BOX", "address": {"city": "KREMLIN", "state": "MT", "street": "210 CENTRAL AVE", "postcode": "59532"}}},
{"geometry": {"type": "Point", "coordinates": [-107.9717498152, 48.7854690769]}, "type": "Feature", "properties": {"collection_times": [{"days": "Mon-Fri", "time": "2:15pm"}, {"days": "Sat-Sun", "time": "Closed"}], "id": "5953700001", "name": "USPS COLLECTION BOX - PO LOBBY", "address": {"city": "LORING", "state": "MT", "street": "93 MAIN ST", "postcode": "59537"}}},
{"geometry": {"type": "Point", "coordinates": [-107.8711707435, 48.3477775049]}, "type": "Feature", "properties": {"collection_times": [{"days": "Mon-Fri", "time": "3:40pm"}, {"days": "Sat", "time": "1:00pm"}, {"days": "Sun", "time": "Closed"}], "id": "5953800000", "name": "USPS COLLECTION BOX - BLUE BOX", "address": {"city": "MALTA", "state": "MT", "street": "207 S 1ST AVE E", "postcode": "59538"}}},
{"geometry": {"type": "Point", "coordinates": [-107.8711707435, 48.3477775049]}, "type": "Feature", "properties": {"collection_times": [{"days": "Mon-Fri", "time": "3:40pm"}, {"days": "Sat", "time": "1:45pm"}, {"days": "Sun", "time": "Closed"}], "id": "5953800002", "name": "USPS COLLECTION BOX - PO LOBBY", "address": {"city": "MALTA", "state": "MT", "street": "207 S 1ST AVE E", "postcode": "59538"}}},
{"geometry": {"type": "Point", "coordinates": [-107.8711707435, 48.3477775049]}, "type": "Feature", "properties": {"collection_times": [{"days": "Mon-Fri", "time": "3:40pm"}, {"days": "Sat", "time": "1:45pm"}, {"days": "Sun", "time": "Closed"}], "id": "5953800003", "name": "USPS COLLECTION BOX - PO LOBBY", "address": {"city": "MALTA", "state": "MT", "street": "207 S 1ST AVE E", "postcode": "59538"}}},
{"geometry": {"type": "Point", "coordinates": [-107.8711707435, 48.3477775049]}, "type": "Feature", "properties": {"collection_times": [{"days": "Mon-Fri", "time": "3:40pm"}, {"days": "Sat", "time": "1:45pm"}, {"days": "Sun", "time": "Closed"}], "id": "5953800004", "name": "USPS COLLECTION BOX - PO LOBBY", "address": {"city": "MALTA", "state": "MT", "street": "207 S 1ST AVE E", "postcode": "59538"}}},
{"geometry": {"type": "Point", "coordinates": [-107.8711707435, 48.3477775049]}, "type": "Feature", "properties": {"collection_times": [{"days": "Mon-Fri", "time": "3:40pm"}, {"days": "Sat", "time": "1:45pm"}, {"days": "Sun", "time": "Closed"}], "id": "5953800005", "name": "USPS COLLECTION BOX - PO LOBBY", "address": {"city": "MALTA", "state": "MT", "street": "207 S 1ST AVE E", "postcode": "59538"}}},
{"geometry": {"type": "Point", "coordinates": [-110.5537435472, 48.5592483921]}, "type": "Feature", "properties": {"collection_times": [{"days": "Mon-Fri", "time": "12:00pm"}, {"days": "Sat", "time": "10:00am"}, {"days": "Sun", "time": "Closed"}], "id": "5954000001", "name": "USPS COLLECTION BOX - PO LOBBY", "address": {"city": "RUDYARD", "state": "MT", "street": "15 MAIN ST N", "postcode": "59540"}}},
{"geometry": {"type": "Point", "coordinates": [-110.5537435472, 48.5592483921]}, "type": "Feature", "properties": {"collection_times": [{"days": "Mon-Fri", "time": "12:00pm"}, {"days": "Sat", "time": "10:00am"}, {"days": "Sun", "time": "Closed"}], "id": "5954000002", "name": "USPS COLLECTION BOX - PO LOBBY", "address": {"city": "RUDYARD", "state": "MT", "street": "15 MAIN ST N", "postcode": "59540"}}},
{"geometry": {"type": "Point", "coordinates": [-108.4053123471, 48.8458462622]}, "type": "Feature", "properties": {"collection_times": [{"days": "Mon-Fri", "time": "3:00pm"}, {"days": "Sat", "time": "10:45am"}, {"days": "Sun", "time": "Closed"}], "id": "5954200000", "name": "USPS COLLECTION BOX - PO LOBBY", "address": {"city": "TURNER", "state": "MT", "street": "102 MAIN ST", "postcode": "59542"}}},
{"geometry": {"type": "Point", "coordinates": [-108.4053123471, 48.8458462622]}, "type": "Feature", "properties": {"collection_times": [{"days": "Mon-Fri", "time": "3:00pm"}, {"days": "Sat", "time": "10:45am"}, {"days": "Sun", "time": "Closed"}], "id": "5954200001", "name": "USPS COLLECTION BOX - PO LOBBY", "address": {"city": "TURNER", "state": "MT", "street": "102 MAIN ST", "postcode": "59542"}}},
{"geometry": {"type": "Point", "coordinates": [-107.6016074867, 48.8113957247]}, "type": "Feature", "properties": {"collection_times": [{"days": "Mon-Fri", "time": "1:45pm"}, {"days": "Sat-Sun", "time": "Closed"}], "id": "5954400000", "name": "USPS COLLECTION BOX - BLUE BOX", "address": {"city": "WHITEWATER", "state": "MT", "street": "66 1ST AVE E", "postcode": "59544"}}},
{"geometry": {"type": "Point", "coordinates": [-107.6016074867, 48.8113957247]}, "type": "Feature", "properties": {"collection_times": [{"days": "Mon-Fri", "time": "1:45pm"}, {"days": "Sat-Sun", "time": "Closed"}], "id": "5954400001", "name": "USPS COLLECTION BOX - PO LOBBY", "address": {"city": "WHITEWATER", "state": "MT", "street": "66 1ST AVE E", "postcode": "59544"}}},
{"geometry": {"type": "Point", "coordinates": [-111.0981383903, 48.8403194738]}, "type": "Feature", "properties": {"collection_times": [{"days": "Mon-Fri", "time": "12:00pm"}, {"days": "Sat-Sun", "time": "Closed"}], "id": "5954500000", "name": "USPS COLLECTION BOX - PO LOBBY", "address": {"city": "WHITLASH", "state": "MT", "street": "645 WHITLASH RD", "postcode": "59545"}}},
{"geometry": {"type": "Point", "coordinates": [-109.0321749036, 48.5840780552]}, "type": "Feature", "properties": {"collection_times": [{"days": "Mon-Fri", "time": "9:50am"}, {"days": "Sat", "time": "11:30am"}, {"days": "Sun", "time": "Closed"}], "id": "5954700000", "name": "USPS COLLECTION BOX - PO LOBBY", "address": {"city": "ZURICH", "state": "MT", "street": "150 1ST AVE", "postcode": "59547"}}},
{"geometry": {"type": "Point", "coordinates": [-109.0321749036, 48.5840780552]}, "type": "Feature", "properties": {"collection_times": [{"days": "Mon-Fri", "time": "9:50am"}, {"days": "Sat", "time": "11:30am"}, {"days": "Sun", "time": "Closed"}], "id": "5954700001", "name": "USPS COLLECTION BOX - PO LOBBY", "address": {"city": "ZURICH", "state": "MT", "street": "150 1ST AVE", "postcode": "59547"}}},
{"geometry": {"type": "Point", "coordinates": [-109.0415596895, 48.7127188895]}, "type": "Feature", "properties": {"collection_times": [{"days": "Mon-Sat", "time": "11:50am"}, {"days": "Sun", "time": "Closed"}], "id": "5954700003", "name": "USPS COLLECTION BOX - BLUE BOX", "address": {"city": "ZURICH", "state": "MT", "street": "150 1ST AVE", "postcode": "59547"}}}
]}
