{"type": "FeatureCollection", "features": [
{"geometry": {"type": "Point", "coordinates": [-112.014791113, 46.589080946]}, "type": "Feature", "properties": {"collection_times": [{"days": "Mon-Fri", "time": "4:50pm"}, {"days": "Sat-Sun", "time": "Closed"}], "id": "5960100008", "name": "USPS COLLECTION BOX - BLUE BOX", "address": {"city": "HELENA", "state": "MT", "street": "528 N SANDERS AVE", "postcode": "59601"}}},
{"geometry": {"type": "Point", "coordinates": [-112.0385014845, 46.5889262865]}, "type": "Feature", "properties": {"collection_times": [{"days": "Mon-Fri", "time": "5:10pm"}, {"days": "Sat-Sun", "time": "Closed"}], "id": "5960100016", "name": "USPS COLLECTION BOX - BLUE BOX", "address": {"city": "HELENA", "state": "MT", "street": "2 W 6TH AVE", "postcode": "59601"}}},
{"geometry": {"type": "Point", "coordinates": [-112.0385014845, 46.5889262865]}, "type": "Feature", "properties": {"collection_times": [{"days": "Mon-Fri", "time": "5:10pm"}, {"days": "Sat-Sun", "time": "Closed"}], "id": "5960100017", "name": "USPS COLLECTION BOX - BLUE BOX", "address": {"city": "HELENA", "state": "MT", "street": "2 W 6TH AVE", "postcode": "59601"}}},
{"geometry": {"type": "Point", "coordinates": [-112.0385014845, 46.5889262865]}, "type": "Feature", "properties": {"collection_times": [{"days": "Mon-Fri", "time": "5:10pm"}, {"days": "Sat-Sun", "time": "Closed"}], "id": "5960100018", "name": "USPS COLLECTION BOX - BLUE BOX", "address": {"city": "HELENA", "state": "MT", "street": "2 W 6TH AVE", "postcode": "59601"}}},
{"geometry": {"type": "Point", "coordinates": [-112.0355731988, 46.5931044696]}, "type": "Feature", "properties": {"collection_times": [{"days": "Mon-Fri", "time": "4:25pm"}, {"days": "Sat-Sun", "time": "Closed"}], "id": "5960100021", "name": "USPS COLLECTION BOX - BLUE BOX", "address": {"city": "HELENA", "state": "MT", "street": "616 HELENA AVE", "postcode": "59601"}}},
{"geometry": {"type": "Point", "coordinates": [-112.020222647, 46.5899705432]}, "type": "Feature", "properties": {"collection_times": [{"days": "Mon-Fri", "time": "4:45pm"}, {"days": "Sat-Sun", "time": "Closed"}], "id": "5960100024", "name": "USPS COLLECTION BOX - BLUE BOX", "address": {"city": "HELENA", "state": "MT", "street": "609 N MONTANA AVE", "postcode": "59601"}}},
{"geometry": {"type": "Point", "coordinates": [-112.0370732321, 46.5888045663]}, "type": "Feature", "properties": {"collection_times": [{"days": "Mon-Fri", "time": "4:50pm"}, {"days": "Sat-Sun", "time": "Closed"}], "id": "5960100025", "name": "USPS COLLECTION BOX - BLUE BOX", "address": {"city": "HELENA", "state": "MT", "street": "317 N CRUSE AVE", "postcode": "59601"}}},
{"geometry": {"type": "Point", "coordinates": [-112.0396423473, 46.5867725557]}, "type": "Feature", "properties": {"collection_times": [{"days": "Mon-Fri", "time": "5:00pm"}, {"days": "Sat", "time": "2:35pm"}, {"days": "Sun", "time": "Closed"}], "id": "5960100028", "name": "USPS COLLECTION BOX - BLUE BOX", "address": {"city": "HELENA", "state": "MT", "street": "5 W BROADWAY AVE", "postcode": "59601"}}},
{"geometry": {"type": "Point", "coordinates": [-112.0402305083, 46.5898761745]}, "type": "Feature", "properties": {"collection_times": [{"days": "Mon-Fri", "time": "4:55pm"}, {"days": "Sat-Sun", "time": "Closed"}], "id": "5960100029", "name": "USPS COLLECTION BOX - BLUE BOX", "address": {"city": "HELENA", "state": "MT", "street": "316 N PARK AVE", "postcode": "59601"}}},
{"geometry": {"type": "Point", "coordinates": [-112.042976156, 46.5987507327]}, "type": "Feature", "properties": {"collection_times": [{"days": "Mon-Fri", "time": "5:25pm"}, {"days": "Sat", "time": "2:25pm"}, {"days": "Sun", "time": "Closed"}], "id": "5960100031", "name": "USPS COLLECTION BOX - BLUE BOX", "address": {"city": "HELENA", "state": "MT", "street": "306 EUCLID AVE", "postcode": "59601"}}},
{"geometry": {"type": "Point", "coordinates": [-112.0103853432, 46.5897710302]}, "type": "Feature", "properties": {"collection_times": [{"days": "Mon-Fri", "time": "4:50pm"}, {"days": "Sat", "time": "2:50pm"}, {"days": "Sun", "time": "Closed"}], "id": "5960100034", "name": "USPS COLLECTION BOX - BLUE BOX", "address": {"city": "HELENA", "state": "MT", "street": "1731 11TH AVE", "postcode": "59601"}}},
{"geometry": {"type": "Point", "coordinates": [-112.0039101192, 46.5898820893]}, "type": "Feature", "properties": {"collection_times": [{"days": "Mon-Fri", "time": "5:00pm"}, {"days": "Sat-Sun", "time": "Closed"}], "id": "5960100035", "name": "USPS COLLECTION BOX - BLUE BOX", "address": {"city": "HELENA", "state": "MT", "street": "2030 11TH AVE", "postcode": "59601"}}},
{"geometry": {"type": "Point", "coordinates": [-112.0396423473, 46.5867725557]}, "type": "Feature", "properties": {"collection_times": [{"days": "Mon-Fri", "time": "5:00pm"}, {"days": "Sat", "time": "2:35pm"}, {"days": "Sun", "time": "Closed"}], "id": "5960100037", "name": "USPS COLLECTION BOX - BLUE BOX", "address": {"city": "HELENA", "state": "MT", "street": "5 W BROADWAY AVE", "postcode": "59601"}}},
{"geometry": {"type": "Point", "coordinates": [-112.223930073, 46.539008633]}, "type": "Feature", "properties": {"collection_times": [{"days": "Mon-Fri", "time": "4:55pm"}, {"days": "Sat-Sun", "time": "Closed"}], "id": "5960100038", "name": "USPS COLLECTION BOX - BLUE BOX", "address": {"city": "HELENA", "state": "MT", "street": "1 MEDICAL PARK DR", "postcode": "59601"}}},
{"geometry": {"type": "Point", "coordinates": [-111.9894803857, 46.6115763738]}, "type": "Feature", "properties": {"collection_times": [{"days": "Mon-Sat", "time": "9:30am"}, {"days": "Sun", "time": "Closed"}], "id": "5960100040", "name": "USPS COLLECTION BOX - BLUE BOX", "address": {"city": "HELENA", "state": "MT", "street": "2800 SKYWAY DR", "postcode": "59601"}}},
{"geometry": {"type": "Point", "coordinates": [-112.013200208, 46.607798536]}, "type": "Feature", "properties": {"collection_times": [{"days": "Mon-Fri", "time": "6:00pm"}, {"days": "Sat", "time": "5:00pm"}, {"days": "Sun", "time": "Closed"}], "id": "5960100042", "name": "USPS COLLECTION BOX - BLUE BOX", "address": {"city": "HELENA", "state": "MT", "street": "2300 N HARRIS ST", "postcode": "59601"}}},
{"geometry": {"type": "Point", "coordinates": [-112.013200208, 46.607798536]}, "type": "Feature", "properties": {"collection_times": [{"days": "Mon-Fri", "time": "6:00pm"}, {"days": "Sat", "time": "5:00pm"}, {"days": "Sun", "time": "Closed"}], "id": "5960100043", "name": "USPS COLLECTION BOX - BLUE BOX", "address": {"city": "HELENA", "state": "MT", "street": "2300 N HARRIS ST", "postcode": "59601"}}},
{"geometry": {"type": "Point", "coordinates": [-112.0208583723, 46.6176603318]}, "type": "Feature", "properties": {"collection_times": [{"days": "Mon-Fri", "time": "9:30am"}, {"days": "Sat-Sun", "time": "Closed"}], "id": "5960100050", "name": "USPS COLLECTION BOX - BLUE BOX", "address": {"city": "HELENA", "state": "MT", "street": "3101 N MONTANA AVE", "postcode": "59601"}}},
{"geometry": {"type": "Point", "coordinates": [-112.0369690904, 46.5918363375]}, "type": "Feature", "properties": {"collection_times": [{"days": "Mon-Fri", "time": "5:15pm"}, {"days": "Sat", "time": "2:20pm"}, {"days": "Sun", "time": "Closed"}], "id": "5960100054", "name": "USPS COLLECTION BOX - BLUE BOX", "address": {"city": "HELENA", "state": "MT", "street": "500 N LAST CHANCE GULCH", "postcode": "59601"}}},
{"geometry": {"type": "Point", "coordinates": [-112.0369690904, 46.5918363375]}, "type": "Feature", "properties": {"collection_times": [{"days": "Mon-Fri", "time": "5:15pm"}, {"days": "Sat", "time": "2:20pm"}, {"days": "Sun", "time": "Closed"}], "id": "5960100057", "name": "USPS COLLECTION BOX - BLUE BOX", "address": {"city": "HELENA", "state": "MT", "street": "500 N LAST CHANCE GULCH", "postcode": "59601"}}},
{"geometry": {"type": "Point", "coordinates": [-112.013200208, 46.607798536]}, "type": "Feature", "properties": {"collection_times": [{"days": "Mon-Fri", "time": "6:00pm"}, {"days": "Sat", "time": "5:00pm"}, {"days": "Sun", "time": "Closed"}], "id": "5960100060", "name": "USPS COLLECTION BOX - BLUE BOX", "address": {"city": "HELENA", "state": "MT", "street": "2300 N HARRIS ST", "postcode": "59601"}}},
{"geometry": {"type": "Point", "coordinates": [-112.013200208, 46.607798536]}, "type": "Feature", "properties": {"collection_times": [{"days": "Mon-Fri", "time": "6:00pm"}, {"days": "Sat", "time": "5:00pm"}, {"days": "Sun", "time": "Closed"}], "id": "5960100061", "name": "USPS COLLECTION BOX - BLUE BOX", "address": {"city": "HELENA", "state": "MT", "street": "2300 N HARRIS ST", "postcode": "59601"}}},
{"geometry": {"type": "Point", "coordinates": [-112.013200208, 46.607798536]}, "type": "Feature", "properties": {"collection_times": [{"days": "Mon-Fri", "time": "6:00pm"}, {"days": "Sat", "time": "5:00pm"}, {"days": "Sun", "time": "Closed"}], "id": "5960100062", "name": "USPS COLLECTION BOX - PO LOBBY", "address": {"city": "HELENA", "state": "MT", "street": "2300 N HARRIS ST", "postcode": "59601"}}},
{"geometry": {"type": "Point", "coordinates": [-112.013200208, 46.607798536]}, "type": "Feature", "properties": {"collection_times": [{"days": "Mon-Fri", "time": "6:00pm"}, {"days": "Sat", "time": "5:00pm"}, {"days": "Sun", "time": "Closed"}], "id": "5960100063", "name": "USPS COLLECTION BOX - PO LOBBY", "address": {"city": "HELENA", "state": "MT", "street": "2300 N HARRIS ST", "postcode": "59601"}}},
{"geometry": {"type": "Point", "coordinates": [-112.013200208, 46.607798536]}, "type": "Feature", "properties": {"collection_times": [{"days": "Mon-Fri", "time": "6:00pm"}, {"days": "Sat", "time": "5:00pm"}, {"days": "Sun", "time": "Closed"}], "id": "5960100064", "name": "USPS COLLECTION BOX - PO LOBBY", "address": {"city": "HELENA", "state": "MT", "street": "2300 N HARRIS ST", "postcode": "59601"}}},
{"geometry": {"type": "Point", "coordinates": [-112.0369690904, 46.5918363375]}, "type": "Feature", "properties": {"collection_times": [{"days": "Mon-Fri", "time": "5:15pm"}, {"days": "Sat-Sun", "time": "Closed"}], "id": "5960100068", "name": "USPS COLLECTION BOX - PO LOBBY", "address": {"city": "HELENA", "state": "MT", "street": "500 N LAST CHANCE GULCH", "postcode": "59601"}}},
{"geometry": {"type": "Point", "coordinates": [-112.0369690904, 46.5918363375]}, "type": "Feature", "properties": {"collection_times": [{"days": "Mon-Fri", "time": "5:15pm"}, {"days": "Sat-Sun", "time": "Closed"}], "id": "5960100069", "name": "USPS COLLECTION BOX - PO LOBBY", "address": {"city": "HELENA", "state": "MT", "street": "500 N LAST CHANCE GULCH", "postcode": "59601"}}},
{"geometry": {"type": "Point", "coordinates": [-112.0374742139, 46.5963623385]}, "type": "Feature", "properties": {"collection_times": [{"days": "Mon-Fri", "time": "5:05pm"}, {"days": "Sat-Sun", "time": "Closed"}], "id": "5960100070", "name": "USPS COLLECTION BOX - BLUE BOX", "address": {"city": "HELENA", "state": "MT", "street": "40 W 14TH ST", "postcode": "59601"}}},
{"geometry": {"type": "Point", "coordinates": [-111.9876408845, 46.5913667028]}, "type": "Feature", "properties": {"collection_times": [{"days": "Mon-Fri", "time": "5:00pm"}, {"days": "Sat", "time": "3:00pm"}, {"days": "Sun", "time": "Closed"}], "id": "5960100072", "name": "USPS COLLECTION BOX - BLUE BOX", "address": {"city": "HELENA", "state": "MT", "street": "2750 PROSPECT AVE", "postcode": "59601"}}},
{"geometry": {"type": "Point", "coordinates": [-112.0346540397, 46.5968923042]}, "type": "Feature", "properties": {"collection_times": [{"days": "Mon-Fri", "time": "5:10pm"}, {"days": "Sat-Sun", "time": "Closed"}], "id": "5960100073", "name": "USPS COLLECTION BOX - BLUE BOX", "address": {"city": "HELENA", "state": "MT", "street": "10 W 15TH ST", "postcode": "59601"}}},
{"geometry": {"type": "Point", "coordinates": [-112.0346540397, 46.5968923042]}, "type": "Feature", "properties": {"collection_times": [{"days": "Mon-Fri", "time": "5:10pm"}, {"days": "Sat-Sun", "time": "Closed"}], "id": "5960100074", "name": "USPS COLLECTION BOX - BLUE BOX", "address": {"city": "HELENA", "state": "MT", "street": "10 W 15TH ST", "postcode": "59601"}}},
{"geometry": {"type": "Point", "coordinates": [-111.9932350975, 46.586200721]}, "type": "Feature", "properties": {"collection_times": [{"days": "Mon-Fri", "time": "4:55pm"}, {"days": "Sat-Sun", "time": "Closed"}], "id": "5960100075", "name": "USPS COLLECTION BOX - BLUE BOX", "address": {"city": "HELENA", "state": "MT", "street": "2525 COLONIAL DR", "postcode": "59601"}}},
{"geometry": {"type": "Point", "coordinates": [-111.9932350975, 46.586200721]}, "type": "Feature", "properties": {"collection_times": [{"days": "Mon-Fri", "time": "4:55pm"}, {"days": "Sat-Sun", "time": "Closed"}], "id": "5960100076", "name": "USPS COLLECTION BOX - BLUE BOX", "address": {"city": "HELENA", "state": "MT", "street": "2525 COLONIAL DR", "postcode": "59601"}}},
{"geometry": {"type": "Point", "coordinates": [-112.039402437, 46.5938035983]}, "type": "Feature", "properties": {"collection_times": [{"days": "Mon-Fri", "time": "5:05pm"}, {"days": "Sat-Sun", "time": "Closed"}], "id": "5960100079", "name": "USPS COLLECTION BOX - BLUE BOX", "address": {"city": "HELENA", "state": "MT", "street": "130 NEILL AVE", "postcode": "59601"}}},
{"geometry": {"type": "Point", "coordinates": [-112.0396423473, 46.5867725557]}, "type": "Feature", "properties": {"collection_times": [{"days": "Mon-Fri", "time": "5:00pm"}, {"days": "Sat", "time": "2:30pm"}, {"days": "Sun", "time": "Closed"}], "id": "5960100080", "name": "USPS COLLECTION BOX - BLUE BOX", "address": {"city": "HELENA", "state": "MT", "street": "5 W BROADWAY AVE", "postcode": "59601"}}},
{"geometry": {"type": "Point", "coordinates": [-112.0053911838, 46.5904487267]}, "type": "Feature", "properties": {"collection_times": [{"days": "Mon-Fri", "time": "4:40pm"}, {"days": "Sat", "time": "2:55pm"}, {"days": "Sun", "time": "Closed"}], "id": "5960100081", "name": "USPS COLLECTION BOX - BLUE BOX", "address": {"city": "HELENA", "state": "MT", "street": "600 N FEE ST", "postcode": "59601"}}},
{"geometry": {"type": "Point", "coordinates": [-112.0389576444, 46.5879846232]}, "type": "Feature", "properties": {"collection_times": [{"days": "Mon-Fri", "time": "4:55pm"}, {"days": "Sat-Sun", "time": "Closed"}], "id": "5960100082", "name": "USPS COLLECTION BOX - BLUE BOX", "address": {"city": "HELENA", "state": "MT", "street": "111 N LAST CHANCE GULCH", "postcode": "59601"}}},
{"geometry": {"type": "Point", "coordinates": [-112.013200208, 46.607798536]}, "type": "Feature", "properties": {"collection_times": [{"days": "Mon-Fri", "time": "6:00pm"}, {"days": "Sat", "time": "5:00pm"}, {"days": "Sun", "time": "Closed"}], "id": "5960100084", "name": "USPS COLLECTION BOX - APC", "address": {"city": "HELENA", "state": "MT", "street": "2300 N HARRIS ST", "postcode": "59601"}}},
{"geometry": {"type": "Point", "coordinates": [-112.020951826, 46.7049177509]}, "type": "Feature", "properties": {"collection_times": [{"days": "Mon-Sat", "time": "12:00pm"}, {"days": "Sun", "time": "Closed"}], "id": "5960200002", "name": "USPS COLLECTION BOX - BLUE BOX", "address": {"city": "HELENA", "state": "MT", "street": "7507 N MONTANA AVE", "postcode": "59602"}}},
{"geometry": {"type": "Point", "coordinates": [-112.2538306689, 46.2706770048]}, "type": "Feature", "properties": {"collection_times": [{"days": "Mon-Fri", "time": "4:15pm"}, {"days": "Sat", "time": "9:45am"}, {"days": "Sun", "time": "Closed"}], "id": "5963100000", "name": "USPS COLLECTION BOX - BLUE BOX", "address": {"city": "BASIN", "state": "MT", "street": "100 BASIN ST", "postcode": "59631"}}},
{"geometry": {"type": "Point", "coordinates": [-112.2538306689, 46.2706770048]}, "type": "Feature", "properties": {"collection_times": [{"days": "Mon-Fri", "time": "11:45am"}, {"days": "Sat", "time": "9:45am"}, {"days": "Sun", "time": "Closed"}], "id": "5963100001", "name": "USPS COLLECTION BOX - PO LOBBY", "address": {"city": "BASIN", "state": "MT", "street": "100 BASIN ST", "postcode": "59631"}}},
{"geometry": {"type": "Point", "coordinates": [-112.2538306689, 46.2706770048]}, "type": "Feature", "properties": {"collection_times": [{"days": "Mon-Fri", "time": "11:45am"}, {"days": "Sat", "time": "9:45am"}, {"days": "Sun", "time": "Closed"}], "id": "5963100002", "name": "USPS COLLECTION BOX - PO LOBBY", "address": {"city": "BASIN", "state": "MT", "street": "100 BASIN ST", "postcode": "59631"}}},
{"geometry": {"type": "Point", "coordinates": [-112.1192874065, 46.2360443167]}, "type": "Feature", "properties": {"collection_times": [{"days": "Mon-Fri", "time": "4:30pm"}, {"days": "Sat", "time": "8:30am"}, {"days": "Sun", "time": "Closed"}], "id": "5963200001", "name": "USPS COLLECTION BOX - PO LOBBY", "address": {"city": "BOULDER", "state": "MT", "street": "126 S MAIN ST", "postcode": "59632"}}},
{"geometry": {"type": "Point", "coordinates": [-112.1192874065, 46.2360443167]}, "type": "Feature", "properties": {"collection_times": [{"days": "Mon-Fri", "time": "4:30pm"}, {"days": "Sat", "time": "3:30pm"}, {"days": "Sun", "time": "Closed"}], "id": "5963200002", "name": "USPS COLLECTION BOX - BLUE BOX", "address": {"city": "BOULDER", "state": "MT", "street": "126 S MAIN ST", "postcode": "59632"}}},
{"geometry": {"type": "Point", "coordinates": [-112.1192874065, 46.2360443167]}, "type": "Feature", "properties": {"collection_times": [{"days": "Mon-Fri", "time": "4:30pm"}, {"days": "Sat", "time": "8:30am"}, {"days": "Sun", "time": "Closed"}], "id": "5963200003", "name": "USPS COLLECTION BOX - PO LOBBY", "address": {"city": "BOULDER", "state": "MT", "street": "126 S MAIN ST", "postcode": "59632"}}},
{"geometry": {"type": "Point", "coordinates": [-112.261870689, 46.8056165172]}, "type": "Feature", "properties": {"collection_times": [{"days": "Mon-Sat", "time": "10:00am"}, {"days": "Sun", "time": "Closed"}], "id": "5963300001", "name": "USPS COLLECTION BOX - BLUE BOX", "address": {"city": "CANYON CREEK", "state": "MT", "street": "8703 LINCOLN RD W", "postcode": "59633"}}},
{"geometry": {"type": "Point", "coordinates": [-111.9943745908, 46.4360344452]}, "type": "Feature", "properties": {"collection_times": [{"days": "Mon-Fri", "time": "4:45pm"}, {"days": "Sat", "time": "11:00am"}, {"days": "Sun", "time": "Closed"}], "id": "5963400000", "name": "USPS COLLECTION BOX - BLUE BOX", "address": {"city": "CLANCY", "state": "MT", "street": "2 N MAIN ST", "postcode": "59634"}}},
{"geometry": {"type": "Point", "coordinates": [-111.9483428305, 46.5409336676]}, "type": "Feature", "properties": {"collection_times": [{"days": "Mon-Fri", "time": "5:40pm"}, {"days": "Sat", "time": "3:40pm"}, {"days": "Sun", "time": "Closed"}], "id": "5963400001", "name": "USPS COLLECTION BOX - BLUE BOX", "address": {"city": "CLANCY", "state": "MT", "street": "1 JACKSON CREEK RD", "postcode": "59634"}}},
{"geometry": {"type": "Point", "coordinates": [-111.9603889032, 46.4979431342]}, "type": "Feature", "properties": {"collection_times": [{"days": "Mon-Sat", "time": "10:30am"}, {"days": "Sun", "time": "Closed"}], "id": "5963400003", "name": "USPS COLLECTION BOX - BLUE BOX", "address": {"city": "CLANCY", "state": "MT", "street": "1 ROCK RIDGE DR", "postcode": "59634"}}},
{"geometry": {"type": "Point", "coordinates": [-111.9160571544, 46.5193796601]}, "type": "Feature", "properties": {"collection_times": [{"days": "Mon-Sat", "time": "10:00am"}, {"days": "Sun", "time": "Closed"}], "id": "5963400004", "name": "USPS COLLECTION BOX - BLUE BOX", "address": {"city": "CLANCY", "state": "MT", "street": "3 SADDLE MOUNTAIN DR", "postcode": "59634"}}},
{"geometry": {"type": "Point", "coordinates": [-111.9943745908, 46.4360344452]}, "type": "Feature", "properties": {"collection_times": [{"days": "Mon-Fri", "time": "4:45pm"}, {"days": "Sat", "time": "11:00am"}, {"days": "Sun", "time": "Closed"}], "id": "5963400005", "name": "USPS COLLECTION BOX - PO LOBBY", "address": {"city": "CLANCY", "state": "MT", "street": "2 N MAIN ST", "postcode": "59634"}}},
{"geometry": {"type": "Point", "coordinates": [-111.9943745908, 46.4360344452]}, "type": "Feature", "properties": {"collection_times": [{"days": "Mon-Fri", "time": "4:45pm"}, {"days": "Sat", "time": "11:00am"}, {"days": "Sun", "time": "Closed"}], "id": "5963400006", "name": "USPS COLLECTION BOX - PO LOBBY", "address": {"city": "CLANCY", "state": "MT", "street": "2 N MAIN ST", "postcode": "59634"}}},
{"geometry": {"type": "Point", "coordinates": [-111.9106456344, 46.5876983471]}, "type": "Feature", "properties": {"collection_times": [{"days": "Mon-Fri", "time": "5:00pm"}, {"days": "Sat", "time": "11:00am"}, {"days": "Sun", "time": "Closed"}], "id": "5963500000", "name": "USPS COLLECTION BOX - BLUE BOX", "address": {"city": "EAST HELENA", "state": "MT", "street": "607 E PORTER ST", "postcode": "59635"}}},
{"geometry": {"type": "Point", "coordinates": [-111.9106456344, 46.5876983471]}, "type": "Feature", "properties": {"collection_times": [{"days": "Mon-Fri", "time": "5:00pm"}, {"days": "Sat", "time": "11:00am"}, {"days": "Sun", "time": "Closed"}], "id": "5963500002", "name": "USPS COLLECTION BOX - BLUE BOX", "address": {"city": "EAST HELENA", "state": "MT", "street": "607 E PORTER ST", "postcode": "59635"}}},
{"geometry": {"type": "Point", "coordinates": [-111.9106456344, 46.5876983471]}, "type": "Feature", "properties": {"collection_times": [{"days": "Mon-Fri", "time": "5:00pm"}, {"days": "Sat", "time": "11:00am"}, {"days": "Sun", "time": "Closed"}], "id": "5963500004", "name": "USPS COLLECTION BOX - PO LOBBY", "address": {"city": "EAST HELENA", "state": "MT", "street": "607 E PORTER ST", "postcode": "59635"}}},
{"geometry": {"type": "Point", "coordinates": [-111.9106456344, 46.5876983471]}, "type": "Feature", "properties": {"collection_times": [{"days": "Mon-Fri", "time": "5:00pm"}, {"days": "Sat", "time": "11:00am"}, {"days": "Sun", "time": "Closed"}], "id": "5963500007", "name": "USPS COLLECTION BOX - PO LOBBY", "address": {"city": "EAST HELENA", "state": "MT", "street": "607 E PORTER ST", "postcode": "59635"}}},
{"geometry": {"type": "Point", "coordinates": [-112.096745661, 46.6244986879]}, "type": "Feature", "properties": {"collection_times": [{"days": "Mon-Fri", "time": "3:00pm"}, {"days": "Sat-Sun", "time": "Closed"}], "id": "5963600000", "name": "USPS COLLECTION BOX - BLUE BOX", "address": {"city": "FORT HARRISON", "state": "MT", "street": "3717 VETERANS DR", "postcode": "59636"}}},
{"geometry": {"type": "Point", "coordinates": [-112.096745661, 46.6244986879]}, "type": "Feature", "properties": {"collection_times": [{"days": "Mon-Fri", "time": "3:00pm"}, {"days": "Sat", "time": "9:45am"}, {"days": "Sun", "time": "Closed"}], "id": "5963600001", "name": "USPS COLLECTION BOX - BLUE BOX", "address": {"city": "FORT HARRISON", "state": "MT", "street": "3687 VETERANS DR", "postcode": "59636"}}},
{"geometry": {"type": "Point", "coordinates": [-112.096745661, 46.6244986879]}, "type": "Feature", "properties": {"collection_times": [{"days": "Mon-Fri", "time": "4:00pm"}, {"days": "Sat", "time": "9:45am"}, {"days": "Sun", "time": "Closed"}], "id": "5963600002", "name": "USPS COLLECTION BOX - PO LOBBY", "address": {"city": "FORT HARRISON", "state": "MT", "street": "3687 VETERANS DR", "postcode": "59636"}}},
{"geometry": {"type": "Point", "coordinates": [-112.096745661, 46.6244986879]}, "type": "Feature", "properties": {"collection_times": [{"days": "Mon-Fri", "time": "4:00pm"}, {"days": "Sat", "time": "9:45am"}, {"days": "Sun", "time": "Closed"}], "id": "5963600003", "name": "USPS COLLECTION BOX - PO LOBBY", "address": {"city": "FORT HARRISON", "state": "MT", "street": "3687 VETERANS DR", "postcode": "59636"}}},
{"geometry": {"type": "Point", "coordinates": [-112.0567988696, 46.3818257662]}, "type": "Feature", "properties": {"collection_times": [{"days": "Mon-Fri", "time": "5:25pm"}, {"days": "Sat", "time": "8:40am"}, {"days": "Sun", "time": "Closed"}], "id": "5963800000", "name": "USPS COLLECTION BOX - PO LOBBY", "address": {"city": "JEFFERSON CITY", "state": "MT", "street": "1 N MAIN ST", "postcode": "59638"}}},
{"geometry": {"type": "Point", "coordinates": [-112.0567988696, 46.3818257662]}, "type": "Feature", "properties": {"collection_times": [{"days": "Mon-Fri", "time": "5:25pm"}, {"days": "Sat", "time": "8:40am"}, {"days": "Sun", "time": "Closed"}], "id": "5963800001", "name": "USPS COLLECTION BOX - PO LOBBY", "address": {"city": "JEFFERSON CITY", "state": "MT", "street": "1 N MAIN ST", "postcode": "59638"}}},
{"geometry": {"type": "Point", "coordinates": [-112.0260705232, 46.3900696581]}, "type": "Feature", "properties": {"collection_times": [{"days": "Mon-Fri", "time": "5:25pm"}, {"days": "Sat", "time": "8:40am"}, {"days": "Sun", "time": "Closed"}], "id": "5963800002", "name": "USPS COLLECTION BOX - BLUE BOX", "address": {"city": "JEFFERSON CITY", "state": "MT", "street": "1 N MAIN ST", "postcode": "59638"}}},
{"geometry": {"type": "Point", "coordinates": [-112.6859545741, 46.9551005595]}, "type": "Feature", "properties": {"collection_times": [{"days": "Mon-Fri", "time": "4:30pm"}, {"days": "Sat", "time": "10:00am"}, {"days": "Sun", "time": "Closed"}], "id": "5963900000", "name": "USPS COLLECTION BOX - PO LOBBY", "address": {"city": "LINCOLN", "state": "MT", "street": "237 MAIN ST", "postcode": "59639"}}},
{"geometry": {"type": "Point", "coordinates": [-112.6859545741, 46.9551005595]}, "type": "Feature", "properties": {"collection_times": [{"days": "Mon-Fri", "time": "4:30pm"}, {"days": "Sat", "time": "10:00am"}, {"days": "Sun", "time": "Closed"}], "id": "5963900001", "name": "USPS COLLECTION BOX - PO LOBBY", "address": {"city": "LINCOLN", "state": "MT", "street": "237 MAIN ST", "postcode": "59639"}}},
{"geometry": {"type": "Point", "coordinates": [-112.3027296374, 46.7503858159]}, "type": "Feature", "properties": {"collection_times": [{"days": "Mon-Sat", "time": "11:00am"}, {"days": "Sun", "time": "Closed"}], "id": "5964000002", "name": "USPS COLLECTION BOX - BLUE BOX", "address": {"city": "MARYSVILLE", "state": "MT", "street": "1 ASPEN WAY", "postcode": "59640"}}},
{"geometry": {"type": "Point", "coordinates": [-110.9654939015, 46.2545191668]}, "type": "Feature", "properties": {"collection_times": [{"days": "Mon-Sat", "time": "10:15am"}, {"days": "Sun", "time": "Closed"}], "id": "5964200000", "name": "USPS COLLECTION BOX - BLUE BOX", "address": {"city": "RINGLING", "state": "MT", "street": "100 MAIN ST", "postcode": "59642"}}},
{"geometry": {"type": "Point", "coordinates": [-110.9654939015, 46.2545191668]}, "type": "Feature", "properties": {"collection_times": [{"days": "Mon-Sat", "time": "10:30am"}, {"days": "Sun", "time": "Closed"}], "id": "5964200001", "name": "USPS COLLECTION BOX - PO LOBBY", "address": {"city": "RINGLING", "state": "MT", "street": "100 MAIN ST", "postcode": "59642"}}},
{"geometry": {"type": "Point", "coordinates": [-111.4416230188, 46.1737169892]}, "type": "Feature", "properties": {"collection_times": [{"days": "Mon-Fri", "time": "4:15pm"}, {"days": "Sat", "time": "9:15am"}, {"days": "Sun", "time": "Closed"}], "id": "5964300000", "name": "USPS COLLECTION BOX - BLUE BOX", "address": {"city": "TOSTON", "state": "MT", "street": "511 MISSOURI ST", "postcode": "59643"}}},
{"geometry": {"type": "Point", "coordinates": [-111.4416230188, 46.1737169892]}, "type": "Feature", "properties": {"collection_times": [{"days": "Mon-Fri", "time": "1:00pm"}, {"days": "Sat", "time": "9:15am"}, {"days": "Sun", "time": "Closed"}], "id": "5964300001", "name": "USPS COLLECTION BOX - PO LOBBY", "address": {"city": "TOSTON", "state": "MT", "street": "511 MISSOURI ST", "postcode": "59643"}}},
{"geometry": {"type": "Point", "coordinates": [-111.4416230188, 46.1737169892]}, "type": "Feature", "properties": {"collection_times": [{"days": "Mon-Fri", "time": "1:00pm"}, {"days": "Sat", "time": "9:15am"}, {"days": "Sun", "time": "Closed"}], "id": "5964300003", "name": "USPS COLLECTION BOX - PO LOBBY", "address": {"city": "TOSTON", "state": "MT", "street": "511 MISSOURI ST", "postcode": "59643"}}},
{"geometry": {"type": "Point", "coordinates": [-111.5183402831, 46.3144998799]}, "type": "Feature", "properties": {"collection_times": [{"days": "Mon-Fri", "time": "4:45pm"}, {"days": "Sat", "time": "10:00am"}, {"days": "Sun", "time": "Closed"}], "id": "5964400000", "name": "USPS COLLECTION BOX - BLUE BOX", "address": {"city": "TOWNSEND", "state": "MT", "street": "501 S FRONT ST", "postcode": "59644"}}},
{"geometry": {"type": "Point", "coordinates": [-111.5183402831, 46.3144998799]}, "type": "Feature", "properties": {"collection_times": [{"days": "Mon-Fri", "time": "4:45pm"}, {"days": "Sat", "time": "10:00am"}, {"days": "Sun", "time": "Closed"}], "id": "5964400001", "name": "USPS COLLECTION BOX - BLUE BOX", "address": {"city": "TOWNSEND", "state": "MT", "street": "501 S FRONT ST", "postcode": "59644"}}},
{"geometry": {"type": "Point", "coordinates": [-111.5183402831, 46.3144998799]}, "type": "Feature", "properties": {"collection_times": [{"days": "Mon-Fri", "time": "5:00pm"}, {"days": "Sat", "time": "10:00am"}, {"days": "Sun", "time": "Closed"}], "id": "5964400002", "name": "USPS COLLECTION BOX - PO LOBBY", "address": {"city": "TOWNSEND", "state": "MT", "street": "501 S FRONT ST", "postcode": "59644"}}},
{"geometry": {"type": "Point", "coordinates": [-111.5183402831, 46.3144998799]}, "type": "Feature", "properties": {"collection_times": [{"days": "Mon-Fri", "time": "5:00pm"}, {"days": "Sat", "time": "10:00am"}, {"days": "Sun", "time": "Closed"}], "id": "5964400003", "name": "USPS COLLECTION BOX - PO LOBBY", "address": {"city": "TOWNSEND", "state": "MT", "street": "501 S FRONT ST", "postcode": "59644"}}},
{"geometry": {"type": "Point", "coordinates": [-111.5183402831, 46.3144998799]}, "type": "Feature", "properties": {"collection_times": [{"days": "Mon-Fri", "time": "5:00pm"}, {"days": "Sat", "time": "10:00am"}, {"days": "Sun", "time": "Closed"}], "id": "5964400004", "name": "USPS COLLECTION BOX - PO LOBBY", "address": {"city": "TOWNSEND", "state": "MT", "street": "501 S FRONT ST", "postcode": "59644"}}},
{"geometry": {"type": "Point", "coordinates": [-111.5183402831, 46.3144998799]}, "type": "Feature", "properties": {"collection_times": [{"days": "Mon-Fri", "time": "5:00pm"}, {"days": "Sat", "time": "10:00am"}, {"days": "Sun", "time": "Closed"}], "id": "5964400005", "name": "USPS COLLECTION BOX - PO LOBBY", "address": {"city": "TOWNSEND", "state": "MT", "street": "501 S FRONT ST", "postcode": "59644"}}},
{"geometry": {"type": "Point", "coordinates": [-110.9050504177, 46.5481508746]}, "type": "Feature", "properties": {"collection_times": [{"days": "Mon-Fri", "time": "4:05pm"}, {"days": "Sat", "time": "11:30am"}, {"days": "Sun", "time": "Closed"}], "id": "5964500000", "name": "USPS COLLECTION BOX - BLUE BOX", "address": {"city": "WHITE SULPHUR SP", "state": "MT", "street": "103 W MAIN", "postcode": "59645"}}},
{"geometry": {"type": "Point", "coordinates": [-110.9050504177, 46.5481508746]}, "type": "Feature", "properties": {"collection_times": [{"days": "Mon-Fri", "time": "4:05pm"}, {"days": "Sat", "time": "11:30am"}, {"days": "Sun", "time": "Closed"}], "id": "5964500001", "name": "USPS COLLECTION BOX - PO LOBBY", "address": {"city": "WHITE SULPHUR SP", "state": "MT", "street": "103 W MAIN ST", "postcode": "59645"}}},
{"geometry": {"type": "Point", "coordinates": [-110.9050504177, 46.5481508746]}, "type": "Feature", "properties": {"collection_times": [{"days": "Mon-Fri", "time": "4:05pm"}, {"days": "Sat", "time": "11:30am"}, {"days": "Sun", "time": "Closed"}], "id": "5964500002", "name": "USPS COLLECTION BOX - PO LOBBY", "address": {"city": "WHITE SULPHUR SP", "state": "MT", "street": "103 W MAIN ST", "postcode": "59645"}}},
{"geometry": {"type": "Point", "coordinates": [-111.9745780409, 46.9740757363]}, "type": "Feature", "properties": {"collection_times": [{"days": "Mon-Fri", "time": "3:15pm"}, {"days": "Sat", "time": "8:30am"}, {"days": "Sun", "time": "Closed"}], "id": "5964800000", "name": "USPS COLLECTION BOX - BLUE BOX", "address": {"city": "WOLF CREEK", "state": "MT", "street": "250 MAIN ST", "postcode": "59648"}}},
{"geometry": {"type": "Point", "coordinates": [-111.9745780409, 46.9740757363]}, "type": "Feature", "properties": {"collection_times": [{"days": "Mon-Fri", "time": "3:00pm"}, {"days": "Sat", "time": "8:30am"}, {"days": "Sun", "time": "Closed"}], "id": "5964800001", "name": "USPS COLLECTION BOX - PO LOBBY", "address": {"city": "WOLF CREEK", "state": "MT", "street": "250 MAIN ST", "postcode": "59648"}}},
{"geometry": {"type": "Point", "coordinates": [-111.9745780409, 46.9740757363]}, "type": "Feature", "properties": {"collection_times": [{"days": "Mon-Fri", "time": "3:00pm"}, {"days": "Sat", "time": "8:30am"}, {"days": "Sun", "time": "Closed"}], "id": "5964800002", "name": "USPS COLLECTION BOX - PO LOBBY", "address": {"city": "WOLF CREEK", "state": "MT", "street": "250 MAIN ST", "postcode": "59648"}}}
]}
