{"type": "FeatureCollection", "features": [
{"geometry": {"type": "Point", "coordinates": [-112.55415194, 46.012301128]}, "type": "Feature", "properties": {"collection_times": [{"days": "Mon-Fri", "time": "3:00pm"}, {"days": "Sat-Sun", "time": "Closed"}], "id": "5970100001", "name": "USPS COLLECTION BOX - BLUE BOX", "address": {"city": "BUTTE", "state": "MT", "street": "1300 W PARK ST", "postcode": "59701"}}},
{"geometry": {"type": "Point", "coordinates": [-112.5102545376, 45.9939869979]}, "type": "Feature", "properties": {"collection_times": [{"days": "Mon-Sat", "time": "2:00pm"}, {"days": "Sun", "time": "Closed"}], "id": "5970100006", "name": "USPS COLLECTION BOX - BLUE BOX", "address": {"city": "BUTTE", "state": "MT", "street": "2005 FARRAGUT AVE", "postcode": "59701"}}},
{"geometry": {"type": "Point", "coordinates": [-112.497880975, 45.984026465]}, "type": "Feature", "properties": {"collection_times": [{"days": "Mon-Sat", "time": "2:00pm"}, {"days": "Sun", "time": "Closed"}], "id": "5970100007", "name": "USPS COLLECTION BOX - BLUE BOX", "address": {"city": "BUTTE", "state": "MT", "street": "2637 FLORAL BLVD", "postcode": "59701"}}},
{"geometry": {"type": "Point", "coordinates": [-112.5360960077, 46.0127150382]}, "type": "Feature", "properties": {"collection_times": [{"days": "Mon-Fri", "time": "4:00pm"}, {"days": "Sat-Sun", "time": "Closed"}], "id": "5970100009", "name": "USPS COLLECTION BOX - BLUE BOX", "address": {"city": "BUTTE", "state": "MT", "street": "22 W PARK ST", "postcode": "59701"}}},
{"geometry": {"type": "Point", "coordinates": [-112.5354503741, 46.0145224271]}, "type": "Feature", "properties": {"collection_times": [{"days": "Mon-Fri", "time": "4:00pm"}, {"days": "Sat-Sun", "time": "Closed"}], "id": "5970100014", "name": "USPS COLLECTION BOX - BLUE BOX", "address": {"city": "BUTTE", "state": "MT", "street": "16 E GRANITE ST", "postcode": "59701"}}},
{"geometry": {"type": "Point", "coordinates": [-112.5335140788, 46.0139672888]}, "type": "Feature", "properties": {"collection_times": [{"days": "Mon-Fri", "time": "4:00pm"}, {"days": "Sat-Sun", "time": "Closed"}], "id": "5970100015", "name": "USPS COLLECTION BOX - BLUE BOX", "address": {"city": "BUTTE", "state": "MT", "street": "101 E BROADWAY ST", "postcode": "59701"}}},
{"geometry": {"type": "Point", "coordinates": [-112.5357184733, 46.0132623849]}, "type": "Feature", "properties": {"collection_times": [{"days": "Mon-Fri", "time": "4:00pm"}, {"days": "Sat-Sun", "time": "Closed"}], "id": "5970100016", "name": "USPS COLLECTION BOX - BLUE BOX", "address": {"city": "BUTTE", "state": "MT", "street": "49 N MAIN ST", "postcode": "59701"}}},
{"geometry": {"type": "Point", "coordinates": [-112.5299653918, 46.0001893411]}, "type": "Feature", "properties": {"collection_times": [{"days": "Mon-Sat", "time": "3:30pm"}, {"days": "Sun", "time": "Closed"}], "id": "5970100019", "name": "USPS COLLECTION BOX - BLUE BOX", "address": {"city": "BUTTE", "state": "MT", "street": "501 E FRONT ST", "postcode": "59701"}}},
{"geometry": {"type": "Point", "coordinates": [-112.5364738007, 46.0298838043]}, "type": "Feature", "properties": {"collection_times": [{"days": "Mon-Fri", "time": "2:30pm"}, {"days": "Sat-Sun", "time": "Closed"}], "id": "5970100020", "name": "USPS COLLECTION BOX - BLUE BOX", "address": {"city": "BUTTE", "state": "MT", "street": "42 W DALY ST", "postcode": "59701"}}},
{"geometry": {"type": "Point", "coordinates": [-112.5360374915, 46.0164695404]}, "type": "Feature", "properties": {"collection_times": [{"days": "Mon-Fri", "time": "4:00pm"}, {"days": "Sat-Sun", "time": "Closed"}], "id": "5970100021", "name": "USPS COLLECTION BOX - BLUE BOX", "address": {"city": "BUTTE", "state": "MT", "street": "400 N MAIN ST", "postcode": "59701"}}},
{"geometry": {"type": "Point", "coordinates": [-112.5372224538, 46.0144729971]}, "type": "Feature", "properties": {"collection_times": [{"days": "Mon-Fri", "time": "4:00pm"}, {"days": "Sat-Sun", "time": "Closed"}], "id": "5970100022", "name": "USPS COLLECTION BOX - BLUE BOX", "address": {"city": "BUTTE", "state": "MT", "street": "25 W GRANITE ST", "postcode": "59701"}}},
{"geometry": {"type": "Point", "coordinates": [-112.5405891423, 46.0109774901]}, "type": "Feature", "properties": {"collection_times": [{"days": "Mon-Fri", "time": "4:00pm"}, {"days": "Sat-Sun", "time": "Closed"}], "id": "5970100024", "name": "USPS COLLECTION BOX - BLUE BOX", "address": {"city": "BUTTE", "state": "MT", "street": "305 W MERCURY ST", "postcode": "59701"}}},
{"geometry": {"type": "Point", "coordinates": [-112.5113431436, 45.9918039378]}, "type": "Feature", "properties": {"collection_times": [{"days": "Mon-Sat", "time": "3:30pm"}, {"days": "Sun", "time": "Closed"}], "id": "5970100026", "name": "USPS COLLECTION BOX - BLUE BOX", "address": {"city": "BUTTE", "state": "MT", "street": "2100 HARRISON AVE", "postcode": "59701"}}},
{"geometry": {"type": "Point", "coordinates": [-112.5144056201, 45.9965012114]}, "type": "Feature", "properties": {"collection_times": [{"days": "Mon-Sat", "time": "3:30pm"}, {"days": "Sun", "time": "Closed"}], "id": "5970100028", "name": "USPS COLLECTION BOX - BLUE BOX", "address": {"city": "BUTTE", "state": "MT", "street": "1815 HARRISON AVE", "postcode": "59701"}}},
{"geometry": {"type": "Point", "coordinates": [-112.5295058879, 45.9976587012]}, "type": "Feature", "properties": {"collection_times": [{"days": "Mon-Fri", "time": "3:30pm"}, {"days": "Sat-Sun", "time": "Closed"}], "id": "5970100030", "name": "USPS COLLECTION BOX - BLUE BOX", "address": {"city": "BUTTE", "state": "MT", "street": "700 CASEY ST", "postcode": "59701"}}},
{"geometry": {"type": "Point", "coordinates": [-112.5110701098, 45.9911187044]}, "type": "Feature", "properties": {"collection_times": [{"days": "Mon-Sat", "time": "3:30pm"}, {"days": "Sun", "time": "Closed"}], "id": "5970100031", "name": "USPS COLLECTION BOX - BLUE BOX", "address": {"city": "BUTTE", "state": "MT", "street": "2201 HARRISON AVE", "postcode": "59701"}}},
{"geometry": {"type": "Point", "coordinates": [-112.50793736, 45.9799551754]}, "type": "Feature", "properties": {"collection_times": [{"days": "Mon-Sat", "time": "3:30pm"}, {"days": "Sun", "time": "Closed"}], "id": "5970100032", "name": "USPS COLLECTION BOX - BLUE BOX", "address": {"city": "BUTTE", "state": "MT", "street": "3100 HARRISON AVE", "postcode": "59701"}}},
{"geometry": {"type": "Point", "coordinates": [-112.5272452318, 45.9834069745]}, "type": "Feature", "properties": {"collection_times": [{"days": "Mon-Sat", "time": "5:30pm"}, {"days": "Sun", "time": "Closed"}], "id": "5970100034", "name": "USPS COLLECTION BOX - BLUE BOX", "address": {"city": "BUTTE", "state": "MT", "street": "701 DEWEY BLVD", "postcode": "59701"}}},
{"geometry": {"type": "Point", "coordinates": [-112.5272452318, 45.9834069745]}, "type": "Feature", "properties": {"collection_times": [{"days": "Mon-Sat", "time": "5:30pm"}, {"days": "Sun", "time": "Closed"}], "id": "5970100035", "name": "USPS COLLECTION BOX - PO LOBBY", "address": {"city": "BUTTE", "state": "MT", "street": "701 DEWEY BLVD", "postcode": "59701"}}},
{"geometry": {"type": "Point", "coordinates": [-112.6220871825, 46.121555192]}, "type": "Feature", "properties": {"collection_times": [{"days": "Mon-Sat", "time": "10:00am"}, {"days": "Sun", "time": "Closed"}], "id": "5970100040", "name": "USPS COLLECTION BOX - BLUE BOX", "address": {"city": "BUTTE", "state": "MT", "street": "122000 E BROWNS GULCH RD", "postcode": "59701"}}},
{"geometry": {"type": "Point", "coordinates": [-112.5030424891, 45.9534567071]}, "type": "Feature", "properties": {"collection_times": [{"days": "Mon-Sat", "time": "12:00pm"}, {"days": "Sun", "time": "Closed"}], "id": "5970100041", "name": "USPS COLLECTION BOX - BLUE BOX", "address": {"city": "BUTTE", "state": "MT", "street": "134 AIRPORT RD", "postcode": "59701"}}},
{"geometry": {"type": "Point", "coordinates": [-112.508118652, 45.9634642368]}, "type": "Feature", "properties": {"collection_times": [{"days": "Mon-Sat", "time": "10:00am"}, {"days": "Sun", "time": "Closed"}], "id": "5970100042", "name": "USPS COLLECTION BOX - BLUE BOX", "address": {"city": "BUTTE", "state": "MT", "street": "3901 HARRISON AVE", "postcode": "59701"}}},
{"geometry": {"type": "Point", "coordinates": [-112.5373151693, 46.0118162021]}, "type": "Feature", "properties": {"collection_times": [{"days": "Mon-Fri", "time": "4:45pm"}, {"days": "Sat", "time": "3:30pm"}, {"days": "Sun", "time": "Closed"}], "id": "5970100046", "name": "USPS COLLECTION BOX - BLUE BOX", "address": {"city": "BUTTE", "state": "MT", "street": "60 W GALENA ST", "postcode": "59701"}}},
{"geometry": {"type": "Point", "coordinates": [-112.5373151693, 46.0118162021]}, "type": "Feature", "properties": {"collection_times": [{"days": "Mon-Fri", "time": "4:45pm"}, {"days": "Sat", "time": "3:30pm"}, {"days": "Sun", "time": "Closed"}], "id": "5970100048", "name": "USPS COLLECTION BOX - BLUE BOX", "address": {"city": "BUTTE", "state": "MT", "street": "60 W GALENA ST", "postcode": "59701"}}},
{"geometry": {"type": "Point", "coordinates": [-112.5388881131, 46.0143476005]}, "type": "Feature", "properties": {"collection_times": [{"days": "Mon-Fri", "time": "4:00pm"}, {"days": "Sat-Sun", "time": "Closed"}], "id": "5970100049", "name": "USPS COLLECTION BOX - BLUE BOX", "address": {"city": "BUTTE", "state": "MT", "street": "155 W GRANITE ST", "postcode": "59701"}}},
{"geometry": {"type": "Point", "coordinates": [-112.5213230188, 46.0018909831]}, "type": "Feature", "properties": {"collection_times": [{"days": "Mon-Sat", "time": "3:30pm"}, {"days": "Sun", "time": "Closed"}], "id": "5970100050", "name": "USPS COLLECTION BOX - BLUE BOX", "address": {"city": "BUTTE", "state": "MT", "street": "1301 HARRISON AVE", "postcode": "59701"}}},
{"geometry": {"type": "Point", "coordinates": [-112.5346829203, 46.0068283157]}, "type": "Feature", "properties": {"collection_times": [{"days": "Mon-Fri", "time": "4:00pm"}, {"days": "Sat-Sun", "time": "Closed"}], "id": "5970100054", "name": "USPS COLLECTION BOX - BLUE BOX", "address": {"city": "BUTTE", "state": "MT", "street": "600 S MAIN ST", "postcode": "59701"}}},
{"geometry": {"type": "Point", "coordinates": [-112.5380077328, 46.0127889895]}, "type": "Feature", "properties": {"collection_times": [{"days": "Mon-Fri", "time": "4:00pm"}, {"days": "Sat", "time": "3:30pm"}, {"days": "Sun", "time": "Closed"}], "id": "5970100056", "name": "USPS COLLECTION BOX - BLUE BOX", "address": {"city": "BUTTE", "state": "MT", "street": "101 W PARK ST", "postcode": "59701"}}},
{"geometry": {"type": "Point", "coordinates": [-112.5272452318, 45.9834069745]}, "type": "Feature", "properties": {"collection_times": [{"days": "Mon-Sat", "time": "5:30pm"}, {"days": "Sun", "time": "Closed"}], "id": "5970100058", "name": "USPS COLLECTION BOX - PO LOBBY", "address": {"city": "BUTTE", "state": "MT", "street": "701 DEWEY BLVD", "postcode": "59701"}}},
{"geometry": {"type": "Point", "coordinates": [-112.5337048788, 46.0023902327]}, "type": "Feature", "properties": {"collection_times": [{"days": "Mon-Sat", "time": "9:00am"}, {"days": "Sun", "time": "Closed"}], "id": "5970100059", "name": "USPS COLLECTION BOX - BLUE BOX", "address": {"city": "BUTTE", "state": "MT", "street": "45 THREE BEARS DR", "postcode": "59701"}}},
{"geometry": {"type": "Point", "coordinates": [-112.5373151693, 46.0118162021]}, "type": "Feature", "properties": {"collection_times": [{"days": "Mon-Fri", "time": "4:45pm"}, {"days": "Sat", "time": "8:45am"}, {"days": "Sun", "time": "Closed"}], "id": "5970100060", "name": "USPS COLLECTION BOX - PO LOBBY", "address": {"city": "BUTTE", "state": "MT", "street": "60 W GALENA ST", "postcode": "59701"}}},
{"geometry": {"type": "Point", "coordinates": [-112.5373151693, 46.0118162021]}, "type": "Feature", "properties": {"collection_times": [{"days": "Mon-Fri", "time": "4:45pm"}, {"days": "Sat", "time": "8:45am"}, {"days": "Sun", "time": "Closed"}], "id": "5970100061", "name": "USPS COLLECTION BOX - PO LOBBY", "address": {"city": "BUTTE", "state": "MT", "street": "60 W GALENA ST", "postcode": "59701"}}},
{"geometry": {"type": "Point", "coordinates": [-112.5197887322, 45.9906268441]}, "type": "Feature", "properties": {"collection_times": [{"days": "Mon-Sat", "time": "2:00pm"}, {"days": "Sun", "time": "Closed"}], "id": "5970100062", "name": "USPS COLLECTION BOX - BLUE BOX", "address": {"city": "BUTTE", "state": "MT", "street": "848 W PARK ST", "postcode": "59701"}}},
{"geometry": {"type": "Point", "coordinates": [-112.1072424207, 45.3238211573]}, "type": "Feature", "properties": {"collection_times": [{"days": "Mon-Fri", "time": "2:35pm"}, {"days": "Sat", "time": "9:30am"}, {"days": "Sun", "time": "Closed"}], "id": "5971000000", "name": "USPS COLLECTION BOX - BLUE BOX", "address": {"city": "ALDER", "state": "MT", "street": "2325 MT HIGHWAY 287", "postcode": "59710"}}},
{"geometry": {"type": "Point", "coordinates": [-112.1072424207, 45.3238211573]}, "type": "Feature", "properties": {"collection_times": [{"days": "Mon-Fri", "time": "12:00pm"}, {"days": "Sat", "time": "9:30am"}, {"days": "Sun", "time": "Closed"}], "id": "5971000001", "name": "USPS COLLECTION BOX - PO LOBBY", "address": {"city": "ALDER", "state": "MT", "street": "2325 MT HIGHWAY 287", "postcode": "59710"}}},
{"geometry": {"type": "Point", "coordinates": [-112.1072424207, 45.3238211573]}, "type": "Feature", "properties": {"collection_times": [{"days": "Mon-Fri", "time": "12:00pm"}, {"days": "Sat", "time": "9:30am"}, {"days": "Sun", "time": "Closed"}], "id": "5971000002", "name": "USPS COLLECTION BOX - PO LOBBY", "address": {"city": "ALDER", "state": "MT", "street": "2325 MT HIGHWAY 287", "postcode": "59710"}}},
{"geometry": {"type": "Point", "coordinates": [-112.9728236643, 46.1328077994]}, "type": "Feature", "properties": {"collection_times": [{"days": "Mon-Sat", "time": "12:00pm"}, {"days": "Sun", "time": "Closed"}], "id": "5971100003", "name": "USPS COLLECTION BOX - BLUE BOX", "address": {"city": "ANACONDA", "state": "MT", "street": "1501 W PARK AVE", "postcode": "59711"}}},
{"geometry": {"type": "Point", "coordinates": [-112.935867239, 46.1264521009]}, "type": "Feature", "properties": {"collection_times": [{"days": "Mon-Sat", "time": "11:00am"}, {"days": "Sun", "time": "Closed"}], "id": "5971100004", "name": "USPS COLLECTION BOX - BLUE BOX", "address": {"city": "ANACONDA", "state": "MT", "street": "1300 E PARK AVE", "postcode": "59711"}}},
{"geometry": {"type": "Point", "coordinates": [-112.9523981723, 46.130199563]}, "type": "Feature", "properties": {"collection_times": [{"days": "Mon-Fri", "time": "3:50pm"}, {"days": "Sat", "time": "2:00pm"}, {"days": "Sun", "time": "Closed"}], "id": "5971100008", "name": "USPS COLLECTION BOX - BLUE BOX", "address": {"city": "ANACONDA", "state": "MT", "street": "115 E COMMERCIAL AVE", "postcode": "59711"}}},
{"geometry": {"type": "Point", "coordinates": [-112.9500008621, 46.1287495678]}, "type": "Feature", "properties": {"collection_times": [{"days": "Mon-Fri", "time": "3:50pm"}, {"days": "Sat", "time": "2:00pm"}, {"days": "Sun", "time": "Closed"}], "id": "5971100009", "name": "USPS COLLECTION BOX - BLUE BOX", "address": {"city": "ANACONDA", "state": "MT", "street": "307 E PARK AVE", "postcode": "59711"}}},
{"geometry": {"type": "Point", "coordinates": [-112.9511954923, 46.129065244]}, "type": "Feature", "properties": {"collection_times": [{"days": "Mon-Fri", "time": "3:50pm"}, {"days": "Sat", "time": "2:00pm"}, {"days": "Sun", "time": "Closed"}], "id": "5971100010", "name": "USPS COLLECTION BOX - BLUE BOX", "address": {"city": "ANACONDA", "state": "MT", "street": "220 E PARK AVE", "postcode": "59711"}}},
{"geometry": {"type": "Point", "coordinates": [-112.953259128, 46.1294119911]}, "type": "Feature", "properties": {"collection_times": [{"days": "Mon-Fri", "time": "3:55pm"}, {"days": "Sat", "time": "2:00pm"}, {"days": "Sun", "time": "Closed"}], "id": "5971100011", "name": "USPS COLLECTION BOX - BLUE BOX", "address": {"city": "ANACONDA", "state": "MT", "street": "120 W PARK AVE", "postcode": "59711"}}},
{"geometry": {"type": "Point", "coordinates": [-112.9931683914, 46.1407467842]}, "type": "Feature", "properties": {"collection_times": [{"days": "Mon-Fri", "time": "4:00pm"}, {"days": "Sat", "time": "2:00pm"}, {"days": "Sun", "time": "Closed"}], "id": "5971100012", "name": "USPS COLLECTION BOX - BLUE BOX", "address": {"city": "ANACONDA", "state": "MT", "street": "218 MAIN ST", "postcode": "59711"}}},
{"geometry": {"type": "Point", "coordinates": [-112.9931683914, 46.1407467842]}, "type": "Feature", "properties": {"collection_times": [{"days": "Mon-Fri", "time": "4:00pm"}, {"days": "Sat", "time": "2:00pm"}, {"days": "Sun", "time": "Closed"}], "id": "5971100013", "name": "USPS COLLECTION BOX - BLUE BOX", "address": {"city": "ANACONDA", "state": "MT", "street": "218 MAIN ST", "postcode": "59711"}}},
{"geometry": {"type": "Point", "coordinates": [-112.9531057706, 46.1291217535]}, "type": "Feature", "properties": {"collection_times": [{"days": "Mon-Fri", "time": "4:00pm"}, {"days": "Sat", "time": "2:00pm"}, {"days": "Sun", "time": "Closed"}], "id": "5971100019", "name": "USPS COLLECTION BOX - PO LOBBY", "address": {"city": "ANACONDA", "state": "MT", "street": "218 MAIN ST", "postcode": "59711"}}},
{"geometry": {"type": "Point", "coordinates": [-112.591842352, 46.5958371919]}, "type": "Feature", "properties": {"collection_times": [{"days": "Mon-Fri", "time": "2:10pm"}, {"days": "Sat", "time": "10:30am"}, {"days": "Sun", "time": "Closed"}], "id": "5971300000", "name": "USPS COLLECTION BOX - BLUE BOX", "address": {"city": "AVON", "state": "MT", "street": "102 OLD AVON RD", "postcode": "59713"}}},
{"geometry": {"type": "Point", "coordinates": [-112.591842352, 46.5958371919]}, "type": "Feature", "properties": {"collection_times": [{"days": "Mon-Fri", "time": "12:00pm"}, {"days": "Sat", "time": "10:30am"}, {"days": "Sun", "time": "Closed"}], "id": "5971300001", "name": "USPS COLLECTION BOX - PO LOBBY", "address": {"city": "AVON", "state": "MT", "street": "102 OLD AVON RD", "postcode": "59713"}}},
{"geometry": {"type": "Point", "coordinates": [-111.1772088307, 45.777746113]}, "type": "Feature", "properties": {"collection_times": [{"days": "Mon-Fri", "time": "4:10pm"}, {"days": "Sat", "time": "12:00pm"}, {"days": "Sun", "time": "Closed"}], "id": "5971400000", "name": "USPS COLLECTION BOX - BLUE BOX", "address": {"city": "BELGRADE", "state": "MT", "street": "96 N WEAVER ST", "postcode": "59714"}}},
{"geometry": {"type": "Point", "coordinates": [-111.1772088307, 45.777746113]}, "type": "Feature", "properties": {"collection_times": [{"days": "Mon-Fri", "time": "4:10pm"}, {"days": "Sat", "time": "12:00pm"}, {"days": "Sun", "time": "Closed"}], "id": "5971400001", "name": "USPS COLLECTION BOX - BLUE BOX", "address": {"city": "BELGRADE", "state": "MT", "street": "96 N WEAVER ST", "postcode": "59714"}}},
{"geometry": {"type": "Point", "coordinates": [-111.1832753615, 45.7729911138]}, "type": "Feature", "properties": {"collection_times": [{"days": "Mon-Fri", "time": "12:00pm"}, {"days": "Sat", "time": "11:30am"}, {"days": "Sun", "time": "Closed"}], "id": "5971400002", "name": "USPS COLLECTION BOX - BLUE BOX", "address": {"city": "BELGRADE", "state": "MT", "street": "205 W MADISON AVE", "postcode": "59714"}}},
{"geometry": {"type": "Point", "coordinates": [-111.1772088307, 45.777746113]}, "type": "Feature", "properties": {"collection_times": [{"days": "Mon-Fri", "time": "4:10pm"}, {"days": "Sat", "time": "12:00pm"}, {"days": "Sun", "time": "Closed"}], "id": "5971400003", "name": "USPS COLLECTION BOX - BLUE BOX", "address": {"city": "BELGRADE", "state": "MT", "street": "96 N WEAVER ST", "postcode": "59714"}}},
{"geometry": {"type": "Point", "coordinates": [-111.1772088307, 45.777746113]}, "type": "Feature", "properties": {"collection_times": [{"days": "Mon-Fri", "time": "4:10pm"}, {"days": "Sat", "time": "12:00pm"}, {"days": "Sun", "time": "Closed"}], "id": "5971400004", "name": "USPS COLLECTION BOX - PO LOBBY", "address": {"city": "BELGRADE", "state": "MT", "street": "96 N WEAVER ST", "postcode": "59714"}}},
{"geometry": {"type": "Point", "coordinates": [-111.1772088307, 45.777746113]}, "type": "Feature", "properties": {"collection_times": [{"days": "Mon-Fri", "time": "4:10pm"}, {"days": "Sat", "time": "12:00pm"}, {"days": "Sun", "time": "Closed"}], "id": "5971400005", "name": "USPS COLLECTION BOX - PO LOBBY", "address": {"city": "BELGRADE", "state": "MT", "street": "96 N WEAVER ST", "postcode": "59714"}}},
{"geometry": {"type": "Point", "coordinates": [-111.1772088307, 45.777746113]}, "type": "Feature", "properties": {"collection_times": [{"days": "Mon-Fri", "time": "4:10pm"}, {"days": "Sat", "time": "12:00pm"}, {"days": "Sun", "time": "Closed"}], "id": "5971400006", "name": "USPS COLLECTION BOX - PO LOBBY", "address": {"city": "BELGRADE", "state": "MT", "street": "96 N WEAVER ST", "postcode": "59714"}}},
{"geometry": {"type": "Point", "coordinates": [-111.1849944289, 45.7767739848]}, "type": "Feature", "properties": {"collection_times": [{"days": "Mon-Fri", "time": "11:30am"}, {"days": "Sat", "time": "11:00am"}, {"days": "Sun", "time": "Closed"}], "id": "5971400008", "name": "USPS COLLECTION BOX - BLUE BOX", "address": {"city": "BELGRADE", "state": "MT", "street": "6999 JACKRABBIT LN", "postcode": "59714"}}},
{"geometry": {"type": "Point", "coordinates": [-111.2199399438, 45.7730794269]}, "type": "Feature", "properties": {"collection_times": [{"days": "Mon-Sat", "time": "10:00am"}, {"days": "Sun", "time": "Closed"}], "id": "5971400009", "name": "USPS COLLECTION BOX - BLUE BOX", "address": {"city": "BELGRADE", "state": "MT", "street": "129 VILLAGE DR", "postcode": "59714"}}},
{"geometry": {"type": "Point", "coordinates": [-111.0378359665, 45.6610390186]}, "type": "Feature", "properties": {"collection_times": [{"days": "Mon-Sat", "time": "9:30am"}, {"days": "Sun", "time": "Closed"}], "id": "5971500015", "name": "USPS COLLECTION BOX - BLUE BOX", "address": {"city": "BOZEMAN", "state": "MT", "street": "1809 S TRACY AVE", "postcode": "59715"}}},
{"geometry": {"type": "Point", "coordinates": [-111.037280171, 45.6793366604]}, "type": "Feature", "properties": {"collection_times": [{"days": "Mon-Sat", "time": "2:00pm"}, {"days": "Sun", "time": "Closed"}], "id": "5971500022", "name": "USPS COLLECTION BOX - BLUE BOX", "address": {"city": "BOZEMAN", "state": "MT", "street": "1 W MAIN ST", "postcode": "59715"}}},
{"geometry": {"type": "Point", "coordinates": [-111.0316030565, 45.6792719951]}, "type": "Feature", "properties": {"collection_times": [{"days": "Mon-Sat", "time": "2:00pm"}, {"days": "Sun", "time": "Closed"}], "id": "5971500025", "name": "USPS COLLECTION BOX - BLUE BOX", "address": {"city": "BOZEMAN", "state": "MT", "street": "424 E MAIN ST", "postcode": "59715"}}},
{"geometry": {"type": "Point", "coordinates": [-111.0356499315, 45.6792361533]}, "type": "Feature", "properties": {"collection_times": [{"days": "Mon-Sat", "time": "2:00pm"}, {"days": "Sun", "time": "Closed"}], "id": "5971500027", "name": "USPS COLLECTION BOX - BLUE BOX", "address": {"city": "BOZEMAN", "state": "MT", "street": "102 E MAIN ST", "postcode": "59715"}}},
{"geometry": {"type": "Point", "coordinates": [-111.0414511131, 45.6793459786]}, "type": "Feature", "properties": {"collection_times": [{"days": "Mon-Sat", "time": "2:00pm"}, {"days": "Sun", "time": "Closed"}], "id": "5971500029", "name": "USPS COLLECTION BOX - BLUE BOX", "address": {"city": "BOZEMAN", "state": "MT", "street": "301 W MAIN ST", "postcode": "59715"}}},
{"geometry": {"type": "Point", "coordinates": [-111.0584423614, 45.6794213864]}, "type": "Feature", "properties": {"collection_times": [{"days": "Mon-Sat", "time": "2:00pm"}, {"days": "Sun", "time": "Closed"}], "id": "5971500031", "name": "USPS COLLECTION BOX - BLUE BOX", "address": {"city": "BOZEMAN", "state": "MT", "street": "1601 W MAIN ST", "postcode": "59715"}}},
{"geometry": {"type": "Point", "coordinates": [-111.0600308925, 45.6730572618]}, "type": "Feature", "properties": {"collection_times": [{"days": "Mon-Fri", "time": "3:00pm"}, {"days": "Sat-Sun", "time": "Closed"}], "id": "5971500033", "name": "USPS COLLECTION BOX - BLUE BOX", "address": {"city": "BOZEMAN", "state": "MT", "street": "615 S 16TH AVE", "postcode": "59715"}}},
{"geometry": {"type": "Point", "coordinates": [-110.9175409865, 45.6944357693]}, "type": "Feature", "properties": {"collection_times": [{"days": "Mon-Fri", "time": "3:00pm"}, {"days": "Sat-Sun", "time": "Closed"}], "id": "5971500035", "name": "USPS COLLECTION BOX - BLUE BOX", "address": {"city": "BOZEMAN", "state": "MT", "street": "103 CULBERTSON HALL", "postcode": "59715"}}},
{"geometry": {"type": "Point", "coordinates": [-111.0494337526, 45.6712406961]}, "type": "Feature", "properties": {"collection_times": [{"days": "Mon-Sat", "time": "2:00pm"}, {"days": "Sun", "time": "Closed"}], "id": "5971500036", "name": "USPS COLLECTION BOX - BLUE BOX", "address": {"city": "BOZEMAN", "state": "MT", "street": "903 W COLLEGE ST", "postcode": "59715"}}},
{"geometry": {"type": "Point", "coordinates": [-111.0460737739, 45.6887013302]}, "type": "Feature", "properties": {"collection_times": [{"days": "Mon-Sat", "time": "3:00pm"}, {"days": "Sun", "time": "Closed"}], "id": "5971500039", "name": "USPS COLLECTION BOX - BLUE BOX", "address": {"city": "BOZEMAN", "state": "MT", "street": "912 N 7TH AVE", "postcode": "59715"}}},
{"geometry": {"type": "Point", "coordinates": [-111.038690205, 45.6820137404]}, "type": "Feature", "properties": {"collection_times": [{"days": "Mon-Fri", "time": "3:00pm"}, {"days": "Sat-Sun", "time": "Closed"}], "id": "5971500041", "name": "USPS COLLECTION BOX - BLUE BOX", "address": {"city": "BOZEMAN", "state": "MT", "street": "300 N WILLSON AVE", "postcode": "59715"}}},
{"geometry": {"type": "Point", "coordinates": [-111.0367033772, 45.6782028286]}, "type": "Feature", "properties": {"collection_times": [{"days": "Mon-Sat", "time": "3:00pm"}, {"days": "Sun", "time": "Closed"}], "id": "5971500044", "name": "USPS COLLECTION BOX - BLUE BOX", "address": {"city": "BOZEMAN", "state": "MT", "street": "32 E BABCOCK ST", "postcode": "59715"}}},
{"geometry": {"type": "Point", "coordinates": [-111.0403253489, 45.6812871944]}, "type": "Feature", "properties": {"collection_times": [{"days": "Mon-Fri", "time": "2:00pm"}, {"days": "Sat-Sun", "time": "Closed"}], "id": "5971500052", "name": "USPS COLLECTION BOX - BLUE BOX", "address": {"city": "BOZEMAN", "state": "MT", "street": "220 W LAMME ST", "postcode": "59715"}}},
{"geometry": {"type": "Point", "coordinates": [-111.0598197651, 45.6897543181]}, "type": "Feature", "properties": {"collection_times": [{"days": "Mon-Sat", "time": "12:30pm"}, {"days": "Sun", "time": "Closed"}], "id": "5971500058", "name": "USPS COLLECTION BOX - BLUE BOX", "address": {"city": "BOZEMAN", "state": "MT", "street": "1001 N 17TH AVE", "postcode": "59715"}}},
{"geometry": {"type": "Point", "coordinates": [-111.0367033772, 45.6782028286]}, "type": "Feature", "properties": {"collection_times": [{"days": "Mon-Sat", "time": "4:00pm"}, {"days": "Sun", "time": "Closed"}], "id": "5971500066", "name": "USPS COLLECTION BOX - PO LOBBY", "address": {"city": "BOZEMAN", "state": "MT", "street": "32 E BABCOCK ST", "postcode": "59715"}}},
{"geometry": {"type": "Point", "coordinates": [-111.0367033772, 45.6782028286]}, "type": "Feature", "properties": {"collection_times": [{"days": "Mon-Sat", "time": "4:00pm"}, {"days": "Sun", "time": "Closed"}], "id": "5971500067", "name": "USPS COLLECTION BOX - PO LOBBY", "address": {"city": "BOZEMAN", "state": "MT", "street": "32 E BABCOCK ST", "postcode": "59715"}}},
{"geometry": {"type": "Point", "coordinates": [-111.0367033772, 45.6782028286]}, "type": "Feature", "properties": {"collection_times": [{"days": "Mon-Sat", "time": "4:00pm"}, {"days": "Sun", "time": "Closed"}], "id": "5971500068", "name": "USPS COLLECTION BOX - PO LOBBY", "address": {"city": "BOZEMAN", "state": "MT", "street": "32 E BABCOCK ST", "postcode": "59715"}}},
{"geometry": {"type": "Point", "coordinates": [-111.0460837938, 45.6943218337]}, "type": "Feature", "properties": {"collection_times": [{"days": "Mon-Sat", "time": "9:30am"}, {"days": "Sun", "time": "Closed"}], "id": "5971500071", "name": "USPS COLLECTION BOX - BLUE BOX", "address": {"city": "BOZEMAN", "state": "MT", "street": "1500 N 7TH AVE", "postcode": "59715"}}},
{"geometry": {"type": "Point", "coordinates": [-111.0367033772, 45.6782028286]}, "type": "Feature", "properties": {"collection_times": [{"days": "Mon-Sat", "time": "4:00pm"}, {"days": "Sun", "time": "Closed"}], "id": "5971500072", "name": "USPS COLLECTION BOX - PO LOBBY", "address": {"city": "BOZEMAN", "state": "MT", "street": "32 E BABCOCK ST", "postcode": "59715"}}},
{"geometry": {"type": "Point", "coordinates": [-111.0367033772, 45.6782028286]}, "type": "Feature", "properties": {"collection_times": [{"days": "Mon-Sat", "time": "4:00pm"}, {"days": "Sun", "time": "Closed"}], "id": "5971500073", "name": "USPS COLLECTION BOX - PO LOBBY", "address": {"city": "BOZEMAN", "state": "MT", "street": "32 E BABCOCK ST", "postcode": "59715"}}},
{"geometry": {"type": "Point", "coordinates": [-111.0367033772, 45.6782028286]}, "type": "Feature", "properties": {"collection_times": [{"days": "Mon-Sat", "time": "4:00pm"}, {"days": "Sun", "time": "Closed"}], "id": "5971500074", "name": "USPS COLLECTION BOX - PO LOBBY", "address": {"city": "BOZEMAN", "state": "MT", "street": "32 E BABCOCK ST", "postcode": "59715"}}},
{"geometry": {"type": "Point", "coordinates": [-111.0597772441, 45.7152127431]}, "type": "Feature", "properties": {"collection_times": [{"days": "Mon-Sat", "time": "10:00am"}, {"days": "Sun", "time": "Closed"}], "id": "5971800000", "name": "USPS COLLECTION BOX - BLUE BOX", "address": {"city": "BOZEMAN", "state": "MT", "street": "1035 REEVES RD", "postcode": "59718"}}},
{"geometry": {"type": "Point", "coordinates": [-111.0797722522, 45.6710723593]}, "type": "Feature", "properties": {"collection_times": [{"days": "Mon-Sat", "time": "2:00pm"}, {"days": "Sun", "time": "Closed"}], "id": "5971800003", "name": "USPS COLLECTION BOX - BLUE BOX", "address": {"city": "BOZEMAN", "state": "MT", "street": "2800 W MAIN ST", "postcode": "59718"}}},
{"geometry": {"type": "Point", "coordinates": [-111.1865324884, 45.6576746246]}, "type": "Feature", "properties": {"collection_times": [{"days": "Mon-Sat", "time": "12:00pm"}, {"days": "Sun", "time": "Closed"}], "id": "5971800005", "name": "USPS COLLECTION BOX - BLUE BOX", "address": {"city": "BOZEMAN", "state": "MT", "street": "81555 GALLATIN RD", "postcode": "59718"}}},
{"geometry": {"type": "Point", "coordinates": [-111.0803484873, 45.671173198]}, "type": "Feature", "properties": {"collection_times": [{"days": "Mon-Sat", "time": "10:30am"}, {"days": "Sun", "time": "Closed"}], "id": "5971800008", "name": "USPS COLLECTION BOX - BLUE BOX", "address": {"city": "BOZEMAN", "state": "MT", "street": "2825 W MAIN ST", "postcode": "59718"}}},
{"geometry": {"type": "Point", "coordinates": [-111.0674224177, 45.6764677795]}, "type": "Feature", "properties": {"collection_times": [{"days": "Mon-Sat", "time": "2:00pm"}, {"days": "Sun", "time": "Closed"}], "id": "5971800010", "name": "USPS COLLECTION BOX - BLUE BOX", "address": {"city": "BOZEMAN", "state": "MT", "street": "200 S 23RD AVE", "postcode": "59718"}}},
{"geometry": {"type": "Point", "coordinates": [-111.068235559, 45.7002485525]}, "type": "Feature", "properties": {"collection_times": [{"days": "Mon-Sat", "time": "4:00pm"}, {"days": "Sun", "time": "Closed"}], "id": "5971800014", "name": "USPS COLLECTION BOX - BLUE BOX", "address": {"city": "BOZEMAN", "state": "MT", "street": "2201 BAXTER LN", "postcode": "59718"}}},
{"geometry": {"type": "Point", "coordinates": [-111.068235559, 45.7002485525]}, "type": "Feature", "properties": {"collection_times": [{"days": "Mon-Sat", "time": "4:00pm"}, {"days": "Sun", "time": "Closed"}], "id": "5971800015", "name": "USPS COLLECTION BOX - PO LOBBY", "address": {"city": "BOZEMAN", "state": "MT", "street": "2201 BAXTER LN", "postcode": "59718"}}},
{"geometry": {"type": "Point", "coordinates": [-111.068235559, 45.7002485525]}, "type": "Feature", "properties": {"collection_times": [{"days": "Mon-Sat", "time": "4:00pm"}, {"days": "Sun", "time": "Closed"}], "id": "5971800016", "name": "USPS COLLECTION BOX - PO LOBBY", "address": {"city": "BOZEMAN", "state": "MT", "street": "2201 BAXTER LN", "postcode": "59718"}}},
{"geometry": {"type": "Point", "coordinates": [-111.0929107468, 45.6723473521]}, "type": "Feature", "properties": {"collection_times": [{"days": "Mon-Sat", "time": "9:45am"}, {"days": "Sun", "time": "Closed"}], "id": "5971800018", "name": "USPS COLLECTION BOX - BLUE BOX", "address": {"city": "BOZEMAN", "state": "MT", "street": "4135 VALLEY COMMONS DR", "postcode": "59718"}}},
{"geometry": {"type": "Point", "coordinates": [-111.068235559, 45.7002485525]}, "type": "Feature", "properties": {"collection_times": [{"days": "Mon-Sat", "time": "4:00pm"}, {"days": "Sun", "time": "Closed"}], "id": "5971800019", "name": "USPS COLLECTION BOX - APC", "address": {"city": "BOZEMAN", "state": "MT", "street": "2201 BAXTER LN", "postcode": "59718"}}},
{"geometry": {"type": "Point", "coordinates": [-111.068235559, 45.7002485525]}, "type": "Feature", "properties": {"collection_times": [{"days": "Mon-Sat", "time": "4:00pm"}, {"days": "Sun", "time": "Closed"}], "id": "5971800020", "name": "USPS COLLECTION BOX - PO LOBBY", "address": {"city": "BOZEMAN", "state": "MT", "street": "2201 BAXTER LN", "postcode": "59718"}}},
{"geometry": {"type": "Point", "coordinates": [-111.2034839158, 45.6729947027]}, "type": "Feature", "properties": {"collection_times": [{"days": "Mon-Fri", "time": "3:10pm"}, {"days": "Sat", "time": "1:00pm"}, {"days": "Sun", "time": "Closed"}], "id": "5971800021", "name": "USPS COLLECTION BOX - BLUE BOX", "address": {"city": "BOZEMAN", "state": "MT", "street": "55 MEADOW CENTER DR", "postcode": "59718"}}},
{"geometry": {"type": "Point", "coordinates": [-111.2034839158, 45.6729947027]}, "type": "Feature", "properties": {"collection_times": [{"days": "Mon-Fri", "time": "3:10pm"}, {"days": "Sat", "time": "1:00pm"}, {"days": "Sun", "time": "Closed"}], "id": "5971800022", "name": "USPS COLLECTION BOX - PO LOBBY", "address": {"city": "BOZEMAN", "state": "MT", "street": "55 MEADOW CENTER DR", "postcode": "59718"}}},
{"geometry": {"type": "Point", "coordinates": [-111.2034839158, 45.6729947027]}, "type": "Feature", "properties": {"collection_times": [{"days": "Mon-Fri", "time": "3:10pm"}, {"days": "Sat", "time": "1:00pm"}, {"days": "Sun", "time": "Closed"}], "id": "5971800023", "name": "USPS COLLECTION BOX - PO LOBBY", "address": {"city": "BOZEMAN", "state": "MT", "street": "55 MEADOW CENTER DR", "postcode": "59718"}}},
{"geometry": {"type": "Point", "coordinates": [-111.2034839158, 45.6729947027]}, "type": "Feature", "properties": {"collection_times": [{"days": "Mon-Sat", "time": "3:00pm"}, {"days": "Sun", "time": "Closed"}], "id": "5971800024", "name": "USPS COLLECTION BOX - BLUE BOX", "address": {"city": "BOZEMAN", "state": "MT", "street": "3255 TECHNOLOGY BLVD W", "postcode": "59718"}}},
{"geometry": {"type": "Point", "coordinates": [-111.068235559, 45.7002485525]}, "type": "Feature", "properties": {"collection_times": [{"days": "Mon-Sat", "time": "4:00pm"}, {"days": "Sun", "time": "Closed"}], "id": "5971800025", "name": "USPS COLLECTION BOX - PO LOBBY", "address": {"city": "BOZEMAN", "state": "MT", "street": "2201 BAXTER LN", "postcode": "59718"}}},
{"geometry": {"type": "Point", "coordinates": [-111.068235559, 45.7002485525]}, "type": "Feature", "properties": {"collection_times": [{"days": "Mon-Sat", "time": "4:00pm"}, {"days": "Sun", "time": "Closed"}], "id": "5971800026", "name": "USPS COLLECTION BOX - PO LOBBY", "address": {"city": "BOZEMAN", "state": "MT", "street": "2201 BAXTER LN", "postcode": "59718"}}},
{"geometry": {"type": "Point", "coordinates": [-111.068235559, 45.7002485525]}, "type": "Feature", "properties": {"collection_times": [{"days": "Mon-Sat", "time": "4:00pm"}, {"days": "Sun", "time": "Closed"}], "id": "5971800027", "name": "USPS COLLECTION BOX - PO LOBBY", "address": {"city": "BOZEMAN", "state": "MT", "street": "2201 BAXTER LN", "postcode": "59718"}}},
{"geometry": {"type": "Point", "coordinates": [-111.6790309736, 45.2298620117]}, "type": "Feature", "properties": {"collection_times": [{"days": "Mon-Fri", "time": "1:30pm"}, {"days": "Sat", "time": "11:15am"}, {"days": "Sun", "time": "Closed"}], "id": "5972000000", "name": "USPS COLLECTION BOX - BLUE BOX", "address": {"city": "CAMERON", "state": "MT", "street": "3787 US HIGHWAY 287 N", "postcode": "59720"}}},
{"geometry": {"type": "Point", "coordinates": [-111.6790309736, 45.2298620117]}, "type": "Feature", "properties": {"collection_times": [{"days": "Mon-Fri", "time": "1:30pm"}, {"days": "Sat", "time": "11:30am"}, {"days": "Sun", "time": "Closed"}], "id": "5972000001", "name": "USPS COLLECTION BOX - PO LOBBY", "address": {"city": "CAMERON", "state": "MT", "street": "3787 US HIGHWAY 287 N", "postcode": "59720"}}},
{"geometry": {"type": "Point", "coordinates": [-111.6790309736, 45.2298620117]}, "type": "Feature", "properties": {"collection_times": [{"days": "Mon-Fri", "time": "1:30pm"}, {"days": "Sat", "time": "11:30am"}, {"days": "Sun", "time": "Closed"}], "id": "5972000002", "name": "USPS COLLECTION BOX - PO LOBBY", "address": {"city": "CAMERON", "state": "MT", "street": "3787 US HIGHWAY 287 N", "postcode": "59720"}}},
{"geometry": {"type": "Point", "coordinates": [-111.9531351464, 45.8622820707]}, "type": "Feature", "properties": {"collection_times": [{"days": "Mon-Sat", "time": "2:40pm"}, {"days": "Sun", "time": "Closed"}], "id": "5972100000", "name": "USPS COLLECTION BOX - BLUE BOX", "address": {"city": "CARDWELL", "state": "MT", "street": "58 MT HIGHWAY 359", "postcode": "59721"}}},
{"geometry": {"type": "Point", "coordinates": [-111.9531351464, 45.8622820707]}, "type": "Feature", "properties": {"collection_times": [{"days": "Mon-Fri", "time": "1:00pm"}, {"days": "Sat", "time": "10:45am"}, {"days": "Sun", "time": "Closed"}], "id": "5972100001", "name": "USPS COLLECTION BOX - PO LOBBY", "address": {"city": "CARDWELL", "state": "MT", "street": "58 MT HIGHWAY 359", "postcode": "59721"}}},
{"geometry": {"type": "Point", "coordinates": [-112.7444776566, 46.3765676127]}, "type": "Feature", "properties": {"collection_times": [{"days": "Mon-Sat", "time": "3:15pm"}, {"days": "Sun", "time": "Closed"}], "id": "5972200005", "name": "USPS COLLECTION BOX - BLUE BOX", "address": {"city": "DEER LODGE", "state": "MT", "street": "510 MAIN ST", "postcode": "59722"}}},
{"geometry": {"type": "Point", "coordinates": [-112.7444776566, 46.3765676127]}, "type": "Feature", "properties": {"collection_times": [{"days": "Mon-Fri", "time": "1:10pm"}, {"days": "Sat", "time": "11:00am"}, {"days": "Sun", "time": "Closed"}], "id": "5972200007", "name": "USPS COLLECTION BOX - BLUE BOX", "address": {"city": "DEER LODGE", "state": "MT", "street": "512 GOLD CREEK RD", "postcode": "59722"}}},
{"geometry": {"type": "Point", "coordinates": [-112.7444776566, 46.3765676127]}, "type": "Feature", "properties": {"collection_times": [{"days": "Mon-Fri", "time": "3:15pm"}, {"days": "Sat", "time": "1:00pm"}, {"days": "Sun", "time": "Closed"}], "id": "5972200010", "name": "USPS COLLECTION BOX - PO LOBBY", "address": {"city": "DEER LODGE", "state": "MT", "street": "510 MAIN ST", "postcode": "59722"}}},
{"geometry": {"type": "Point", "coordinates": [-112.7444776566, 46.3765676127]}, "type": "Feature", "properties": {"collection_times": [{"days": "Mon-Sat", "time": "3:15pm"}, {"days": "Sun", "time": "Closed"}], "id": "5972200011", "name": "USPS COLLECTION BOX - BLUE BOX", "address": {"city": "DEER LODGE", "state": "MT", "street": "510 MAIN ST", "postcode": "59722"}}},
{"geometry": {"type": "Point", "coordinates": [-112.6326706929, 45.2215271699]}, "type": "Feature", "properties": {"collection_times": [{"days": "Mon-Sat", "time": "9:30am"}, {"days": "Sun", "time": "Closed"}], "id": "5972500012", "name": "USPS COLLECTION BOX - BLUE BOX", "address": {"city": "DILLON", "state": "MT", "street": "570 N MONTANA ST", "postcode": "59725"}}},
{"geometry": {"type": "Point", "coordinates": [-112.6376059958, 45.2162829702]}, "type": "Feature", "properties": {"collection_times": [{"days": "Mon-Sat", "time": "3:20pm"}, {"days": "Sun", "time": "Closed"}], "id": "5972500014", "name": "USPS COLLECTION BOX - PO LOBBY", "address": {"city": "DILLON", "state": "MT", "street": "117 S IDAHO ST", "postcode": "59725"}}},
{"geometry": {"type": "Point", "coordinates": [-112.643237473, 45.2073839402]}, "type": "Feature", "properties": {"collection_times": [{"days": "Mon-Sat", "time": "2:15pm"}, {"days": "Sun", "time": "Closed"}], "id": "5972500015", "name": "USPS COLLECTION BOX - BLUE BOX", "address": {"city": "DILLON", "state": "MT", "street": "1220 S ATLANTIC ST", "postcode": "59725"}}},
{"geometry": {"type": "Point", "coordinates": [-112.6376059958, 45.2162829702]}, "type": "Feature", "properties": {"collection_times": [{"days": "Mon-Sat", "time": "3:20pm"}, {"days": "Sun", "time": "Closed"}], "id": "5972500016", "name": "USPS COLLECTION BOX - BLUE BOX", "address": {"city": "DILLON", "state": "MT", "street": "117 S IDAHO ST", "postcode": "59725"}}},
{"geometry": {"type": "Point", "coordinates": [-112.6376059958, 45.2162829702]}, "type": "Feature", "properties": {"collection_times": [{"days": "Mon-Sat", "time": "3:20pm"}, {"days": "Sun", "time": "Closed"}], "id": "5972500017", "name": "USPS COLLECTION BOX - BLUE BOX", "address": {"city": "DILLON", "state": "MT", "street": "117 S IDAHO ST", "postcode": "59725"}}},
{"geometry": {"type": "Point", "coordinates": [-112.6376059958, 45.2162829702]}, "type": "Feature", "properties": {"collection_times": [{"days": "Mon-Sat", "time": "3:20pm"}, {"days": "Sun", "time": "Closed"}], "id": "5972500018", "name": "USPS COLLECTION BOX - BLUE BOX", "address": {"city": "DILLON", "state": "MT", "street": "117 S IDAHO ST", "postcode": "59725"}}},
{"geometry": {"type": "Point", "coordinates": [-112.6586290379, 45.2169160598]}, "type": "Feature", "properties": {"collection_times": [{"days": "Mon-Fri", "time": "2:30pm"}, {"days": "Sat", "time": "12:00pm"}, {"days": "Sun", "time": "Closed"}], "id": "5972500020", "name": "USPS COLLECTION BOX - BLUE BOX", "address": {"city": "DILLON", "state": "MT", "street": "24 MAIN ST", "postcode": "59725"}}},
{"geometry": {"type": "Point", "coordinates": [-112.6586290379, 45.2169160598]}, "type": "Feature", "properties": {"collection_times": [{"days": "Mon-Sat", "time": "10:30am"}, {"days": "Sun", "time": "Closed"}], "id": "5972500021", "name": "USPS COLLECTION BOX - BLUE BOX", "address": {"city": "DILLON", "state": "MT", "street": "96 BILLINGS CREEK RD", "postcode": "59725"}}},
{"geometry": {"type": "Point", "coordinates": [-112.6376059958, 45.2162829702]}, "type": "Feature", "properties": {"collection_times": [{"days": "Mon-Sat", "time": "3:20pm"}, {"days": "Sun", "time": "Closed"}], "id": "5972500022", "name": "USPS COLLECTION BOX - PO LOBBY", "address": {"city": "DILLON", "state": "MT", "street": "117 S IDAHO ST", "postcode": "59725"}}},
{"geometry": {"type": "Point", "coordinates": [-112.7541804736, 45.7506123127]}, "type": "Feature", "properties": {"collection_times": [{"days": "Mon-Fri", "time": "4:25pm"}, {"days": "Sat", "time": "9:45am"}, {"days": "Sun", "time": "Closed"}], "id": "5972700000", "name": "USPS COLLECTION BOX - BLUE BOX", "address": {"city": "DIVIDE", "state": "MT", "street": "43 N RIVER RD", "postcode": "59727"}}},
{"geometry": {"type": "Point", "coordinates": [-112.7541804736, 45.7506123127]}, "type": "Feature", "properties": {"collection_times": [{"days": "Mon-Fri", "time": "12:00pm"}, {"days": "Sat", "time": "9:30am"}, {"days": "Sun", "time": "Closed"}], "id": "5972700001", "name": "USPS COLLECTION BOX - PO LOBBY", "address": {"city": "DIVIDE", "state": "MT", "street": "43 N RIVER RD", "postcode": "59727"}}},
{"geometry": {"type": "Point", "coordinates": [-112.7541804736, 45.7506123127]}, "type": "Feature", "properties": {"collection_times": [{"days": "Mon-Fri", "time": "12:00pm"}, {"days": "Sat", "time": "9:30am"}, {"days": "Sun", "time": "Closed"}], "id": "5972700002", "name": "USPS COLLECTION BOX - PO LOBBY", "address": {"city": "DIVIDE", "state": "MT", "street": "43 N RIVER RD", "postcode": "59727"}}},
{"geometry": {"type": "Point", "coordinates": [-112.4302077538, 46.5612173114]}, "type": "Feature", "properties": {"collection_times": [{"days": "Mon-Fri", "time": "2:00pm"}, {"days": "Sat", "time": "11:15am"}, {"days": "Sun", "time": "Closed"}], "id": "5972800000", "name": "USPS COLLECTION BOX - BLUE BOX", "address": {"city": "ELLISTON", "state": "MT", "street": "101 W FRONT ST", "postcode": "59728"}}},
{"geometry": {"type": "Point", "coordinates": [-112.4982154612, 46.5742028985]}, "type": "Feature", "properties": {"collection_times": [{"days": "Mon-Fri", "time": "12:00pm"}, {"days": "Sat", "time": "11:15am"}, {"days": "Sun", "time": "Closed"}], "id": "5972800001", "name": "USPS COLLECTION BOX - PO LOBBY", "address": {"city": "ELLISTON", "state": "MT", "street": "101 W FRONT ST", "postcode": "59728"}}},
{"geometry": {"type": "Point", "coordinates": [-112.4982154612, 46.5742028985]}, "type": "Feature", "properties": {"collection_times": [{"days": "Mon-Fri", "time": "12:00pm"}, {"days": "Sat", "time": "11:15am"}, {"days": "Sun", "time": "Closed"}], "id": "5972800002", "name": "USPS COLLECTION BOX - PO LOBBY", "address": {"city": "ELLISTON", "state": "MT", "street": "101 W FRONT ST", "postcode": "59728"}}},
{"geometry": {"type": "Point", "coordinates": [-111.7331178343, 45.3492098178]}, "type": "Feature", "properties": {"collection_times": [{"days": "Mon-Fri", "time": "1:30pm"}, {"days": "Sat", "time": "12:00pm"}, {"days": "Sun", "time": "Closed"}], "id": "5972900000", "name": "USPS COLLECTION BOX - BLUE BOX", "address": {"city": "ENNIS", "state": "MT", "street": "120 MAIN ST", "postcode": "59729"}}},
{"geometry": {"type": "Point", "coordinates": [-111.7327948971, 45.3495027337]}, "type": "Feature", "properties": {"collection_times": [{"days": "Mon-Fri", "time": "2:00pm"}, {"days": "Sat", "time": "12:00pm"}, {"days": "Sun", "time": "Closed"}], "id": "5972900001", "name": "USPS COLLECTION BOX - BLUE BOX", "address": {"city": "ENNIS", "state": "MT", "street": "81 MT HIGHWAY 287", "postcode": "59729"}}},
{"geometry": {"type": "Point", "coordinates": [-111.7306892722, 45.3982743226]}, "type": "Feature", "properties": {"collection_times": [{"days": "Mon-Sat", "time": "10:00am"}, {"days": "Sun", "time": "Closed"}], "id": "5972900002", "name": "USPS COLLECTION BOX - BLUE BOX", "address": {"city": "ENNIS", "state": "MT", "street": "4979 US HIGHWAY 287 N", "postcode": "59729"}}},
{"geometry": {"type": "Point", "coordinates": [-111.7327948971, 45.3495027337]}, "type": "Feature", "properties": {"collection_times": [{"days": "Mon-Fri", "time": "2:00pm"}, {"days": "Sat", "time": "12:00pm"}, {"days": "Sun", "time": "Closed"}], "id": "5972900003", "name": "USPS COLLECTION BOX - PO LOBBY", "address": {"city": "ENNIS", "state": "MT", "street": "81 MT HIGHWAY 287", "postcode": "59729"}}},
{"geometry": {"type": "Point", "coordinates": [-111.7327948971, 45.3495027337]}, "type": "Feature", "properties": {"collection_times": [{"days": "Mon-Fri", "time": "2:00pm"}, {"days": "Sat", "time": "12:00pm"}, {"days": "Sun", "time": "Closed"}], "id": "5972900005", "name": "USPS COLLECTION BOX - PO LOBBY", "address": {"city": "ENNIS", "state": "MT", "street": "81 MT HIGHWAY 287", "postcode": "59729"}}},
{"geometry": {"type": "Point", "coordinates": [-111.2517579282, 45.3760108531]}, "type": "Feature", "properties": {"collection_times": [{"days": "Mon-Sat", "time": "3:30pm"}, {"days": "Sun", "time": "Closed"}], "id": "5973000000", "name": "USPS COLLECTION BOX - BLUE BOX", "address": {"city": "GALLATIN GTWY", "state": "MT", "street": "4 RABEL LN", "postcode": "59730"}}},
{"geometry": {"type": "Point", "coordinates": [-111.2517579282, 45.3760108531]}, "type": "Feature", "properties": {"collection_times": [{"days": "Mon-Fri", "time": "3:30pm"}, {"days": "Sat", "time": "11:00am"}, {"days": "Sun", "time": "Closed"}], "id": "5973000001", "name": "USPS COLLECTION BOX - PO LOBBY", "address": {"city": "GALLATIN GTWY", "state": "MT", "street": "4 RABEL LN", "postcode": "59730"}}},
{"geometry": {"type": "Point", "coordinates": [-111.2517579282, 45.3760108531]}, "type": "Feature", "properties": {"collection_times": [{"days": "Mon-Fri", "time": "3:30pm"}, {"days": "Sat", "time": "11:00am"}, {"days": "Sun", "time": "Closed"}], "id": "5973000002", "name": "USPS COLLECTION BOX - PO LOBBY", "address": {"city": "GALLATIN GTWY", "state": "MT", "street": "4 RABEL LN", "postcode": "59730"}}},
{"geometry": {"type": "Point", "coordinates": [-111.7709369251, 45.7042420275]}, "type": "Feature", "properties": {"collection_times": [{"days": "Mon-Fri", "time": "1:15pm"}, {"days": "Sat", "time": "12:30pm"}, {"days": "Sun", "time": "Closed"}], "id": "5973500000", "name": "USPS COLLECTION BOX - BLUE BOX", "address": {"city": "HARRISON", "state": "MT", "street": "7552 US HIGHWAY 287 N", "postcode": "59735"}}},
{"geometry": {"type": "Point", "coordinates": [-111.7709369251, 45.7042420275]}, "type": "Feature", "properties": {"collection_times": [{"days": "Mon-Fri", "time": "1:15pm"}, {"days": "Sat", "time": "10:45am"}, {"days": "Sun", "time": "Closed"}], "id": "5973500001", "name": "USPS COLLECTION BOX - PO LOBBY", "address": {"city": "HARRISON", "state": "MT", "street": "7552 US HIGHWAY 287 N", "postcode": "59735"}}},
{"geometry": {"type": "Point", "coordinates": [-111.7709369251, 45.7042420275]}, "type": "Feature", "properties": {"collection_times": [{"days": "Mon-Fri", "time": "1:15pm"}, {"days": "Sat", "time": "10:45am"}, {"days": "Sun", "time": "Closed"}], "id": "5973500002", "name": "USPS COLLECTION BOX - PO LOBBY", "address": {"city": "HARRISON", "state": "MT", "street": "7552 US HIGHWAY 287 N", "postcode": "59735"}}},
{"geometry": {"type": "Point", "coordinates": [-113.4526874663, 45.3981665746]}, "type": "Feature", "properties": {"collection_times": [{"days": "Mon-Sat", "time": "12:45pm"}, {"days": "Sun", "time": "Closed"}], "id": "5973600000", "name": "USPS COLLECTION BOX - PO LOBBY", "address": {"city": "JACKSON", "state": "MT", "street": "1 JARDINE ST", "postcode": "59736"}}},
{"geometry": {"type": "Point", "coordinates": [-112.27566938, 44.7328797302]}, "type": "Feature", "properties": {"collection_times": [{"days": "Mon-Fri", "time": "2:05pm"}, {"days": "Sat", "time": "10:45am"}, {"days": "Sun", "time": "Closed"}], "id": "5973900000", "name": "USPS COLLECTION BOX - BLUE BOX", "address": {"city": "LIMA", "state": "MT", "street": "700 PEAT ST", "postcode": "59739"}}},
{"geometry": {"type": "Point", "coordinates": [-112.27566938, 44.7328797302]}, "type": "Feature", "properties": {"collection_times": [{"days": "Mon-Fri", "time": "2:05pm"}, {"days": "Sat", "time": "10:45am"}, {"days": "Sun", "time": "Closed"}], "id": "5973900001", "name": "USPS COLLECTION BOX - PO LOBBY", "address": {"city": "LIMA", "state": "MT", "street": "700 PEAT ST", "postcode": "59739"}}},
{"geometry": {"type": "Point", "coordinates": [-112.27566938, 44.7328797302]}, "type": "Feature", "properties": {"collection_times": [{"days": "Mon-Fri", "time": "2:05pm"}, {"days": "Sat", "time": "10:45am"}, {"days": "Sun", "time": "Closed"}], "id": "5973900002", "name": "USPS COLLECTION BOX - PO LOBBY", "address": {"city": "LIMA", "state": "MT", "street": "700 PEAT ST", "postcode": "59739"}}},
{"geometry": {"type": "Point", "coordinates": [-112.1335090531, 44.5976467359]}, "type": "Feature", "properties": {"collection_times": [{"days": "Mon-Sat", "time": "2:00pm"}, {"days": "Sun", "time": "Closed"}], "id": "5973900003", "name": "USPS COLLECTION BOX - BLUE BOX", "address": {"city": "LIMA", "state": "MT", "street": "PO BOX 206", "postcode": "59739"}}},
{"geometry": {"type": "Point", "coordinates": [-111.7314533096, 45.4444372801]}, "type": "Feature", "properties": {"collection_times": [{"days": "Mon-Fri", "time": "1:45pm"}, {"days": "Sat", "time": "9:45am"}, {"days": "Sun", "time": "Closed"}], "id": "5974000000", "name": "USPS COLLECTION BOX - BLUE BOX", "address": {"city": "MC ALLISTER", "state": "MT", "street": "5557 US HIGHWAY 287", "postcode": "59740"}}},
{"geometry": {"type": "Point", "coordinates": [-111.7314533096, 45.4444372801]}, "type": "Feature", "properties": {"collection_times": [{"days": "Mon-Fri", "time": "1:45pm"}, {"days": "Sat", "time": "10:00am"}, {"days": "Sun", "time": "Closed"}], "id": "5974000001", "name": "USPS COLLECTION BOX - PO LOBBY", "address": {"city": "MC ALLISTER", "state": "MT", "street": "5557 US HIGHWAY 287", "postcode": "59740"}}},
{"geometry": {"type": "Point", "coordinates": [-111.7314533096, 45.4444372801]}, "type": "Feature", "properties": {"collection_times": [{"days": "Mon-Fri", "time": "1:45pm"}, {"days": "Sat", "time": "10:00am"}, {"days": "Sun", "time": "Closed"}], "id": "5974000002", "name": "USPS COLLECTION BOX - PO LOBBY", "address": {"city": "MC ALLISTER", "state": "MT", "street": "5557 US HIGHWAY 287", "postcode": "59740"}}},
{"geometry": {"type": "Point", "coordinates": [-111.3332673652, 45.8565432013]}, "type": "Feature", "properties": {"collection_times": [{"days": "Mon-Sat", "time": "11:00am"}, {"days": "Sun", "time": "Closed"}], "id": "5974100000", "name": "USPS COLLECTION BOX - BLUE BOX", "address": {"city": "MANHATTAN", "state": "MT", "street": "120 W MAIN ST", "postcode": "59741"}}},
{"geometry": {"type": "Point", "coordinates": [-111.3332346746, 45.8579406398]}, "type": "Feature", "properties": {"collection_times": [{"days": "Mon-Fri", "time": "3:50pm"}, {"days": "Sat", "time": "10:00am"}, {"days": "Sun", "time": "Closed"}], "id": "5974100002", "name": "USPS COLLECTION BOX - PO LOBBY", "address": {"city": "MANHATTAN", "state": "MT", "street": "201 N RAILROAD AVE E", "postcode": "59741"}}},
{"geometry": {"type": "Point", "coordinates": [-111.3332346746, 45.8579406398]}, "type": "Feature", "properties": {"collection_times": [{"days": "Mon-Sat", "time": "3:50pm"}, {"days": "Sun", "time": "Closed"}], "id": "5974100003", "name": "USPS COLLECTION BOX - BLUE BOX", "address": {"city": "MANHATTAN", "state": "MT", "street": "201 N RAILROAD AVE E", "postcode": "59741"}}},
{"geometry": {"type": "Point", "coordinates": [-111.3332346746, 45.8579406398]}, "type": "Feature", "properties": {"collection_times": [{"days": "Mon-Sat", "time": "3:50pm"}, {"days": "Sun", "time": "Closed"}], "id": "5974100004", "name": "USPS COLLECTION BOX - BLUE BOX", "address": {"city": "MANHATTAN", "state": "MT", "street": "201 N RAILROAD AVE E", "postcode": "59741"}}},
{"geometry": {"type": "Point", "coordinates": [-111.3332346746, 45.8579406398]}, "type": "Feature", "properties": {"collection_times": [{"days": "Mon-Fri", "time": "3:50pm"}, {"days": "Sat", "time": "10:00am"}, {"days": "Sun", "time": "Closed"}], "id": "5974100005", "name": "USPS COLLECTION BOX - PO LOBBY", "address": {"city": "MANHATTAN", "state": "MT", "street": "201 N RAILROAD AVE E", "postcode": "59741"}}},
{"geometry": {"type": "Point", "coordinates": [-111.3332346746, 45.8579406398]}, "type": "Feature", "properties": {"collection_times": [{"days": "Mon-Fri", "time": "3:50pm"}, {"days": "Sat", "time": "10:00am"}, {"days": "Sun", "time": "Closed"}], "id": "5974100006", "name": "USPS COLLECTION BOX - PO LOBBY", "address": {"city": "MANHATTAN", "state": "MT", "street": "201 N RAILROAD AVE E", "postcode": "59741"}}},
{"geometry": {"type": "Point", "coordinates": [-111.3332346746, 45.8579406398]}, "type": "Feature", "properties": {"collection_times": [{"days": "Mon-Fri", "time": "3:50pm"}, {"days": "Sat", "time": "10:00am"}, {"days": "Sun", "time": "Closed"}], "id": "5974100007", "name": "USPS COLLECTION BOX - PO LOBBY", "address": {"city": "MANHATTAN", "state": "MT", "street": "201 N RAILROAD AVE E", "postcode": "59741"}}},
{"geometry": {"type": "Point", "coordinates": [-111.3097260519, 45.7733195072]}, "type": "Feature", "properties": {"collection_times": [{"days": "Mon-Sat", "time": "11:00am"}, {"days": "Sun", "time": "Closed"}], "id": "5974100008", "name": "USPS COLLECTION BOX - BLUE BOX", "address": {"city": "MANHATTAN", "state": "MT", "street": "7175 CHURCHILL RD", "postcode": "59741"}}},
{"geometry": {"type": "Point", "coordinates": [-112.683735885, 45.6282314501]}, "type": "Feature", "properties": {"collection_times": [{"days": "Mon-Fri", "time": "4:10pm"}, {"days": "Sat", "time": "1:00pm"}, {"days": "Sun", "time": "Closed"}], "id": "5974300000", "name": "USPS COLLECTION BOX - BLUE BOX", "address": {"city": "MELROSE", "state": "MT", "street": "228 MAIN ST", "postcode": "59743"}}},
{"geometry": {"type": "Point", "coordinates": [-112.683735885, 45.6282314501]}, "type": "Feature", "properties": {"collection_times": [{"days": "Mon-Fri", "time": "1:00pm"}, {"days": "Sat", "time": "10:45am"}, {"days": "Sun", "time": "Closed"}], "id": "5974300001", "name": "USPS COLLECTION BOX - PO LOBBY", "address": {"city": "MELROSE", "state": "MT", "street": "228 MAIN ST", "postcode": "59743"}}},
{"geometry": {"type": "Point", "coordinates": [-112.683735885, 45.6282314501]}, "type": "Feature", "properties": {"collection_times": [{"days": "Mon-Fri", "time": "1:00pm"}, {"days": "Sat", "time": "10:45am"}, {"days": "Sun", "time": "Closed"}], "id": "5974300002", "name": "USPS COLLECTION BOX - PO LOBBY", "address": {"city": "MELROSE", "state": "MT", "street": "228 MAIN ST", "postcode": "59743"}}},
{"geometry": {"type": "Point", "coordinates": [-111.7824452837, 45.5351799773]}, "type": "Feature", "properties": {"collection_times": [{"days": "Mon-Fri", "time": "1:30pm"}, {"days": "Sat", "time": "11:20am"}, {"days": "Sun", "time": "Closed"}], "id": "5974500000", "name": "USPS COLLECTION BOX - BLUE BOX", "address": {"city": "NORRIS", "state": "MT", "street": "6536 US HIGHWAY 287", "postcode": "59745"}}},
{"geometry": {"type": "Point", "coordinates": [-111.7824452837, 45.5351799773]}, "type": "Feature", "properties": {"collection_times": [{"days": "Mon-Fri", "time": "1:30pm"}, {"days": "Sat", "time": "11:20am"}, {"days": "Sun", "time": "Closed"}], "id": "5974500001", "name": "USPS COLLECTION BOX - PO LOBBY", "address": {"city": "NORRIS", "state": "MT", "street": "6536 US HIGHWAY 287", "postcode": "59745"}}},
{"geometry": {"type": "Point", "coordinates": [-111.8920865612, 45.6587691751]}, "type": "Feature", "properties": {"collection_times": [{"days": "Mon-Fri", "time": "1:05pm"}, {"days": "Sat", "time": "10:40am"}, {"days": "Sun", "time": "Closed"}], "id": "5974700000", "name": "USPS COLLECTION BOX - BLUE BOX", "address": {"city": "PONY", "state": "MT", "street": "3 REEL ST", "postcode": "59747"}}},
{"geometry": {"type": "Point", "coordinates": [-111.8920865612, 45.6587691751]}, "type": "Feature", "properties": {"collection_times": [{"days": "Mon-Fri", "time": "12:00pm"}, {"days": "Sat", "time": "10:40am"}, {"days": "Sun", "time": "Closed"}], "id": "5974700001", "name": "USPS COLLECTION BOX - PO LOBBY", "address": {"city": "PONY", "state": "MT", "street": "3 REEL ST", "postcode": "59747"}}},
{"geometry": {"type": "Point", "coordinates": [-111.8920865612, 45.6587691751]}, "type": "Feature", "properties": {"collection_times": [{"days": "Mon-Fri", "time": "12:00pm"}, {"days": "Sat", "time": "10:40am"}, {"days": "Sun", "time": "Closed"}], "id": "5974700002", "name": "USPS COLLECTION BOX - PO LOBBY", "address": {"city": "PONY", "state": "MT", "street": "3 REEL ST", "postcode": "59747"}}},
{"geometry": {"type": "Point", "coordinates": [-112.6919466016, 46.0950971429]}, "type": "Feature", "properties": {"collection_times": [{"days": "Mon-Fri", "time": "4:45pm"}, {"days": "Sat", "time": "9:45am"}, {"days": "Sun", "time": "Closed"}], "id": "5974800000", "name": "USPS COLLECTION BOX - BLUE BOX", "address": {"city": "RAMSAY", "state": "MT", "street": "1 BEULAH ST", "postcode": "59748"}}},
{"geometry": {"type": "Point", "coordinates": [-112.6919466016, 46.0950971429]}, "type": "Feature", "properties": {"collection_times": [{"days": "Mon-Fri", "time": "4:00pm"}, {"days": "Sat", "time": "9:45am"}, {"days": "Sun", "time": "Closed"}], "id": "5974800001", "name": "USPS COLLECTION BOX - PO LOBBY", "address": {"city": "RAMSAY", "state": "MT", "street": "1 BEULAH ST", "postcode": "59748"}}},
{"geometry": {"type": "Point", "coordinates": [-112.6919466016, 46.0950971429]}, "type": "Feature", "properties": {"collection_times": [{"days": "Mon-Fri", "time": "4:00pm"}, {"days": "Sat", "time": "9:45am"}, {"days": "Sun", "time": "Closed"}], "id": "5974800002", "name": "USPS COLLECTION BOX - PO LOBBY", "address": {"city": "RAMSAY", "state": "MT", "street": "1 BEULAH ST", "postcode": "59748"}}},
{"geometry": {"type": "Point", "coordinates": [-112.1970419339, 45.4553712014]}, "type": "Feature", "properties": {"collection_times": [{"days": "Mon-Fri", "time": "3:00pm"}, {"days": "Sat", "time": "2:00pm"}, {"days": "Sun", "time": "Closed"}], "id": "5974900000", "name": "USPS COLLECTION BOX - BLUE BOX", "address": {"city": "SHERIDAN", "state": "MT", "street": "208 S MAIN ST", "postcode": "59749"}}},
{"geometry": {"type": "Point", "coordinates": [-112.1970419339, 45.4553712014]}, "type": "Feature", "properties": {"collection_times": [{"days": "Mon-Fri", "time": "3:00pm"}, {"days": "Sat", "time": "10:00am"}, {"days": "Sun", "time": "Closed"}], "id": "5974900001", "name": "USPS COLLECTION BOX - PO LOBBY", "address": {"city": "SHERIDAN", "state": "MT", "street": "208 S MAIN ST", "postcode": "59749"}}},
{"geometry": {"type": "Point", "coordinates": [-112.1970419339, 45.4553712014]}, "type": "Feature", "properties": {"collection_times": [{"days": "Mon-Fri", "time": "3:00pm"}, {"days": "Sat", "time": "10:00am"}, {"days": "Sun", "time": "Closed"}], "id": "5974900002", "name": "USPS COLLECTION BOX - PO LOBBY", "address": {"city": "SHERIDAN", "state": "MT", "street": "208 S MAIN ST", "postcode": "59749"}}},
{"geometry": {"type": "Point", "coordinates": [-111.5558544017, 45.8940698405]}, "type": "Feature", "properties": {"collection_times": [{"days": "Mon-Sat", "time": "3:15pm"}, {"days": "Sun", "time": "Closed"}], "id": "5975200001", "name": "USPS COLLECTION BOX - BLUE BOX", "address": {"city": "THREE FORKS", "state": "MT", "street": "9 E FRONT ST", "postcode": "59752"}}},
{"geometry": {"type": "Point", "coordinates": [-111.5558544017, 45.8940698405]}, "type": "Feature", "properties": {"collection_times": [{"days": "Mon-Fri", "time": "3:15pm"}, {"days": "Sat", "time": "11:00am"}, {"days": "Sun", "time": "Closed"}], "id": "5975200002", "name": "USPS COLLECTION BOX - PO LOBBY", "address": {"city": "THREE FORKS", "state": "MT", "street": "9 E FRONT ST", "postcode": "59752"}}},
{"geometry": {"type": "Point", "coordinates": [-111.5558544017, 45.8940698405]}, "type": "Feature", "properties": {"collection_times": [{"days": "Mon-Fri", "time": "3:15pm"}, {"days": "Sat", "time": "11:00am"}, {"days": "Sun", "time": "Closed"}], "id": "5975200003", "name": "USPS COLLECTION BOX - PO LOBBY", "address": {"city": "THREE FORKS", "state": "MT", "street": "9 E FRONT ST", "postcode": "59752"}}},
{"geometry": {"type": "Point", "coordinates": [-111.5558544017, 45.8940698405]}, "type": "Feature", "properties": {"collection_times": [{"days": "Mon-Fri", "time": "3:15pm"}, {"days": "Sat", "time": "11:00am"}, {"days": "Sun", "time": "Closed"}], "id": "5975200004", "name": "USPS COLLECTION BOX - PO LOBBY", "address": {"city": "THREE FORKS", "state": "MT", "street": "9 E FRONT ST", "postcode": "59752"}}},
{"geometry": {"type": "Point", "coordinates": [-111.5558544017, 45.8940698405]}, "type": "Feature", "properties": {"collection_times": [{"days": "Mon-Fri", "time": "3:15pm"}, {"days": "Sat", "time": "11:00am"}, {"days": "Sun", "time": "Closed"}], "id": "5975200005", "name": "USPS COLLECTION BOX - PO LOBBY", "address": {"city": "THREE FORKS", "state": "MT", "street": "9 E FRONT ST", "postcode": "59752"}}},
{"geometry": {"type": "Point", "coordinates": [-112.3310971923, 45.5449429709]}, "type": "Feature", "properties": {"collection_times": [{"days": "Mon-Fri", "time": "3:15pm"}, {"days": "Sat", "time": "1:00pm"}, {"days": "Sun", "time": "Closed"}], "id": "5975400000", "name": "USPS COLLECTION BOX - BLUE BOX", "address": {"city": "TWIN BRIDGES", "state": "MT", "street": "101 S MAIN", "postcode": "59754"}}},
{"geometry": {"type": "Point", "coordinates": [-112.3310971923, 45.5449429709]}, "type": "Feature", "properties": {"collection_times": [{"days": "Mon-Fri", "time": "3:15pm"}, {"days": "Sat", "time": "9:30am"}, {"days": "Sun", "time": "Closed"}], "id": "5975400001", "name": "USPS COLLECTION BOX - PO LOBBY", "address": {"city": "TWIN BRIDGES", "state": "MT", "street": "101 S MAIN", "postcode": "59754"}}},
{"geometry": {"type": "Point", "coordinates": [-112.3310971923, 45.5449429709]}, "type": "Feature", "properties": {"collection_times": [{"days": "Mon-Fri", "time": "3:15pm"}, {"days": "Sat", "time": "9:30am"}, {"days": "Sun", "time": "Closed"}], "id": "5975400002", "name": "USPS COLLECTION BOX - PO LOBBY", "address": {"city": "TWIN BRIDGES", "state": "MT", "street": "101 S MAIN", "postcode": "59754"}}},
{"geometry": {"type": "Point", "coordinates": [-112.3604356555, 45.473058479]}, "type": "Feature", "properties": {"collection_times": [{"days": "Mon-Fri", "time": "3:00pm"}, {"days": "Sat", "time": "12:30pm"}, {"days": "Sun", "time": "Closed"}], "id": "5975400003", "name": "USPS COLLECTION BOX - BLUE BOX", "address": {"city": "TWIN BRIDGES", "state": "MT", "street": "5342 MT HIGHWAY 41 N", "postcode": "59754"}}},
{"geometry": {"type": "Point", "coordinates": [-111.9427041542, 45.2939729623]}, "type": "Feature", "properties": {"collection_times": [{"days": "Mon-Fri", "time": "2:20pm"}, {"days": "Sat", "time": "1:30pm"}, {"days": "Sun", "time": "Closed"}], "id": "5975500000", "name": "USPS COLLECTION BOX - BLUE BOX", "address": {"city": "VIRGINIA CITY", "state": "MT", "street": "209 W WALLACE", "postcode": "59755"}}},
{"geometry": {"type": "Point", "coordinates": [-111.9427041542, 45.2939729623]}, "type": "Feature", "properties": {"collection_times": [{"days": "Mon-Fri", "time": "12:30pm"}, {"days": "Sat", "time": "9:45am"}, {"days": "Sun", "time": "Closed"}], "id": "5975500001", "name": "USPS COLLECTION BOX - PO LOBBY", "address": {"city": "VIRGINIA CITY", "state": "MT", "street": "209 W WALLACE", "postcode": "59755"}}},
{"geometry": {"type": "Point", "coordinates": [-112.6667944445, 46.2032629267]}, "type": "Feature", "properties": {"collection_times": [{"days": "Mon-Sat", "time": "3:40pm"}, {"days": "Sun", "time": "Closed"}], "id": "5975600000", "name": "USPS COLLECTION BOX - BLUE BOX", "address": {"city": "WARM SPRINGS", "state": "MT", "street": "22 GARNET WAY", "postcode": "59756"}}},
{"geometry": {"type": "Point", "coordinates": [-112.6667944445, 46.2032629267]}, "type": "Feature", "properties": {"collection_times": [{"days": "Mon-Fri", "time": "1:30pm"}, {"days": "Sat", "time": "9:15am"}, {"days": "Sun", "time": "Closed"}], "id": "5975600001", "name": "USPS COLLECTION BOX - PO LOBBY", "address": {"city": "WARM SPRINGS", "state": "MT", "street": "22 GARNET WAY", "postcode": "59756"}}},
{"geometry": {"type": "Point", "coordinates": [-112.6667944445, 46.2032629267]}, "type": "Feature", "properties": {"collection_times": [{"days": "Mon-Fri", "time": "1:30pm"}, {"days": "Sat", "time": "9:15am"}, {"days": "Sun", "time": "Closed"}], "id": "5975600002", "name": "USPS COLLECTION BOX - PO LOBBY", "address": {"city": "WARM SPRINGS", "state": "MT", "street": "22 GARNET WAY", "postcode": "59756"}}},
{"geometry": {"type": "Point", "coordinates": [-111.1028995381, 44.6563939919]}, "type": "Feature", "properties": {"collection_times": [{"days": "Mon-Sat", "time": "1:45pm"}, {"days": "Sun", "time": "Closed"}], "id": "5975800003", "name": "USPS COLLECTION BOX - PO LOBBY", "address": {"city": "W YELLOWSTONE", "state": "MT", "street": "209 GRIZZLY AVE", "postcode": "59758"}}},
{"geometry": {"type": "Point", "coordinates": [-111.1028995381, 44.6563939919]}, "type": "Feature", "properties": {"collection_times": [{"days": "Mon-Sat", "time": "11:30am"}, {"days": "Sun", "time": "Closed"}], "id": "5975800004", "name": "USPS COLLECTION BOX - PO LOBBY", "address": {"city": "W YELLOWSTONE", "state": "MT", "street": "209 GRIZZLY AVE", "postcode": "59758"}}},
{"geometry": {"type": "Point", "coordinates": [-111.1028995381, 44.6563939919]}, "type": "Feature", "properties": {"collection_times": [{"days": "Mon-Sat", "time": "1:45pm"}, {"days": "Sun", "time": "Closed"}], "id": "5975800005", "name": "USPS COLLECTION BOX - PO LOBBY", "address": {"city": "W YELLOWSTONE", "state": "MT", "street": "209 GRIZZLY AVE", "postcode": "59758"}}},
{"geometry": {"type": "Point", "coordinates": [-111.1028995381, 44.6563939919]}, "type": "Feature", "properties": {"collection_times": [{"days": "Mon-Sat", "time": "1:45pm"}, {"days": "Sun", "time": "Closed"}], "id": "5975800006", "name": "USPS COLLECTION BOX - PO LOBBY", "address": {"city": "W YELLOWSTONE", "state": "MT", "street": "209 GRIZZLY AVE", "postcode": "59758"}}},
{"geometry": {"type": "Point", "coordinates": [-111.1028995381, 44.6563939919]}, "type": "Feature", "properties": {"collection_times": [{"days": "Mon-Sat", "time": "1:45pm"}, {"days": "Sun", "time": "Closed"}], "id": "5975800007", "name": "USPS COLLECTION BOX - PO LOBBY", "address": {"city": "W YELLOWSTONE", "state": "MT", "street": "209 GRIZZLY AVE", "postcode": "59758"}}},
{"geometry": {"type": "Point", "coordinates": [-111.1028995381, 44.6563939919]}, "type": "Feature", "properties": {"collection_times": [{"days": "Mon-Sat", "time": "1:45pm"}, {"days": "Sun", "time": "Closed"}], "id": "5975800011", "name": "USPS COLLECTION BOX - PO LOBBY", "address": {"city": "W YELLOWSTONE", "state": "MT", "street": "209 GRIZZLY AVE", "postcode": "59758"}}},
{"geometry": {"type": "Point", "coordinates": [-111.1028995381, 44.6563939919]}, "type": "Feature", "properties": {"collection_times": [{"days": "Mon-Sat", "time": "11:30am"}, {"days": "Sun", "time": "Closed"}], "id": "5975800012", "name": "USPS COLLECTION BOX - PO LOBBY", "address": {"city": "W YELLOWSTONE", "state": "MT", "street": "209 GRIZZLY AVE", "postcode": "59758"}}},
{"geometry": {"type": "Point", "coordinates": [-111.1028995381, 44.6563939919]}, "type": "Feature", "properties": {"collection_times": [{"days": "Mon-Sat", "time": "1:45pm"}, {"days": "Sun", "time": "Closed"}], "id": "5975800013", "name": "USPS COLLECTION BOX - PO LOBBY", "address": {"city": "W YELLOWSTONE", "state": "MT", "street": "209 GRIZZLY AVE", "postcode": "59758"}}},
{"geometry": {"type": "Point", "coordinates": [-112.0993881683, 45.8699314288]}, "type": "Feature", "properties": {"collection_times": [{"days": "Mon-Fri", "time": "3:55pm"}, {"days": "Sat", "time": "2:15pm"}, {"days": "Sun", "time": "Closed"}], "id": "5975900000", "name": "USPS COLLECTION BOX - BLUE BOX", "address": {"city": "WHITEHALL", "state": "MT", "street": "15 N MAIN ST", "postcode": "59759"}}},
{"geometry": {"type": "Point", "coordinates": [-112.0993881683, 45.8699314288]}, "type": "Feature", "properties": {"collection_times": [{"days": "Mon-Fri", "time": "3:55pm"}, {"days": "Sat", "time": "9:30am"}, {"days": "Sun", "time": "Closed"}], "id": "5975900001", "name": "USPS COLLECTION BOX - PO LOBBY", "address": {"city": "WHITEHALL", "state": "MT", "street": "15 N MAIN ST", "postcode": "59759"}}},
{"geometry": {"type": "Point", "coordinates": [-112.0993881683, 45.8699314288]}, "type": "Feature", "properties": {"collection_times": [{"days": "Mon-Fri", "time": "3:55pm"}, {"days": "Sat", "time": "9:30am"}, {"days": "Sun", "time": "Closed"}], "id": "5975900002", "name": "USPS COLLECTION BOX - PO LOBBY", "address": {"city": "WHITEHALL", "state": "MT", "street": "15 N MAIN ST", "postcode": "59759"}}},
{"geometry": {"type": "Point", "coordinates": [-112.0993881683, 45.8699314288]}, "type": "Feature", "properties": {"collection_times": [{"days": "Mon-Fri", "time": "3:55pm"}, {"days": "Sat", "time": "9:30am"}, {"days": "Sun", "time": "Closed"}], "id": "5975900003", "name": "USPS COLLECTION BOX - PO LOBBY", "address": {"city": "WHITEHALL", "state": "MT", "street": "15 N MAIN ST", "postcode": "59759"}}},
{"geometry": {"type": "Point", "coordinates": [-112.0993881683, 45.8699314288]}, "type": "Feature", "properties": {"collection_times": [{"days": "Mon-Fri", "time": "3:55pm"}, {"days": "Sat", "time": "9:30am"}, {"days": "Sun", "time": "Closed"}], "id": "5975900004", "name": "USPS COLLECTION BOX - PO LOBBY", "address": {"city": "WHITEHALL", "state": "MT", "street": "15 N MAIN ST", "postcode": "59759"}}},
{"geometry": {"type": "Point", "coordinates": [-111.6449544972, 45.827887264]}, "type": "Feature", "properties": {"collection_times": [{"days": "Mon-Fri", "time": "3:00pm"}, {"days": "Sat", "time": "10:15am"}, {"days": "Sun", "time": "Closed"}], "id": "5976000000", "name": "USPS COLLECTION BOX - BLUE BOX", "address": {"city": "WILLOW CREEK", "state": "MT", "street": "14 MAIN ST", "postcode": "59760"}}},
{"geometry": {"type": "Point", "coordinates": [-111.6449544972, 45.827887264]}, "type": "Feature", "properties": {"collection_times": [{"days": "Mon-Fri", "time": "12:00pm"}, {"days": "Sat", "time": "10:15am"}, {"days": "Sun", "time": "Closed"}], "id": "5976000001", "name": "USPS COLLECTION BOX - PO LOBBY", "address": {"city": "WILLOW CREEK", "state": "MT", "street": "14 MAIN ST", "postcode": "59760"}}},
{"geometry": {"type": "Point", "coordinates": [-111.6449544972, 45.827887264]}, "type": "Feature", "properties": {"collection_times": [{"days": "Mon-Fri", "time": "12:00pm"}, {"days": "Sat", "time": "10:15am"}, {"days": "Sun", "time": "Closed"}], "id": "5976000002", "name": "USPS COLLECTION BOX - PO LOBBY", "address": {"city": "WILLOW CREEK", "state": "MT", "street": "14 MAIN ST", "postcode": "59760"}}},
{"geometry": {"type": "Point", "coordinates": [-113.5465473658, 45.7081193498]}, "type": "Feature", "properties": {"collection_times": [{"days": "Mon-Sat", "time": "11:45am"}, {"days": "Sun", "time": "Closed"}], "id": "5976100000", "name": "USPS COLLECTION BOX - BLUE BOX", "address": {"city": "WISDOM", "state": "MT", "street": "200 MAIN ST", "postcode": "59761"}}},
{"geometry": {"type": "Point", "coordinates": [-113.5465473658, 45.7081193498]}, "type": "Feature", "properties": {"collection_times": [{"days": "Mon-Sat", "time": "11:45am"}, {"days": "Sun", "time": "Closed"}], "id": "5976100001", "name": "USPS COLLECTION BOX - PO LOBBY", "address": {"city": "WISDOM", "state": "MT", "street": "200 MAIN ST", "postcode": "59761"}}},
{"geometry": {"type": "Point", "coordinates": [-112.8061220862, 45.7612651584]}, "type": "Feature", "properties": {"collection_times": [{"days": "Mon-Sat", "time": "9:00am"}, {"days": "Sun", "time": "Closed"}], "id": "5976200000", "name": "USPS COLLECTION BOX - BLUE BOX", "address": {"city": "WISE RIVER", "state": "MT", "street": "65209 MT HIGHWAY 43", "postcode": "59762"}}},
{"geometry": {"type": "Point", "coordinates": [-112.8061220862, 45.7612651584]}, "type": "Feature", "properties": {"collection_times": [{"days": "Mon-Sat", "time": "9:00am"}, {"days": "Sun", "time": "Closed"}], "id": "5976200001", "name": "USPS COLLECTION BOX - PO LOBBY", "address": {"city": "WISE RIVER", "state": "MT", "street": "65209 MT HIGHWAY 43", "postcode": "59762"}}}
]}
