{"type": "FeatureCollection", "features": [
{"geometry": {"type": "Point", "coordinates": [-114.0110668741, 46.8532872569]}, "type": "Feature", "properties": {"collection_times": [{"days": "Mon-Fri", "time": "5:00pm"}, {"days": "Sat", "time": "2:15pm"}, {"days": "Sun", "time": "Closed"}], "id": "5980100001", "name": "USPS COLLECTION BOX - BLUE BOX", "address": {"city": "MISSOULA", "state": "MT", "street": "1900 BROOKS ST", "postcode": "59801"}}},
{"geometry": {"type": "Point", "coordinates": [-114.0234801405, 46.8449860072]}, "type": "Feature", "properties": {"collection_times": [{"days": "Mon-Fri", "time": "5:30pm"}, {"days": "Sat", "time": "1:45pm"}, {"days": "Sun", "time": "Closed"}], "id": "5980100011", "name": "USPS COLLECTION BOX - BLUE BOX", "address": {"city": "MISSOULA", "state": "MT", "street": "2814 BROOKS ST", "postcode": "59801"}}},
{"geometry": {"type": "Point", "coordinates": [-114.0166419689, 46.8506511141]}, "type": "Feature", "properties": {"collection_times": [{"days": "Mon-Fri", "time": "5:45pm"}, {"days": "Sat", "time": "2:15pm"}, {"days": "Sun", "time": "Closed"}], "id": "5980100012", "name": "USPS COLLECTION BOX - BLUE BOX", "address": {"city": "MISSOULA", "state": "MT", "street": "2201 OXFORD ST", "postcode": "59801"}}},
{"geometry": {"type": "Point", "coordinates": [-114.0156804844, 46.8516063888]}, "type": "Feature", "properties": {"collection_times": [{"days": "Mon-Sat", "time": "8:00pm"}, {"days": "Sun", "time": "Closed"}], "id": "5980100051", "name": "USPS COLLECTION BOX - BLUE BOX", "address": {"city": "MISSOULA", "state": "MT", "street": "1100 W KENT AVE", "postcode": "59801"}}},
{"geometry": {"type": "Point", "coordinates": [-113.9891646245, 46.8590773952]}, "type": "Feature", "properties": {"collection_times": [{"days": "Mon-Fri", "time": "5:00pm"}, {"days": "Sat", "time": "2:15pm"}, {"days": "Sun", "time": "Closed"}], "id": "5980100055", "name": "USPS COLLECTION BOX - BLUE BOX", "address": {"city": "MISSOULA", "state": "MT", "street": "1200 ARTHUR AVE", "postcode": "59801"}}},
{"geometry": {"type": "Point", "coordinates": [-113.9973485814, 46.8606829644]}, "type": "Feature", "properties": {"collection_times": [{"days": "Mon-Fri", "time": "3:00pm"}, {"days": "Sat", "time": "2:15pm"}, {"days": "Sun", "time": "Closed"}], "id": "5980100056", "name": "USPS COLLECTION BOX - BLUE BOX", "address": {"city": "MISSOULA", "state": "MT", "street": "1140 SW HIGGINS AVE", "postcode": "59801"}}},
{"geometry": {"type": "Point", "coordinates": [-114.0035058783, 46.8647319582]}, "type": "Feature", "properties": {"collection_times": [{"days": "Mon-Fri", "time": "3:15pm"}, {"days": "Sat", "time": "3:45pm"}, {"days": "Sun", "time": "Closed"}], "id": "5980100059", "name": "USPS COLLECTION BOX - BLUE BOX", "address": {"city": "MISSOULA", "state": "MT", "street": "701 S ORANGE ST", "postcode": "59801"}}},
{"geometry": {"type": "Point", "coordinates": [-114.0396298962, 46.8494268351]}, "type": "Feature", "properties": {"collection_times": [{"days": "Mon-Fri", "time": "5:15pm"}, {"days": "Sat", "time": "4:00pm"}, {"days": "Sun", "time": "Closed"}], "id": "5980100060", "name": "USPS COLLECTION BOX - BLUE BOX", "address": {"city": "MISSOULA", "state": "MT", "street": "2350 S RESERVE ST", "postcode": "59801"}}},
{"geometry": {"type": "Point", "coordinates": [-114.0246774782, 46.8443754265]}, "type": "Feature", "properties": {"collection_times": [{"days": "Mon-Fri", "time": "5:30pm"}, {"days": "Sat", "time": "2:00pm"}, {"days": "Sun", "time": "Closed"}], "id": "5980100064", "name": "USPS COLLECTION BOX - BLUE BOX", "address": {"city": "MISSOULA", "state": "MT", "street": "2901 BROOKS ST", "postcode": "59801"}}},
{"geometry": {"type": "Point", "coordinates": [-114.0183271712, 46.8449517014]}, "type": "Feature", "properties": {"collection_times": [{"days": "Mon-Fri", "time": "2:45pm"}, {"days": "Sat", "time": "1:45pm"}, {"days": "Sun", "time": "Closed"}], "id": "5980100066", "name": "USPS COLLECTION BOX - BLUE BOX", "address": {"city": "MISSOULA", "state": "MT", "street": "2801 S RUSSELL ST", "postcode": "59801"}}},
{"geometry": {"type": "Point", "coordinates": [-114.0087298251, 46.8533388804]}, "type": "Feature", "properties": {"collection_times": [{"days": "Mon-Fri", "time": "5:00pm"}, {"days": "Sat-Sun", "time": "Closed"}], "id": "5980100067", "name": "USPS COLLECTION BOX - BLUE BOX", "address": {"city": "MISSOULA", "state": "MT", "street": "715 KENSINGTON AVE", "postcode": "59801"}}},
{"geometry": {"type": "Point", "coordinates": [-114.0202967979, 46.8669985076]}, "type": "Feature", "properties": {"collection_times": [{"days": "Mon-Fri", "time": "5:45pm"}, {"days": "Sat", "time": "3:45pm"}, {"days": "Sun", "time": "Closed"}], "id": "5980100068", "name": "USPS COLLECTION BOX - BLUE BOX", "address": {"city": "MISSOULA", "state": "MT", "street": "1600 S 3RD ST W", "postcode": "59801"}}},
{"geometry": {"type": "Point", "coordinates": [-114.0156804844, 46.8516063888]}, "type": "Feature", "properties": {"collection_times": [{"days": "Mon-Sat", "time": "8:00pm"}, {"days": "Sun", "time": "Closed"}], "id": "5980100071", "name": "USPS COLLECTION BOX - BLUE BOX", "address": {"city": "MISSOULA", "state": "MT", "street": "1100 W KENT AVE", "postcode": "59801"}}},
{"geometry": {"type": "Point", "coordinates": [-114.0148459126, 46.8516452967]}, "type": "Feature", "properties": {"collection_times": [{"days": "Mon-Sat", "time": "8:00pm"}, {"days": "Sun", "time": "Closed"}], "id": "5980100072", "name": "USPS COLLECTION BOX - BLUE BOX", "address": {"city": "MISSOULA", "state": "MT", "street": "1100 W KENT AVE", "postcode": "59801"}}},
{"geometry": {"type": "Point", "coordinates": [-114.0148459126, 46.8516452967]}, "type": "Feature", "properties": {"collection_times": [{"days": "Mon-Sat", "time": "8:00pm"}, {"days": "Sun", "time": "Closed"}], "id": "5980100073", "name": "USPS COLLECTION BOX - BLUE BOX", "address": {"city": "MISSOULA", "state": "MT", "street": "1100 W KENT AVE", "postcode": "59801"}}},
{"geometry": {"type": "Point", "coordinates": [-114.0396346281, 46.8478333894]}, "type": "Feature", "properties": {"collection_times": [{"days": "Mon-Fri", "time": "5:15pm"}, {"days": "Sat", "time": "4:15pm"}, {"days": "Sun", "time": "Closed"}], "id": "5980100076", "name": "USPS COLLECTION BOX - BLUE BOX", "address": {"city": "MISSOULA", "state": "MT", "street": "2510 S RESERVE ST", "postcode": "59801"}}},
{"geometry": {"type": "Point", "coordinates": [-114.039539575, 46.8512478778]}, "type": "Feature", "properties": {"collection_times": [{"days": "Mon-Fri", "time": "5:15pm"}, {"days": "Sat", "time": "4:00pm"}, {"days": "Sun", "time": "Closed"}], "id": "5980100082", "name": "USPS COLLECTION BOX - BLUE BOX", "address": {"city": "MISSOULA", "state": "MT", "street": "2120 S RESERVE ST", "postcode": "59801"}}},
{"geometry": {"type": "Point", "coordinates": [-114.0182621085, 46.8361268275]}, "type": "Feature", "properties": {"collection_times": [{"days": "Mon-Fri", "time": "3:00pm"}, {"days": "Sat-Sun", "time": "Closed"}], "id": "5980100090", "name": "USPS COLLECTION BOX - BLUE BOX", "address": {"city": "MISSOULA", "state": "MT", "street": "3700 S RUSSELL ST", "postcode": "59801"}}},
{"geometry": {"type": "Point", "coordinates": [-113.9976326349, 46.8569830049]}, "type": "Feature", "properties": {"collection_times": [{"days": "Mon-Fri", "time": "10:00am"}, {"days": "Sat-Sun", "time": "Closed"}], "id": "5980100091", "name": "USPS COLLECTION BOX - BLUE BOX", "address": {"city": "MISSOULA", "state": "MT", "street": "447 HILL ST", "postcode": "59801"}}},
{"geometry": {"type": "Point", "coordinates": [-113.997546248, 46.8665334678]}, "type": "Feature", "properties": {"collection_times": [{"days": "Mon-Fri", "time": "5:45pm"}, {"days": "Sat-Sun", "time": "Closed"}], "id": "5980100096", "name": "USPS COLLECTION BOX - BLUE BOX", "address": {"city": "MISSOULA", "state": "MT", "street": "507 S HIGGINS AVE", "postcode": "59801"}}},
{"geometry": {"type": "Point", "coordinates": [-114.0395053754, 46.8602889834]}, "type": "Feature", "properties": {"collection_times": [{"days": "Mon-Fri", "time": "2:30pm"}, {"days": "Sat", "time": "4:15pm"}, {"days": "Sun", "time": "Closed"}], "id": "5980100098", "name": "USPS COLLECTION BOX - BLUE BOX", "address": {"city": "MISSOULA", "state": "MT", "street": "1200 S RESERVE ST", "postcode": "59801"}}},
{"geometry": {"type": "Point", "coordinates": [-114.0181789518, 46.8358828195]}, "type": "Feature", "properties": {"collection_times": [{"days": "Mon-Fri", "time": "3:00pm"}, {"days": "Sat", "time": "1:45pm"}, {"days": "Sun", "time": "Closed"}], "id": "5980100100", "name": "USPS COLLECTION BOX - BLUE BOX", "address": {"city": "MISSOULA", "state": "MT", "street": "3800 S RUSSELL ST", "postcode": "59801"}}},
{"geometry": {"type": "Point", "coordinates": [-114.0148459126, 46.8516452967]}, "type": "Feature", "properties": {"collection_times": [{"days": "Mon-Sat", "time": "8:00pm"}, {"days": "Sun", "time": "Closed"}], "id": "5980100101", "name": "USPS COLLECTION BOX - PO LOBBY", "address": {"city": "MISSOULA", "state": "MT", "street": "1100 W KENT AVE", "postcode": "59801"}}},
{"geometry": {"type": "Point", "coordinates": [-114.0148459126, 46.8516452967]}, "type": "Feature", "properties": {"collection_times": [{"days": "Mon-Sat", "time": "8:00pm"}, {"days": "Sun", "time": "Closed"}], "id": "5980100102", "name": "USPS COLLECTION BOX - PO LOBBY", "address": {"city": "MISSOULA", "state": "MT", "street": "1100 W KENT AVE", "postcode": "59801"}}},
{"geometry": {"type": "Point", "coordinates": [-114.0148459126, 46.8516452967]}, "type": "Feature", "properties": {"collection_times": [{"days": "Mon-Sat", "time": "8:00pm"}, {"days": "Sun", "time": "Closed"}], "id": "5980100103", "name": "USPS COLLECTION BOX - PO LOBBY", "address": {"city": "MISSOULA", "state": "MT", "street": "1100 W KENT AVE", "postcode": "59801"}}},
{"geometry": {"type": "Point", "coordinates": [-114.0395543402, 46.8361875487]}, "type": "Feature", "properties": {"collection_times": [{"days": "Mon-Fri", "time": "2:45pm"}, {"days": "Sat", "time": "2:00pm"}, {"days": "Sun", "time": "Closed"}], "id": "5980100104", "name": "USPS COLLECTION BOX - BLUE BOX", "address": {"city": "MISSOULA", "state": "MT", "street": "3801 S RESERVE ST", "postcode": "59801"}}},
{"geometry": {"type": "Point", "coordinates": [-114.0158181424, 46.8718167842]}, "type": "Feature", "properties": {"collection_times": [{"days": "Mon-Fri", "time": "4:15pm"}, {"days": "Sat-Sun", "time": "Closed"}], "id": "5980100105", "name": "USPS COLLECTION BOX - BLUE BOX", "address": {"city": "MISSOULA", "state": "MT", "street": "1307 WYOMING ST", "postcode": "59801"}}},
{"geometry": {"type": "Point", "coordinates": [-114.0148459126, 46.8516452967]}, "type": "Feature", "properties": {"collection_times": [{"days": "Mon-Sat", "time": "8:00pm"}, {"days": "Sun", "time": "Closed"}], "id": "5980100106", "name": "USPS COLLECTION BOX - APC", "address": {"city": "MISSOULA", "state": "MT", "street": "1100 W KENT AVE", "postcode": "59801"}}},
{"geometry": {"type": "Point", "coordinates": [-114.0395053764, 46.8595047774]}, "type": "Feature", "properties": {"collection_times": [{"days": "Mon-Fri", "time": "2:30pm"}, {"days": "Sat-Sun", "time": "Closed"}], "id": "5980100108", "name": "USPS COLLECTION BOX - BLUE BOX", "address": {"city": "MISSOULA", "state": "MT", "street": "1300 S RESERVE ST", "postcode": "59801"}}},
{"geometry": {"type": "Point", "coordinates": [-113.9978069524, 46.872201429]}, "type": "Feature", "properties": {"collection_times": [{"days": "Mon-Fri", "time": "5:15pm"}, {"days": "Sat-Sun", "time": "Closed"}], "id": "5980200000", "name": "USPS COLLECTION BOX - BLUE BOX", "address": {"city": "MISSOULA", "state": "MT", "street": "340 W MAIN ST", "postcode": "59802"}}},
{"geometry": {"type": "Point", "coordinates": [-114.0019891199, 46.8745465347]}, "type": "Feature", "properties": {"collection_times": [{"days": "Mon-Sat", "time": "3:15pm"}, {"days": "Sun", "time": "Closed"}], "id": "5980200002", "name": "USPS COLLECTION BOX - BLUE BOX", "address": {"city": "MISSOULA", "state": "MT", "street": "610 W BROADWAY ST", "postcode": "59802"}}},
{"geometry": {"type": "Point", "coordinates": [-113.9941504692, 46.878684394]}, "type": "Feature", "properties": {"collection_times": [{"days": "Mon-Fri", "time": "5:45pm"}, {"days": "Sat-Sun", "time": "Closed"}], "id": "5980200003", "name": "USPS COLLECTION BOX - BLUE BOX", "address": {"city": "MISSOULA", "state": "MT", "street": "902 N ORANGE ST", "postcode": "59802"}}},
{"geometry": {"type": "Point", "coordinates": [-113.9948201536, 46.8699797529]}, "type": "Feature", "properties": {"collection_times": [{"days": "Mon-Fri", "time": "5:00pm"}, {"days": "Sat", "time": "3:30pm"}, {"days": "Sun", "time": "Closed"}], "id": "5980200006", "name": "USPS COLLECTION BOX - BLUE BOX", "address": {"city": "MISSOULA", "state": "MT", "street": "127 E FRONT ST", "postcode": "59802"}}},
{"geometry": {"type": "Point", "coordinates": [-113.9925083904, 46.8717350567]}, "type": "Feature", "properties": {"collection_times": [{"days": "Mon-Sat", "time": "5:15pm"}, {"days": "Sun", "time": "Closed"}], "id": "5980200012", "name": "USPS COLLECTION BOX - BLUE BOX", "address": {"city": "MISSOULA", "state": "MT", "street": "200 E BROADWAY ST", "postcode": "59802"}}},
{"geometry": {"type": "Point", "coordinates": [-113.9925966308, 46.8743825375]}, "type": "Feature", "properties": {"collection_times": [{"days": "Mon-Fri", "time": "5:00pm"}, {"days": "Sat", "time": "3:00pm"}, {"days": "Sun", "time": "Closed"}], "id": "5980200014", "name": "USPS COLLECTION BOX - BLUE BOX", "address": {"city": "MISSOULA", "state": "MT", "street": "500 N HIGGINS AVE", "postcode": "59802"}}},
{"geometry": {"type": "Point", "coordinates": [-113.9960561308, 46.8726858734]}, "type": "Feature", "properties": {"collection_times": [{"days": "Mon-Fri", "time": "5:15pm"}, {"days": "Sat-Sun", "time": "Closed"}], "id": "5980200018", "name": "USPS COLLECTION BOX - BLUE BOX", "address": {"city": "MISSOULA", "state": "MT", "street": "235 W BROADWAY ST", "postcode": "59802"}}},
{"geometry": {"type": "Point", "coordinates": [-113.9925083904, 46.8717350567]}, "type": "Feature", "properties": {"collection_times": [{"days": "Mon-Sat", "time": "5:15pm"}, {"days": "Sun", "time": "Closed"}], "id": "5980200023", "name": "USPS COLLECTION BOX - BLUE BOX", "address": {"city": "MISSOULA", "state": "MT", "street": "200 E BROADWAY ST", "postcode": "59802"}}},
{"geometry": {"type": "Point", "coordinates": [-113.9805845788, 46.8680413761]}, "type": "Feature", "properties": {"collection_times": [{"days": "Mon-Fri", "time": "5:30pm"}, {"days": "Sat", "time": "2:30pm"}, {"days": "Sun", "time": "Closed"}], "id": "5980200026", "name": "USPS COLLECTION BOX - BLUE BOX", "address": {"city": "MISSOULA", "state": "MT", "street": "1001 E BROADWAY ST STOP 2", "postcode": "59802"}}},
{"geometry": {"type": "Point", "coordinates": [-113.9925083904, 46.8717350567]}, "type": "Feature", "properties": {"collection_times": [{"days": "Mon-Sat", "time": "5:15pm"}, {"days": "Sun", "time": "Closed"}], "id": "5980200027", "name": "USPS COLLECTION BOX - BLUE BOX", "address": {"city": "MISSOULA", "state": "MT", "street": "200 E BROADWAY ST", "postcode": "59802"}}},
{"geometry": {"type": "Point", "coordinates": [-113.9944195705, 46.8714949346]}, "type": "Feature", "properties": {"collection_times": [{"days": "Mon-Fri", "time": "5:15pm"}, {"days": "Sat", "time": "3:30pm"}, {"days": "Sun", "time": "Closed"}], "id": "5980200028", "name": "USPS COLLECTION BOX - BLUE BOX", "address": {"city": "MISSOULA", "state": "MT", "street": "201 N HIGGINS AVE", "postcode": "59802"}}},
{"geometry": {"type": "Point", "coordinates": [-113.9999379296, 46.8739727762]}, "type": "Feature", "properties": {"collection_times": [{"days": "Mon-Fri", "time": "3:30pm"}, {"days": "Sat", "time": "3:15pm"}, {"days": "Sun", "time": "Closed"}], "id": "5980200029", "name": "USPS COLLECTION BOX - BLUE BOX", "address": {"city": "MISSOULA", "state": "MT", "street": "502 W BROADWAY ST", "postcode": "59802"}}},
{"geometry": {"type": "Point", "coordinates": [-113.9949692323, 46.8735465668]}, "type": "Feature", "properties": {"collection_times": [{"days": "Mon-Fri", "time": "5:00pm"}, {"days": "Sat", "time": "3:00pm"}, {"days": "Sun", "time": "Closed"}], "id": "5980200032", "name": "USPS COLLECTION BOX - BLUE BOX", "address": {"city": "MISSOULA", "state": "MT", "street": "201 W PINE ST STE 2", "postcode": "59802"}}},
{"geometry": {"type": "Point", "coordinates": [-113.9978069524, 46.872201429]}, "type": "Feature", "properties": {"collection_times": [{"days": "Mon-Fri", "time": "5:15pm"}, {"days": "Sat-Sun", "time": "Closed"}], "id": "5980200035", "name": "USPS COLLECTION BOX - BLUE BOX", "address": {"city": "MISSOULA", "state": "MT", "street": "147 W MAIN ST", "postcode": "59802"}}},
{"geometry": {"type": "Point", "coordinates": [-113.9776070632, 46.8730455644]}, "type": "Feature", "properties": {"collection_times": [{"days": "Mon-Fri", "time": "5:45pm"}, {"days": "Sat", "time": "2:45pm"}, {"days": "Sun", "time": "Closed"}], "id": "5980200042", "name": "USPS COLLECTION BOX - BLUE BOX", "address": {"city": "MISSOULA", "state": "MT", "street": "1035 VAN BUREN ST", "postcode": "59802"}}},
{"geometry": {"type": "Point", "coordinates": [-113.9980317284, 46.8716499556]}, "type": "Feature", "properties": {"collection_times": [{"days": "Mon-Fri", "time": "5:00pm"}, {"days": "Sat", "time": "3:30pm"}, {"days": "Sun", "time": "Closed"}], "id": "5980200046", "name": "USPS COLLECTION BOX - BLUE BOX", "address": {"city": "MISSOULA", "state": "MT", "street": "301 W FRONT ST", "postcode": "59802"}}},
{"geometry": {"type": "Point", "coordinates": [-113.9925083904, 46.8717350567]}, "type": "Feature", "properties": {"collection_times": [{"days": "Mon-Fri", "time": "5:30pm"}, {"days": "Sat-Sun", "time": "Closed"}], "id": "5980200048", "name": "USPS COLLECTION BOX - PO LOBBY", "address": {"city": "MISSOULA", "state": "MT", "street": "200 E BROADWAY ST", "postcode": "59802"}}},
{"geometry": {"type": "Point", "coordinates": [-113.995344561, 46.8702724358]}, "type": "Feature", "properties": {"collection_times": [{"days": "Mon-Fri", "time": "5:45pm"}, {"days": "Sat-Sun", "time": "Closed"}], "id": "5980200050", "name": "USPS COLLECTION BOX - BLUE BOX", "address": {"city": "MISSOULA", "state": "MT", "street": "111 N HIGGINS AVE", "postcode": "59802"}}},
{"geometry": {"type": "Point", "coordinates": [-113.993049704, 46.8718368098]}, "type": "Feature", "properties": {"collection_times": [{"days": "Mon-Fri", "time": "5:15pm"}, {"days": "Sat-Sun", "time": "Closed"}], "id": "5980200051", "name": "USPS COLLECTION BOX - BLUE BOX", "address": {"city": "MISSOULA", "state": "MT", "street": "101 E BROADWAY ST", "postcode": "59802"}}},
{"geometry": {"type": "Point", "coordinates": [-114.0105858877, 46.8363291135]}, "type": "Feature", "properties": {"collection_times": [{"days": "Mon-Fri", "time": "5:15pm"}, {"days": "Sat", "time": "1:45pm"}, {"days": "Sun", "time": "Closed"}], "id": "5980300001", "name": "USPS COLLECTION BOX - BLUE BOX", "address": {"city": "MISSOULA", "state": "MT", "street": "704 SW HIGGINS AVE", "postcode": "59803"}}},
{"geometry": {"type": "Point", "coordinates": [-114.0438656819, 46.8467955571]}, "type": "Feature", "properties": {"collection_times": [{"days": "Mon-Fri", "time": "10:00am"}, {"days": "Sat-Sun", "time": "Closed"}], "id": "5980400000", "name": "USPS COLLECTION BOX - BLUE BOX", "address": {"city": "MISSOULA", "state": "MT", "street": "2827 FORT MISSOULA RD", "postcode": "59804"}}},
{"geometry": {"type": "Point", "coordinates": [-114.0837691169, 46.857146946]}, "type": "Feature", "properties": {"collection_times": [{"days": "Mon-Fri", "time": "2:45pm"}, {"days": "Sat", "time": "2:00pm"}, {"days": "Sun", "time": "Closed"}], "id": "5980400004", "name": "USPS COLLECTION BOX - BLUE BOX", "address": {"city": "MISSOULA", "state": "MT", "street": "4000 BROOKS ST", "postcode": "59804"}}},
{"geometry": {"type": "Point", "coordinates": [-114.0355519775, 46.8923702467]}, "type": "Feature", "properties": {"collection_times": [{"days": "Mon-Fri", "time": "5:30pm"}, {"days": "Sat", "time": "4:45pm"}, {"days": "Sun", "time": "Closed"}], "id": "5980800000", "name": "USPS COLLECTION BOX - BLUE BOX", "address": {"city": "MISSOULA", "state": "MT", "street": "3150 GREAT NORTHERN AVE", "postcode": "59808"}}},
{"geometry": {"type": "Point", "coordinates": [-114.0355519775, 46.8923702467]}, "type": "Feature", "properties": {"collection_times": [{"days": "Mon-Fri", "time": "5:30pm"}, {"days": "Sat", "time": "4:45pm"}, {"days": "Sun", "time": "Closed"}], "id": "5980800001", "name": "USPS COLLECTION BOX - BLUE BOX", "address": {"city": "MISSOULA", "state": "MT", "street": "3150 GREAT NORTHERN AVE", "postcode": "59808"}}},
{"geometry": {"type": "Point", "coordinates": [-114.0355519775, 46.8923702467]}, "type": "Feature", "properties": {"collection_times": [{"days": "Mon-Fri", "time": "5:30pm"}, {"days": "Sat", "time": "4:45pm"}, {"days": "Sun", "time": "Closed"}], "id": "5980800002", "name": "USPS COLLECTION BOX - BLUE BOX", "address": {"city": "MISSOULA", "state": "MT", "street": "3150 GREAT NORTHERN AVE", "postcode": "59808"}}},
{"geometry": {"type": "Point", "coordinates": [-114.030382706, 46.8870082585]}, "type": "Feature", "properties": {"collection_times": [{"days": "Mon-Fri", "time": "5:45pm"}, {"days": "Sat-Sun", "time": "Closed"}], "id": "5980800004", "name": "USPS COLLECTION BOX - BLUE BOX", "address": {"city": "MISSOULA", "state": "MT", "street": "2687 PALMER ST", "postcode": "59808"}}},
{"geometry": {"type": "Point", "coordinates": [-114.0391654213, 46.8853293856]}, "type": "Feature", "properties": {"collection_times": [{"days": "Mon-Fri", "time": "4:15pm"}, {"days": "Sat", "time": "4:30pm"}, {"days": "Sun", "time": "Closed"}], "id": "5980800007", "name": "USPS COLLECTION BOX - BLUE BOX", "address": {"city": "MISSOULA", "state": "MT", "street": "2230 N RESERVE ST", "postcode": "59808"}}},
{"geometry": {"type": "Point", "coordinates": [-114.130856229, 46.9544242142]}, "type": "Feature", "properties": {"collection_times": [{"days": "Mon-Sat", "time": "11:30am"}, {"days": "Sun", "time": "Closed"}], "id": "5980800011", "name": "USPS COLLECTION BOX - BLUE BOX", "address": {"city": "MISSOULA", "state": "MT", "street": "8800 TRUCK STOP RD", "postcode": "59808"}}},
{"geometry": {"type": "Point", "coordinates": [-114.0355519775, 46.8923702467]}, "type": "Feature", "properties": {"collection_times": [{"days": "Mon-Fri", "time": "5:30pm"}, {"days": "Sat", "time": "4:45pm"}, {"days": "Sun", "time": "Closed"}], "id": "5980800018", "name": "USPS COLLECTION BOX - APC", "address": {"city": "MISSOULA", "state": "MT", "street": "3150 GREAT NORTHERN AVE", "postcode": "59808"}}},
{"geometry": {"type": "Point", "coordinates": [-114.0355519775, 46.8923702467]}, "type": "Feature", "properties": {"collection_times": [{"days": "Mon-Fri", "time": "5:30pm"}, {"days": "Sat", "time": "4:45pm"}, {"days": "Sun", "time": "Closed"}], "id": "5980800019", "name": "USPS COLLECTION BOX - PO LOBBY", "address": {"city": "MISSOULA", "state": "MT", "street": "3150 GREAT NORTHERN AVE", "postcode": "59808"}}},
{"geometry": {"type": "Point", "coordinates": [-114.0355519775, 46.8923702467]}, "type": "Feature", "properties": {"collection_times": [{"days": "Mon-Fri", "time": "5:30pm"}, {"days": "Sat", "time": "4:45pm"}, {"days": "Sun", "time": "Closed"}], "id": "5980800020", "name": "USPS COLLECTION BOX - PO LOBBY", "address": {"city": "MISSOULA", "state": "MT", "street": "3150 GREAT NORTHERN AVE", "postcode": "59808"}}},
{"geometry": {"type": "Point", "coordinates": [-114.0473712626, 46.8858111053]}, "type": "Feature", "properties": {"collection_times": [{"days": "Mon-Fri", "time": "4:00pm"}, {"days": "Sat-Sun", "time": "Closed"}], "id": "5980800025", "name": "USPS COLLECTION BOX - BLUE BOX", "address": {"city": "MISSOULA", "state": "MT", "street": "3555 MULLAN RD", "postcode": "59808"}}},
{"geometry": {"type": "Point", "coordinates": [-114.4913583133, 47.0065756853]}, "type": "Feature", "properties": {"collection_times": [{"days": "Mon-Fri", "time": "4:45pm"}, {"days": "Sat", "time": "3:00pm"}, {"days": "Sun", "time": "Closed"}], "id": "5982000001", "name": "USPS COLLECTION BOX - BLUE BOX", "address": {"city": "ALBERTON", "state": "MT", "street": "153 RAILROAD AVE", "postcode": "59820"}}},
{"geometry": {"type": "Point", "coordinates": [-114.4913583133, 47.0065756853]}, "type": "Feature", "properties": {"collection_times": [{"days": "Mon-Fri", "time": "4:00pm"}, {"days": "Sat", "time": "10:00am"}, {"days": "Sun", "time": "Closed"}], "id": "5982000002", "name": "USPS COLLECTION BOX - PO LOBBY", "address": {"city": "ALBERTON", "state": "MT", "street": "153 RAILROAD AVE", "postcode": "59820"}}},
{"geometry": {"type": "Point", "coordinates": [-114.4913583133, 47.0065756853]}, "type": "Feature", "properties": {"collection_times": [{"days": "Mon-Fri", "time": "4:00pm"}, {"days": "Sat", "time": "10:00am"}, {"days": "Sun", "time": "Closed"}], "id": "5982000003", "name": "USPS COLLECTION BOX - PO LOBBY", "address": {"city": "ALBERTON", "state": "MT", "street": "153 RAILROAD AVE", "postcode": "59820"}}},
{"geometry": {"type": "Point", "coordinates": [-114.4913583133, 47.0065756853]}, "type": "Feature", "properties": {"collection_times": [{"days": "Mon-Fri", "time": "4:00pm"}, {"days": "Sat", "time": "10:00am"}, {"days": "Sun", "time": "Closed"}], "id": "5982000004", "name": "USPS COLLECTION BOX - PO LOBBY", "address": {"city": "ALBERTON", "state": "MT", "street": "153 RAILROAD AVE", "postcode": "59820"}}},
{"geometry": {"type": "Point", "coordinates": [-114.4913583133, 47.0065756853]}, "type": "Feature", "properties": {"collection_times": [{"days": "Mon-Fri", "time": "4:00pm"}, {"days": "Sat", "time": "10:00am"}, {"days": "Sun", "time": "Closed"}], "id": "5982000005", "name": "USPS COLLECTION BOX - PO LOBBY", "address": {"city": "ALBERTON", "state": "MT", "street": "153 RAILROAD AVE", "postcode": "59820"}}},
{"geometry": {"type": "Point", "coordinates": [-114.0518879167, 47.2000146522]}, "type": "Feature", "properties": {"collection_times": [{"days": "Mon-Sat", "time": "6:00pm"}, {"days": "Sun", "time": "Closed"}], "id": "5982100000", "name": "USPS COLLECTION BOX - BLUE BOX", "address": {"city": "ARLEE", "state": "MT", "street": "92441 US HIGHWAY 93", "postcode": "59821"}}},
{"geometry": {"type": "Point", "coordinates": [-114.0518879167, 47.2000146522]}, "type": "Feature", "properties": {"collection_times": [{"days": "Mon-Fri", "time": "4:30pm"}, {"days": "Sat", "time": "9:00am"}, {"days": "Sun", "time": "Closed"}], "id": "5982100001", "name": "USPS COLLECTION BOX - PO LOBBY", "address": {"city": "ARLEE", "state": "MT", "street": "92441 US HIGHWAY 93", "postcode": "59821"}}},
{"geometry": {"type": "Point", "coordinates": [-114.0518879167, 47.2000146522]}, "type": "Feature", "properties": {"collection_times": [{"days": "Mon-Fri", "time": "4:30pm"}, {"days": "Sat", "time": "9:00am"}, {"days": "Sun", "time": "Closed"}], "id": "5982100002", "name": "USPS COLLECTION BOX - PO LOBBY", "address": {"city": "ARLEE", "state": "MT", "street": "92441 US HIGHWAY 93", "postcode": "59821"}}},
{"geometry": {"type": "Point", "coordinates": [-114.0518879167, 47.2000146522]}, "type": "Feature", "properties": {"collection_times": [{"days": "Mon-Fri", "time": "4:30pm"}, {"days": "Sat", "time": "9:00am"}, {"days": "Sun", "time": "Closed"}], "id": "5982100003", "name": "USPS COLLECTION BOX - PO LOBBY", "address": {"city": "ARLEE", "state": "MT", "street": "92441 US HIGHWAY 93", "postcode": "59821"}}},
{"geometry": {"type": "Point", "coordinates": [-114.0518879167, 47.2000146522]}, "type": "Feature", "properties": {"collection_times": [{"days": "Mon-Fri", "time": "4:30pm"}, {"days": "Sat", "time": "9:00am"}, {"days": "Sun", "time": "Closed"}], "id": "5982100004", "name": "USPS COLLECTION BOX - PO LOBBY", "address": {"city": "ARLEE", "state": "MT", "street": "92441 US HIGHWAY 93", "postcode": "59821"}}},
{"geometry": {"type": "Point", "coordinates": [-109.6450661252, 47.0334983834]}, "type": "Feature", "properties": {"collection_times": [{"days": "Mon-Sat", "time": "4:30pm"}, {"days": "Sun", "time": "Closed"}], "id": "5982300000", "name": "USPS COLLECTION BOX - BLUE BOX", "address": {"city": "BONNER", "state": "MT", "street": "9389 MT HIGHWAY 200 E", "postcode": "59823"}}},
{"geometry": {"type": "Point", "coordinates": [-109.6450661252, 47.0334983834]}, "type": "Feature", "properties": {"collection_times": [{"days": "Mon-Fri", "time": "2:30pm"}, {"days": "Sat", "time": "9:30am"}, {"days": "Sun", "time": "Closed"}], "id": "5982300003", "name": "USPS COLLECTION BOX - PO LOBBY", "address": {"city": "BONNER", "state": "MT", "street": "9389 MT HIGHWAY 200 E", "postcode": "59823"}}},
{"geometry": {"type": "Point", "coordinates": [-109.6450661252, 47.0334983834]}, "type": "Feature", "properties": {"collection_times": [{"days": "Mon-Fri", "time": "2:30pm"}, {"days": "Sat", "time": "9:30am"}, {"days": "Sun", "time": "Closed"}], "id": "5982300004", "name": "USPS COLLECTION BOX - PO LOBBY", "address": {"city": "BONNER", "state": "MT", "street": "9389 MT HIGHWAY 200 E", "postcode": "59823"}}},
{"geometry": {"type": "Point", "coordinates": [-114.2682010141, 47.4163192248]}, "type": "Feature", "properties": {"collection_times": [{"days": "Mon-Fri", "time": "4:15pm"}, {"days": "Sat", "time": "10:00am"}, {"days": "Sun", "time": "Closed"}], "id": "5982400000", "name": "USPS COLLECTION BOX - BLUE BOX", "address": {"city": "CHARLO", "state": "MT", "street": "56677 MT HIGHWAY 212", "postcode": "59824"}}},
{"geometry": {"type": "Point", "coordinates": [-114.2682010141, 47.4163192248]}, "type": "Feature", "properties": {"collection_times": [{"days": "Mon-Fri", "time": "12:00pm"}, {"days": "Sat", "time": "10:00am"}, {"days": "Sun", "time": "Closed"}], "id": "5982400001", "name": "USPS COLLECTION BOX - PO LOBBY", "address": {"city": "CHARLO", "state": "MT", "street": "56677 MT HIGHWAY 212", "postcode": "59824"}}},
{"geometry": {"type": "Point", "coordinates": [-114.172380441, 47.438339071]}, "type": "Feature", "properties": {"collection_times": [{"days": "Mon-Sat", "time": "2:00pm"}, {"days": "Sun", "time": "Closed"}], "id": "5982400003", "name": "USPS COLLECTION BOX - BLUE BOX", "address": {"city": "CHARLO", "state": "MT", "street": "56609 MT HIGHWAY 212", "postcode": "59824"}}},
{"geometry": {"type": "Point", "coordinates": [-113.708159741, 46.7520169454]}, "type": "Feature", "properties": {"collection_times": [{"days": "Mon-Fri", "time": "4:15pm"}, {"days": "Sat", "time": "3:30pm"}, {"days": "Sun", "time": "Closed"}], "id": "5982500000", "name": "USPS COLLECTION BOX - BLUE BOX", "address": {"city": "CLINTON", "state": "MT", "street": "20455 E MULLAN RD", "postcode": "59825"}}},
{"geometry": {"type": "Point", "coordinates": [-113.708159741, 46.7520169454]}, "type": "Feature", "properties": {"collection_times": [{"days": "Mon-Fri", "time": "4:00pm"}, {"days": "Sat", "time": "9:45am"}, {"days": "Sun", "time": "Closed"}], "id": "5982500001", "name": "USPS COLLECTION BOX - PO LOBBY", "address": {"city": "CLINTON", "state": "MT", "street": "20455 E MULLAN RD", "postcode": "59825"}}},
{"geometry": {"type": "Point", "coordinates": [-113.708159741, 46.7520169454]}, "type": "Feature", "properties": {"collection_times": [{"days": "Mon-Fri", "time": "4:00pm"}, {"days": "Sat", "time": "9:45am"}, {"days": "Sun", "time": "Closed"}], "id": "5982500002", "name": "USPS COLLECTION BOX - PO LOBBY", "address": {"city": "CLINTON", "state": "MT", "street": "20455 E MULLAN RD", "postcode": "59825"}}},
{"geometry": {"type": "Point", "coordinates": [-113.5875952656, 47.4968294284]}, "type": "Feature", "properties": {"collection_times": [{"days": "Mon-Fri", "time": "2:45pm"}, {"days": "Sat", "time": "2:55pm"}, {"days": "Sun", "time": "Closed"}], "id": "5982600000", "name": "USPS COLLECTION BOX - BLUE BOX", "address": {"city": "CONDON", "state": "MT", "street": "7245 MT HIGHWAY 83", "postcode": "59826"}}},
{"geometry": {"type": "Point", "coordinates": [-113.7265985553, 47.5439236118]}, "type": "Feature", "properties": {"collection_times": [{"days": "Mon-Sat", "time": "3:05pm"}, {"days": "Sun", "time": "Closed"}], "id": "5982600001", "name": "USPS COLLECTION BOX - BLUE BOX", "address": {"city": "CONDON", "state": "MT", "street": "6799 MT HIGHWAY 83", "postcode": "59826"}}},
{"geometry": {"type": "Point", "coordinates": [-113.6408154064, 47.3981359218]}, "type": "Feature", "properties": {"collection_times": [{"days": "Mon-Sat", "time": "3:15pm"}, {"days": "Sun", "time": "Closed"}], "id": "5982600002", "name": "USPS COLLECTION BOX - BLUE BOX", "address": {"city": "CONDON", "state": "MT", "street": "5973 MT HIGHWAY 83", "postcode": "59826"}}},
{"geometry": {"type": "Point", "coordinates": [-113.5875952656, 47.4968294284]}, "type": "Feature", "properties": {"collection_times": [{"days": "Mon-Fri", "time": "2:45pm"}, {"days": "Sat", "time": "11:50am"}, {"days": "Sun", "time": "Closed"}], "id": "5982600003", "name": "USPS COLLECTION BOX - PO LOBBY", "address": {"city": "CONDON", "state": "MT", "street": "7245 MT HIGHWAY 83", "postcode": "59826"}}},
{"geometry": {"type": "Point", "coordinates": [-113.5875952656, 47.4968294284]}, "type": "Feature", "properties": {"collection_times": [{"days": "Mon-Fri", "time": "2:45pm"}, {"days": "Sat", "time": "11:50am"}, {"days": "Sun", "time": "Closed"}], "id": "5982600004", "name": "USPS COLLECTION BOX - PO LOBBY", "address": {"city": "CONDON", "state": "MT", "street": "7245 MT HIGHWAY 83", "postcode": "59826"}}},
{"geometry": {"type": "Point", "coordinates": [-114.1265744577, 45.9304762067]}, "type": "Feature", "properties": {"collection_times": [{"days": "Mon-Fri", "time": "4:00pm"}, {"days": "Sat", "time": "10:00am"}, {"days": "Sun", "time": "Closed"}], "id": "5982700000", "name": "USPS COLLECTION BOX - BLUE BOX", "address": {"city": "CONNER", "state": "MT", "street": "157 CONNER CUTOFF RD", "postcode": "59827"}}},
{"geometry": {"type": "Point", "coordinates": [-114.1265744577, 45.9304762067]}, "type": "Feature", "properties": {"collection_times": [{"days": "Mon-Fri", "time": "1:50pm"}, {"days": "Sat", "time": "10:00am"}, {"days": "Sun", "time": "Closed"}], "id": "5982700001", "name": "USPS COLLECTION BOX - PO LOBBY", "address": {"city": "CONNER", "state": "MT", "street": "157 CONNER CUTOFF RD", "postcode": "59827"}}},
{"geometry": {"type": "Point", "coordinates": [-114.1265744577, 45.9304762067]}, "type": "Feature", "properties": {"collection_times": [{"days": "Mon-Fri", "time": "1:50pm"}, {"days": "Sat", "time": "10:00am"}, {"days": "Sun", "time": "Closed"}], "id": "5982700002", "name": "USPS COLLECTION BOX - PO LOBBY", "address": {"city": "CONNER", "state": "MT", "street": "157 CONNER CUTOFF RD", "postcode": "59827"}}},
{"geometry": {"type": "Point", "coordinates": [-114.1155427691, 46.3136089709]}, "type": "Feature", "properties": {"collection_times": [{"days": "Mon-Fri", "time": "4:15pm"}, {"days": "Sat", "time": "4:30pm"}, {"days": "Sun", "time": "Closed"}], "id": "5982800000", "name": "USPS COLLECTION BOX - BLUE BOX", "address": {"city": "CORVALLIS", "state": "MT", "street": "1021 MAIN ST", "postcode": "59828"}}},
{"geometry": {"type": "Point", "coordinates": [-114.1155427691, 46.3136089709]}, "type": "Feature", "properties": {"collection_times": [{"days": "Mon-Fri", "time": "4:45pm"}, {"days": "Sat", "time": "10:00am"}, {"days": "Sun", "time": "Closed"}], "id": "5982800002", "name": "USPS COLLECTION BOX - PO LOBBY", "address": {"city": "CORVALLIS", "state": "MT", "street": "1021 MAIN ST", "postcode": "59828"}}},
{"geometry": {"type": "Point", "coordinates": [-114.1155427691, 46.3136089709]}, "type": "Feature", "properties": {"collection_times": [{"days": "Mon-Fri", "time": "4:45pm"}, {"days": "Sat", "time": "10:00am"}, {"days": "Sun", "time": "Closed"}], "id": "5982800003", "name": "USPS COLLECTION BOX - PO LOBBY", "address": {"city": "CORVALLIS", "state": "MT", "street": "1021 MAIN ST", "postcode": "59828"}}},
{"geometry": {"type": "Point", "coordinates": [-114.1155427691, 46.3136089709]}, "type": "Feature", "properties": {"collection_times": [{"days": "Mon-Fri", "time": "4:15pm"}, {"days": "Sat", "time": "4:30pm"}, {"days": "Sun", "time": "Closed"}], "id": "5982800004", "name": "USPS COLLECTION BOX - BLUE BOX", "address": {"city": "CORVALLIS", "state": "MT", "street": "1021 MAIN ST", "postcode": "59828"}}},
{"geometry": {"type": "Point", "coordinates": [-114.1781085479, 46.023431846]}, "type": "Feature", "properties": {"collection_times": [{"days": "Mon-Sat", "time": "4:30pm"}, {"days": "Sun", "time": "Closed"}], "id": "5982900000", "name": "USPS COLLECTION BOX - BLUE BOX", "address": {"city": "DARBY", "state": "MT", "street": "407 N MAIN ST", "postcode": "59829"}}},
{"geometry": {"type": "Point", "coordinates": [-114.1777554022, 46.0282364394]}, "type": "Feature", "properties": {"collection_times": [{"days": "Mon-Sat", "time": "4:30pm"}, {"days": "Sun", "time": "Closed"}], "id": "5982900001", "name": "USPS COLLECTION BOX - BLUE BOX", "address": {"city": "DARBY", "state": "MT", "street": "801 N MAIN ST", "postcode": "59829"}}},
{"geometry": {"type": "Point", "coordinates": [-114.1781085479, 46.023431846]}, "type": "Feature", "properties": {"collection_times": [{"days": "Mon-Fri", "time": "4:30pm"}, {"days": "Sat", "time": "9:30am"}, {"days": "Sun", "time": "Closed"}], "id": "5982900003", "name": "USPS COLLECTION BOX - PO LOBBY", "address": {"city": "DARBY", "state": "MT", "street": "407 N MAIN ST", "postcode": "59829"}}},
{"geometry": {"type": "Point", "coordinates": [-114.1781085479, 46.023431846]}, "type": "Feature", "properties": {"collection_times": [{"days": "Mon-Fri", "time": "4:30pm"}, {"days": "Sat", "time": "9:30am"}, {"days": "Sun", "time": "Closed"}], "id": "5982900004", "name": "USPS COLLECTION BOX - PO LOBBY", "address": {"city": "DARBY", "state": "MT", "street": "407 N MAIN ST", "postcode": "59829"}}},
{"geometry": {"type": "Point", "coordinates": [-115.3472098162, 47.3751976068]}, "type": "Feature", "properties": {"collection_times": [{"days": "Mon-Fri", "time": "3:45pm"}, {"days": "Sat", "time": "1:40pm"}, {"days": "Sun", "time": "Closed"}], "id": "5983000000", "name": "USPS COLLECTION BOX - BLUE BOX", "address": {"city": "DEBORGIA", "state": "MT", "street": "132 HAUGAN DEBORGIA FRONTAGE RD", "postcode": "59830"}}},
{"geometry": {"type": "Point", "coordinates": [-114.3705913068, 47.2563970846]}, "type": "Feature", "properties": {"collection_times": [{"days": "Mon-Fri", "time": "1:00pm"}, {"days": "Sat", "time": "10:00am"}, {"days": "Sun", "time": "Closed"}], "id": "5983100001", "name": "USPS COLLECTION BOX - PO LOBBY", "address": {"city": "DIXON", "state": "MT", "street": "203 A ST", "postcode": "59831"}}},
{"geometry": {"type": "Point", "coordinates": [-114.3705913068, 47.2563970846]}, "type": "Feature", "properties": {"collection_times": [{"days": "Mon-Fri", "time": "4:30pm"}, {"days": "Sat", "time": "5:30pm"}, {"days": "Sun", "time": "Closed"}], "id": "5983100002", "name": "USPS COLLECTION BOX - BLUE BOX", "address": {"city": "DIXON", "state": "MT", "street": "203 A ST", "postcode": "59831"}}},
{"geometry": {"type": "Point", "coordinates": [-114.3705913068, 47.2563970846]}, "type": "Feature", "properties": {"collection_times": [{"days": "Mon-Fri", "time": "1:00pm"}, {"days": "Sat", "time": "10:00am"}, {"days": "Sun", "time": "Closed"}], "id": "5983100003", "name": "USPS COLLECTION BOX - PO LOBBY", "address": {"city": "DIXON", "state": "MT", "street": "203 A ST", "postcode": "59831"}}},
{"geometry": {"type": "Point", "coordinates": [-113.1478255899, 46.6690102403]}, "type": "Feature", "properties": {"collection_times": [{"days": "Mon-Fri", "time": "4:45pm"}, {"days": "Sat", "time": "3:30pm"}, {"days": "Sun", "time": "Closed"}], "id": "5983200000", "name": "USPS COLLECTION BOX - BLUE BOX", "address": {"city": "DRUMMOND", "state": "MT", "street": "60 E BROAD ST", "postcode": "59832"}}},
{"geometry": {"type": "Point", "coordinates": [-113.1478255899, 46.6690102403]}, "type": "Feature", "properties": {"collection_times": [{"days": "Mon-Fri", "time": "3:00pm"}, {"days": "Sat", "time": "10:30am"}, {"days": "Sun", "time": "Closed"}], "id": "5983200001", "name": "USPS COLLECTION BOX - PO LOBBY", "address": {"city": "DRUMMOND", "state": "MT", "street": "60 E BROAD ST", "postcode": "59832"}}},
{"geometry": {"type": "Point", "coordinates": [-113.1478255899, 46.6690102403]}, "type": "Feature", "properties": {"collection_times": [{"days": "Mon-Fri", "time": "3:00pm"}, {"days": "Sat", "time": "10:30am"}, {"days": "Sun", "time": "Closed"}], "id": "5983200002", "name": "USPS COLLECTION BOX - PO LOBBY", "address": {"city": "DRUMMOND", "state": "MT", "street": "60 E BROAD ST", "postcode": "59832"}}},
{"geometry": {"type": "Point", "coordinates": [-114.0804008695, 46.6316877611]}, "type": "Feature", "properties": {"collection_times": [{"days": "Mon-Sat", "time": "4:45pm"}, {"days": "Sun", "time": "Closed"}], "id": "5983300001", "name": "USPS COLLECTION BOX - BLUE BOX", "address": {"city": "FLORENCE", "state": "MT", "street": "268 HOLLOWAY LN", "postcode": "59833"}}},
{"geometry": {"type": "Point", "coordinates": [-114.0804008695, 46.6316877611]}, "type": "Feature", "properties": {"collection_times": [{"days": "Mon-Fri", "time": "4:45pm"}, {"days": "Sat", "time": "11:30am"}, {"days": "Sun", "time": "Closed"}], "id": "5983300002", "name": "USPS COLLECTION BOX - PO LOBBY", "address": {"city": "FLORENCE", "state": "MT", "street": "268 HOLLOWAY LN", "postcode": "59833"}}},
{"geometry": {"type": "Point", "coordinates": [-114.0804008695, 46.6316877611]}, "type": "Feature", "properties": {"collection_times": [{"days": "Mon-Fri", "time": "4:45pm"}, {"days": "Sat", "time": "11:30am"}, {"days": "Sun", "time": "Closed"}], "id": "5983300003", "name": "USPS COLLECTION BOX - PO LOBBY", "address": {"city": "FLORENCE", "state": "MT", "street": "268 HOLLOWAY LN", "postcode": "59833"}}},
{"geometry": {"type": "Point", "coordinates": [-114.0804008695, 46.6316877611]}, "type": "Feature", "properties": {"collection_times": [{"days": "Mon-Fri", "time": "4:45pm"}, {"days": "Sat", "time": "11:30am"}, {"days": "Sun", "time": "Closed"}], "id": "5983300004", "name": "USPS COLLECTION BOX - PO LOBBY", "address": {"city": "FLORENCE", "state": "MT", "street": "268 HOLLOWAY LN", "postcode": "59833"}}},
{"geometry": {"type": "Point", "coordinates": [-114.0804008695, 46.6316877611]}, "type": "Feature", "properties": {"collection_times": [{"days": "Mon-Fri", "time": "4:45pm"}, {"days": "Sat", "time": "11:30am"}, {"days": "Sun", "time": "Closed"}], "id": "5983300005", "name": "USPS COLLECTION BOX - PO LOBBY", "address": {"city": "FLORENCE", "state": "MT", "street": "268 HOLLOWAY LN", "postcode": "59833"}}},
{"geometry": {"type": "Point", "coordinates": [-114.2600764051, 47.0334194741]}, "type": "Feature", "properties": {"collection_times": [{"days": "Mon-Fri", "time": "4:45pm"}, {"days": "Sat", "time": "3:25pm"}, {"days": "Sun", "time": "Closed"}], "id": "5983400006", "name": "USPS COLLECTION BOX - BLUE BOX", "address": {"city": "FRENCHTOWN", "state": "MT", "street": "16600 BECKWITH ST", "postcode": "59834"}}},
{"geometry": {"type": "Point", "coordinates": [-114.2600764051, 47.0334194741]}, "type": "Feature", "properties": {"collection_times": [{"days": "Mon-Fri", "time": "4:45pm"}, {"days": "Sat", "time": "10:45am"}, {"days": "Sun", "time": "Closed"}], "id": "5983400007", "name": "USPS COLLECTION BOX - PO LOBBY", "address": {"city": "FRENCHTOWN", "state": "MT", "street": "16600 BECKWITH ST", "postcode": "59834"}}},
{"geometry": {"type": "Point", "coordinates": [-114.2600764051, 47.0334194741]}, "type": "Feature", "properties": {"collection_times": [{"days": "Mon-Fri", "time": "4:45pm"}, {"days": "Sat", "time": "10:45am"}, {"days": "Sun", "time": "Closed"}], "id": "5983400008", "name": "USPS COLLECTION BOX - PO LOBBY", "address": {"city": "FRENCHTOWN", "state": "MT", "street": "16600 BECKWITH ST", "postcode": "59834"}}},
{"geometry": {"type": "Point", "coordinates": [-114.2600764051, 47.0334194741]}, "type": "Feature", "properties": {"collection_times": [{"days": "Mon-Fri", "time": "4:45pm"}, {"days": "Sat", "time": "10:45am"}, {"days": "Sun", "time": "Closed"}], "id": "5983400009", "name": "USPS COLLECTION BOX - PO LOBBY", "address": {"city": "FRENCHTOWN", "state": "MT", "street": "16600 BECKWITH ST", "postcode": "59834"}}},
{"geometry": {"type": "Point", "coordinates": [-113.240389808, 46.5853232028]}, "type": "Feature", "properties": {"collection_times": [{"days": "Mon-Fri", "time": "4:45pm"}, {"days": "Sat", "time": "3:00pm"}, {"days": "Sun", "time": "Closed"}], "id": "5983700000", "name": "USPS COLLECTION BOX - BLUE BOX", "address": {"city": "HALL", "state": "MT", "street": "101 E MAIN ST", "postcode": "59837"}}},
{"geometry": {"type": "Point", "coordinates": [-113.240389808, 46.5853232028]}, "type": "Feature", "properties": {"collection_times": [{"days": "Mon-Fri", "time": "1:00pm"}, {"days": "Sat", "time": "9:45am"}, {"days": "Sun", "time": "Closed"}], "id": "5983700001", "name": "USPS COLLECTION BOX - PO LOBBY", "address": {"city": "HALL", "state": "MT", "street": "101 E MAIN ST", "postcode": "59837"}}},
{"geometry": {"type": "Point", "coordinates": [-113.240389808, 46.5853232028]}, "type": "Feature", "properties": {"collection_times": [{"days": "Mon-Fri", "time": "1:00pm"}, {"days": "Sat", "time": "9:45am"}, {"days": "Sun", "time": "Closed"}], "id": "5983700002", "name": "USPS COLLECTION BOX - PO LOBBY", "address": {"city": "HALL", "state": "MT", "street": "101 E MAIN ST", "postcode": "59837"}}},
{"geometry": {"type": "Point", "coordinates": [-114.154863172, 46.2407463489]}, "type": "Feature", "properties": {"collection_times": [{"days": "Mon-Sat", "time": "4:30pm"}, {"days": "Sun", "time": "Closed"}], "id": "5984000001", "name": "USPS COLLECTION BOX - BLUE BOX", "address": {"city": "HAMILTON", "state": "MT", "street": "711 S 1ST ST", "postcode": "59840"}}},
{"geometry": {"type": "Point", "coordinates": [-114.1601298864, 46.2473938575]}, "type": "Feature", "properties": {"collection_times": [{"days": "Mon-Sat", "time": "5:00pm"}, {"days": "Sun", "time": "Closed"}], "id": "5984000005", "name": "USPS COLLECTION BOX - BLUE BOX", "address": {"city": "HAMILTON", "state": "MT", "street": "150 N 4TH ST", "postcode": "59840"}}},
{"geometry": {"type": "Point", "coordinates": [-114.1589290221, 46.2372059063]}, "type": "Feature", "properties": {"collection_times": [{"days": "Mon-Sat", "time": "5:00pm"}, {"days": "Sun", "time": "Closed"}], "id": "5984000012", "name": "USPS COLLECTION BOX - BLUE BOX", "address": {"city": "HAMILTON", "state": "MT", "street": "150 N 4TH ST", "postcode": "59840"}}},
{"geometry": {"type": "Point", "coordinates": [-114.1548366788, 46.2419041605]}, "type": "Feature", "properties": {"collection_times": [{"days": "Mon-Sat", "time": "4:30pm"}, {"days": "Sun", "time": "Closed"}], "id": "5984000016", "name": "USPS COLLECTION BOX - BLUE BOX", "address": {"city": "HAMILTON", "state": "MT", "street": "600 S 1ST ST", "postcode": "59840"}}},
{"geometry": {"type": "Point", "coordinates": [-114.1601298864, 46.2473938575]}, "type": "Feature", "properties": {"collection_times": [{"days": "Mon-Sat", "time": "5:00pm"}, {"days": "Sun", "time": "Closed"}], "id": "5984000017", "name": "USPS COLLECTION BOX - BLUE BOX", "address": {"city": "HAMILTON", "state": "MT", "street": "150 N 4TH ST", "postcode": "59840"}}},
{"geometry": {"type": "Point", "coordinates": [-114.1611277765, 46.2773086038]}, "type": "Feature", "properties": {"collection_times": [{"days": "Mon-Sat", "time": "4:45pm"}, {"days": "Sun", "time": "Closed"}], "id": "5984000020", "name": "USPS COLLECTION BOX - BLUE BOX", "address": {"city": "HAMILTON", "state": "MT", "street": "1987 N 1ST ST", "postcode": "59840"}}},
{"geometry": {"type": "Point", "coordinates": [-114.1601298864, 46.2473938575]}, "type": "Feature", "properties": {"collection_times": [{"days": "Mon-Sat", "time": "5:00pm"}, {"days": "Sun", "time": "Closed"}], "id": "5984000021", "name": "USPS COLLECTION BOX - PO LOBBY", "address": {"city": "HAMILTON", "state": "MT", "street": "150 N 4TH ST", "postcode": "59840"}}},
{"geometry": {"type": "Point", "coordinates": [-114.1601298864, 46.2473938575]}, "type": "Feature", "properties": {"collection_times": [{"days": "Mon-Sat", "time": "5:00pm"}, {"days": "Sun", "time": "Closed"}], "id": "5984000022", "name": "USPS COLLECTION BOX - PO LOBBY", "address": {"city": "HAMILTON", "state": "MT", "street": "150 N 4TH ST", "postcode": "59840"}}},
{"geometry": {"type": "Point", "coordinates": [-114.1601298864, 46.2473938575]}, "type": "Feature", "properties": {"collection_times": [{"days": "Mon-Sat", "time": "5:00pm"}, {"days": "Sun", "time": "Closed"}], "id": "5984000023", "name": "USPS COLLECTION BOX - PO LOBBY", "address": {"city": "HAMILTON", "state": "MT", "street": "150 N 4TH ST", "postcode": "59840"}}},
{"geometry": {"type": "Point", "coordinates": [-114.1579307552, 46.2727773039]}, "type": "Feature", "properties": {"collection_times": [{"days": "Mon-Sat", "time": "4:45pm"}, {"days": "Sun", "time": "Closed"}], "id": "5984000024", "name": "USPS COLLECTION BOX - BLUE BOX", "address": {"city": "HAMILTON", "state": "MT", "street": "1782 N 1ST ST", "postcode": "59840"}}},
{"geometry": {"type": "Point", "coordinates": [-114.156927617, 46.2448875595]}, "type": "Feature", "properties": {"collection_times": [{"days": "Mon-Sat", "time": "4:30pm"}, {"days": "Sun", "time": "Closed"}], "id": "5984000025", "name": "USPS COLLECTION BOX - BLUE BOX", "address": {"city": "HAMILTON", "state": "MT", "street": "205 BEDFORD ST", "postcode": "59840"}}},
{"geometry": {"type": "Point", "coordinates": [-114.1601298864, 46.2473938575]}, "type": "Feature", "properties": {"collection_times": [{"days": "Mon-Sat", "time": "5:00pm"}, {"days": "Sun", "time": "Closed"}], "id": "5984000026", "name": "USPS COLLECTION BOX - PO LOBBY", "address": {"city": "HAMILTON", "state": "MT", "street": "150 N 4TH ST", "postcode": "59840"}}},
{"geometry": {"type": "Point", "coordinates": [-114.1601298864, 46.2473938575]}, "type": "Feature", "properties": {"collection_times": [{"days": "Mon-Sat", "time": "5:00pm"}, {"days": "Sun", "time": "Closed"}], "id": "5984000027", "name": "USPS COLLECTION BOX - PO LOBBY", "address": {"city": "HAMILTON", "state": "MT", "street": "150 N 4TH ST", "postcode": "59840"}}},
{"geometry": {"type": "Point", "coordinates": [-114.1601298864, 46.2473938575]}, "type": "Feature", "properties": {"collection_times": [{"days": "Mon-Sat", "time": "5:00pm"}, {"days": "Sun", "time": "Closed"}], "id": "5984000028", "name": "USPS COLLECTION BOX - PO LOBBY", "address": {"city": "HAMILTON", "state": "MT", "street": "150 N 4TH ST", "postcode": "59840"}}},
{"geometry": {"type": "Point", "coordinates": [-114.1589290221, 46.2372059063]}, "type": "Feature", "properties": {"collection_times": [{"days": "Mon-Sat", "time": "5:00pm"}, {"days": "Sun", "time": "Closed"}], "id": "5984000029", "name": "USPS COLLECTION BOX - BLUE BOX", "address": {"city": "HAMILTON", "state": "MT", "street": "150 N 4TH ST", "postcode": "59840"}}},
{"geometry": {"type": "Point", "coordinates": [-114.1589290221, 46.2372059063]}, "type": "Feature", "properties": {"collection_times": [{"days": "Mon-Sat", "time": "10:00am"}, {"days": "Sun", "time": "Closed"}], "id": "5984000031", "name": "USPS COLLECTION BOX - BLUE BOX", "address": {"city": "HAMILTON", "state": "MT", "street": "25 E 16TH ST", "postcode": "59840"}}},
{"geometry": {"type": "Point", "coordinates": [-114.1573592775, 46.2614161819]}, "type": "Feature", "properties": {"collection_times": [{"days": "Mon-Sat", "time": "4:45pm"}, {"days": "Sun", "time": "Closed"}], "id": "5984000033", "name": "USPS COLLECTION BOX - BLUE BOX", "address": {"city": "HAMILTON", "state": "MT", "street": "1313 N 1ST ST", "postcode": "59840"}}},
{"geometry": {"type": "Point", "coordinates": [-112.9344890921, 46.8535883865]}, "type": "Feature", "properties": {"collection_times": [{"days": "Mon-Fri", "time": "1:45pm"}, {"days": "Sat", "time": "10:45am"}, {"days": "Sun", "time": "Closed"}], "id": "5984300000", "name": "USPS COLLECTION BOX - BLUE BOX", "address": {"city": "HELMVILLE", "state": "MT", "street": "508 S MAIN ST", "postcode": "59843"}}},
{"geometry": {"type": "Point", "coordinates": [-112.9344890921, 46.8535883865]}, "type": "Feature", "properties": {"collection_times": [{"days": "Mon-Fri", "time": "1:45pm"}, {"days": "Sat", "time": "10:45am"}, {"days": "Sun", "time": "Closed"}], "id": "5984300001", "name": "USPS COLLECTION BOX - PO LOBBY", "address": {"city": "HELMVILLE", "state": "MT", "street": "508 S MAIN ST", "postcode": "59843"}}},
{"geometry": {"type": "Point", "coordinates": [-115.9805933926, 48.0652149799]}, "type": "Feature", "properties": {"collection_times": [{"days": "Mon-Fri", "time": "2:15pm"}, {"days": "Sat", "time": "12:00pm"}, {"days": "Sun", "time": "Closed"}], "id": "5984400000", "name": "USPS COLLECTION BOX - BLUE BOX", "address": {"city": "HERON", "state": "MT", "street": "128 RAILROAD AVE", "postcode": "59844"}}},
{"geometry": {"type": "Point", "coordinates": [-115.9805933926, 48.0652149799]}, "type": "Feature", "properties": {"collection_times": [{"days": "Mon-Fri", "time": "2:30pm"}, {"days": "Sat", "time": "12:00pm"}, {"days": "Sun", "time": "Closed"}], "id": "5984400001", "name": "USPS COLLECTION BOX - PO LOBBY", "address": {"city": "HERON", "state": "MT", "street": "128 RAILROAD AVE", "postcode": "59844"}}},
{"geometry": {"type": "Point", "coordinates": [-115.9805933926, 48.0652149799]}, "type": "Feature", "properties": {"collection_times": [{"days": "Mon-Fri", "time": "2:30pm"}, {"days": "Sat", "time": "12:00pm"}, {"days": "Sun", "time": "Closed"}], "id": "5984400002", "name": "USPS COLLECTION BOX - PO LOBBY", "address": {"city": "HERON", "state": "MT", "street": "128 RAILROAD AVE", "postcode": "59844"}}},
{"geometry": {"type": "Point", "coordinates": [-114.668890617, 47.6084228718]}, "type": "Feature", "properties": {"collection_times": [{"days": "Mon-Fri", "time": "3:45pm"}, {"days": "Sat", "time": "12:00pm"}, {"days": "Sun", "time": "Closed"}], "id": "5984500000", "name": "USPS COLLECTION BOX - BLUE BOX", "address": {"city": "HOT SPRINGS", "state": "MT", "street": "111 SPRING ST", "postcode": "59845"}}},
{"geometry": {"type": "Point", "coordinates": [-114.668890617, 47.6084228718]}, "type": "Feature", "properties": {"collection_times": [{"days": "Mon-Fri", "time": "3:45pm"}, {"days": "Sat", "time": "12:00pm"}, {"days": "Sun", "time": "Closed"}], "id": "5984500002", "name": "USPS COLLECTION BOX - PO LOBBY", "address": {"city": "HOT SPRINGS", "state": "MT", "street": "111 SPRING ST", "postcode": "59845"}}},
{"geometry": {"type": "Point", "coordinates": [-114.668890617, 47.6084228718]}, "type": "Feature", "properties": {"collection_times": [{"days": "Mon-Fri", "time": "3:45pm"}, {"days": "Sat", "time": "12:00pm"}, {"days": "Sun", "time": "Closed"}], "id": "5984500003", "name": "USPS COLLECTION BOX - PO LOBBY", "address": {"city": "HOT SPRINGS", "state": "MT", "street": "111 SPRING ST", "postcode": "59845"}}},
{"geometry": {"type": "Point", "coordinates": [-114.668890617, 47.6084228718]}, "type": "Feature", "properties": {"collection_times": [{"days": "Mon-Fri", "time": "3:45pm"}, {"days": "Sat", "time": "12:00pm"}, {"days": "Sun", "time": "Closed"}], "id": "5984500004", "name": "USPS COLLECTION BOX - PO LOBBY", "address": {"city": "HOT SPRINGS", "state": "MT", "street": "111 SPRING ST", "postcode": "59845"}}},
{"geometry": {"type": "Point", "coordinates": [-114.668890617, 47.6084228718]}, "type": "Feature", "properties": {"collection_times": [{"days": "Mon-Fri", "time": "3:45pm"}, {"days": "Sat", "time": "12:00pm"}, {"days": "Sun", "time": "Closed"}], "id": "5984500005", "name": "USPS COLLECTION BOX - PO LOBBY", "address": {"city": "HOT SPRINGS", "state": "MT", "street": "111 SPRING ST", "postcode": "59845"}}},
{"geometry": {"type": "Point", "coordinates": [-114.0826174918, 46.7480127364]}, "type": "Feature", "properties": {"collection_times": [{"days": "Mon-Sat", "time": "6:00pm"}, {"days": "Sun", "time": "Closed"}], "id": "5984700001", "name": "USPS COLLECTION BOX - BLUE BOX", "address": {"city": "LOLO", "state": "MT", "street": "11350 US HIGHWAY 93 S", "postcode": "59847"}}},
{"geometry": {"type": "Point", "coordinates": [-113.881586942, 46.8717479582]}, "type": "Feature", "properties": {"collection_times": [{"days": "Mon-Sat", "time": "4:30pm"}, {"days": "Sun", "time": "Closed"}], "id": "5985100000", "name": "USPS COLLECTION BOX - BLUE BOX", "address": {"city": "MILLTOWN", "state": "MT", "street": "7298 MT HIGHWAY 200 E", "postcode": "59851"}}},
{"geometry": {"type": "Point", "coordinates": [-113.881586942, 46.8717479582]}, "type": "Feature", "properties": {"collection_times": [{"days": "Mon-Sat", "time": "5:00pm"}, {"days": "Sun", "time": "Closed"}], "id": "5985100001", "name": "USPS COLLECTION BOX - BLUE BOX", "address": {"city": "MILLTOWN", "state": "MT", "street": "7985 MT HIGHWAY 200 E", "postcode": "59851"}}},
{"geometry": {"type": "Point", "coordinates": [-113.881586942, 46.8717479582]}, "type": "Feature", "properties": {"collection_times": [{"days": "Mon-Fri", "time": "4:30pm"}, {"days": "Sat", "time": "9:00am"}, {"days": "Sun", "time": "Closed"}], "id": "5985100002", "name": "USPS COLLECTION BOX - PO LOBBY", "address": {"city": "MILLTOWN", "state": "MT", "street": "7298 MT HIGHWAY 200 E", "postcode": "59851"}}},
{"geometry": {"type": "Point", "coordinates": [-113.881586942, 46.8717479582]}, "type": "Feature", "properties": {"collection_times": [{"days": "Mon-Fri", "time": "4:30pm"}, {"days": "Sat", "time": "9:00am"}, {"days": "Sun", "time": "Closed"}], "id": "5985100003", "name": "USPS COLLECTION BOX - PO LOBBY", "address": {"city": "MILLTOWN", "state": "MT", "street": "7298 MT HIGHWAY 200 E", "postcode": "59851"}}},
{"geometry": {"type": "Point", "coordinates": [-113.881586942, 46.8717479582]}, "type": "Feature", "properties": {"collection_times": [{"days": "Mon-Fri", "time": "4:30pm"}, {"days": "Sat", "time": "9:00am"}, {"days": "Sun", "time": "Closed"}], "id": "5985100004", "name": "USPS COLLECTION BOX - PO LOBBY", "address": {"city": "MILLTOWN", "state": "MT", "street": "7298 MT HIGHWAY 200 E", "postcode": "59851"}}},
{"geometry": {"type": "Point", "coordinates": [-113.881586942, 46.8717479582]}, "type": "Feature", "properties": {"collection_times": [{"days": "Mon-Fri", "time": "4:30pm"}, {"days": "Sat", "time": "9:00am"}, {"days": "Sun", "time": "Closed"}], "id": "5985100005", "name": "USPS COLLECTION BOX - PO LOBBY", "address": {"city": "MILLTOWN", "state": "MT", "street": "7298 MT HIGHWAY 200 E", "postcode": "59851"}}},
{"geometry": {"type": "Point", "coordinates": [-115.7276256958, 48.099318996]}, "type": "Feature", "properties": {"collection_times": [{"days": "Mon-Fri", "time": "3:00pm"}, {"days": "Sat", "time": "11:30am"}, {"days": "Sun", "time": "Closed"}], "id": "5985300000", "name": "USPS COLLECTION BOX - PO LOBBY", "address": {"city": "NOXON", "state": "MT", "street": "110 EVANS ST", "postcode": "59853"}}},
{"geometry": {"type": "Point", "coordinates": [-115.7276256958, 48.099318996]}, "type": "Feature", "properties": {"collection_times": [{"days": "Mon-Fri", "time": "3:00pm"}, {"days": "Sat", "time": "11:30am"}, {"days": "Sun", "time": "Closed"}], "id": "5985300001", "name": "USPS COLLECTION BOX - PO LOBBY", "address": {"city": "NOXON", "state": "MT", "street": "110 EVANS ST", "postcode": "59853"}}},
{"geometry": {"type": "Point", "coordinates": [-113.1871498514, 47.2560617794]}, "type": "Feature", "properties": {"collection_times": [{"days": "Mon-Sat", "time": "10:30am"}, {"days": "Sun", "time": "Closed"}], "id": "5985400000", "name": "USPS COLLECTION BOX - BLUE BOX", "address": {"city": "OVANDO", "state": "MT", "street": "312 MAIN ST", "postcode": "59854"}}},
{"geometry": {"type": "Point", "coordinates": [-113.1871498514, 47.2560617794]}, "type": "Feature", "properties": {"collection_times": [{"days": "Mon-Sat", "time": "10:30am"}, {"days": "Sun", "time": "Closed"}], "id": "5985400001", "name": "USPS COLLECTION BOX - PO LOBBY", "address": {"city": "OVANDO", "state": "MT", "street": "312 MAIN ST", "postcode": "59854"}}},
{"geometry": {"type": "Point", "coordinates": [-114.1194462441, 47.5991088998]}, "type": "Feature", "properties": {"collection_times": [{"days": "Mon-Fri", "time": "4:45pm"}, {"days": "Sat", "time": "10:45am"}, {"days": "Sun", "time": "Closed"}], "id": "5985500000", "name": "USPS COLLECTION BOX - PO LOBBY", "address": {"city": "PABLO", "state": "MT", "street": "42025 OLD US HIGHWAY 93", "postcode": "59855"}}},
{"geometry": {"type": "Point", "coordinates": [-114.1194462441, 47.5991088998]}, "type": "Feature", "properties": {"collection_times": [{"days": "Mon-Fri", "time": "4:45pm"}, {"days": "Sat", "time": "3:30pm"}, {"days": "Sun", "time": "Closed"}], "id": "5985500001", "name": "USPS COLLECTION BOX - BLUE BOX", "address": {"city": "PABLO", "state": "MT", "street": "42025 OLD US HIGHWAY 93", "postcode": "59855"}}},
{"geometry": {"type": "Point", "coordinates": [-114.1194462441, 47.5991088998]}, "type": "Feature", "properties": {"collection_times": [{"days": "Mon-Fri", "time": "4:45pm"}, {"days": "Sat", "time": "10:45am"}, {"days": "Sun", "time": "Closed"}], "id": "5985500002", "name": "USPS COLLECTION BOX - PO LOBBY", "address": {"city": "PABLO", "state": "MT", "street": "42025 OLD US HIGHWAY 93", "postcode": "59855"}}},
{"geometry": {"type": "Point", "coordinates": [-114.8024318074, 47.3890785138]}, "type": "Feature", "properties": {"collection_times": [{"days": "Mon-Fri", "time": "4:30pm"}, {"days": "Sat", "time": "4:00pm"}, {"days": "Sun", "time": "Closed"}], "id": "5985600000", "name": "USPS COLLECTION BOX - BLUE BOX", "address": {"city": "PARADISE", "state": "MT", "street": "5 MCLAUGHLIN CREEK RD", "postcode": "59856"}}},
{"geometry": {"type": "Point", "coordinates": [-114.8024318074, 47.3890785138]}, "type": "Feature", "properties": {"collection_times": [{"days": "Mon-Fri", "time": "1:00pm"}, {"days": "Sat", "time": "8:30am"}, {"days": "Sun", "time": "Closed"}], "id": "5985600001", "name": "USPS COLLECTION BOX - PO LOBBY", "address": {"city": "PARADISE", "state": "MT", "street": "5 MCLAUGHLIN CREEK RD", "postcode": "59856"}}},
{"geometry": {"type": "Point", "coordinates": [-114.8024318074, 47.3890785138]}, "type": "Feature", "properties": {"collection_times": [{"days": "Mon-Fri", "time": "1:00pm"}, {"days": "Sat", "time": "8:30am"}, {"days": "Sun", "time": "Closed"}], "id": "5985600002", "name": "USPS COLLECTION BOX - PO LOBBY", "address": {"city": "PARADISE", "state": "MT", "street": "5 MCLAUGHLIN CREEK RD", "postcode": "59856"}}},
{"geometry": {"type": "Point", "coordinates": [-113.2925050816, 46.3317780894]}, "type": "Feature", "properties": {"collection_times": [{"days": "Mon-Fri", "time": "4:15pm"}, {"days": "Sat", "time": "3:15pm"}, {"days": "Sun", "time": "Closed"}], "id": "5985800000", "name": "USPS COLLECTION BOX - BLUE BOX", "address": {"city": "PHILIPSBURG", "state": "MT", "street": "234 E BROADWAY ST", "postcode": "59858"}}},
{"geometry": {"type": "Point", "coordinates": [-113.2925050816, 46.3317780894]}, "type": "Feature", "properties": {"collection_times": [{"days": "Mon-Fri", "time": "4:15pm"}, {"days": "Sat", "time": "11:00am"}, {"days": "Sun", "time": "Closed"}], "id": "5985800002", "name": "USPS COLLECTION BOX - PO LOBBY", "address": {"city": "PHILIPSBURG", "state": "MT", "street": "234 E BROADWAY ST", "postcode": "59858"}}},
{"geometry": {"type": "Point", "coordinates": [-113.2925050816, 46.3317780894]}, "type": "Feature", "properties": {"collection_times": [{"days": "Mon-Fri", "time": "4:15pm"}, {"days": "Sat", "time": "11:00am"}, {"days": "Sun", "time": "Closed"}], "id": "5985800003", "name": "USPS COLLECTION BOX - PO LOBBY", "address": {"city": "PHILIPSBURG", "state": "MT", "street": "234 E BROADWAY ST", "postcode": "59858"}}},
{"geometry": {"type": "Point", "coordinates": [-113.2925050816, 46.3317780894]}, "type": "Feature", "properties": {"collection_times": [{"days": "Mon-Fri", "time": "4:15pm"}, {"days": "Sat", "time": "11:00am"}, {"days": "Sun", "time": "Closed"}], "id": "5985800004", "name": "USPS COLLECTION BOX - PO LOBBY", "address": {"city": "PHILIPSBURG", "state": "MT", "street": "234 E BROADWAY ST", "postcode": "59858"}}},
{"geometry": {"type": "Point", "coordinates": [-113.2925050816, 46.3317780894]}, "type": "Feature", "properties": {"collection_times": [{"days": "Mon-Fri", "time": "4:15pm"}, {"days": "Sat", "time": "11:00am"}, {"days": "Sun", "time": "Closed"}], "id": "5985800005", "name": "USPS COLLECTION BOX - PO LOBBY", "address": {"city": "PHILIPSBURG", "state": "MT", "street": "234 E BROADWAY ST", "postcode": "59858"}}},
{"geometry": {"type": "Point", "coordinates": [-114.8875780981, 47.4615797559]}, "type": "Feature", "properties": {"collection_times": [{"days": "Mon-Sat", "time": "4:30pm"}, {"days": "Sun", "time": "Closed"}], "id": "5985900000", "name": "USPS COLLECTION BOX - BLUE BOX", "address": {"city": "PLAINS", "state": "MT", "street": "310 W MEANY ST", "postcode": "59859"}}},
{"geometry": {"type": "Point", "coordinates": [-114.8875780981, 47.4615797559]}, "type": "Feature", "properties": {"collection_times": [{"days": "Mon-Fri", "time": "4:30pm"}, {"days": "Sat", "time": "12:00pm"}, {"days": "Sun", "time": "Closed"}], "id": "5985900001", "name": "USPS COLLECTION BOX - PO LOBBY", "address": {"city": "PLAINS", "state": "MT", "street": "310 W MEANY ST", "postcode": "59859"}}},
{"geometry": {"type": "Point", "coordinates": [-114.8875780981, 47.4615797559]}, "type": "Feature", "properties": {"collection_times": [{"days": "Mon-Fri", "time": "4:30pm"}, {"days": "Sat", "time": "12:00pm"}, {"days": "Sun", "time": "Closed"}], "id": "5985900002", "name": "USPS COLLECTION BOX - PO LOBBY", "address": {"city": "PLAINS", "state": "MT", "street": "310 W MEANY ST", "postcode": "59859"}}},
{"geometry": {"type": "Point", "coordinates": [-114.8875780981, 47.4615797559]}, "type": "Feature", "properties": {"collection_times": [{"days": "Mon-Fri", "time": "4:30pm"}, {"days": "Sat", "time": "12:00pm"}, {"days": "Sun", "time": "Closed"}], "id": "5985900003", "name": "USPS COLLECTION BOX - PO LOBBY", "address": {"city": "PLAINS", "state": "MT", "street": "310 W MEANY ST", "postcode": "59859"}}},
{"geometry": {"type": "Point", "coordinates": [-114.8875780981, 47.4615797559]}, "type": "Feature", "properties": {"collection_times": [{"days": "Mon-Fri", "time": "4:30pm"}, {"days": "Sat", "time": "12:00pm"}, {"days": "Sun", "time": "Closed"}], "id": "5985900004", "name": "USPS COLLECTION BOX - PO LOBBY", "address": {"city": "PLAINS", "state": "MT", "street": "310 W MEANY ST", "postcode": "59859"}}},
{"geometry": {"type": "Point", "coordinates": [-114.1410581674, 47.6927089666]}, "type": "Feature", "properties": {"collection_times": [{"days": "Mon-Sat", "time": "2:00pm"}, {"days": "Sun", "time": "Closed"}], "id": "5986000000", "name": "USPS COLLECTION BOX - BLUE BOX", "address": {"city": "POLSON", "state": "MT", "street": "1306 US HIGHWAY 93 E", "postcode": "59860"}}},
{"geometry": {"type": "Point", "coordinates": [-114.1617539743, 47.6923773198]}, "type": "Feature", "properties": {"collection_times": [{"days": "Mon-Fri", "time": "4:30pm"}, {"days": "Sat", "time": "2:00pm"}, {"days": "Sun", "time": "Closed"}], "id": "5986000004", "name": "USPS COLLECTION BOX - BLUE BOX", "address": {"city": "POLSON", "state": "MT", "street": "105 4TH AVE E", "postcode": "59860"}}},
{"geometry": {"type": "Point", "coordinates": [-114.1617539743, 47.6923773198]}, "type": "Feature", "properties": {"collection_times": [{"days": "Mon-Fri", "time": "4:30pm"}, {"days": "Sat", "time": "2:00pm"}, {"days": "Sun", "time": "Closed"}], "id": "5986000005", "name": "USPS COLLECTION BOX - BLUE BOX", "address": {"city": "POLSON", "state": "MT", "street": "105 4TH AVE E", "postcode": "59860"}}},
{"geometry": {"type": "Point", "coordinates": [-114.1223294067, 47.6890971382]}, "type": "Feature", "properties": {"collection_times": [{"days": "Mon-Sat", "time": "10:30am"}, {"days": "Sun", "time": "Closed"}], "id": "5986000008", "name": "USPS COLLECTION BOX - BLUE BOX", "address": {"city": "POLSON", "state": "MT", "street": "146 S SHORE RTE", "postcode": "59860"}}},
{"geometry": {"type": "Point", "coordinates": [-114.1617539743, 47.6923773198]}, "type": "Feature", "properties": {"collection_times": [{"days": "Mon-Fri", "time": "4:30pm"}, {"days": "Sat", "time": "2:00pm"}, {"days": "Sun", "time": "Closed"}], "id": "5986000009", "name": "USPS COLLECTION BOX - PO LOBBY", "address": {"city": "POLSON", "state": "MT", "street": "105 4TH AVE E", "postcode": "59860"}}},
{"geometry": {"type": "Point", "coordinates": [-114.1617539743, 47.6923773198]}, "type": "Feature", "properties": {"collection_times": [{"days": "Mon-Fri", "time": "4:30pm"}, {"days": "Sat", "time": "2:00pm"}, {"days": "Sun", "time": "Closed"}], "id": "5986000010", "name": "USPS COLLECTION BOX - PO LOBBY", "address": {"city": "POLSON", "state": "MT", "street": "105 4TH AVE E", "postcode": "59860"}}},
{"geometry": {"type": "Point", "coordinates": [-114.1617539743, 47.6923773198]}, "type": "Feature", "properties": {"collection_times": [{"days": "Mon-Fri", "time": "4:30pm"}, {"days": "Sat", "time": "2:00pm"}, {"days": "Sun", "time": "Closed"}], "id": "5986000011", "name": "USPS COLLECTION BOX - PO LOBBY", "address": {"city": "POLSON", "state": "MT", "street": "105 4TH AVE E", "postcode": "59860"}}},
{"geometry": {"type": "Point", "coordinates": [-114.1617539743, 47.6923773198]}, "type": "Feature", "properties": {"collection_times": [{"days": "Mon-Fri", "time": "4:30pm"}, {"days": "Sat", "time": "2:00pm"}, {"days": "Sun", "time": "Closed"}], "id": "5986000012", "name": "USPS COLLECTION BOX - PO LOBBY", "address": {"city": "POLSON", "state": "MT", "street": "105 4TH AVE E", "postcode": "59860"}}},
{"geometry": {"type": "Point", "coordinates": [-114.1013325372, 47.5277294928]}, "type": "Feature", "properties": {"collection_times": [{"days": "Mon-Sat", "time": "5:00pm"}, {"days": "Sun", "time": "Closed"}], "id": "5986400000", "name": "USPS COLLECTION BOX - BLUE BOX", "address": {"city": "RONAN", "state": "MT", "street": "222 ADAMS ST SW", "postcode": "59864"}}},
{"geometry": {"type": "Point", "coordinates": [-114.0971038969, 47.5147414961]}, "type": "Feature", "properties": {"collection_times": [{"days": "Mon-Sat", "time": "10:45am"}, {"days": "Sun", "time": "Closed"}], "id": "5986400003", "name": "USPS COLLECTION BOX - BLUE BOX", "address": {"city": "RONAN", "state": "MT", "street": "1124 US HIGHWAY 93 S", "postcode": "59864"}}},
{"geometry": {"type": "Point", "coordinates": [-114.1013325372, 47.5277294928]}, "type": "Feature", "properties": {"collection_times": [{"days": "Mon-Fri", "time": "5:15pm"}, {"days": "Sat", "time": "12:00pm"}, {"days": "Sun", "time": "Closed"}], "id": "5986400007", "name": "USPS COLLECTION BOX - PO LOBBY", "address": {"city": "RONAN", "state": "MT", "street": "222 ADAMS ST SW", "postcode": "59864"}}},
{"geometry": {"type": "Point", "coordinates": [-114.1013325372, 47.5277294928]}, "type": "Feature", "properties": {"collection_times": [{"days": "Mon-Fri", "time": "5:15pm"}, {"days": "Sat", "time": "12:00pm"}, {"days": "Sun", "time": "Closed"}], "id": "5986400008", "name": "USPS COLLECTION BOX - PO LOBBY", "address": {"city": "RONAN", "state": "MT", "street": "222 ADAMS ST SW", "postcode": "59864"}}},
{"geometry": {"type": "Point", "coordinates": [-114.1013325372, 47.5277294928]}, "type": "Feature", "properties": {"collection_times": [{"days": "Mon-Fri", "time": "5:15pm"}, {"days": "Sat", "time": "12:00pm"}, {"days": "Sun", "time": "Closed"}], "id": "5986400009", "name": "USPS COLLECTION BOX - PO LOBBY", "address": {"city": "RONAN", "state": "MT", "street": "222 ADAMS ST SW", "postcode": "59864"}}},
{"geometry": {"type": "Point", "coordinates": [-114.0950772223, 47.3180031537]}, "type": "Feature", "properties": {"collection_times": [{"days": "Mon-Fri", "time": "3:45pm"}, {"days": "Sat", "time": "4:30pm"}, {"days": "Sun", "time": "Closed"}], "id": "5986500000", "name": "USPS COLLECTION BOX - BLUE BOX", "address": {"city": "SAINT IGNATIUS", "state": "MT", "street": "120 1ST AVE", "postcode": "59865"}}},
{"geometry": {"type": "Point", "coordinates": [-114.0950772223, 47.3180031537]}, "type": "Feature", "properties": {"collection_times": [{"days": "Mon-Fri", "time": "5:00pm"}, {"days": "Sat", "time": "10:00am"}, {"days": "Sun", "time": "Closed"}], "id": "5986500001", "name": "USPS COLLECTION BOX - PO LOBBY", "address": {"city": "SAINT IGNATIUS", "state": "MT", "street": "120 1ST AVE", "postcode": "59865"}}},
{"geometry": {"type": "Point", "coordinates": [-114.0950772223, 47.3180031537]}, "type": "Feature", "properties": {"collection_times": [{"days": "Mon-Fri", "time": "5:00pm"}, {"days": "Sat", "time": "10:00am"}, {"days": "Sun", "time": "Closed"}], "id": "5986500002", "name": "USPS COLLECTION BOX - PO LOBBY", "address": {"city": "SAINT IGNATIUS", "state": "MT", "street": "120 1ST AVE", "postcode": "59865"}}},
{"geometry": {"type": "Point", "coordinates": [-114.0950772223, 47.3180031537]}, "type": "Feature", "properties": {"collection_times": [{"days": "Mon-Fri", "time": "5:00pm"}, {"days": "Sat", "time": "10:00am"}, {"days": "Sun", "time": "Closed"}], "id": "5986500003", "name": "USPS COLLECTION BOX - PO LOBBY", "address": {"city": "SAINT IGNATIUS", "state": "MT", "street": "120 1ST AVE", "postcode": "59865"}}},
{"geometry": {"type": "Point", "coordinates": [-114.0950772223, 47.3180031537]}, "type": "Feature", "properties": {"collection_times": [{"days": "Mon-Fri", "time": "5:00pm"}, {"days": "Sat", "time": "10:00am"}, {"days": "Sun", "time": "Closed"}], "id": "5986500004", "name": "USPS COLLECTION BOX - PO LOBBY", "address": {"city": "SAINT IGNATIUS", "state": "MT", "street": "120 1ST AVE", "postcode": "59865"}}},
{"geometry": {"type": "Point", "coordinates": [-115.2446559773, 47.3652008857]}, "type": "Feature", "properties": {"collection_times": [{"days": "Mon-Fri", "time": "4:00pm"}, {"days": "Sat", "time": "2:00pm"}, {"days": "Sun", "time": "Closed"}], "id": "5986600000", "name": "USPS COLLECTION BOX - BLUE BOX", "address": {"city": "ST REGIS", "state": "MT", "street": "90 MULLAN GULCH RD", "postcode": "59866"}}},
{"geometry": {"type": "Point", "coordinates": [-115.2446559773, 47.3652008857]}, "type": "Feature", "properties": {"collection_times": [{"days": "Mon-Fri", "time": "4:30pm"}, {"days": "Sat", "time": "10:00am"}, {"days": "Sun", "time": "Closed"}], "id": "5986600004", "name": "USPS COLLECTION BOX - PO LOBBY", "address": {"city": "ST REGIS", "state": "MT", "street": "90 MULLAN GULCH RD", "postcode": "59866"}}},
{"geometry": {"type": "Point", "coordinates": [-115.2446559773, 47.3652008857]}, "type": "Feature", "properties": {"collection_times": [{"days": "Mon-Fri", "time": "4:30pm"}, {"days": "Sat", "time": "10:00am"}, {"days": "Sun", "time": "Closed"}], "id": "5986600007", "name": "USPS COLLECTION BOX - PO LOBBY", "address": {"city": "ST REGIS", "state": "MT", "street": "90 MULLAN GULCH RD", "postcode": "59866"}}},
{"geometry": {"type": "Point", "coordinates": [-113.5498591861, 47.2610586573]}, "type": "Feature", "properties": {"collection_times": [{"days": "Mon-Sat", "time": "4:00pm"}, {"days": "Sun", "time": "Closed"}], "id": "5986800000", "name": "USPS COLLECTION BOX - BLUE BOX", "address": {"city": "SEELEY LAKE", "state": "MT", "street": "3072 MT HIGHWAY 83 N", "postcode": "59868"}}},
{"geometry": {"type": "Point", "coordinates": [-114.0931805281, 46.5024000377]}, "type": "Feature", "properties": {"collection_times": [{"days": "Mon-Fri", "time": "5:00pm"}, {"days": "Sat", "time": "4:00pm"}, {"days": "Sun", "time": "Closed"}], "id": "5987000000", "name": "USPS COLLECTION BOX - BLUE BOX", "address": {"city": "STEVENSVILLE", "state": "MT", "street": "701 MAIN ST", "postcode": "59870"}}},
{"geometry": {"type": "Point", "coordinates": [-114.0934800025, 46.509592073]}, "type": "Feature", "properties": {"collection_times": [{"days": "Mon-Fri", "time": "5:00pm"}, {"days": "Sat", "time": "4:00pm"}, {"days": "Sun", "time": "Closed"}], "id": "5987000001", "name": "USPS COLLECTION BOX - BLUE BOX", "address": {"city": "STEVENSVILLE", "state": "MT", "street": "212 MAIN ST", "postcode": "59870"}}},
{"geometry": {"type": "Point", "coordinates": [-114.0931805281, 46.5024000377]}, "type": "Feature", "properties": {"collection_times": [{"days": "Mon-Fri", "time": "5:00pm"}, {"days": "Sat", "time": "1:00pm"}, {"days": "Sun", "time": "Closed"}], "id": "5987000002", "name": "USPS COLLECTION BOX - BLUE BOX", "address": {"city": "STEVENSVILLE", "state": "MT", "street": "701 MAIN ST", "postcode": "59870"}}},
{"geometry": {"type": "Point", "coordinates": [-114.0931805281, 46.5024000377]}, "type": "Feature", "properties": {"collection_times": [{"days": "Mon-Fri", "time": "4:45pm"}, {"days": "Sat", "time": "1:00pm"}, {"days": "Sun", "time": "Closed"}], "id": "5987000003", "name": "USPS COLLECTION BOX - PO LOBBY", "address": {"city": "STEVENSVILLE", "state": "MT", "street": "701 MAIN ST", "postcode": "59870"}}},
{"geometry": {"type": "Point", "coordinates": [-114.0931805281, 46.5024000377]}, "type": "Feature", "properties": {"collection_times": [{"days": "Mon-Fri", "time": "4:45pm"}, {"days": "Sat", "time": "1:00pm"}, {"days": "Sun", "time": "Closed"}], "id": "5987000005", "name": "USPS COLLECTION BOX - PO LOBBY", "address": {"city": "STEVENSVILLE", "state": "MT", "street": "701 MAIN ST", "postcode": "59870"}}},
{"geometry": {"type": "Point", "coordinates": [-114.0931805281, 46.5024000377]}, "type": "Feature", "properties": {"collection_times": [{"days": "Mon-Fri", "time": "4:45pm"}, {"days": "Sat", "time": "1:00pm"}, {"days": "Sun", "time": "Closed"}], "id": "5987000006", "name": "USPS COLLECTION BOX - PO LOBBY", "address": {"city": "STEVENSVILLE", "state": "MT", "street": "701 MAIN ST", "postcode": "59870"}}},
{"geometry": {"type": "Point", "coordinates": [-114.0931805281, 46.5024000377]}, "type": "Feature", "properties": {"collection_times": [{"days": "Mon-Fri", "time": "4:45pm"}, {"days": "Sat", "time": "1:00pm"}, {"days": "Sun", "time": "Closed"}], "id": "5987000007", "name": "USPS COLLECTION BOX - PO LOBBY", "address": {"city": "STEVENSVILLE", "state": "MT", "street": "701 MAIN ST", "postcode": "59870"}}},
{"geometry": {"type": "Point", "coordinates": [-113.9552756048, 45.8141406274]}, "type": "Feature", "properties": {"collection_times": [{"days": "Mon-Fri", "time": "3:30pm"}, {"days": "Sat", "time": "12:30pm"}, {"days": "Sun", "time": "Closed"}], "id": "5987100000", "name": "USPS COLLECTION BOX - BLUE BOX", "address": {"city": "SULA", "state": "MT", "street": "7060 US HIGHWAY 93 S", "postcode": "59871"}}},
{"geometry": {"type": "Point", "coordinates": [-113.9245044049, 45.8542125014]}, "type": "Feature", "properties": {"collection_times": [{"days": "Mon-Fri", "time": "3:45pm"}, {"days": "Sat", "time": "12:45pm"}, {"days": "Sun", "time": "Closed"}], "id": "5987100001", "name": "USPS COLLECTION BOX - PO LOBBY", "address": {"city": "SULA", "state": "MT", "street": "502 E FORK RD", "postcode": "59871"}}},
{"geometry": {"type": "Point", "coordinates": [-113.9245044049, 45.8542125014]}, "type": "Feature", "properties": {"collection_times": [{"days": "Mon-Fri", "time": "3:45pm"}, {"days": "Sat", "time": "12:45pm"}, {"days": "Sun", "time": "Closed"}], "id": "5987100002", "name": "USPS COLLECTION BOX - PO LOBBY", "address": {"city": "SULA", "state": "MT", "street": "502 E FORK RD", "postcode": "59871"}}},
{"geometry": {"type": "Point", "coordinates": [-114.8911530318, 47.1935645876]}, "type": "Feature", "properties": {"collection_times": [{"days": "Mon-Fri", "time": "4:15pm"}, {"days": "Sat", "time": "2:20pm"}, {"days": "Sun", "time": "Closed"}], "id": "5987200001", "name": "USPS COLLECTION BOX - BLUE BOX", "address": {"city": "SUPERIOR", "state": "MT", "street": "104 3RD AVE E", "postcode": "59872"}}},
{"geometry": {"type": "Point", "coordinates": [-114.8911530318, 47.1935645876]}, "type": "Feature", "properties": {"collection_times": [{"days": "Mon-Fri", "time": "4:45pm"}, {"days": "Sat", "time": "10:00am"}, {"days": "Sun", "time": "Closed"}], "id": "5987200002", "name": "USPS COLLECTION BOX - PO LOBBY", "address": {"city": "SUPERIOR", "state": "MT", "street": "104 3RD AVE E", "postcode": "59872"}}},
{"geometry": {"type": "Point", "coordinates": [-114.8911530318, 47.1935645876]}, "type": "Feature", "properties": {"collection_times": [{"days": "Mon-Fri", "time": "4:45pm"}, {"days": "Sat", "time": "10:00am"}, {"days": "Sun", "time": "Closed"}], "id": "5987200003", "name": "USPS COLLECTION BOX - PO LOBBY", "address": {"city": "SUPERIOR", "state": "MT", "street": "104 3RD AVE E", "postcode": "59872"}}},
{"geometry": {"type": "Point", "coordinates": [-114.8911530318, 47.1935645876]}, "type": "Feature", "properties": {"collection_times": [{"days": "Mon-Fri", "time": "4:45pm"}, {"days": "Sat", "time": "10:00am"}, {"days": "Sun", "time": "Closed"}], "id": "5987200004", "name": "USPS COLLECTION BOX - PO LOBBY", "address": {"city": "SUPERIOR", "state": "MT", "street": "104 3RD AVE E", "postcode": "59872"}}},
{"geometry": {"type": "Point", "coordinates": [-114.8911530318, 47.1935645876]}, "type": "Feature", "properties": {"collection_times": [{"days": "Mon-Fri", "time": "4:45pm"}, {"days": "Sat", "time": "10:00am"}, {"days": "Sun", "time": "Closed"}], "id": "5987200005", "name": "USPS COLLECTION BOX - PO LOBBY", "address": {"city": "SUPERIOR", "state": "MT", "street": "104 3RD AVE E", "postcode": "59872"}}},
{"geometry": {"type": "Point", "coordinates": [-115.4511096751, 47.5719605398]}, "type": "Feature", "properties": {"collection_times": [{"days": "Mon-Sat", "time": "4:00pm"}, {"days": "Sun", "time": "Closed"}], "id": "5987300000", "name": "USPS COLLECTION BOX - BLUE BOX", "address": {"city": "THOMPSON FALLS", "state": "MT", "street": "1611 MAIN ST", "postcode": "59873"}}},
{"geometry": {"type": "Point", "coordinates": [-115.4511096751, 47.5719605398]}, "type": "Feature", "properties": {"collection_times": [{"days": "Mon-Fri", "time": "4:15pm"}, {"days": "Sat", "time": "4:00pm"}, {"days": "Sun", "time": "Closed"}], "id": "5987300001", "name": "USPS COLLECTION BOX - BLUE BOX", "address": {"city": "THOMPSON FALLS", "state": "MT", "street": "PO BOX 203", "postcode": "59873"}}},
{"geometry": {"type": "Point", "coordinates": [-115.4511096751, 47.5719605398]}, "type": "Feature", "properties": {"collection_times": [{"days": "Mon-Fri", "time": "4:15pm"}, {"days": "Sat", "time": "11:30am"}, {"days": "Sun", "time": "Closed"}], "id": "5987300002", "name": "USPS COLLECTION BOX - PO LOBBY", "address": {"city": "THOMPSON FALLS", "state": "MT", "street": "1611 MAIN ST", "postcode": "59873"}}},
{"geometry": {"type": "Point", "coordinates": [-115.4511096751, 47.5719605398]}, "type": "Feature", "properties": {"collection_times": [{"days": "Mon-Fri", "time": "4:15pm"}, {"days": "Sat", "time": "11:30am"}, {"days": "Sun", "time": "Closed"}], "id": "5987300003", "name": "USPS COLLECTION BOX - PO LOBBY", "address": {"city": "THOMPSON FALLS", "state": "MT", "street": "1611 MAIN ST", "postcode": "59873"}}},
{"geometry": {"type": "Point", "coordinates": [-115.4511096751, 47.5719605398]}, "type": "Feature", "properties": {"collection_times": [{"days": "Mon-Sat", "time": "4:00pm"}, {"days": "Sun", "time": "Closed"}], "id": "5987300004", "name": "USPS COLLECTION BOX - BLUE BOX", "address": {"city": "THOMPSON FALLS", "state": "MT", "street": "1611 MAIN ST", "postcode": "59873"}}},
{"geometry": {"type": "Point", "coordinates": [-115.4511096751, 47.5719605398]}, "type": "Feature", "properties": {"collection_times": [{"days": "Mon-Fri", "time": "4:20pm"}, {"days": "Sat", "time": "4:10pm"}, {"days": "Sun", "time": "Closed"}], "id": "5987300005", "name": "USPS COLLECTION BOX - BLUE BOX", "address": {"city": "THOMPSON FALLS", "state": "MT", "street": "2 TRADEWINDS WAY", "postcode": "59873"}}},
{"geometry": {"type": "Point", "coordinates": [-115.4511096751, 47.5719605398]}, "type": "Feature", "properties": {"collection_times": [{"days": "Mon-Fri", "time": "4:15pm"}, {"days": "Sat", "time": "11:30am"}, {"days": "Sun", "time": "Closed"}], "id": "5987300006", "name": "USPS COLLECTION BOX - PO LOBBY", "address": {"city": "THOMPSON FALLS", "state": "MT", "street": "1611 MAIN ST", "postcode": "59873"}}},
{"geometry": {"type": "Point", "coordinates": [-115.4511096751, 47.5719605398]}, "type": "Feature", "properties": {"collection_times": [{"days": "Mon-Fri", "time": "4:15pm"}, {"days": "Sat", "time": "11:30am"}, {"days": "Sun", "time": "Closed"}], "id": "5987300007", "name": "USPS COLLECTION BOX - PO LOBBY", "address": {"city": "THOMPSON FALLS", "state": "MT", "street": "1611 MAIN ST", "postcode": "59873"}}},
{"geometry": {"type": "Point", "coordinates": [-115.6067713747, 47.8493062826]}, "type": "Feature", "properties": {"collection_times": [{"days": "Mon-Fri", "time": "3:30pm"}, {"days": "Sat", "time": "11:00am"}, {"days": "Sun", "time": "Closed"}], "id": "5987400001", "name": "USPS COLLECTION BOX - PO LOBBY", "address": {"city": "TROUT CREEK", "state": "MT", "street": "2971 MT HIGHWAY 200", "postcode": "59874"}}},
{"geometry": {"type": "Point", "coordinates": [-115.6067713747, 47.8493062826]}, "type": "Feature", "properties": {"collection_times": [{"days": "Mon-Fri", "time": "3:30pm"}, {"days": "Sat", "time": "11:00am"}, {"days": "Sun", "time": "Closed"}], "id": "5987400002", "name": "USPS COLLECTION BOX - PO LOBBY", "address": {"city": "TROUT CREEK", "state": "MT", "street": "2971 MT HIGHWAY 200", "postcode": "59874"}}},
{"geometry": {"type": "Point", "coordinates": [-114.1473862262, 46.4181296587]}, "type": "Feature", "properties": {"collection_times": [{"days": "Mon-Sat", "time": "5:45pm"}, {"days": "Sun", "time": "Closed"}], "id": "5987500001", "name": "USPS COLLECTION BOX - BLUE BOX", "address": {"city": "VICTOR", "state": "MT", "street": "201 MAIN ST", "postcode": "59875"}}},
{"geometry": {"type": "Point", "coordinates": [-114.1473862262, 46.4181296587]}, "type": "Feature", "properties": {"collection_times": [{"days": "Mon-Fri", "time": "5:00pm"}, {"days": "Sat", "time": "11:30am"}, {"days": "Sun", "time": "Closed"}], "id": "5987500002", "name": "USPS COLLECTION BOX - PO LOBBY", "address": {"city": "VICTOR", "state": "MT", "street": "201 MAIN ST", "postcode": "59875"}}},
{"geometry": {"type": "Point", "coordinates": [-114.1473862262, 46.4181296587]}, "type": "Feature", "properties": {"collection_times": [{"days": "Mon-Fri", "time": "5:00pm"}, {"days": "Sat", "time": "11:30am"}, {"days": "Sun", "time": "Closed"}], "id": "5987500003", "name": "USPS COLLECTION BOX - PO LOBBY", "address": {"city": "VICTOR", "state": "MT", "street": "201 MAIN ST", "postcode": "59875"}}},
{"geometry": {"type": "Point", "coordinates": [-114.1473862262, 46.4181296587]}, "type": "Feature", "properties": {"collection_times": [{"days": "Mon-Fri", "time": "5:00pm"}, {"days": "Sat", "time": "11:30am"}, {"days": "Sun", "time": "Closed"}], "id": "5987500004", "name": "USPS COLLECTION BOX - PO LOBBY", "address": {"city": "VICTOR", "state": "MT", "street": "201 MAIN ST", "postcode": "59875"}}},
{"geometry": {"type": "Point", "coordinates": [-114.1473862262, 46.4181296587]}, "type": "Feature", "properties": {"collection_times": [{"days": "Mon-Fri", "time": "5:00pm"}, {"days": "Sat", "time": "11:30am"}, {"days": "Sun", "time": "Closed"}], "id": "5987500005", "name": "USPS COLLECTION BOX - PO LOBBY", "address": {"city": "VICTOR", "state": "MT", "street": "201 MAIN ST", "postcode": "59875"}}}
]}
