{"type": "FeatureCollection", "features": [
{"geometry": {"type": "Point", "coordinates": [-114.3285657497, 48.2003962396]}, "type": "Feature", "properties": {"collection_times": [{"days": "Mon-Fri", "time": "3:30pm"}, {"days": "Sat", "time": "3:00pm"}, {"days": "Sun", "time": "Closed"}], "id": "5990100002", "name": "USPS COLLECTION BOX - BLUE BOX", "address": {"city": "KALISPELL", "state": "MT", "street": "900 W IDAHO ST", "postcode": "59901"}}},
{"geometry": {"type": "Point", "coordinates": [-114.3184414947, 48.2060820309]}, "type": "Feature", "properties": {"collection_times": [{"days": "Mon-Fri", "time": "3:30pm"}, {"days": "Sat", "time": "2:45pm"}, {"days": "Sun", "time": "Closed"}], "id": "5990100006", "name": "USPS COLLECTION BOX - BLUE BOX", "address": {"city": "KALISPELL", "state": "MT", "street": "660 SUNSET BLVD", "postcode": "59901"}}},
{"geometry": {"type": "Point", "coordinates": [-114.2809937457, 48.212681759]}, "type": "Feature", "properties": {"collection_times": [{"days": "Mon-Fri", "time": "3:30pm"}, {"days": "Sat", "time": "2:20pm"}, {"days": "Sun", "time": "Closed"}], "id": "5990100009", "name": "USPS COLLECTION BOX - BLUE BOX", "address": {"city": "KALISPELL", "state": "MT", "street": "1346 US HIGHWAY 2 E", "postcode": "59901"}}},
{"geometry": {"type": "Point", "coordinates": [-114.3005795671, 48.1774619065]}, "type": "Feature", "properties": {"collection_times": [{"days": "Mon-Fri", "time": "3:30pm"}, {"days": "Sat", "time": "2:00pm"}, {"days": "Sun", "time": "Closed"}], "id": "5990100011", "name": "USPS COLLECTION BOX - BLUE BOX", "address": {"city": "KALISPELL", "state": "MT", "street": "2150 US HIGHWAY 93 S", "postcode": "59901"}}},
{"geometry": {"type": "Point", "coordinates": [-114.3112763123, 48.1962031406]}, "type": "Feature", "properties": {"collection_times": [{"days": "Mon-Fri", "time": "3:30pm"}, {"days": "Sat", "time": "2:05pm"}, {"days": "Sun", "time": "Closed"}], "id": "5990100014", "name": "USPS COLLECTION BOX - BLUE BOX", "address": {"city": "KALISPELL", "state": "MT", "street": "247 1ST AVE E", "postcode": "59901"}}},
{"geometry": {"type": "Point", "coordinates": [-114.3144052387, 48.1958813757]}, "type": "Feature", "properties": {"collection_times": [{"days": "Mon-Fri", "time": "4:30pm"}, {"days": "Sat", "time": "2:52pm"}, {"days": "Sun", "time": "Closed"}], "id": "5990100017", "name": "USPS COLLECTION BOX - BLUE BOX", "address": {"city": "KALISPELL", "state": "MT", "street": "248 1ST AVE W", "postcode": "59901"}}},
{"geometry": {"type": "Point", "coordinates": [-114.3144052387, 48.1958813757]}, "type": "Feature", "properties": {"collection_times": [{"days": "Mon-Fri", "time": "4:30pm"}, {"days": "Sat", "time": "2:52pm"}, {"days": "Sun", "time": "Closed"}], "id": "5990100018", "name": "USPS COLLECTION BOX - BLUE BOX", "address": {"city": "KALISPELL", "state": "MT", "street": "248 1ST AVE W", "postcode": "59901"}}},
{"geometry": {"type": "Point", "coordinates": [-114.3144052387, 48.1958813757]}, "type": "Feature", "properties": {"collection_times": [{"days": "Mon-Fri", "time": "4:30pm"}, {"days": "Sat", "time": "2:52pm"}, {"days": "Sun", "time": "Closed"}], "id": "5990100019", "name": "USPS COLLECTION BOX - BLUE BOX", "address": {"city": "KALISPELL", "state": "MT", "street": "248 1ST AVE W", "postcode": "59901"}}},
{"geometry": {"type": "Point", "coordinates": [-114.3144052387, 48.1958813757]}, "type": "Feature", "properties": {"collection_times": [{"days": "Mon-Fri", "time": "4:30pm"}, {"days": "Sat", "time": "2:52pm"}, {"days": "Sun", "time": "Closed"}], "id": "5990100020", "name": "USPS COLLECTION BOX - BLUE BOX", "address": {"city": "KALISPELL", "state": "MT", "street": "248 1ST AVE W", "postcode": "59901"}}},
{"geometry": {"type": "Point", "coordinates": [-114.3303231345, 48.2024882015]}, "type": "Feature", "properties": {"collection_times": [{"days": "Mon-Sat", "time": "5:00pm"}, {"days": "Sun", "time": "Closed"}], "id": "5990100023", "name": "USPS COLLECTION BOX - BLUE BOX", "address": {"city": "KALISPELL", "state": "MT", "street": "350 N MERIDIAN RD", "postcode": "59901"}}},
{"geometry": {"type": "Point", "coordinates": [-114.3303231345, 48.2024882015]}, "type": "Feature", "properties": {"collection_times": [{"days": "Mon-Sat", "time": "5:00pm"}, {"days": "Sun", "time": "Closed"}], "id": "5990100024", "name": "USPS COLLECTION BOX - BLUE BOX", "address": {"city": "KALISPELL", "state": "MT", "street": "350 N MERIDIAN RD", "postcode": "59901"}}},
{"geometry": {"type": "Point", "coordinates": [-114.3303231345, 48.2024882015]}, "type": "Feature", "properties": {"collection_times": [{"days": "Mon-Sat", "time": "5:00pm"}, {"days": "Sun", "time": "Closed"}], "id": "5990100025", "name": "USPS COLLECTION BOX - BLUE BOX", "address": {"city": "KALISPELL", "state": "MT", "street": "350 N MERIDIAN RD", "postcode": "59901"}}},
{"geometry": {"type": "Point", "coordinates": [-114.3303231345, 48.2024882015]}, "type": "Feature", "properties": {"collection_times": [{"days": "Mon-Sat", "time": "5:00pm"}, {"days": "Sun", "time": "Closed"}], "id": "5990100026", "name": "USPS COLLECTION BOX - BLUE BOX", "address": {"city": "KALISPELL", "state": "MT", "street": "350 N MERIDIAN RD", "postcode": "59901"}}},
{"geometry": {"type": "Point", "coordinates": [-114.3144052387, 48.1958813757]}, "type": "Feature", "properties": {"collection_times": [{"days": "Mon-Fri", "time": "4:30pm"}, {"days": "Sat", "time": "2:52pm"}, {"days": "Sun", "time": "Closed"}], "id": "5990100031", "name": "USPS COLLECTION BOX - BLUE BOX", "address": {"city": "KALISPELL", "state": "MT", "street": "248 1ST AVE W", "postcode": "59901"}}},
{"geometry": {"type": "Point", "coordinates": [-114.3303231345, 48.2024882015]}, "type": "Feature", "properties": {"collection_times": [{"days": "Mon-Sat", "time": "5:00pm"}, {"days": "Sun", "time": "Closed"}], "id": "5990100033", "name": "USPS COLLECTION BOX - PO LOBBY", "address": {"city": "KALISPELL", "state": "MT", "street": "350 N MERIDIAN RD", "postcode": "59901"}}},
{"geometry": {"type": "Point", "coordinates": [-114.3303231345, 48.2024882015]}, "type": "Feature", "properties": {"collection_times": [{"days": "Mon-Sat", "time": "5:00pm"}, {"days": "Sun", "time": "Closed"}], "id": "5990100034", "name": "USPS COLLECTION BOX - PO LOBBY", "address": {"city": "KALISPELL", "state": "MT", "street": "350 N MERIDIAN RD", "postcode": "59901"}}},
{"geometry": {"type": "Point", "coordinates": [-114.3369612929, 48.1984565401]}, "type": "Feature", "properties": {"collection_times": [{"days": "Mon-Fri", "time": "3:30pm"}, {"days": "Sat", "time": "3:00pm"}, {"days": "Sun", "time": "Closed"}], "id": "5990100036", "name": "USPS COLLECTION BOX - BLUE BOX", "address": {"city": "KALISPELL", "state": "MT", "street": "1325 US HIGHWAY 2 W", "postcode": "59901"}}},
{"geometry": {"type": "Point", "coordinates": [-114.3144052387, 48.1958813757]}, "type": "Feature", "properties": {"collection_times": [{"days": "Mon-Fri", "time": "4:00pm"}, {"days": "Sat", "time": "10:00am"}, {"days": "Sun", "time": "Closed"}], "id": "5990100037", "name": "USPS COLLECTION BOX - PO LOBBY", "address": {"city": "KALISPELL", "state": "MT", "street": "248 1ST AVE W", "postcode": "59901"}}},
{"geometry": {"type": "Point", "coordinates": [-114.3144052387, 48.1958813757]}, "type": "Feature", "properties": {"collection_times": [{"days": "Mon-Fri", "time": "4:00pm"}, {"days": "Sat", "time": "10:00am"}, {"days": "Sun", "time": "Closed"}], "id": "5990100038", "name": "USPS COLLECTION BOX - PO LOBBY", "address": {"city": "KALISPELL", "state": "MT", "street": "248 1ST AVE W", "postcode": "59901"}}},
{"geometry": {"type": "Point", "coordinates": [-114.3144052387, 48.1958813757]}, "type": "Feature", "properties": {"collection_times": [{"days": "Mon-Fri", "time": "4:00pm"}, {"days": "Sat", "time": "10:00am"}, {"days": "Sun", "time": "Closed"}], "id": "5990100039", "name": "USPS COLLECTION BOX - PO LOBBY", "address": {"city": "KALISPELL", "state": "MT", "street": "248 1ST AVE W", "postcode": "59901"}}},
{"geometry": {"type": "Point", "coordinates": [-114.3228137231, 48.2160990108]}, "type": "Feature", "properties": {"collection_times": [{"days": "Mon-Fri", "time": "3:30pm"}, {"days": "Sat", "time": "2:40pm"}, {"days": "Sun", "time": "Closed"}], "id": "5990100042", "name": "USPS COLLECTION BOX - BLUE BOX", "address": {"city": "KALISPELL", "state": "MT", "street": "310 SUNNYVIEW LN", "postcode": "59901"}}},
{"geometry": {"type": "Point", "coordinates": [-114.3029329027, 48.182412205]}, "type": "Feature", "properties": {"collection_times": [{"days": "Mon-Fri", "time": "3:30pm"}, {"days": "Sat", "time": "2:00pm"}, {"days": "Sun", "time": "Closed"}], "id": "5990100043", "name": "USPS COLLECTION BOX - BLUE BOX", "address": {"city": "KALISPELL", "state": "MT", "street": "1830 3RD AVE E", "postcode": "59901"}}},
{"geometry": {"type": "Point", "coordinates": [-114.320676197, 47.794529789]}, "type": "Feature", "properties": {"collection_times": [{"days": "Mon-Fri", "time": "3:45pm"}, {"days": "Sat", "time": "3:00pm"}, {"days": "Sun", "time": "Closed"}], "id": "5991000000", "name": "USPS COLLECTION BOX - BLUE BOX", "address": {"city": "BIG ARM", "state": "MT", "street": "28541 5TH ST", "postcode": "59910"}}},
{"geometry": {"type": "Point", "coordinates": [-114.320676197, 47.794529789]}, "type": "Feature", "properties": {"collection_times": [{"days": "Mon-Fri", "time": "1:00pm"}, {"days": "Sat", "time": "10:45am"}, {"days": "Sun", "time": "Closed"}], "id": "5991000001", "name": "USPS COLLECTION BOX - PO LOBBY", "address": {"city": "BIG ARM", "state": "MT", "street": "28541 5TH ST", "postcode": "59910"}}},
{"geometry": {"type": "Point", "coordinates": [-114.0787899837, 48.0743924591]}, "type": "Feature", "properties": {"collection_times": [{"days": "Mon-Sat", "time": "10:00am"}, {"days": "Sun", "time": "Closed"}], "id": "5991100001", "name": "USPS COLLECTION BOX - BLUE BOX", "address": {"city": "BIG FORK", "state": "MT", "street": "8105 MT HIGHWAY 35", "postcode": "59911"}}},
{"geometry": {"type": "Point", "coordinates": [-114.0886931193, 48.0660433486]}, "type": "Feature", "properties": {"collection_times": [{"days": "Mon-Fri", "time": "4:20pm"}, {"days": "Sat", "time": "2:00pm"}, {"days": "Sun", "time": "Closed"}], "id": "5991100002", "name": "USPS COLLECTION BOX - BLUE BOX", "address": {"city": "BIG FORK", "state": "MT", "street": "265 HOLT DR", "postcode": "59911"}}},
{"geometry": {"type": "Point", "coordinates": [-114.0886931193, 48.0660433486]}, "type": "Feature", "properties": {"collection_times": [{"days": "Mon-Fri", "time": "4:20pm"}, {"days": "Sat", "time": "2:00pm"}, {"days": "Sun", "time": "Closed"}], "id": "5991100003", "name": "USPS COLLECTION BOX - BLUE BOX", "address": {"city": "BIG FORK", "state": "MT", "street": "265 HOLT DR", "postcode": "59911"}}},
{"geometry": {"type": "Point", "coordinates": [-114.0954053642, 48.1202719972]}, "type": "Feature", "properties": {"collection_times": [{"days": "Mon-Sat", "time": "11:00am"}, {"days": "Sun", "time": "Closed"}], "id": "5991100007", "name": "USPS COLLECTION BOX - BLUE BOX", "address": {"city": "BIG FORK", "state": "MT", "street": "7505 MT HIGHWAY 35", "postcode": "59911"}}},
{"geometry": {"type": "Point", "coordinates": [-114.0886931193, 48.0660433486]}, "type": "Feature", "properties": {"collection_times": [{"days": "Mon-Fri", "time": "4:20pm"}, {"days": "Sat", "time": "2:00pm"}, {"days": "Sun", "time": "Closed"}], "id": "5991100008", "name": "USPS COLLECTION BOX - PO LOBBY", "address": {"city": "BIG FORK", "state": "MT", "street": "265 HOLT DR", "postcode": "59911"}}},
{"geometry": {"type": "Point", "coordinates": [-114.0886931193, 48.0660433486]}, "type": "Feature", "properties": {"collection_times": [{"days": "Mon-Fri", "time": "4:20pm"}, {"days": "Sat", "time": "2:00pm"}, {"days": "Sun", "time": "Closed"}], "id": "5991100009", "name": "USPS COLLECTION BOX - PO LOBBY", "address": {"city": "BIG FORK", "state": "MT", "street": "265 HOLT DR", "postcode": "59911"}}},
{"geometry": {"type": "Point", "coordinates": [-114.0886931193, 48.0660433486]}, "type": "Feature", "properties": {"collection_times": [{"days": "Mon-Fri", "time": "4:20pm"}, {"days": "Sat", "time": "2:00pm"}, {"days": "Sun", "time": "Closed"}], "id": "5991100010", "name": "USPS COLLECTION BOX - PO LOBBY", "address": {"city": "BIG FORK", "state": "MT", "street": "265 HOLT DR", "postcode": "59911"}}},
{"geometry": {"type": "Point", "coordinates": [-114.1802872631, 48.377574521]}, "type": "Feature", "properties": {"collection_times": [{"days": "Mon-Fri", "time": "3:35pm"}, {"days": "Sat", "time": "2:00pm"}, {"days": "Sun", "time": "Closed"}], "id": "5991200005", "name": "USPS COLLECTION BOX - BLUE BOX", "address": {"city": "COLUMBIA FALLS", "state": "MT", "street": "65 1ST ST E", "postcode": "59912"}}},
{"geometry": {"type": "Point", "coordinates": [-114.1802872631, 48.377574521]}, "type": "Feature", "properties": {"collection_times": [{"days": "Mon-Fri", "time": "3:35pm"}, {"days": "Sat", "time": "2:00pm"}, {"days": "Sun", "time": "Closed"}], "id": "5991200006", "name": "USPS COLLECTION BOX - BLUE BOX", "address": {"city": "COLUMBIA FALLS", "state": "MT", "street": "65 1ST ST E", "postcode": "59912"}}},
{"geometry": {"type": "Point", "coordinates": [-114.1900957465, 48.362908602]}, "type": "Feature", "properties": {"collection_times": [{"days": "Mon-Fri", "time": "3:00pm"}, {"days": "Sat", "time": "10:30am"}, {"days": "Sun", "time": "Closed"}], "id": "5991200009", "name": "USPS COLLECTION BOX - BLUE BOX", "address": {"city": "COLUMBIA FALLS", "state": "MT", "street": "10055 US HIGHWAY 2 E", "postcode": "59912"}}},
{"geometry": {"type": "Point", "coordinates": [-114.1802872631, 48.377574521]}, "type": "Feature", "properties": {"collection_times": [{"days": "Mon-Fri", "time": "3:35pm"}, {"days": "Sat", "time": "2:00pm"}, {"days": "Sun", "time": "Closed"}], "id": "5991200014", "name": "USPS COLLECTION BOX - PO LOBBY", "address": {"city": "COLUMBIA FALLS", "state": "MT", "street": "65 1ST ST E", "postcode": "59912"}}},
{"geometry": {"type": "Point", "coordinates": [-114.1802872631, 48.377574521]}, "type": "Feature", "properties": {"collection_times": [{"days": "Mon-Fri", "time": "3:35pm"}, {"days": "Sat", "time": "2:00pm"}, {"days": "Sun", "time": "Closed"}], "id": "5991200015", "name": "USPS COLLECTION BOX - PO LOBBY", "address": {"city": "COLUMBIA FALLS", "state": "MT", "street": "65 1ST ST E", "postcode": "59912"}}},
{"geometry": {"type": "Point", "coordinates": [-114.1802872631, 48.377574521]}, "type": "Feature", "properties": {"collection_times": [{"days": "Mon-Fri", "time": "3:35pm"}, {"days": "Sat", "time": "2:00pm"}, {"days": "Sun", "time": "Closed"}], "id": "5991200016", "name": "USPS COLLECTION BOX - PO LOBBY", "address": {"city": "COLUMBIA FALLS", "state": "MT", "street": "65 1ST ST E", "postcode": "59912"}}},
{"geometry": {"type": "Point", "coordinates": [-114.1811046907, 48.3737913063]}, "type": "Feature", "properties": {"collection_times": [{"days": "Mon-Sat", "time": "11:30am"}, {"days": "Sun", "time": "Closed"}], "id": "5991200020", "name": "USPS COLLECTION BOX - BLUE BOX", "address": {"city": "COLUMBIA FALLS", "state": "MT", "street": "519 NUCLEUS AVE", "postcode": "59912"}}},
{"geometry": {"type": "Point", "coordinates": [-114.2399691364, 48.3706916868]}, "type": "Feature", "properties": {"collection_times": [{"days": "Mon-Sat", "time": "10:20am"}, {"days": "Sun", "time": "Closed"}], "id": "5991200022", "name": "USPS COLLECTION BOX - BLUE BOX", "address": {"city": "COLUMBIA FALLS", "state": "MT", "street": "6102 US HIGHWAY 2 W", "postcode": "59912"}}},
{"geometry": {"type": "Point", "coordinates": [-114.1802872631, 48.377574521]}, "type": "Feature", "properties": {"collection_times": [{"days": "Mon-Fri", "time": "3:35pm"}, {"days": "Sat", "time": "2:00pm"}, {"days": "Sun", "time": "Closed"}], "id": "5991200023", "name": "USPS COLLECTION BOX - BLUE BOX", "address": {"city": "COLUMBIA FALLS", "state": "MT", "street": "65 1ST ST E", "postcode": "59912"}}},
{"geometry": {"type": "Point", "coordinates": [-114.1900957465, 48.362908602]}, "type": "Feature", "properties": {"collection_times": [{"days": "Mon-Fri", "time": "3:15pm"}, {"days": "Sat", "time": "11:00am"}, {"days": "Sun", "time": "Closed"}], "id": "5991200026", "name": "USPS COLLECTION BOX - BLUE BOX", "address": {"city": "COLUMBIA FALLS", "state": "MT", "street": "8900 US HIGHWAY 2 E", "postcode": "59912"}}},
{"geometry": {"type": "Point", "coordinates": [-114.2765239727, 47.8754217483]}, "type": "Feature", "properties": {"collection_times": [{"days": "Mon-Fri", "time": "12:00pm"}, {"days": "Sat", "time": "9:45am"}, {"days": "Sun", "time": "Closed"}], "id": "5991400000", "name": "USPS COLLECTION BOX - PO LOBBY", "address": {"city": "DAYTON", "state": "MT", "street": "43789 LAKE MARY RONAN RD", "postcode": "59914"}}},
{"geometry": {"type": "Point", "coordinates": [-114.2765239727, 47.8754217483]}, "type": "Feature", "properties": {"collection_times": [{"days": "Mon-Fri", "time": "12:00pm"}, {"days": "Sat", "time": "9:45am"}, {"days": "Sun", "time": "Closed"}], "id": "5991400002", "name": "USPS COLLECTION BOX - PO LOBBY", "address": {"city": "DAYTON", "state": "MT", "street": "43789 LAKE MARY RONAN RD", "postcode": "59914"}}},
{"geometry": {"type": "Point", "coordinates": [-114.2598287398, 47.8819773233]}, "type": "Feature", "properties": {"collection_times": [{"days": "Mon-Sat", "time": "4:15pm"}, {"days": "Sun", "time": "Closed"}], "id": "5991400003", "name": "USPS COLLECTION BOX - BLUE BOX", "address": {"city": "DAYTON", "state": "MT", "street": "43789 LAKE MARY RONAN RD", "postcode": "59914"}}},
{"geometry": {"type": "Point", "coordinates": [-114.3855436483, 47.832242671]}, "type": "Feature", "properties": {"collection_times": [{"days": "Mon-Fri", "time": "3:45pm"}, {"days": "Sat", "time": "3:00pm"}, {"days": "Sun", "time": "Closed"}], "id": "5991500000", "name": "USPS COLLECTION BOX - BLUE BOX", "address": {"city": "ELMO", "state": "MT", "street": "26288 MISSOULA AVE", "postcode": "59915"}}},
{"geometry": {"type": "Point", "coordinates": [-114.3855436483, 47.832242671]}, "type": "Feature", "properties": {"collection_times": [{"days": "Mon-Fri", "time": "10:50am"}, {"days": "Sat", "time": "9:45am"}, {"days": "Sun", "time": "Closed"}], "id": "5991500001", "name": "USPS COLLECTION BOX - PO LOBBY", "address": {"city": "ELMO", "state": "MT", "street": "26288 MISSOULA AVE", "postcode": "59915"}}},
{"geometry": {"type": "Point", "coordinates": [-114.3855436483, 47.832242671]}, "type": "Feature", "properties": {"collection_times": [{"days": "Mon-Fri", "time": "10:50am"}, {"days": "Sat", "time": "9:45am"}, {"days": "Sun", "time": "Closed"}], "id": "5991500002", "name": "USPS COLLECTION BOX - PO LOBBY", "address": {"city": "ELMO", "state": "MT", "street": "26288 MISSOULA AVE", "postcode": "59915"}}},
{"geometry": {"type": "Point", "coordinates": [-114.9102409742, 48.776280431]}, "type": "Feature", "properties": {"collection_times": [{"days": "Mon-Fri", "time": "2:35pm"}, {"days": "Sat", "time": "1:30pm"}, {"days": "Sun", "time": "Closed"}], "id": "5991700000", "name": "USPS COLLECTION BOX - BLUE BOX", "address": {"city": "EUREKA", "state": "MT", "street": "113 14TH ST", "postcode": "59917"}}},
{"geometry": {"type": "Point", "coordinates": [-114.9102409742, 48.776280431]}, "type": "Feature", "properties": {"collection_times": [{"days": "Mon-Fri", "time": "2:35pm"}, {"days": "Sat", "time": "1:30pm"}, {"days": "Sun", "time": "Closed"}], "id": "5991700001", "name": "USPS COLLECTION BOX - BLUE BOX", "address": {"city": "EUREKA", "state": "MT", "street": "113 14TH ST", "postcode": "59917"}}},
{"geometry": {"type": "Point", "coordinates": [-114.9102409742, 48.776280431]}, "type": "Feature", "properties": {"collection_times": [{"days": "Mon-Fri", "time": "2:35pm"}, {"days": "Sat", "time": "1:30pm"}, {"days": "Sun", "time": "Closed"}], "id": "5991700002", "name": "USPS COLLECTION BOX - PO LOBBY", "address": {"city": "EUREKA", "state": "MT", "street": "113 14TH ST", "postcode": "59917"}}},
{"geometry": {"type": "Point", "coordinates": [-114.9102409742, 48.776280431]}, "type": "Feature", "properties": {"collection_times": [{"days": "Mon-Fri", "time": "2:35pm"}, {"days": "Sat", "time": "1:30pm"}, {"days": "Sun", "time": "Closed"}], "id": "5991700003", "name": "USPS COLLECTION BOX - PO LOBBY", "address": {"city": "EUREKA", "state": "MT", "street": "113 14TH ST", "postcode": "59917"}}},
{"geometry": {"type": "Point", "coordinates": [-114.9102409742, 48.776280431]}, "type": "Feature", "properties": {"collection_times": [{"days": "Mon-Fri", "time": "2:35pm"}, {"days": "Sat", "time": "1:30pm"}, {"days": "Sun", "time": "Closed"}], "id": "5991700004", "name": "USPS COLLECTION BOX - PO LOBBY", "address": {"city": "EUREKA", "state": "MT", "street": "113 14TH ST", "postcode": "59917"}}},
{"geometry": {"type": "Point", "coordinates": [-114.9102409742, 48.776280431]}, "type": "Feature", "properties": {"collection_times": [{"days": "Mon-Fri", "time": "2:35pm"}, {"days": "Sat", "time": "1:30pm"}, {"days": "Sun", "time": "Closed"}], "id": "5991700005", "name": "USPS COLLECTION BOX - PO LOBBY", "address": {"city": "EUREKA", "state": "MT", "street": "113 14TH ST", "postcode": "59917"}}},
{"geometry": {"type": "Point", "coordinates": [-114.9000990816, 48.7644503158]}, "type": "Feature", "properties": {"collection_times": [{"days": "Mon-Fri", "time": "2:55pm"}, {"days": "Sat", "time": "11:45am"}, {"days": "Sun", "time": "Closed"}], "id": "5991800001", "name": "USPS COLLECTION BOX - PO LOBBY", "address": {"city": "FORTINE", "state": "MT", "street": "170 MEADOW CREEK RD", "postcode": "59918"}}},
{"geometry": {"type": "Point", "coordinates": [-114.9000990816, 48.7644503158]}, "type": "Feature", "properties": {"collection_times": [{"days": "Mon-Fri", "time": "2:55pm"}, {"days": "Sat", "time": "11:45am"}, {"days": "Sun", "time": "Closed"}], "id": "5991800003", "name": "USPS COLLECTION BOX - PO LOBBY", "address": {"city": "FORTINE", "state": "MT", "street": "170 MEADOW CREEK RD", "postcode": "59918"}}},
{"geometry": {"type": "Point", "coordinates": [-114.4554115814, 48.1227981709]}, "type": "Feature", "properties": {"collection_times": [{"days": "Mon-Fri", "time": "4:00pm"}, {"days": "Sat", "time": "10:45am"}, {"days": "Sun", "time": "Closed"}], "id": "5992000000", "name": "USPS COLLECTION BOX - PO LOBBY", "address": {"city": "KILA", "state": "MT", "street": "345 KILA RD", "postcode": "59920"}}},
{"geometry": {"type": "Point", "coordinates": [-114.4554115814, 48.1227981709]}, "type": "Feature", "properties": {"collection_times": [{"days": "Mon-Fri", "time": "4:00pm"}, {"days": "Sat", "time": "10:45am"}, {"days": "Sun", "time": "Closed"}], "id": "5992000001", "name": "USPS COLLECTION BOX - PO LOBBY", "address": {"city": "KILA", "state": "MT", "street": "345 KILA RD", "postcode": "59920"}}},
{"geometry": {"type": "Point", "coordinates": [-114.2250563481, 48.0207111781]}, "type": "Feature", "properties": {"collection_times": [{"days": "Mon-Fri", "time": "4:30pm"}, {"days": "Sat", "time": "4:00pm"}, {"days": "Sun", "time": "Closed"}], "id": "5992200000", "name": "USPS COLLECTION BOX - BLUE BOX", "address": {"city": "LAKESIDE", "state": "MT", "street": "7196 US HIGHWAY 93", "postcode": "59922"}}},
{"geometry": {"type": "Point", "coordinates": [-114.2250563481, 48.0207111781]}, "type": "Feature", "properties": {"collection_times": [{"days": "Mon-Fri", "time": "4:45pm"}, {"days": "Sat", "time": "10:00am"}, {"days": "Sun", "time": "Closed"}], "id": "5992200001", "name": "USPS COLLECTION BOX - PO LOBBY", "address": {"city": "LAKESIDE", "state": "MT", "street": "7196 US HIGHWAY 93", "postcode": "59922"}}},
{"geometry": {"type": "Point", "coordinates": [-114.2250563481, 48.0207111781]}, "type": "Feature", "properties": {"collection_times": [{"days": "Mon-Fri", "time": "4:45pm"}, {"days": "Sat", "time": "10:00am"}, {"days": "Sun", "time": "Closed"}], "id": "5992200002", "name": "USPS COLLECTION BOX - PO LOBBY", "address": {"city": "LAKESIDE", "state": "MT", "street": "7196 US HIGHWAY 93", "postcode": "59922"}}},
{"geometry": {"type": "Point", "coordinates": [-115.5547355684, 48.3919102928]}, "type": "Feature", "properties": {"collection_times": [{"days": "Mon-Fri", "time": "4:35pm"}, {"days": "Sat", "time": "3:30pm"}, {"days": "Sun", "time": "Closed"}], "id": "5992300000", "name": "USPS COLLECTION BOX - BLUE BOX", "address": {"city": "LIBBY", "state": "MT", "street": "518 MAIN AVE", "postcode": "59923"}}},
{"geometry": {"type": "Point", "coordinates": [-115.546966262, 48.3854732361]}, "type": "Feature", "properties": {"collection_times": [{"days": "Mon-Fri", "time": "12:00pm"}, {"days": "Sat", "time": "11:30am"}, {"days": "Sun", "time": "Closed"}], "id": "5992300002", "name": "USPS COLLECTION BOX - BLUE BOX", "address": {"city": "LIBBY", "state": "MT", "street": "703 E 9TH ST", "postcode": "59923"}}},
{"geometry": {"type": "Point", "coordinates": [-115.5547355684, 48.3919102928]}, "type": "Feature", "properties": {"collection_times": [{"days": "Mon-Fri", "time": "4:35pm"}, {"days": "Sat", "time": "3:55pm"}, {"days": "Sun", "time": "Closed"}], "id": "5992300005", "name": "USPS COLLECTION BOX - PO LOBBY", "address": {"city": "LIBBY", "state": "MT", "street": "518 MAIN AVE", "postcode": "59923"}}},
{"geometry": {"type": "Point", "coordinates": [-115.5547355684, 48.3919102928]}, "type": "Feature", "properties": {"collection_times": [{"days": "Mon-Fri", "time": "4:35pm"}, {"days": "Sat", "time": "3:55pm"}, {"days": "Sun", "time": "Closed"}], "id": "5992300006", "name": "USPS COLLECTION BOX - PO LOBBY", "address": {"city": "LIBBY", "state": "MT", "street": "518 MAIN AVE", "postcode": "59923"}}},
{"geometry": {"type": "Point", "coordinates": [-114.6597070027, 48.1046759799]}, "type": "Feature", "properties": {"collection_times": [{"days": "Mon-Sat", "time": "3:30pm"}, {"days": "Sun", "time": "Closed"}], "id": "5992500000", "name": "USPS COLLECTION BOX - BLUE BOX", "address": {"city": "MARION", "state": "MT", "street": "365 PLEASANT VALLEY RD", "postcode": "59925"}}},
{"geometry": {"type": "Point", "coordinates": [-114.6597070027, 48.1046759799]}, "type": "Feature", "properties": {"collection_times": [{"days": "Mon-Fri", "time": "2:00pm"}, {"days": "Sat", "time": "11:45am"}, {"days": "Sun", "time": "Closed"}], "id": "5992500001", "name": "USPS COLLECTION BOX - PO LOBBY", "address": {"city": "MARION", "state": "MT", "street": "365 PLEASANT VALLEY RD", "postcode": "59925"}}},
{"geometry": {"type": "Point", "coordinates": [-114.6619026659, 48.1054064267]}, "type": "Feature", "properties": {"collection_times": [{"days": "Mon-Fri", "time": "2:00pm"}, {"days": "Sat", "time": "11:45am"}, {"days": "Sun", "time": "Closed"}], "id": "5992500002", "name": "USPS COLLECTION BOX - PO LOBBY", "address": {"city": "MARION", "state": "MT", "street": "365 PLEASANT VALLEY RD", "postcode": "59925"}}},
{"geometry": {"type": "Point", "coordinates": [-114.5728102168, 48.5525906178]}, "type": "Feature", "properties": {"collection_times": [{"days": "Mon-Fri", "time": "3:45pm"}, {"days": "Sat", "time": "2:45pm"}, {"days": "Sun", "time": "Closed"}], "id": "5992700000", "name": "USPS COLLECTION BOX - BLUE BOX", "address": {"city": "OLNEY", "state": "MT", "street": "1 OLNEY LOOP RD", "postcode": "59927"}}},
{"geometry": {"type": "Point", "coordinates": [-114.5728102168, 48.5525906178]}, "type": "Feature", "properties": {"collection_times": [{"days": "Mon-Fri", "time": "12:00pm"}, {"days": "Sat", "time": "9:15am"}, {"days": "Sun", "time": "Closed"}], "id": "5992700001", "name": "USPS COLLECTION BOX - PO LOBBY", "address": {"city": "OLNEY", "state": "MT", "street": "1 OLNEY LOOP RD", "postcode": "59927"}}},
{"geometry": {"type": "Point", "coordinates": [-114.5728102168, 48.5525906178]}, "type": "Feature", "properties": {"collection_times": [{"days": "Mon-Fri", "time": "12:00pm"}, {"days": "Sat", "time": "9:15am"}, {"days": "Sun", "time": "Closed"}], "id": "5992700002", "name": "USPS COLLECTION BOX - PO LOBBY", "address": {"city": "OLNEY", "state": "MT", "street": "1 OLNEY LOOP RD", "postcode": "59927"}}},
{"geometry": {"type": "Point", "coordinates": [-115.1702789252, 48.8992992656]}, "type": "Feature", "properties": {"collection_times": [{"days": "Mon-Fri", "time": "2:15pm"}, {"days": "Sat", "time": "10:20am"}, {"days": "Sun", "time": "Closed"}], "id": "5993000000", "name": "USPS COLLECTION BOX - PO LOBBY", "address": {"city": "REXFORD", "state": "MT", "street": "202 GATEWAY ST", "postcode": "59930"}}},
{"geometry": {"type": "Point", "coordinates": [-115.1702789252, 48.8992992656]}, "type": "Feature", "properties": {"collection_times": [{"days": "Mon-Fri", "time": "2:15pm"}, {"days": "Sat", "time": "10:20am"}, {"days": "Sun", "time": "Closed"}], "id": "5993000001", "name": "USPS COLLECTION BOX - PO LOBBY", "address": {"city": "REXFORD", "state": "MT", "street": "202 GATEWAY ST", "postcode": "59930"}}},
{"geometry": {"type": "Point", "coordinates": [-114.2261272372, 48.0809836535]}, "type": "Feature", "properties": {"collection_times": [{"days": "Mon-Fri", "time": "3:45pm"}, {"days": "Sat", "time": "4:00pm"}, {"days": "Sun", "time": "Closed"}], "id": "5993200000", "name": "USPS COLLECTION BOX - BLUE BOX", "address": {"city": "SOMERS", "state": "MT", "street": "150 SOMERS RD", "postcode": "59932"}}},
{"geometry": {"type": "Point", "coordinates": [-114.2261272372, 48.0809836535]}, "type": "Feature", "properties": {"collection_times": [{"days": "Mon-Fri", "time": "3:45pm"}, {"days": "Sat", "time": "10:00am"}, {"days": "Sun", "time": "Closed"}], "id": "5993200001", "name": "USPS COLLECTION BOX - PO LOBBY", "address": {"city": "SOMERS", "state": "MT", "street": "150 SOMERS RD", "postcode": "59932"}}},
{"geometry": {"type": "Point", "coordinates": [-114.7704172587, 48.6744755017]}, "type": "Feature", "properties": {"collection_times": [{"days": "Mon-Fri", "time": "9:20am"}, {"days": "Sat", "time": "9:00am"}, {"days": "Sun", "time": "Closed"}], "id": "5993300000", "name": "USPS COLLECTION BOX - PO LOBBY", "address": {"city": "STRYKER", "state": "MT", "street": "120 SUNDAY CREEK RD", "postcode": "59933"}}},
{"geometry": {"type": "Point", "coordinates": [-114.7704172587, 48.6744755017]}, "type": "Feature", "properties": {"collection_times": [{"days": "Mon-Fri", "time": "9:20am"}, {"days": "Sat", "time": "9:00am"}, {"days": "Sun", "time": "Closed"}], "id": "5993300001", "name": "USPS COLLECTION BOX - PO LOBBY", "address": {"city": "STRYKER", "state": "MT", "street": "120 SUNDAY CREEK RD", "postcode": "59933"}}},
{"geometry": {"type": "Point", "coordinates": [-114.8697997496, 48.7046572377]}, "type": "Feature", "properties": {"collection_times": [{"days": "Mon-Sat", "time": "3:05pm"}, {"days": "Sun", "time": "Closed"}], "id": "5993400000", "name": "USPS COLLECTION BOX - BLUE BOX", "address": {"city": "TREGO", "state": "MT", "street": "252 FORTINE CREEK RD", "postcode": "59934"}}},
{"geometry": {"type": "Point", "coordinates": [-114.8697997496, 48.7046572377]}, "type": "Feature", "properties": {"collection_times": [{"days": "Mon-Fri", "time": "11:30am"}, {"days": "Sat", "time": "9:15am"}, {"days": "Sun", "time": "Closed"}], "id": "5993400001", "name": "USPS COLLECTION BOX - PO LOBBY", "address": {"city": "TREGO", "state": "MT", "street": "252 FORTINE CREEK RD", "postcode": "59934"}}},
{"geometry": {"type": "Point", "coordinates": [-114.8697997496, 48.7046572377]}, "type": "Feature", "properties": {"collection_times": [{"days": "Mon-Fri", "time": "11:30am"}, {"days": "Sat", "time": "9:15am"}, {"days": "Sun", "time": "Closed"}], "id": "5993400002", "name": "USPS COLLECTION BOX - PO LOBBY", "address": {"city": "TREGO", "state": "MT", "street": "252 FORTINE CREEK RD", "postcode": "59934"}}},
{"geometry": {"type": "Point", "coordinates": [-115.8932910875, 48.4667407856]}, "type": "Feature", "properties": {"collection_times": [{"days": "Mon-Fri", "time": "4:45pm"}, {"days": "Sat", "time": "3:00pm"}, {"days": "Sun", "time": "Closed"}], "id": "5993500002", "name": "USPS COLLECTION BOX - BLUE BOX", "address": {"city": "TROY", "state": "MT", "street": "123 E KOOTENAI AVE", "postcode": "59935"}}},
{"geometry": {"type": "Point", "coordinates": [-115.8932910875, 48.4667407856]}, "type": "Feature", "properties": {"collection_times": [{"days": "Mon-Fri", "time": "5:00pm"}, {"days": "Sat", "time": "12:15pm"}, {"days": "Sun", "time": "Closed"}], "id": "5993500003", "name": "USPS COLLECTION BOX - PO LOBBY", "address": {"city": "TROY", "state": "MT", "street": "123 E KOOTENAI AVE", "postcode": "59935"}}},
{"geometry": {"type": "Point", "coordinates": [-115.8932910875, 48.4667407856]}, "type": "Feature", "properties": {"collection_times": [{"days": "Mon-Fri", "time": "5:00pm"}, {"days": "Sat", "time": "12:15pm"}, {"days": "Sun", "time": "Closed"}], "id": "5993500004", "name": "USPS COLLECTION BOX - PO LOBBY", "address": {"city": "TROY", "state": "MT", "street": "123 E KOOTENAI AVE", "postcode": "59935"}}},
{"geometry": {"type": "Point", "coordinates": [-115.8932910875, 48.4667407856]}, "type": "Feature", "properties": {"collection_times": [{"days": "Mon-Fri", "time": "5:00pm"}, {"days": "Sat", "time": "12:15pm"}, {"days": "Sun", "time": "Closed"}], "id": "5993500005", "name": "USPS COLLECTION BOX - PO LOBBY", "address": {"city": "TROY", "state": "MT", "street": "123 E KOOTENAI AVE", "postcode": "59935"}}},
{"geometry": {"type": "Point", "coordinates": [-115.8932910875, 48.4667407856]}, "type": "Feature", "properties": {"collection_times": [{"days": "Mon-Fri", "time": "5:00pm"}, {"days": "Sat", "time": "12:15pm"}, {"days": "Sun", "time": "Closed"}], "id": "5993500006", "name": "USPS COLLECTION BOX - PO LOBBY", "address": {"city": "TROY", "state": "MT", "street": "123 E KOOTENAI AVE", "postcode": "59935"}}},
{"geometry": {"type": "Point", "coordinates": [-113.98192, 48.495525]}, "type": "Feature", "properties": {"collection_times": [{"days": "Mon-Fri", "time": "2:45pm"}, {"days": "Sat", "time": "10:45am"}, {"days": "Sun", "time": "Closed"}], "id": "5993600002", "name": "USPS COLLECTION BOX - PO LOBBY", "address": {"city": "WEST GLACIER", "state": "MT", "street": "PO BOX 9998", "postcode": "59936"}}},
{"geometry": {"type": "Point", "coordinates": [-113.98192, 48.495525]}, "type": "Feature", "properties": {"collection_times": [{"days": "Mon-Fri", "time": "2:45pm"}, {"days": "Sat", "time": "10:45am"}, {"days": "Sun", "time": "Closed"}], "id": "5993600006", "name": "USPS COLLECTION BOX - PO LOBBY", "address": {"city": "WEST GLACIER", "state": "MT", "street": "PO BOX 9998", "postcode": "59936"}}},
{"geometry": {"type": "Point", "coordinates": [-113.98192, 48.495525]}, "type": "Feature", "properties": {"collection_times": [{"days": "Mon-Fri", "time": "2:45pm"}, {"days": "Sat", "time": "10:45am"}, {"days": "Sun", "time": "Closed"}], "id": "5993600007", "name": "USPS COLLECTION BOX - PO LOBBY", "address": {"city": "WEST GLACIER", "state": "MT", "street": "PO BOX 9998", "postcode": "59936"}}},
{"geometry": {"type": "Point", "coordinates": [-113.98192, 48.495525]}, "type": "Feature", "properties": {"collection_times": [{"days": "Mon-Fri", "time": "2:45pm"}, {"days": "Sat", "time": "10:45am"}, {"days": "Sun", "time": "Closed"}], "id": "5993600008", "name": "USPS COLLECTION BOX - PO LOBBY", "address": {"city": "WEST GLACIER", "state": "MT", "street": "PO BOX 9998", "postcode": "59936"}}},
{"geometry": {"type": "Point", "coordinates": [-114.3381673354, 48.4082556328]}, "type": "Feature", "properties": {"collection_times": [{"days": "Mon-Sat", "time": "3:45pm"}, {"days": "Sun", "time": "Closed"}], "id": "5993700000", "name": "USPS COLLECTION BOX - BLUE BOX", "address": {"city": "WHITEFISH", "state": "MT", "street": "424 BAKER AVE", "postcode": "59937"}}},
{"geometry": {"type": "Point", "coordinates": [-114.3381673354, 48.4082556328]}, "type": "Feature", "properties": {"collection_times": [{"days": "Mon-Sat", "time": "3:45pm"}, {"days": "Sun", "time": "Closed"}], "id": "5993700002", "name": "USPS COLLECTION BOX - BLUE BOX", "address": {"city": "WHITEFISH", "state": "MT", "street": "424 BAKER AVE", "postcode": "59937"}}},
{"geometry": {"type": "Point", "coordinates": [-114.3355285663, 48.3952653316]}, "type": "Feature", "properties": {"collection_times": [{"days": "Mon-Sat", "time": "10:30am"}, {"days": "Sun", "time": "Closed"}], "id": "5993700004", "name": "USPS COLLECTION BOX - BLUE BOX", "address": {"city": "WHITEFISH", "state": "MT", "street": "6475 US HIGHWAY 93 S", "postcode": "59937"}}},
{"geometry": {"type": "Point", "coordinates": [-114.3381673354, 48.4082556328]}, "type": "Feature", "properties": {"collection_times": [{"days": "Mon-Sat", "time": "3:45pm"}, {"days": "Sun", "time": "Closed"}], "id": "5993700012", "name": "USPS COLLECTION BOX - BLUE BOX", "address": {"city": "WHITEFISH", "state": "MT", "street": "424 BAKER AVE", "postcode": "59937"}}},
{"geometry": {"type": "Point", "coordinates": [-114.3381673354, 48.4082556328]}, "type": "Feature", "properties": {"collection_times": [{"days": "Mon-Sat", "time": "3:45pm"}, {"days": "Sun", "time": "Closed"}], "id": "5993700017", "name": "USPS COLLECTION BOX - PO LOBBY", "address": {"city": "WHITEFISH", "state": "MT", "street": "424 BAKER AVE", "postcode": "59937"}}},
{"geometry": {"type": "Point", "coordinates": [-114.3381673354, 48.4082556328]}, "type": "Feature", "properties": {"collection_times": [{"days": "Mon-Sat", "time": "3:45pm"}, {"days": "Sun", "time": "Closed"}], "id": "5993700019", "name": "USPS COLLECTION BOX - PO LOBBY", "address": {"city": "WHITEFISH", "state": "MT", "street": "424 BAKER AVE", "postcode": "59937"}}}
]}
