{"type": "FeatureCollection", "features": [
{"geometry": {"type": "Point", "coordinates": [-98.4248213258, 35.2038678781]}, "type": "Feature", "properties": {"collection_times": [{"days": "Mon-Sat", "time": "11:15am"}, {"days": "Sun", "time": "Closed"}], "id": "7300100001", "name": "USPS COLLECTION BOX - PO LOBBY", "address": {"city": "ALBERT", "state": "OK", "street": "104 MAIN ST", "postcode": "73001"}}},
{"geometry": {"type": "Point", "coordinates": [-98.4248213258, 35.2038678781]}, "type": "Feature", "properties": {"collection_times": [{"days": "Mon-Sat", "time": "11:15am"}, {"days": "Sun", "time": "Closed"}], "id": "7300100002", "name": "USPS COLLECTION BOX - PO LOBBY", "address": {"city": "ALBERT", "state": "OK", "street": "104 MAIN ST", "postcode": "73001"}}},
{"geometry": {"type": "Point", "coordinates": [-98.4248213258, 35.2038678781]}, "type": "Feature", "properties": {"collection_times": [{"days": "Mon-Sat", "time": "11:15am"}, {"days": "Sun", "time": "Closed"}], "id": "7300100003", "name": "USPS COLLECTION BOX - BLUE BOX", "address": {"city": "ALBERT", "state": "OK", "street": "104 MAIN ST", "postcode": "73001"}}},
{"geometry": {"type": "Point", "coordinates": [-97.7788121668, 34.9177278495]}, "type": "Feature", "properties": {"collection_times": [{"days": "Mon-Fri", "time": "1:45pm"}, {"days": "Sat", "time": "9:00am"}, {"days": "Sun", "time": "Closed"}], "id": "7300200002", "name": "USPS COLLECTION BOX - PO LOBBY", "address": {"city": "ALEX", "state": "OK", "street": "111 S MAIN ST", "postcode": "73002"}}},
{"geometry": {"type": "Point", "coordinates": [-97.7788121668, 34.9177278495]}, "type": "Feature", "properties": {"collection_times": [{"days": "Mon-Fri", "time": "1:45pm"}, {"days": "Sat", "time": "9:00am"}, {"days": "Sun", "time": "Closed"}], "id": "7300200003", "name": "USPS COLLECTION BOX - PO LOBBY", "address": {"city": "ALEX", "state": "OK", "street": "111 S MAIN ST", "postcode": "73002"}}},
{"geometry": {"type": "Point", "coordinates": [-97.4924564153, 35.681990157]}, "type": "Feature", "properties": {"collection_times": [{"days": "Mon-Fri", "time": "5:00pm"}, {"days": "Sat", "time": "12:00pm"}, {"days": "Sun", "time": "Closed"}], "id": "7300300001", "name": "USPS COLLECTION BOX - BLUE BOX", "address": {"city": "EDMOND", "state": "OK", "street": "407 W COVELL RD", "postcode": "73003"}}},
{"geometry": {"type": "Point", "coordinates": [-97.4924564153, 35.681990157]}, "type": "Feature", "properties": {"collection_times": [{"days": "Mon-Fri", "time": "5:00pm"}, {"days": "Sat", "time": "12:00pm"}, {"days": "Sun", "time": "Closed"}], "id": "7300300002", "name": "USPS COLLECTION BOX - BLUE BOX", "address": {"city": "EDMOND", "state": "OK", "street": "407 W COVELL RD", "postcode": "73003"}}},
{"geometry": {"type": "Point", "coordinates": [-97.4924564153, 35.681990157]}, "type": "Feature", "properties": {"collection_times": [{"days": "Mon-Fri", "time": "5:00pm"}, {"days": "Sat", "time": "12:00pm"}, {"days": "Sun", "time": "Closed"}], "id": "7300300003", "name": "USPS COLLECTION BOX - PO LOBBY", "address": {"city": "EDMOND", "state": "OK", "street": "407 W COVELL RD", "postcode": "73003"}}},
{"geometry": {"type": "Point", "coordinates": [-97.4924564153, 35.681990157]}, "type": "Feature", "properties": {"collection_times": [{"days": "Mon-Fri", "time": "5:00pm"}, {"days": "Sat", "time": "12:00pm"}, {"days": "Sun", "time": "Closed"}], "id": "7300300004", "name": "USPS COLLECTION BOX - PO LOBBY", "address": {"city": "EDMOND", "state": "OK", "street": "407 W COVELL RD", "postcode": "73003"}}},
{"geometry": {"type": "Point", "coordinates": [-97.4960979749, 35.6659031149]}, "type": "Feature", "properties": {"collection_times": [{"days": "Mon-Fri", "time": "5:00pm"}, {"days": "Sat", "time": "12:00pm"}, {"days": "Sun", "time": "Closed"}], "id": "7300300005", "name": "USPS COLLECTION BOX - EXPRESS", "address": {"city": "EDMOND", "state": "OK", "street": "407 W COVELL RD", "postcode": "73003"}}},
{"geometry": {"type": "Point", "coordinates": [-97.4924564153, 35.681990157]}, "type": "Feature", "properties": {"collection_times": [{"days": "Mon-Fri", "time": "5:00pm"}, {"days": "Sat", "time": "12:00pm"}, {"days": "Sun", "time": "Closed"}], "id": "7300300006", "name": "USPS COLLECTION BOX - APC", "address": {"city": "EDMOND", "state": "OK", "street": "407 W COVELL RD", "postcode": "73003"}}},
{"geometry": {"type": "Point", "coordinates": [-97.4960244801, 35.6500479271]}, "type": "Feature", "properties": {"collection_times": [{"days": "Mon-Fri", "time": "10:00am"}, {"days": "Sat-Sun", "time": "Closed"}], "id": "7300300007", "name": "USPS COLLECTION BOX - BLUE BOX", "address": {"city": "EDMOND", "state": "OK", "street": "609 S KELLY AVE", "postcode": "73003"}}},
{"geometry": {"type": "Point", "coordinates": [-97.791351541, 35.1282210216]}, "type": "Feature", "properties": {"collection_times": [{"days": "Mon-Fri", "time": "12:00pm"}, {"days": "Sat", "time": "9:45am"}, {"days": "Sun", "time": "Closed"}], "id": "7300400002", "name": "USPS COLLECTION BOX - PO LOBBY", "address": {"city": "AMBER", "state": "OK", "street": "402 E MAIN ST", "postcode": "73004"}}},
{"geometry": {"type": "Point", "coordinates": [-98.2544707477, 35.0736882425]}, "type": "Feature", "properties": {"collection_times": [{"days": "Mon-Fri", "time": "4:30pm"}, {"days": "Sat", "time": "12:30pm"}, {"days": "Sun", "time": "Closed"}], "id": "7300500015", "name": "USPS COLLECTION BOX - BLUE BOX", "address": {"city": "ANADARKO", "state": "OK", "street": "201 W OKLAHOMA AVE", "postcode": "73005"}}},
{"geometry": {"type": "Point", "coordinates": [-98.2436236656, 35.0757947167]}, "type": "Feature", "properties": {"collection_times": [{"days": "Mon-Fri", "time": "5:00pm"}, {"days": "Sat", "time": "2:00pm"}, {"days": "Sun", "time": "Closed"}], "id": "7300500018", "name": "USPS COLLECTION BOX - BLUE BOX", "address": {"city": "ANADARKO", "state": "OK", "street": "120 SW 1ST ST", "postcode": "73005"}}},
{"geometry": {"type": "Point", "coordinates": [-98.2436236656, 35.0757947167]}, "type": "Feature", "properties": {"collection_times": [{"days": "Mon-Fri", "time": "5:00pm"}, {"days": "Sat", "time": "2:00pm"}, {"days": "Sun", "time": "Closed"}], "id": "7300500020", "name": "USPS COLLECTION BOX - PO LOBBY", "address": {"city": "ANADARKO", "state": "OK", "street": "120 SW 1ST ST", "postcode": "73005"}}},
{"geometry": {"type": "Point", "coordinates": [-98.3632651146, 34.8937520983]}, "type": "Feature", "properties": {"collection_times": [{"days": "Mon-Fri", "time": "4:00pm"}, {"days": "Sat", "time": "9:45am"}, {"days": "Sun", "time": "Closed"}], "id": "7300600001", "name": "USPS COLLECTION BOX - PO LOBBY", "address": {"city": "APACHE", "state": "OK", "street": "302 E EVANS AVE", "postcode": "73006"}}},
{"geometry": {"type": "Point", "coordinates": [-98.3654802854, 34.8877851849]}, "type": "Feature", "properties": {"collection_times": [{"days": "Mon-Sat", "time": "1:45pm"}, {"days": "Sun", "time": "Closed"}], "id": "7300600004", "name": "USPS COLLECTION BOX - BLUE BOX", "address": {"city": "APACHE", "state": "OK", "street": "1112 S COBLAKE ST", "postcode": "73006"}}},
{"geometry": {"type": "Point", "coordinates": [-97.3239980333, 35.6636006619]}, "type": "Feature", "properties": {"collection_times": [{"days": "Mon-Fri", "time": "4:00pm"}, {"days": "Sat", "time": "10:30am"}, {"days": "Sun", "time": "Closed"}], "id": "7300700001", "name": "USPS COLLECTION BOX - BLUE BOX", "address": {"city": "ARCADIA", "state": "OK", "street": "205 N ODOR ST", "postcode": "73007"}}},
{"geometry": {"type": "Point", "coordinates": [-97.3239980333, 35.6636006619]}, "type": "Feature", "properties": {"collection_times": [{"days": "Mon-Fri", "time": "4:00pm"}, {"days": "Sat", "time": "10:30am"}, {"days": "Sun", "time": "Closed"}], "id": "7300700002", "name": "USPS COLLECTION BOX - PO LOBBY", "address": {"city": "ARCADIA", "state": "OK", "street": "205 N ODOR ST", "postcode": "73007"}}},
{"geometry": {"type": "Point", "coordinates": [-97.3239980333, 35.6636006619]}, "type": "Feature", "properties": {"collection_times": [{"days": "Mon-Fri", "time": "4:00pm"}, {"days": "Sat", "time": "10:30am"}, {"days": "Sun", "time": "Closed"}], "id": "7300700003", "name": "USPS COLLECTION BOX - PO LOBBY", "address": {"city": "ARCADIA", "state": "OK", "street": "205 N ODOR ST", "postcode": "73007"}}},
{"geometry": {"type": "Point", "coordinates": [-97.6286602051, 35.5101724932]}, "type": "Feature", "properties": {"collection_times": [{"days": "Mon-Fri", "time": "5:00pm"}, {"days": "Sat", "time": "3:45pm"}, {"days": "Sun", "time": "Closed"}], "id": "7300800014", "name": "USPS COLLECTION BOX - BLUE BOX", "address": {"city": "BETHANY", "state": "OK", "street": "6612 NW 38TH ST", "postcode": "73008"}}},
{"geometry": {"type": "Point", "coordinates": [-97.6512390297, 35.4933538782]}, "type": "Feature", "properties": {"collection_times": [{"days": "Mon-Fri", "time": "3:30pm"}, {"days": "Sat-Sun", "time": "Closed"}], "id": "7300800015", "name": "USPS COLLECTION BOX - BLUE BOX", "address": {"city": "BETHANY", "state": "OK", "street": "7811 NW 23RD ST", "postcode": "73008"}}},
{"geometry": {"type": "Point", "coordinates": [-97.6286602051, 35.5101724932]}, "type": "Feature", "properties": {"collection_times": [{"days": "Mon-Fri", "time": "5:00pm"}, {"days": "Sat", "time": "11:45am"}, {"days": "Sun", "time": "Closed"}], "id": "7300800027", "name": "USPS COLLECTION BOX - PO LOBBY", "address": {"city": "BETHANY", "state": "OK", "street": "6612 NW 38TH ST", "postcode": "73008"}}},
{"geometry": {"type": "Point", "coordinates": [-97.6367769235, 35.4934617925]}, "type": "Feature", "properties": {"collection_times": [{"days": "Mon-Fri", "time": "3:30pm"}, {"days": "Sat-Sun", "time": "Closed"}], "id": "7300800028", "name": "USPS COLLECTION BOX - BLUE BOX", "address": {"city": "BETHANY", "state": "OK", "street": "7101 NW 23RD ST", "postcode": "73008"}}},
{"geometry": {"type": "Point", "coordinates": [-98.3434838864, 35.3088644322]}, "type": "Feature", "properties": {"collection_times": [{"days": "Mon-Fri", "time": "4:15pm"}, {"days": "Sat", "time": "9:15am"}, {"days": "Sun", "time": "Closed"}], "id": "7300900001", "name": "USPS COLLECTION BOX - PO LOBBY", "address": {"city": "BINGER", "state": "OK", "street": "224 W MAIN ST", "postcode": "73009"}}},
{"geometry": {"type": "Point", "coordinates": [-98.3434838864, 35.3088644322]}, "type": "Feature", "properties": {"collection_times": [{"days": "Mon-Fri", "time": "4:15pm"}, {"days": "Sat", "time": "9:15am"}, {"days": "Sun", "time": "Closed"}], "id": "7300900003", "name": "USPS COLLECTION BOX - PO LOBBY", "address": {"city": "BINGER", "state": "OK", "street": "224 W MAIN ST", "postcode": "73009"}}},
{"geometry": {"type": "Point", "coordinates": [-97.6537135782, 35.1462998837]}, "type": "Feature", "properties": {"collection_times": [{"days": "Mon-Fri", "time": "4:15pm"}, {"days": "Sat", "time": "9:00am"}, {"days": "Sun", "time": "Closed"}], "id": "7301000006", "name": "USPS COLLECTION BOX - BLUE BOX", "address": {"city": "BLANCHARD", "state": "OK", "street": "1200 N COUNCIL RD", "postcode": "73010"}}},
{"geometry": {"type": "Point", "coordinates": [-97.6537135782, 35.1462998837]}, "type": "Feature", "properties": {"collection_times": [{"days": "Mon-Fri", "time": "4:45pm"}, {"days": "Sat-Sun", "time": "Closed"}], "id": "7301000008", "name": "USPS COLLECTION BOX - PO LOBBY", "address": {"city": "BLANCHARD", "state": "OK", "street": "1200 N COUNCIL RD", "postcode": "73010"}}},
{"geometry": {"type": "Point", "coordinates": [-97.7302918843, 34.8684347445]}, "type": "Feature", "properties": {"collection_times": [{"days": "Mon-Fri", "time": "3:45pm"}, {"days": "Sat", "time": "8:45am"}, {"days": "Sun", "time": "Closed"}], "id": "7301100001", "name": "USPS COLLECTION BOX - BLUE BOX", "address": {"city": "BRADLEY", "state": "OK", "street": "116 S MCKEE ST", "postcode": "73011"}}},
{"geometry": {"type": "Point", "coordinates": [-97.7302918843, 34.8684347445]}, "type": "Feature", "properties": {"collection_times": [{"days": "Mon-Fri", "time": "3:45pm"}, {"days": "Sat", "time": "8:45am"}, {"days": "Sun", "time": "Closed"}], "id": "7301100002", "name": "USPS COLLECTION BOX - PO LOBBY", "address": {"city": "BRADLEY", "state": "OK", "street": "116 S MCKEE ST", "postcode": "73011"}}},
{"geometry": {"type": "Point", "coordinates": [-97.7302918843, 34.8684347445]}, "type": "Feature", "properties": {"collection_times": [{"days": "Mon-Fri", "time": "3:45pm"}, {"days": "Sat", "time": "8:45am"}, {"days": "Sun", "time": "Closed"}], "id": "7301100003", "name": "USPS COLLECTION BOX - PO LOBBY", "address": {"city": "BRADLEY", "state": "OK", "street": "116 S MCKEE ST", "postcode": "73011"}}},
{"geometry": {"type": "Point", "coordinates": [-97.4643590345, 35.6090796922]}, "type": "Feature", "properties": {"collection_times": [{"days": "Mon-Fri", "time": "4:30pm"}, {"days": "Sat", "time": "1:30pm"}, {"days": "Sun", "time": "Closed"}], "id": "7301300003", "name": "USPS COLLECTION BOX - BLUE BOX", "address": {"city": "EDMOND", "state": "OK", "street": "2801 E MEMORIAL RD", "postcode": "73013"}}},
{"geometry": {"type": "Point", "coordinates": [-97.453075287, 35.6382152199]}, "type": "Feature", "properties": {"collection_times": [{"days": "Mon-Fri", "time": "4:15pm"}, {"days": "Sat", "time": "1:00pm"}, {"days": "Sun", "time": "Closed"}], "id": "7301300004", "name": "USPS COLLECTION BOX - BLUE BOX", "address": {"city": "EDMOND", "state": "OK", "street": "2000 E 15TH ST", "postcode": "73013"}}},
{"geometry": {"type": "Point", "coordinates": [-97.4786042263, 35.6234360822]}, "type": "Feature", "properties": {"collection_times": [{"days": "Mon-Fri", "time": "4:30pm"}, {"days": "Sat", "time": "1:30pm"}, {"days": "Sun", "time": "Closed"}], "id": "7301300005", "name": "USPS COLLECTION BOX - BLUE BOX", "address": {"city": "EDMOND", "state": "OK", "street": "198 E 33RD ST", "postcode": "73013"}}},
{"geometry": {"type": "Point", "coordinates": [-97.4913358489, 35.6236826964]}, "type": "Feature", "properties": {"collection_times": [{"days": "Mon-Fri", "time": "4:30pm"}, {"days": "Sat", "time": "1:30pm"}, {"days": "Sun", "time": "Closed"}], "id": "7301300010", "name": "USPS COLLECTION BOX - BLUE BOX", "address": {"city": "EDMOND", "state": "OK", "street": "2801 E MEMORIAL RD", "postcode": "73013"}}},
{"geometry": {"type": "Point", "coordinates": [-97.4786042263, 35.6234360822]}, "type": "Feature", "properties": {"collection_times": [{"days": "Mon-Fri", "time": "4:30pm"}, {"days": "Sat", "time": "1:30pm"}, {"days": "Sun", "time": "Closed"}], "id": "7301300011", "name": "USPS COLLECTION BOX - BLUE BOX", "address": {"city": "EDMOND", "state": "OK", "street": "198 E 33RD ST", "postcode": "73013"}}},
{"geometry": {"type": "Point", "coordinates": [-97.4598318505, 35.6352443786]}, "type": "Feature", "properties": {"collection_times": [{"days": "Mon-Fri", "time": "4:15pm"}, {"days": "Sat", "time": "1:30pm"}, {"days": "Sun", "time": "Closed"}], "id": "7301300012", "name": "USPS COLLECTION BOX - BLUE BOX", "address": {"city": "EDMOND", "state": "OK", "street": "1501 E 19TH ST", "postcode": "73013"}}},
{"geometry": {"type": "Point", "coordinates": [-97.4598318505, 35.6352443786]}, "type": "Feature", "properties": {"collection_times": [{"days": "Mon-Fri", "time": "4:15pm"}, {"days": "Sat", "time": "1:30pm"}, {"days": "Sun", "time": "Closed"}], "id": "7301300015", "name": "USPS COLLECTION BOX - BLUE BOX", "address": {"city": "EDMOND", "state": "OK", "street": "1501 E 19TH ST", "postcode": "73013"}}},
{"geometry": {"type": "Point", "coordinates": [-97.4949381953, 35.6237147599]}, "type": "Feature", "properties": {"collection_times": [{"days": "Mon-Fri", "time": "5:00pm"}, {"days": "Sat", "time": "12:30pm"}, {"days": "Sun", "time": "Closed"}], "id": "7301300017", "name": "USPS COLLECTION BOX - BLUE BOX", "address": {"city": "EDMOND", "state": "OK", "street": "801 W 33RD ST", "postcode": "73013"}}},
{"geometry": {"type": "Point", "coordinates": [-97.4949381953, 35.6237147599]}, "type": "Feature", "properties": {"collection_times": [{"days": "Mon-Fri", "time": "5:00pm"}, {"days": "Sat", "time": "12:30pm"}, {"days": "Sun", "time": "Closed"}], "id": "7301300020", "name": "USPS COLLECTION BOX - PO LOBBY", "address": {"city": "EDMOND", "state": "OK", "street": "801 W 33RD ST", "postcode": "73013"}}},
{"geometry": {"type": "Point", "coordinates": [-97.512428572, 35.638374488]}, "type": "Feature", "properties": {"collection_times": [{"days": "Mon-Fri", "time": "3:00pm"}, {"days": "Sat", "time": "2:00pm"}, {"days": "Sun", "time": "Closed"}], "id": "7301300023", "name": "USPS COLLECTION BOX - BLUE BOX", "address": {"city": "EDMOND", "state": "OK", "street": "2200 W 15TH ST", "postcode": "73013"}}},
{"geometry": {"type": "Point", "coordinates": [-97.5327671855, 35.6384797714]}, "type": "Feature", "properties": {"collection_times": [{"days": "Mon-Sat", "time": "1:00pm"}, {"days": "Sun", "time": "Closed"}], "id": "7301300024", "name": "USPS COLLECTION BOX - BLUE BOX", "address": {"city": "EDMOND", "state": "OK", "street": "1101 NW 164TH ST", "postcode": "73013"}}},
{"geometry": {"type": "Point", "coordinates": [-97.4949381953, 35.6237147599]}, "type": "Feature", "properties": {"collection_times": [{"days": "Mon-Fri", "time": "5:00pm"}, {"days": "Sat", "time": "12:30pm"}, {"days": "Sun", "time": "Closed"}], "id": "7301300026", "name": "USPS COLLECTION BOX - APC", "address": {"city": "EDMOND", "state": "OK", "street": "801 W 33RD ST", "postcode": "73013"}}},
{"geometry": {"type": "Point", "coordinates": [-98.1185410236, 35.6010635678]}, "type": "Feature", "properties": {"collection_times": [{"days": "Mon-Fri", "time": "3:00pm"}, {"days": "Sat", "time": "10:45am"}, {"days": "Sun", "time": "Closed"}], "id": "7301400004", "name": "USPS COLLECTION BOX - PO LOBBY", "address": {"city": "CALUMET", "state": "OK", "street": "105 E MAIN ST", "postcode": "73014"}}},
{"geometry": {"type": "Point", "coordinates": [-98.6049881997, 35.1062259703]}, "type": "Feature", "properties": {"collection_times": [{"days": "Mon-Fri", "time": "4:15pm"}, {"days": "Sat", "time": "10:00am"}, {"days": "Sun", "time": "Closed"}], "id": "7301500001", "name": "USPS COLLECTION BOX - BLUE BOX", "address": {"city": "CARNEGIE", "state": "OK", "street": "14 N BROADWAY ST", "postcode": "73015"}}},
{"geometry": {"type": "Point", "coordinates": [-98.6049881997, 35.1062259703]}, "type": "Feature", "properties": {"collection_times": [{"days": "Mon-Fri", "time": "4:15pm"}, {"days": "Sat", "time": "10:00am"}, {"days": "Sun", "time": "Closed"}], "id": "7301500004", "name": "USPS COLLECTION BOX - PO LOBBY", "address": {"city": "CARNEGIE", "state": "OK", "street": "14 N BROADWAY ST", "postcode": "73015"}}},
{"geometry": {"type": "Point", "coordinates": [-98.6049881997, 35.1062259703]}, "type": "Feature", "properties": {"collection_times": [{"days": "Mon-Fri", "time": "4:15pm"}, {"days": "Sat", "time": "10:00am"}, {"days": "Sun", "time": "Closed"}], "id": "7301500005", "name": "USPS COLLECTION BOX - PO LOBBY", "address": {"city": "CARNEGIE", "state": "OK", "street": "14 N BROADWAY ST", "postcode": "73015"}}},
{"geometry": {"type": "Point", "coordinates": [-98.5536410614, 35.0934927736]}, "type": "Feature", "properties": {"collection_times": [{"days": "Mon-Fri", "time": "4:15pm"}, {"days": "Sat", "time": "10:00am"}, {"days": "Sun", "time": "Closed"}], "id": "7301500006", "name": "USPS COLLECTION BOX - PO LOBBY", "address": {"city": "CARNEGIE", "state": "OK", "street": "14 N BROADWAY ST", "postcode": "73015"}}},
{"geometry": {"type": "Point", "coordinates": [-97.679013632, 35.7983008124]}, "type": "Feature", "properties": {"collection_times": [{"days": "Mon-Fri", "time": "3:30pm"}, {"days": "Sat", "time": "10:00am"}, {"days": "Sun", "time": "Closed"}], "id": "7301600002", "name": "USPS COLLECTION BOX - PO LOBBY", "address": {"city": "CASHION", "state": "OK", "street": "109 S MAIN ST", "postcode": "73016"}}},
{"geometry": {"type": "Point", "coordinates": [-97.679013632, 35.7983008124]}, "type": "Feature", "properties": {"collection_times": [{"days": "Mon-Fri", "time": "3:30pm"}, {"days": "Sat", "time": "10:00am"}, {"days": "Sun", "time": "Closed"}], "id": "7301600003", "name": "USPS COLLECTION BOX - PO LOBBY", "address": {"city": "CASHION", "state": "OK", "street": "109 S MAIN ST", "postcode": "73016"}}},
{"geometry": {"type": "Point", "coordinates": [-98.1485994076, 34.9308597755]}, "type": "Feature", "properties": {"collection_times": [{"days": "Mon-Fri", "time": "3:45pm"}, {"days": "Sat", "time": "9:15am"}, {"days": "Sun", "time": "Closed"}], "id": "7301700001", "name": "USPS COLLECTION BOX - BLUE BOX", "address": {"city": "CEMENT", "state": "OK", "street": "406 N MAIN ST", "postcode": "73017"}}},
{"geometry": {"type": "Point", "coordinates": [-98.1485994076, 34.9308597755]}, "type": "Feature", "properties": {"collection_times": [{"days": "Mon-Fri", "time": "3:15pm"}, {"days": "Sat", "time": "9:15am"}, {"days": "Sun", "time": "Closed"}], "id": "7301700002", "name": "USPS COLLECTION BOX - PO LOBBY", "address": {"city": "CEMENT", "state": "OK", "street": "406 N MAIN ST", "postcode": "73017"}}},
{"geometry": {"type": "Point", "coordinates": [-97.5085968103, 35.5826863005]}, "type": "Feature", "properties": {"collection_times": [{"days": "Mon-Sat", "time": "9:00am"}, {"days": "Sun", "time": "Closed"}], "id": "7301800002", "name": "USPS COLLECTION BOX - BLUE BOX", "address": {"city": "CHICKASHA", "state": "OK", "street": "208 S 5TH ST", "postcode": "73018"}}},
{"geometry": {"type": "Point", "coordinates": [-97.945561709, 35.0524536415]}, "type": "Feature", "properties": {"collection_times": [{"days": "Mon-Fri", "time": "3:45pm"}, {"days": "Sat", "time": "1:15pm"}, {"days": "Sun", "time": "Closed"}], "id": "7301800009", "name": "USPS COLLECTION BOX - BLUE BOX", "address": {"city": "CHICKASHA", "state": "OK", "street": "1000 W CHOCTAW AVE", "postcode": "73018"}}},
{"geometry": {"type": "Point", "coordinates": [-97.9364836653, 35.0151217274]}, "type": "Feature", "properties": {"collection_times": [{"days": "Mon-Sat", "time": "10:00am"}, {"days": "Sun", "time": "Closed"}], "id": "7301800010", "name": "USPS COLLECTION BOX - BLUE BOX", "address": {"city": "CHICKASHA", "state": "OK", "street": "402 W COUNTRY CLUB RD", "postcode": "73018"}}},
{"geometry": {"type": "Point", "coordinates": [-97.9548432139, 35.0314705877]}, "type": "Feature", "properties": {"collection_times": [{"days": "Mon-Fri", "time": "3:15pm"}, {"days": "Sat", "time": "1:00pm"}, {"days": "Sun", "time": "Closed"}], "id": "7301800012", "name": "USPS COLLECTION BOX - BLUE BOX", "address": {"city": "CHICKASHA", "state": "OK", "street": "1900 S 17TH ST", "postcode": "73018"}}},
{"geometry": {"type": "Point", "coordinates": [-97.9358489306, 35.0524490489]}, "type": "Feature", "properties": {"collection_times": [{"days": "Mon-Fri", "time": "3:45pm"}, {"days": "Sat", "time": "1:15pm"}, {"days": "Sun", "time": "Closed"}], "id": "7301800014", "name": "USPS COLLECTION BOX - BLUE BOX", "address": {"city": "CHICKASHA", "state": "OK", "street": "326 W CHOCTAW AVE", "postcode": "73018"}}},
{"geometry": {"type": "Point", "coordinates": [-97.9545192342, 35.0390347656]}, "type": "Feature", "properties": {"collection_times": [{"days": "Mon-Fri", "time": "3:15pm"}, {"days": "Sat", "time": "1:00pm"}, {"days": "Sun", "time": "Closed"}], "id": "7301800017", "name": "USPS COLLECTION BOX - BLUE BOX", "address": {"city": "CHICKASHA", "state": "OK", "street": "1201 S 17TH ST", "postcode": "73018"}}},
{"geometry": {"type": "Point", "coordinates": [-97.9413415459, 35.0500053728]}, "type": "Feature", "properties": {"collection_times": [{"days": "Mon-Fri", "time": "5:00pm"}, {"days": "Sat", "time": "4:00pm"}, {"days": "Sun", "time": "Closed"}], "id": "7301800018", "name": "USPS COLLECTION BOX - BLUE BOX", "address": {"city": "CHICKASHA", "state": "OK", "street": "702 W KANSAS AVE", "postcode": "73018"}}},
{"geometry": {"type": "Point", "coordinates": [-97.9287785526, 35.0255569977]}, "type": "Feature", "properties": {"collection_times": [{"days": "Mon-Sat", "time": "9:30am"}, {"days": "Sun", "time": "Closed"}], "id": "7301800021", "name": "USPS COLLECTION BOX - BLUE BOX", "address": {"city": "CHICKASHA", "state": "OK", "street": "2400 PONDEROSA DR", "postcode": "73018"}}},
{"geometry": {"type": "Point", "coordinates": [-97.9344391758, 35.0512267423]}, "type": "Feature", "properties": {"collection_times": [{"days": "Mon-Fri", "time": "3:30pm"}, {"days": "Sat", "time": "1:15pm"}, {"days": "Sun", "time": "Closed"}], "id": "7301800025", "name": "USPS COLLECTION BOX - BLUE BOX", "address": {"city": "CHICKASHA", "state": "OK", "street": "228 W CHICKASHA AVE", "postcode": "73018"}}},
{"geometry": {"type": "Point", "coordinates": [-97.9350973354, 35.0316596192]}, "type": "Feature", "properties": {"collection_times": [{"days": "Mon-Fri", "time": "3:30pm"}, {"days": "Sat", "time": "1:00pm"}, {"days": "Sun", "time": "Closed"}], "id": "7301800027", "name": "USPS COLLECTION BOX - BLUE BOX", "address": {"city": "CHICKASHA", "state": "OK", "street": "1902 S 4TH ST", "postcode": "73018"}}},
{"geometry": {"type": "Point", "coordinates": [-97.9413415459, 35.0500053728]}, "type": "Feature", "properties": {"collection_times": [{"days": "Mon-Fri", "time": "5:00pm"}, {"days": "Sat", "time": "4:00pm"}, {"days": "Sun", "time": "Closed"}], "id": "7301800028", "name": "USPS COLLECTION BOX - PO LOBBY", "address": {"city": "CHICKASHA", "state": "OK", "street": "702 W KANSAS AVE", "postcode": "73018"}}},
{"geometry": {"type": "Point", "coordinates": [-97.95261239, 35.0295254153]}, "type": "Feature", "properties": {"collection_times": [{"days": "Mon-Fri", "time": "3:15pm"}, {"days": "Sat", "time": "1:00pm"}, {"days": "Sun", "time": "Closed"}], "id": "7301800034", "name": "USPS COLLECTION BOX - BLUE BOX", "address": {"city": "CHICKASHA", "state": "OK", "street": "1601 W GRAND AVE", "postcode": "73018"}}},
{"geometry": {"type": "Point", "coordinates": [-97.9398641737, 35.029617841]}, "type": "Feature", "properties": {"collection_times": [{"days": "Mon-Fri", "time": "3:15pm"}, {"days": "Sat", "time": "1:15pm"}, {"days": "Sun", "time": "Closed"}], "id": "7301800040", "name": "USPS COLLECTION BOX - BLUE BOX", "address": {"city": "CHICKASHA", "state": "OK", "street": "602 W GRAND AVE", "postcode": "73018"}}},
{"geometry": {"type": "Point", "coordinates": [-97.2734327684, 35.4956837951]}, "type": "Feature", "properties": {"collection_times": [{"days": "Mon-Fri", "time": "4:30pm"}, {"days": "Sat", "time": "12:00pm"}, {"days": "Sun", "time": "Closed"}], "id": "7302000002", "name": "USPS COLLECTION BOX - BLUE BOX", "address": {"city": "CHOCTAW", "state": "OK", "street": "14500 E GRAND ST", "postcode": "73020"}}},
{"geometry": {"type": "Point", "coordinates": [-97.2734327684, 35.4956837951]}, "type": "Feature", "properties": {"collection_times": [{"days": "Mon-Fri", "time": "4:45pm"}, {"days": "Sat", "time": "12:00pm"}, {"days": "Sun", "time": "Closed"}], "id": "7302000004", "name": "USPS COLLECTION BOX - PO LOBBY", "address": {"city": "CHOCTAW", "state": "OK", "street": "14500 E GRAND ST", "postcode": "73020"}}},
{"geometry": {"type": "Point", "coordinates": [-97.2734327684, 35.4956837951]}, "type": "Feature", "properties": {"collection_times": [{"days": "Mon-Fri", "time": "4:45pm"}, {"days": "Sat", "time": "12:00pm"}, {"days": "Sun", "time": "Closed"}], "id": "7302000006", "name": "USPS COLLECTION BOX - PO LOBBY", "address": {"city": "CHOCTAW", "state": "OK", "street": "14500 E GRAND ST", "postcode": "73020"}}},
{"geometry": {"type": "Point", "coordinates": [-98.6764357314, 35.347684562]}, "type": "Feature", "properties": {"collection_times": [{"days": "Mon-Sat", "time": "11:30am"}, {"days": "Sun", "time": "Closed"}], "id": "7302100001", "name": "USPS COLLECTION BOX - BLUE BOX", "address": {"city": "COLONY", "state": "OK", "street": "50 N WATAN AVE", "postcode": "73021"}}},
{"geometry": {"type": "Point", "coordinates": [-98.6764357314, 35.347684562]}, "type": "Feature", "properties": {"collection_times": [{"days": "Mon-Sat", "time": "11:30am"}, {"days": "Sun", "time": "Closed"}], "id": "7302100002", "name": "USPS COLLECTION BOX - PO LOBBY", "address": {"city": "COLONY", "state": "OK", "street": "50 N WATAN AVE", "postcode": "73021"}}},
{"geometry": {"type": "Point", "coordinates": [-98.6764357314, 35.347684562]}, "type": "Feature", "properties": {"collection_times": [{"days": "Mon-Sat", "time": "11:30am"}, {"days": "Sun", "time": "Closed"}], "id": "7302100003", "name": "USPS COLLECTION BOX - PO LOBBY", "address": {"city": "COLONY", "state": "OK", "street": "50 N WATAN AVE", "postcode": "73021"}}},
{"geometry": {"type": "Point", "coordinates": [-97.9929538303, 35.6121190851]}, "type": "Feature", "properties": {"collection_times": [{"days": "Mon-Fri", "time": "11:45am"}, {"days": "Sat", "time": "9:30am"}, {"days": "Sun", "time": "Closed"}], "id": "7302200002", "name": "USPS COLLECTION BOX - PO LOBBY", "address": {"city": "CONCHO", "state": "OK", "street": "200 S BLACK KETTLE BLVD", "postcode": "73022"}}},
{"geometry": {"type": "Point", "coordinates": [-97.9929538303, 35.6121190851]}, "type": "Feature", "properties": {"collection_times": [{"days": "Mon-Fri", "time": "11:45am"}, {"days": "Sat", "time": "9:30am"}, {"days": "Sun", "time": "Closed"}], "id": "7302200003", "name": "USPS COLLECTION BOX - PO LOBBY", "address": {"city": "CONCHO", "state": "OK", "street": "200 S BLACK KETTLE BLVD", "postcode": "73022"}}},
{"geometry": {"type": "Point", "coordinates": [-98.7840405967, 35.3779726283]}, "type": "Feature", "properties": {"collection_times": [{"days": "Mon-Fri", "time": "1:30pm"}, {"days": "Sat", "time": "11:00am"}, {"days": "Sun", "time": "Closed"}], "id": "7302400002", "name": "USPS COLLECTION BOX - PO LOBBY", "address": {"city": "CORN", "state": "OK", "street": "208 W MAIN", "postcode": "73024"}}},
{"geometry": {"type": "Point", "coordinates": [-98.7840405967, 35.3779726283]}, "type": "Feature", "properties": {"collection_times": [{"days": "Mon-Fri", "time": "1:30pm"}, {"days": "Sat", "time": "11:00am"}, {"days": "Sun", "time": "Closed"}], "id": "7302400003", "name": "USPS COLLECTION BOX - PO LOBBY", "address": {"city": "CORN", "state": "OK", "street": "208 W MAIN", "postcode": "73024"}}},
{"geometry": {"type": "Point", "coordinates": [-97.2343686286, 35.9566326231]}, "type": "Feature", "properties": {"collection_times": [{"days": "Mon-Fri", "time": "3:30pm"}, {"days": "Sat", "time": "9:30am"}, {"days": "Sun", "time": "Closed"}], "id": "7302700001", "name": "USPS COLLECTION BOX - BLUE BOX", "address": {"city": "COYLE", "state": "OK", "street": "208 E MAIN ST", "postcode": "73027"}}},
{"geometry": {"type": "Point", "coordinates": [-97.2343686286, 35.9566326231]}, "type": "Feature", "properties": {"collection_times": [{"days": "Mon-Fri", "time": "3:30pm"}, {"days": "Sat", "time": "9:30am"}, {"days": "Sun", "time": "Closed"}], "id": "7302700002", "name": "USPS COLLECTION BOX - PO LOBBY", "address": {"city": "COYLE", "state": "OK", "street": "208 E MAIN ST", "postcode": "73027"}}},
{"geometry": {"type": "Point", "coordinates": [-97.2343686286, 35.9566326231]}, "type": "Feature", "properties": {"collection_times": [{"days": "Mon-Fri", "time": "3:30pm"}, {"days": "Sat", "time": "9:30am"}, {"days": "Sun", "time": "Closed"}], "id": "7302700003", "name": "USPS COLLECTION BOX - PO LOBBY", "address": {"city": "COYLE", "state": "OK", "street": "208 E MAIN ST", "postcode": "73027"}}},
{"geometry": {"type": "Point", "coordinates": [-97.5955514566, 35.952730738]}, "type": "Feature", "properties": {"collection_times": [{"days": "Mon-Fri", "time": "4:15pm"}, {"days": "Sat", "time": "10:00am"}, {"days": "Sun", "time": "Closed"}], "id": "7302800001", "name": "USPS COLLECTION BOX - BLUE BOX", "address": {"city": "CRESCENT", "state": "OK", "street": "115 N GRAND ST", "postcode": "73028"}}},
{"geometry": {"type": "Point", "coordinates": [-97.5955514566, 35.952730738]}, "type": "Feature", "properties": {"collection_times": [{"days": "Mon-Fri", "time": "4:15pm"}, {"days": "Sat", "time": "10:00am"}, {"days": "Sun", "time": "Closed"}], "id": "7302800002", "name": "USPS COLLECTION BOX - PO LOBBY", "address": {"city": "CRESCENT", "state": "OK", "street": "115 N GRAND ST", "postcode": "73028"}}},
{"geometry": {"type": "Point", "coordinates": [-98.1998757484, 34.8965487534]}, "type": "Feature", "properties": {"collection_times": [{"days": "Mon-Fri", "time": "4:15pm"}, {"days": "Sat", "time": "10:00am"}, {"days": "Sun", "time": "Closed"}], "id": "7302900002", "name": "USPS COLLECTION BOX - PO LOBBY", "address": {"city": "CYRIL", "state": "OK", "street": "112 W MAIN ST", "postcode": "73029"}}},
{"geometry": {"type": "Point", "coordinates": [-97.1105418712, 34.4256448045]}, "type": "Feature", "properties": {"collection_times": [{"days": "Mon-Sat", "time": "10:00am"}, {"days": "Sun", "time": "Closed"}], "id": "7303000002", "name": "USPS COLLECTION BOX - BLUE BOX", "address": {"city": "DAVIS", "state": "OK", "street": "227 E MAIN ST", "postcode": "73030"}}},
{"geometry": {"type": "Point", "coordinates": [-97.1116855599, 34.5071701166]}, "type": "Feature", "properties": {"collection_times": [{"days": "Mon-Fri", "time": "4:30pm"}, {"days": "Sat", "time": "10:30am"}, {"days": "Sun", "time": "Closed"}], "id": "7303000003", "name": "USPS COLLECTION BOX - BLUE BOX", "address": {"city": "DAVIS", "state": "OK", "street": "900 E MAIN ST", "postcode": "73030"}}},
{"geometry": {"type": "Point", "coordinates": [-97.1116855599, 34.5071701166]}, "type": "Feature", "properties": {"collection_times": [{"days": "Mon-Fri", "time": "4:30pm"}, {"days": "Sat", "time": "10:30am"}, {"days": "Sun", "time": "Closed"}], "id": "7303000005", "name": "USPS COLLECTION BOX - BLUE BOX", "address": {"city": "DAVIS", "state": "OK", "street": "900 E MAIN ST", "postcode": "73030"}}},
{"geometry": {"type": "Point", "coordinates": [-97.1116855599, 34.5071701166]}, "type": "Feature", "properties": {"collection_times": [{"days": "Mon-Fri", "time": "4:30pm"}, {"days": "Sat", "time": "10:30am"}, {"days": "Sun", "time": "Closed"}], "id": "7303000007", "name": "USPS COLLECTION BOX - PO LOBBY", "address": {"city": "DAVIS", "state": "OK", "street": "900 E MAIN ST", "postcode": "73030"}}},
{"geometry": {"type": "Point", "coordinates": [-97.6328813417, 35.0319572072]}, "type": "Feature", "properties": {"collection_times": [{"days": "Mon-Fri", "time": "4:00pm"}, {"days": "Sat", "time": "9:00am"}, {"days": "Sun", "time": "Closed"}], "id": "7303100002", "name": "USPS COLLECTION BOX - PO LOBBY", "address": {"city": "DIBBLE", "state": "OK", "street": "12252 STATE HIGHWAY 39", "postcode": "73031"}}},
{"geometry": {"type": "Point", "coordinates": [-97.6328813417, 35.0319572072]}, "type": "Feature", "properties": {"collection_times": [{"days": "Mon-Fri", "time": "4:00pm"}, {"days": "Sat", "time": "9:00am"}, {"days": "Sun", "time": "Closed"}], "id": "7303100003", "name": "USPS COLLECTION BOX - PO LOBBY", "address": {"city": "DIBBLE", "state": "OK", "street": "12252 STATE HIGHWAY 39", "postcode": "73031"}}},
{"geometry": {"type": "Point", "coordinates": [-97.0534966812, 34.4013516716]}, "type": "Feature", "properties": {"collection_times": [{"days": "Mon-Fri", "time": "4:15pm"}, {"days": "Sat", "time": "9:45am"}, {"days": "Sun", "time": "Closed"}], "id": "7303200001", "name": "USPS COLLECTION BOX - BLUE BOX", "address": {"city": "DOUGHERTY", "state": "OK", "street": "100 E MAIN ST", "postcode": "73032"}}},
{"geometry": {"type": "Point", "coordinates": [-97.0534966812, 34.4013516716]}, "type": "Feature", "properties": {"collection_times": [{"days": "Mon-Fri", "time": "4:15pm"}, {"days": "Sat", "time": "9:45am"}, {"days": "Sun", "time": "Closed"}], "id": "7303200002", "name": "USPS COLLECTION BOX - PO LOBBY", "address": {"city": "DOUGHERTY", "state": "OK", "street": "100 E MAIN ST", "postcode": "73032"}}},
{"geometry": {"type": "Point", "coordinates": [-98.5573767906, 35.3051340539]}, "type": "Feature", "properties": {"collection_times": [{"days": "Mon-Fri", "time": "3:45pm"}, {"days": "Sat", "time": "10:00am"}, {"days": "Sun", "time": "Closed"}], "id": "7303300001", "name": "USPS COLLECTION BOX - BLUE BOX", "address": {"city": "EAKLY", "state": "OK", "street": "404 W MAIN ST", "postcode": "73033"}}},
{"geometry": {"type": "Point", "coordinates": [-98.5534641108, 35.3050680724]}, "type": "Feature", "properties": {"collection_times": [{"days": "Mon-Fri", "time": "12:45pm"}, {"days": "Sat", "time": "10:00am"}, {"days": "Sun", "time": "Closed"}], "id": "7303300002", "name": "USPS COLLECTION BOX - PO LOBBY", "address": {"city": "EAKLY", "state": "OK", "street": "404 W MAIN ST", "postcode": "73033"}}},
{"geometry": {"type": "Point", "coordinates": [-97.4284475291, 35.7021940133]}, "type": "Feature", "properties": {"collection_times": [{"days": "Mon-Fri", "time": "3:30pm"}, {"days": "Sat", "time": "1:00pm"}, {"days": "Sun", "time": "Closed"}], "id": "7303400010", "name": "USPS COLLECTION BOX - BLUE BOX", "address": {"city": "EDMOND", "state": "OK", "street": "1433 E DANFORTH RD", "postcode": "73034"}}},
{"geometry": {"type": "Point", "coordinates": [-97.4532198745, 35.6672211636]}, "type": "Feature", "properties": {"collection_times": [{"days": "Mon-Fri", "time": "3:15pm"}, {"days": "Sat", "time": "2:00pm"}, {"days": "Sun", "time": "Closed"}], "id": "7303400023", "name": "USPS COLLECTION BOX - BLUE BOX", "address": {"city": "EDMOND", "state": "OK", "street": "2108 W DANFORTH RD", "postcode": "73034"}}},
{"geometry": {"type": "Point", "coordinates": [-97.512920683, 35.6530136052]}, "type": "Feature", "properties": {"collection_times": [{"days": "Mon-Fri", "time": "3:00pm"}, {"days": "Sat", "time": "2:00pm"}, {"days": "Sun", "time": "Closed"}], "id": "7303400025", "name": "USPS COLLECTION BOX - BLUE BOX", "address": {"city": "EDMOND", "state": "OK", "street": "2205 W EDMOND RD", "postcode": "73034"}}},
{"geometry": {"type": "Point", "coordinates": [-97.4809060893, 35.6574386191]}, "type": "Feature", "properties": {"collection_times": [{"days": "Mon-Fri", "time": "5:00pm"}, {"days": "Sat", "time": "2:30pm"}, {"days": "Sun", "time": "Closed"}], "id": "7303400026", "name": "USPS COLLECTION BOX - BLUE BOX", "address": {"city": "EDMOND", "state": "OK", "street": "200 N BROADWAY", "postcode": "73034"}}},
{"geometry": {"type": "Point", "coordinates": [-97.460388049, 35.6515398956]}, "type": "Feature", "properties": {"collection_times": [{"days": "Mon-Fri", "time": "4:00pm"}, {"days": "Sat", "time": "1:00pm"}, {"days": "Sun", "time": "Closed"}], "id": "7303400030", "name": "USPS COLLECTION BOX - BLUE BOX", "address": {"city": "EDMOND", "state": "OK", "street": "306 S BRYANT AVE", "postcode": "73034"}}},
{"geometry": {"type": "Point", "coordinates": [-97.4447573899, 35.6879540178]}, "type": "Feature", "properties": {"collection_times": [{"days": "Mon-Fri", "time": "5:00pm"}, {"days": "Sat", "time": "2:30pm"}, {"days": "Sun", "time": "Closed"}], "id": "7303400038", "name": "USPS COLLECTION BOX - EXPRESS", "address": {"city": "EDMOND", "state": "OK", "street": "200 N BROADWAY", "postcode": "73034"}}},
{"geometry": {"type": "Point", "coordinates": [-97.4809060893, 35.6574386191]}, "type": "Feature", "properties": {"collection_times": [{"days": "Mon-Fri", "time": "5:00pm"}, {"days": "Sat", "time": "2:30pm"}, {"days": "Sun", "time": "Closed"}], "id": "7303400039", "name": "USPS COLLECTION BOX - BLUE BOX", "address": {"city": "EDMOND", "state": "OK", "street": "200 N BROADWAY", "postcode": "73034"}}},
{"geometry": {"type": "Point", "coordinates": [-97.4363489321, 35.6519903457]}, "type": "Feature", "properties": {"collection_times": [{"days": "Mon-Fri", "time": "4:00pm"}, {"days": "Sat", "time": "10:00am"}, {"days": "Sun", "time": "Closed"}], "id": "7303400048", "name": "USPS COLLECTION BOX - BLUE BOX", "address": {"city": "EDMOND", "state": "OK", "street": "3330 FRENCH PARK DR", "postcode": "73034"}}},
{"geometry": {"type": "Point", "coordinates": [-97.4284707944, 35.6526101445]}, "type": "Feature", "properties": {"collection_times": [{"days": "Mon-Sat", "time": "11:00am"}, {"days": "Sun", "time": "Closed"}], "id": "7303400050", "name": "USPS COLLECTION BOX - BLUE BOX", "address": {"city": "EDMOND", "state": "OK", "street": "200 MELINE DR", "postcode": "73034"}}},
{"geometry": {"type": "Point", "coordinates": [-97.4809060893, 35.6574386191]}, "type": "Feature", "properties": {"collection_times": [{"days": "Mon-Fri", "time": "5:00pm"}, {"days": "Sat", "time": "2:30pm"}, {"days": "Sun", "time": "Closed"}], "id": "7303400052", "name": "USPS COLLECTION BOX - PO LOBBY", "address": {"city": "EDMOND", "state": "OK", "street": "200 N BROADWAY", "postcode": "73034"}}},
{"geometry": {"type": "Point", "coordinates": [-97.4809060893, 35.6574386191]}, "type": "Feature", "properties": {"collection_times": [{"days": "Mon-Fri", "time": "5:00pm"}, {"days": "Sat", "time": "2:30pm"}, {"days": "Sun", "time": "Closed"}], "id": "7303400053", "name": "USPS COLLECTION BOX - PO LOBBY", "address": {"city": "EDMOND", "state": "OK", "street": "200 N BROADWAY", "postcode": "73034"}}},
{"geometry": {"type": "Point", "coordinates": [-97.4809060893, 35.6574386191]}, "type": "Feature", "properties": {"collection_times": [{"days": "Mon-Fri", "time": "5:00pm"}, {"days": "Sat", "time": "2:30pm"}, {"days": "Sun", "time": "Closed"}], "id": "7303400054", "name": "USPS COLLECTION BOX - PO LOBBY", "address": {"city": "EDMOND", "state": "OK", "street": "200 N BROADWAY", "postcode": "73034"}}},
{"geometry": {"type": "Point", "coordinates": [-97.4809060893, 35.6574386191]}, "type": "Feature", "properties": {"collection_times": [{"days": "Mon-Fri", "time": "5:00pm"}, {"days": "Sat", "time": "2:30pm"}, {"days": "Sun", "time": "Closed"}], "id": "7303400057", "name": "USPS COLLECTION BOX - APC", "address": {"city": "EDMOND", "state": "OK", "street": "200 N BROADWAY", "postcode": "73034"}}},
{"geometry": {"type": "Point", "coordinates": [-97.9560890879, 35.5341421702]}, "type": "Feature", "properties": {"collection_times": [{"days": "Mon-Fri", "time": "5:00pm"}, {"days": "Sat", "time": "11:30am"}, {"days": "Sun", "time": "Closed"}], "id": "7303600012", "name": "USPS COLLECTION BOX - BLUE BOX", "address": {"city": "EL RENO", "state": "OK", "street": "203 N EVANS AVE", "postcode": "73036"}}},
{"geometry": {"type": "Point", "coordinates": [-97.9726895462, 35.5023375094]}, "type": "Feature", "properties": {"collection_times": [{"days": "Mon-Sat", "time": "9:30am"}, {"days": "Sun", "time": "Closed"}], "id": "7303600017", "name": "USPS COLLECTION BOX - BLUE BOX", "address": {"city": "EL RENO", "state": "OK", "street": "2400 S COUNTRY CLUB RD", "postcode": "73036"}}},
{"geometry": {"type": "Point", "coordinates": [-97.9401276317, 35.5080705493]}, "type": "Feature", "properties": {"collection_times": [{"days": "Mon-Sat", "time": "10:00am"}, {"days": "Sun", "time": "Closed"}], "id": "7303600019", "name": "USPS COLLECTION BOX - BLUE BOX", "address": {"city": "EL RENO", "state": "OK", "street": "1633 E 66TH", "postcode": "73036"}}},
{"geometry": {"type": "Point", "coordinates": [-97.956113122, 35.534148765]}, "type": "Feature", "properties": {"collection_times": [{"days": "Mon-Fri", "time": "4:30pm"}, {"days": "Sat", "time": "11:30am"}, {"days": "Sun", "time": "Closed"}], "id": "7303600020", "name": "USPS COLLECTION BOX - PO LOBBY", "address": {"city": "EL RENO", "state": "OK", "street": "203 N EVANS AVE", "postcode": "73036"}}},
{"geometry": {"type": "Point", "coordinates": [-97.9560890879, 35.5341421702]}, "type": "Feature", "properties": {"collection_times": [{"days": "Mon-Fri", "time": "4:30pm"}, {"days": "Sat", "time": "11:30am"}, {"days": "Sun", "time": "Closed"}], "id": "7303600021", "name": "USPS COLLECTION BOX - PO LOBBY", "address": {"city": "EL RENO", "state": "OK", "street": "203 N EVANS AVE", "postcode": "73036"}}},
{"geometry": {"type": "Point", "coordinates": [-98.436182554, 35.0987316771]}, "type": "Feature", "properties": {"collection_times": [{"days": "Mon-Fri", "time": "4:00pm"}, {"days": "Sat", "time": "9:45am"}, {"days": "Sun", "time": "Closed"}], "id": "7303800001", "name": "USPS COLLECTION BOX - BLUE BOX", "address": {"city": "FT COBB", "state": "OK", "street": "408 N HAZLETT ST", "postcode": "73038"}}},
{"geometry": {"type": "Point", "coordinates": [-98.436182554, 35.0987316771]}, "type": "Feature", "properties": {"collection_times": [{"days": "Mon-Fri", "time": "3:00pm"}, {"days": "Sat", "time": "6:45am"}, {"days": "Sun", "time": "Closed"}], "id": "7303800002", "name": "USPS COLLECTION BOX - PO LOBBY", "address": {"city": "FT COBB", "state": "OK", "street": "408 N HAZLETT ST", "postcode": "73038"}}},
{"geometry": {"type": "Point", "coordinates": [-98.436182554, 35.0987316771]}, "type": "Feature", "properties": {"collection_times": [{"days": "Mon-Fri", "time": "3:00pm"}, {"days": "Sat", "time": "6:45am"}, {"days": "Sun", "time": "Closed"}], "id": "7303800003", "name": "USPS COLLECTION BOX - PO LOBBY", "address": {"city": "FT COBB", "state": "OK", "street": "408 N HAZLETT ST", "postcode": "73038"}}},
{"geometry": {"type": "Point", "coordinates": [-98.438646983, 35.0998618684]}, "type": "Feature", "properties": {"collection_times": [{"days": "Mon-Sat", "time": "1:45pm"}, {"days": "Sun", "time": "Closed"}], "id": "7303800005", "name": "USPS COLLECTION BOX - BLUE BOX", "address": {"city": "FT COBB", "state": "OK", "street": "117 W MAIN ST", "postcode": "73038"}}},
{"geometry": {"type": "Point", "coordinates": [-98.3176595284, 35.6319996198]}, "type": "Feature", "properties": {"collection_times": [{"days": "Mon-Fri", "time": "3:45pm"}, {"days": "Sat", "time": "10:00am"}, {"days": "Sun", "time": "Closed"}], "id": "7304000001", "name": "USPS COLLECTION BOX - BLUE BOX", "address": {"city": "GEARY", "state": "OK", "street": "117 NW 1ST ST", "postcode": "73040"}}},
{"geometry": {"type": "Point", "coordinates": [-98.3177175095, 35.6321120099]}, "type": "Feature", "properties": {"collection_times": [{"days": "Mon-Fri", "time": "3:00pm"}, {"days": "Sat", "time": "10:00am"}, {"days": "Sun", "time": "Closed"}], "id": "7304000002", "name": "USPS COLLECTION BOX - PO LOBBY", "address": {"city": "GEARY", "state": "OK", "street": "120 NW 1ST ST", "postcode": "73040"}}},
{"geometry": {"type": "Point", "coordinates": [-98.3177175095, 35.6321120099]}, "type": "Feature", "properties": {"collection_times": [{"days": "Mon-Fri", "time": "3:00pm"}, {"days": "Sat", "time": "10:00am"}, {"days": "Sun", "time": "Closed"}], "id": "7304000003", "name": "USPS COLLECTION BOX - PO LOBBY", "address": {"city": "GEARY", "state": "OK", "street": "120 NW 1ST ST", "postcode": "73040"}}},
{"geometry": {"type": "Point", "coordinates": [-98.8855293364, 35.0711139888]}, "type": "Feature", "properties": {"collection_times": [{"days": "Mon-Fri", "time": "10:45am"}, {"days": "Sat", "time": "9:00am"}, {"days": "Sun", "time": "Closed"}], "id": "7304100002", "name": "USPS COLLECTION BOX - PO LOBBY", "address": {"city": "GOTEBO", "state": "OK", "street": "11 W COMMERCIAL", "postcode": "73041"}}},
{"geometry": {"type": "Point", "coordinates": [-98.8855293364, 35.0711139888]}, "type": "Feature", "properties": {"collection_times": [{"days": "Mon-Fri", "time": "10:45am"}, {"days": "Sat", "time": "9:00am"}, {"days": "Sun", "time": "Closed"}], "id": "7304100003", "name": "USPS COLLECTION BOX - PO LOBBY", "address": {"city": "GOTEBO", "state": "OK", "street": "11 W COMMERCIAL", "postcode": "73041"}}},
{"geometry": {"type": "Point", "coordinates": [-98.2605941837, 35.1874756673]}, "type": "Feature", "properties": {"collection_times": [{"days": "Mon-Fri", "time": "2:15pm"}, {"days": "Sat", "time": "10:00am"}, {"days": "Sun", "time": "Closed"}], "id": "7304200002", "name": "USPS COLLECTION BOX - PO LOBBY", "address": {"city": "GRACEMONT", "state": "OK", "street": "101 N 1ST ST", "postcode": "73042"}}},
{"geometry": {"type": "Point", "coordinates": [-98.2605941837, 35.1874756673]}, "type": "Feature", "properties": {"collection_times": [{"days": "Mon-Fri", "time": "2:15pm"}, {"days": "Sat", "time": "10:00am"}, {"days": "Sun", "time": "Closed"}], "id": "7304200003", "name": "USPS COLLECTION BOX - PO LOBBY", "address": {"city": "GRACEMONT", "state": "OK", "street": "101 N 1ST ST", "postcode": "73042"}}},
{"geometry": {"type": "Point", "coordinates": [-98.3974527441, 35.7381057753]}, "type": "Feature", "properties": {"collection_times": [{"days": "Mon-Fri", "time": "12:00pm"}, {"days": "Sat", "time": "9:15am"}, {"days": "Sun", "time": "Closed"}], "id": "7304300002", "name": "USPS COLLECTION BOX - PO LOBBY", "address": {"city": "GREENFIELD", "state": "OK", "street": "100 MADISON ST", "postcode": "73043"}}},
{"geometry": {"type": "Point", "coordinates": [-98.3974527441, 35.7381057753]}, "type": "Feature", "properties": {"collection_times": [{"days": "Mon-Fri", "time": "12:00pm"}, {"days": "Sat", "time": "9:15am"}, {"days": "Sun", "time": "Closed"}], "id": "7304300003", "name": "USPS COLLECTION BOX - PO LOBBY", "address": {"city": "GREENFIELD", "state": "OK", "street": "100 MADISON ST", "postcode": "73043"}}},
{"geometry": {"type": "Point", "coordinates": [-97.4266079492, 35.878003039]}, "type": "Feature", "properties": {"collection_times": [{"days": "Mon-Fri", "time": "5:00pm"}, {"days": "Sat", "time": "12:15pm"}, {"days": "Sun", "time": "Closed"}], "id": "7304400008", "name": "USPS COLLECTION BOX - BLUE BOX", "address": {"city": "GUTHRIE", "state": "OK", "street": "201 W OKLAHOMA AVE", "postcode": "73044"}}},
{"geometry": {"type": "Point", "coordinates": [-97.4266079492, 35.878003039]}, "type": "Feature", "properties": {"collection_times": [{"days": "Mon-Fri", "time": "5:00pm"}, {"days": "Sat", "time": "12:15pm"}, {"days": "Sun", "time": "Closed"}], "id": "7304400009", "name": "USPS COLLECTION BOX - PO LOBBY", "address": {"city": "GUTHRIE", "state": "OK", "street": "201 W OKLAHOMA AVE", "postcode": "73044"}}},
{"geometry": {"type": "Point", "coordinates": [-97.4266079492, 35.878003039]}, "type": "Feature", "properties": {"collection_times": [{"days": "Mon-Fri", "time": "5:00pm"}, {"days": "Sat", "time": "12:15pm"}, {"days": "Sun", "time": "Closed"}], "id": "7304400010", "name": "USPS COLLECTION BOX - PO LOBBY", "address": {"city": "GUTHRIE", "state": "OK", "street": "201 W OKLAHOMA AVE", "postcode": "73044"}}},
{"geometry": {"type": "Point", "coordinates": [-97.4266079492, 35.878003039]}, "type": "Feature", "properties": {"collection_times": [{"days": "Mon-Fri", "time": "5:00pm"}, {"days": "Sat", "time": "12:15pm"}, {"days": "Sun", "time": "Closed"}], "id": "7304400011", "name": "USPS COLLECTION BOX - BLUE BOX", "address": {"city": "GUTHRIE", "state": "OK", "street": "201 W OKLAHOMA AVE", "postcode": "73044"}}},
{"geometry": {"type": "Point", "coordinates": [-97.4254736159, 35.855067427]}, "type": "Feature", "properties": {"collection_times": [{"days": "Mon-Sat", "time": "1:30pm"}, {"days": "Sun", "time": "Closed"}], "id": "7304400012", "name": "USPS COLLECTION BOX - BLUE BOX", "address": {"city": "GUTHRIE", "state": "OK", "street": "2310 S DIVISION ST", "postcode": "73044"}}},
{"geometry": {"type": "Point", "coordinates": [-97.1618777963, 35.4880341011]}, "type": "Feature", "properties": {"collection_times": [{"days": "Mon-Sat", "time": "10:00am"}, {"days": "Sun", "time": "Closed"}], "id": "7304500001", "name": "USPS COLLECTION BOX - BLUE BOX", "address": {"city": "HARRAH", "state": "OK", "street": "1930 CHURCH AVE", "postcode": "73045"}}},
{"geometry": {"type": "Point", "coordinates": [-97.1576177011, 35.4967043015]}, "type": "Feature", "properties": {"collection_times": [{"days": "Mon-Sat", "time": "9:00am"}, {"days": "Sun", "time": "Closed"}], "id": "7304500002", "name": "USPS COLLECTION BOX - BLUE BOX", "address": {"city": "HARRAH", "state": "OK", "street": "20800 NE 10TH ST", "postcode": "73045"}}},
{"geometry": {"type": "Point", "coordinates": [-97.160410168, 35.4351159052]}, "type": "Feature", "properties": {"collection_times": [{"days": "Mon-Sat", "time": "10:00am"}, {"days": "Sun", "time": "Closed"}], "id": "7304500003", "name": "USPS COLLECTION BOX - BLUE BOX", "address": {"city": "HARRAH", "state": "OK", "street": "20945 SE 29TH ST", "postcode": "73045"}}},
{"geometry": {"type": "Point", "coordinates": [-97.1787111162, 35.4930562599]}, "type": "Feature", "properties": {"collection_times": [{"days": "Mon-Fri", "time": "4:15pm"}, {"days": "Sat", "time": "12:00pm"}, {"days": "Sun", "time": "Closed"}], "id": "7304500004", "name": "USPS COLLECTION BOX - BLUE BOX", "address": {"city": "HARRAH", "state": "OK", "street": "19900 NE 23RD ST", "postcode": "73045"}}},
{"geometry": {"type": "Point", "coordinates": [-97.1787111162, 35.4930562599]}, "type": "Feature", "properties": {"collection_times": [{"days": "Mon-Fri", "time": "4:15pm"}, {"days": "Sat", "time": "12:00pm"}, {"days": "Sun", "time": "Closed"}], "id": "7304500005", "name": "USPS COLLECTION BOX - BLUE BOX", "address": {"city": "HARRAH", "state": "OK", "street": "19900 NE 23RD ST", "postcode": "73045"}}},
{"geometry": {"type": "Point", "coordinates": [-98.3541913433, 35.4713088141]}, "type": "Feature", "properties": {"collection_times": [{"days": "Mon-Fri", "time": "4:30pm"}, {"days": "Sat", "time": "10:15am"}, {"days": "Sun", "time": "Closed"}], "id": "7304700001", "name": "USPS COLLECTION BOX - BLUE BOX", "address": {"city": "HINTON", "state": "OK", "street": "123 S NOBLE ST", "postcode": "73047"}}},
{"geometry": {"type": "Point", "coordinates": [-98.3541913433, 35.4713088141]}, "type": "Feature", "properties": {"collection_times": [{"days": "Mon-Fri", "time": "4:30pm"}, {"days": "Sat", "time": "10:15am"}, {"days": "Sun", "time": "Closed"}], "id": "7304700002", "name": "USPS COLLECTION BOX - PO LOBBY", "address": {"city": "HINTON", "state": "OK", "street": "123 S NOBLE ST", "postcode": "73047"}}},
{"geometry": {"type": "Point", "coordinates": [-98.3541913433, 35.4713088141]}, "type": "Feature", "properties": {"collection_times": [{"days": "Mon-Fri", "time": "4:30pm"}, {"days": "Sat", "time": "10:15am"}, {"days": "Sun", "time": "Closed"}], "id": "7304700003", "name": "USPS COLLECTION BOX - PO LOBBY", "address": {"city": "HINTON", "state": "OK", "street": "123 S NOBLE ST", "postcode": "73047"}}},
{"geometry": {"type": "Point", "coordinates": [-98.3512431324, 35.4860514102]}, "type": "Feature", "properties": {"collection_times": [{"days": "Mon-Sat", "time": "12:00pm"}, {"days": "Sun", "time": "Closed"}], "id": "7304700004", "name": "USPS COLLECTION BOX - BLUE BOX", "address": {"city": "HINTON", "state": "OK", "street": "22251 W FIFTH ST", "postcode": "73047"}}},
{"geometry": {"type": "Point", "coordinates": [-98.3506974921, 35.5261790751]}, "type": "Feature", "properties": {"collection_times": [{"days": "Mon-Fri", "time": "10:30am"}, {"days": "Sat", "time": "10:00am"}, {"days": "Sun", "time": "Closed"}], "id": "7304700005", "name": "USPS COLLECTION BOX - BLUE BOX", "address": {"city": "HINTON", "state": "OK", "street": "5602 N BROADWAY AVE", "postcode": "73047"}}},
{"geometry": {"type": "Point", "coordinates": [-98.5798405239, 35.5494169261]}, "type": "Feature", "properties": {"collection_times": [{"days": "Mon-Fri", "time": "3:45pm"}, {"days": "Sat", "time": "10:15am"}, {"days": "Sun", "time": "Closed"}], "id": "7304800001", "name": "USPS COLLECTION BOX - BLUE BOX", "address": {"city": "HYDRO", "state": "OK", "street": "227 W MAIN ST", "postcode": "73048"}}},
{"geometry": {"type": "Point", "coordinates": [-98.5813162551, 35.5494901609]}, "type": "Feature", "properties": {"collection_times": [{"days": "Mon-Fri", "time": "3:45pm"}, {"days": "Sat", "time": "10:15am"}, {"days": "Sun", "time": "Closed"}], "id": "7304800002", "name": "USPS COLLECTION BOX - PO LOBBY", "address": {"city": "HYDRO", "state": "OK", "street": "227 W MAIN ST", "postcode": "73048"}}},
{"geometry": {"type": "Point", "coordinates": [-98.5813162551, 35.5494901609]}, "type": "Feature", "properties": {"collection_times": [{"days": "Mon-Fri", "time": "3:45pm"}, {"days": "Sat", "time": "10:15am"}, {"days": "Sun", "time": "Closed"}], "id": "7304800003", "name": "USPS COLLECTION BOX - PO LOBBY", "address": {"city": "HYDRO", "state": "OK", "street": "227 W MAIN ST", "postcode": "73048"}}},
{"geometry": {"type": "Point", "coordinates": [-97.285409283, 35.5656958551]}, "type": "Feature", "properties": {"collection_times": [{"days": "Mon-Fri", "time": "4:00pm"}, {"days": "Sat", "time": "10:00am"}, {"days": "Sun", "time": "Closed"}], "id": "7304900001", "name": "USPS COLLECTION BOX - PO LOBBY", "address": {"city": "JONES", "state": "OK", "street": "120 E MAIN ST", "postcode": "73049"}}},
{"geometry": {"type": "Point", "coordinates": [-97.3067165652, 35.5803238866]}, "type": "Feature", "properties": {"collection_times": [{"days": "Mon-Fri", "time": "4:00pm"}, {"days": "Sat", "time": "10:00am"}, {"days": "Sun", "time": "Closed"}], "id": "7304900002", "name": "USPS COLLECTION BOX - BLUE BOX", "address": {"city": "JONES", "state": "OK", "street": "120 E MAIN ST", "postcode": "73049"}}},
{"geometry": {"type": "Point", "coordinates": [-97.2518817574, 35.9461848681]}, "type": "Feature", "properties": {"collection_times": [{"days": "Mon-Fri", "time": "1:45pm"}, {"days": "Sat", "time": "9:00am"}, {"days": "Sun", "time": "Closed"}], "id": "7305000001", "name": "USPS COLLECTION BOX - BLUE BOX", "address": {"city": "LANGSTON", "state": "OK", "street": "100 WILEY JONES ST", "postcode": "73050"}}},
{"geometry": {"type": "Point", "coordinates": [-97.2518817574, 35.9461848681]}, "type": "Feature", "properties": {"collection_times": [{"days": "Mon-Fri", "time": "1:45pm"}, {"days": "Sat", "time": "9:00am"}, {"days": "Sun", "time": "Closed"}], "id": "7305000003", "name": "USPS COLLECTION BOX - PO LOBBY", "address": {"city": "LANGSTON", "state": "OK", "street": "100 WILEY JONES ST", "postcode": "73050"}}},
{"geometry": {"type": "Point", "coordinates": [-97.3387386257, 35.0151248238]}, "type": "Feature", "properties": {"collection_times": [{"days": "Mon-Fri", "time": "4:30pm"}, {"days": "Sat", "time": "9:30am"}, {"days": "Sun", "time": "Closed"}], "id": "7305100001", "name": "USPS COLLECTION BOX - BLUE BOX", "address": {"city": "LEXINGTON", "state": "OK", "street": "115 NE 2ND ST", "postcode": "73051"}}},
{"geometry": {"type": "Point", "coordinates": [-97.3387386257, 35.0151248238]}, "type": "Feature", "properties": {"collection_times": [{"days": "Mon-Fri", "time": "4:30pm"}, {"days": "Sat", "time": "9:30am"}, {"days": "Sun", "time": "Closed"}], "id": "7305100004", "name": "USPS COLLECTION BOX - PO LOBBY", "address": {"city": "LEXINGTON", "state": "OK", "street": "115 NE 2ND ST", "postcode": "73051"}}},
{"geometry": {"type": "Point", "coordinates": [-97.6026489329, 34.8332488956]}, "type": "Feature", "properties": {"collection_times": [{"days": "Mon-Fri", "time": "4:15pm"}, {"days": "Sat", "time": "9:00am"}, {"days": "Sun", "time": "Closed"}], "id": "7305200006", "name": "USPS COLLECTION BOX - BLUE BOX", "address": {"city": "LINDSAY", "state": "OK", "street": "426 S MAIN ST", "postcode": "73052"}}},
{"geometry": {"type": "Point", "coordinates": [-97.6026489329, 34.8332488956]}, "type": "Feature", "properties": {"collection_times": [{"days": "Mon-Fri", "time": "4:30pm"}, {"days": "Sat", "time": "9:00am"}, {"days": "Sun", "time": "Closed"}], "id": "7305200008", "name": "USPS COLLECTION BOX - PO LOBBY", "address": {"city": "LINDSAY", "state": "OK", "street": "426 S MAIN ST", "postcode": "73052"}}},
{"geometry": {"type": "Point", "coordinates": [-97.6026489329, 34.8332488956]}, "type": "Feature", "properties": {"collection_times": [{"days": "Mon-Fri", "time": "4:30pm"}, {"days": "Sat", "time": "9:00am"}, {"days": "Sun", "time": "Closed"}], "id": "7305200009", "name": "USPS COLLECTION BOX - PO LOBBY", "address": {"city": "LINDSAY", "state": "OK", "street": "426 S MAIN ST", "postcode": "73052"}}},
{"geometry": {"type": "Point", "coordinates": [-97.6026489329, 34.8332488956]}, "type": "Feature", "properties": {"collection_times": [{"days": "Mon-Fri", "time": "4:30pm"}, {"days": "Sat", "time": "9:00am"}, {"days": "Sun", "time": "Closed"}], "id": "7305200010", "name": "USPS COLLECTION BOX - PO LOBBY", "address": {"city": "LINDSAY", "state": "OK", "street": "426 S MAIN ST", "postcode": "73052"}}},
{"geometry": {"type": "Point", "coordinates": [-98.372819293, 35.362800736]}, "type": "Feature", "properties": {"collection_times": [{"days": "Mon-Fri", "time": "4:00pm"}, {"days": "Sat", "time": "9:45am"}, {"days": "Sun", "time": "Closed"}], "id": "7305300001", "name": "USPS COLLECTION BOX - BLUE BOX", "address": {"city": "LOOKEBA", "state": "OK", "street": "203 W WICHITA AVE", "postcode": "73053"}}},
{"geometry": {"type": "Point", "coordinates": [-98.372819293, 35.362800736]}, "type": "Feature", "properties": {"collection_times": [{"days": "Mon-Fri", "time": "4:00pm"}, {"days": "Sat", "time": "9:45am"}, {"days": "Sun", "time": "Closed"}], "id": "7305300002", "name": "USPS COLLECTION BOX - PO LOBBY", "address": {"city": "LOOKEBA", "state": "OK", "street": "203 W WICHITA AVE", "postcode": "73053"}}},
{"geometry": {"type": "Point", "coordinates": [-98.372819293, 35.362800736]}, "type": "Feature", "properties": {"collection_times": [{"days": "Mon-Fri", "time": "4:00pm"}, {"days": "Sat", "time": "9:45am"}, {"days": "Sun", "time": "Closed"}], "id": "7305300003", "name": "USPS COLLECTION BOX - PO LOBBY", "address": {"city": "LOOKEBA", "state": "OK", "street": "203 W WICHITA AVE", "postcode": "73053"}}},
{"geometry": {"type": "Point", "coordinates": [-97.1946028547, 35.6582696791]}, "type": "Feature", "properties": {"collection_times": [{"days": "Mon-Fri", "time": "3:45pm"}, {"days": "Sat", "time": "10:15am"}, {"days": "Sun", "time": "Closed"}], "id": "7305400001", "name": "USPS COLLECTION BOX - BLUE BOX", "address": {"city": "LUTHER", "state": "OK", "street": "506 S ASH ST", "postcode": "73054"}}},
{"geometry": {"type": "Point", "coordinates": [-97.1946028547, 35.6582696791]}, "type": "Feature", "properties": {"collection_times": [{"days": "Mon-Fri", "time": "3:45pm"}, {"days": "Sat", "time": "10:15am"}, {"days": "Sun", "time": "Closed"}], "id": "7305400002", "name": "USPS COLLECTION BOX - PO LOBBY", "address": {"city": "LUTHER", "state": "OK", "street": "506 S ASH ST", "postcode": "73054"}}},
{"geometry": {"type": "Point", "coordinates": [-97.1946028547, 35.6582696791]}, "type": "Feature", "properties": {"collection_times": [{"days": "Mon-Fri", "time": "3:45pm"}, {"days": "Sat", "time": "10:15am"}, {"days": "Sun", "time": "Closed"}], "id": "7305400003", "name": "USPS COLLECTION BOX - PO LOBBY", "address": {"city": "LUTHER", "state": "OK", "street": "506 S ASH ST", "postcode": "73054"}}},
{"geometry": {"type": "Point", "coordinates": [-97.9581948347, 34.6476256075]}, "type": "Feature", "properties": {"collection_times": [{"days": "Mon-Fri", "time": "4:30pm"}, {"days": "Sat", "time": "10:45am"}, {"days": "Sun", "time": "Closed"}], "id": "7305500013", "name": "USPS COLLECTION BOX - PO LOBBY", "address": {"city": "MARLOW", "state": "OK", "street": "324 W MAIN ST", "postcode": "73055"}}},
{"geometry": {"type": "Point", "coordinates": [-97.9581948347, 34.6476256075]}, "type": "Feature", "properties": {"collection_times": [{"days": "Mon-Fri", "time": "4:30pm"}, {"days": "Sat", "time": "10:45am"}, {"days": "Sun", "time": "Closed"}], "id": "7305500014", "name": "USPS COLLECTION BOX - PO LOBBY", "address": {"city": "MARLOW", "state": "OK", "street": "324 W MAIN ST", "postcode": "73055"}}},
{"geometry": {"type": "Point", "coordinates": [-97.9581948347, 34.6476256075]}, "type": "Feature", "properties": {"collection_times": [{"days": "Mon-Fri", "time": "4:30pm"}, {"days": "Sat", "time": "10:45am"}, {"days": "Sun", "time": "Closed"}], "id": "7305500015", "name": "USPS COLLECTION BOX - PO LOBBY", "address": {"city": "MARLOW", "state": "OK", "street": "324 W MAIN ST", "postcode": "73055"}}},
{"geometry": {"type": "Point", "coordinates": [-97.9581948347, 34.6476256075]}, "type": "Feature", "properties": {"collection_times": [{"days": "Mon-Fri", "time": "4:30pm"}, {"days": "Sat", "time": "10:45am"}, {"days": "Sun", "time": "Closed"}], "id": "7305500016", "name": "USPS COLLECTION BOX - BLUE BOX", "address": {"city": "MARLOW", "state": "OK", "street": "324 W MAIN ST", "postcode": "73055"}}},
{"geometry": {"type": "Point", "coordinates": [-97.6234145824, 36.153827571]}, "type": "Feature", "properties": {"collection_times": [{"days": "Mon-Fri", "time": "3:30pm"}, {"days": "Sat", "time": "9:15am"}, {"days": "Sun", "time": "Closed"}], "id": "7305600001", "name": "USPS COLLECTION BOX - BLUE BOX", "address": {"city": "MARSHALL", "state": "OK", "street": "221 E MAIN ST", "postcode": "73056"}}},
{"geometry": {"type": "Point", "coordinates": [-97.6234145824, 36.153827571]}, "type": "Feature", "properties": {"collection_times": [{"days": "Mon-Fri", "time": "11:15am"}, {"days": "Sat", "time": "9:15am"}, {"days": "Sun", "time": "Closed"}], "id": "7305600002", "name": "USPS COLLECTION BOX - PO LOBBY", "address": {"city": "MARSHALL", "state": "OK", "street": "221 E MAIN ST", "postcode": "73056"}}},
{"geometry": {"type": "Point", "coordinates": [-97.4086970013, 34.8179875882]}, "type": "Feature", "properties": {"collection_times": [{"days": "Mon-Fri", "time": "4:30pm"}, {"days": "Sat", "time": "10:30am"}, {"days": "Sun", "time": "Closed"}], "id": "7305700001", "name": "USPS COLLECTION BOX - BLUE BOX", "address": {"city": "MAYSVILLE", "state": "OK", "street": "622 MAIN ST", "postcode": "73057"}}},
{"geometry": {"type": "Point", "coordinates": [-97.4086970013, 34.8179875882]}, "type": "Feature", "properties": {"collection_times": [{"days": "Mon-Fri", "time": "4:30pm"}, {"days": "Sat", "time": "10:30am"}, {"days": "Sun", "time": "Closed"}], "id": "7305700002", "name": "USPS COLLECTION BOX - PO LOBBY", "address": {"city": "MAYSVILLE", "state": "OK", "street": "622 MAIN ST", "postcode": "73057"}}},
{"geometry": {"type": "Point", "coordinates": [-97.2545150279, 35.8041467043]}, "type": "Feature", "properties": {"collection_times": [{"days": "Mon-Fri", "time": "10:45am"}, {"days": "Sat", "time": "9:30am"}, {"days": "Sun", "time": "Closed"}], "id": "7305800002", "name": "USPS COLLECTION BOX - PO LOBBY", "address": {"city": "MERIDIAN", "state": "OK", "street": "210 5TH ST", "postcode": "73058"}}},
{"geometry": {"type": "Point", "coordinates": [-97.2545150279, 35.8041467043]}, "type": "Feature", "properties": {"collection_times": [{"days": "Mon-Fri", "time": "10:45am"}, {"days": "Sat", "time": "9:30am"}, {"days": "Sun", "time": "Closed"}], "id": "7305800003", "name": "USPS COLLECTION BOX - PO LOBBY", "address": {"city": "MERIDIAN", "state": "OK", "street": "210 5TH ST", "postcode": "73058"}}},
{"geometry": {"type": "Point", "coordinates": [-97.9444806798, 35.3127569652]}, "type": "Feature", "properties": {"collection_times": [{"days": "Mon-Fri", "time": "4:15pm"}, {"days": "Sat", "time": "8:30am"}, {"days": "Sun", "time": "Closed"}], "id": "7305900001", "name": "USPS COLLECTION BOX - BLUE BOX", "address": {"city": "MINCO", "state": "OK", "street": "301 MAIN ST", "postcode": "73059"}}},
{"geometry": {"type": "Point", "coordinates": [-97.9444806798, 35.3127569652]}, "type": "Feature", "properties": {"collection_times": [{"days": "Mon-Fri", "time": "4:15pm"}, {"days": "Sat", "time": "8:30am"}, {"days": "Sun", "time": "Closed"}], "id": "7305900002", "name": "USPS COLLECTION BOX - PO LOBBY", "address": {"city": "MINCO", "state": "OK", "street": "301 MAIN ST", "postcode": "73059"}}},
{"geometry": {"type": "Point", "coordinates": [-97.9444806798, 35.3127569652]}, "type": "Feature", "properties": {"collection_times": [{"days": "Mon-Fri", "time": "4:15pm"}, {"days": "Sat", "time": "8:30am"}, {"days": "Sun", "time": "Closed"}], "id": "7305900003", "name": "USPS COLLECTION BOX - PO LOBBY", "address": {"city": "MINCO", "state": "OK", "street": "301 MAIN ST", "postcode": "73059"}}},
{"geometry": {"type": "Point", "coordinates": [-97.0084309637, 36.2961416704]}, "type": "Feature", "properties": {"collection_times": [{"days": "Mon-Fri", "time": "1:45pm"}, {"days": "Sat", "time": "9:30am"}, {"days": "Sun", "time": "Closed"}], "id": "7306100002", "name": "USPS COLLECTION BOX - PO LOBBY", "address": {"city": "MORRISON", "state": "OK", "street": "309 WOOLSEY AVE", "postcode": "73061"}}},
{"geometry": {"type": "Point", "coordinates": [-97.0084309637, 36.2961416704]}, "type": "Feature", "properties": {"collection_times": [{"days": "Mon-Fri", "time": "1:45pm"}, {"days": "Sat", "time": "9:30am"}, {"days": "Sun", "time": "Closed"}], "id": "7306100003", "name": "USPS COLLECTION BOX - PO LOBBY", "address": {"city": "MORRISON", "state": "OK", "street": "309 WOOLSEY AVE", "postcode": "73061"}}},
{"geometry": {"type": "Point", "coordinates": [-98.7464966787, 35.0976927318]}, "type": "Feature", "properties": {"collection_times": [{"days": "Mon-Fri", "time": "3:45pm"}, {"days": "Sat", "time": "8:45am"}, {"days": "Sun", "time": "Closed"}], "id": "7306200002", "name": "USPS COLLECTION BOX - PO LOBBY", "address": {"city": "MOUNTAIN VIEW", "state": "OK", "street": "302 MAIN ST", "postcode": "73062"}}},
{"geometry": {"type": "Point", "coordinates": [-98.7464966787, 35.0976927318]}, "type": "Feature", "properties": {"collection_times": [{"days": "Mon-Fri", "time": "3:45pm"}, {"days": "Sat", "time": "8:45am"}, {"days": "Sun", "time": "Closed"}], "id": "7306200003", "name": "USPS COLLECTION BOX - PO LOBBY", "address": {"city": "MOUNTAIN VIEW", "state": "OK", "street": "302 MAIN ST", "postcode": "73062"}}},
{"geometry": {"type": "Point", "coordinates": [-97.4057689592, 36.0647153672]}, "type": "Feature", "properties": {"collection_times": [{"days": "Mon-Fri", "time": "11:15am"}, {"days": "Sat", "time": "9:30am"}, {"days": "Sun", "time": "Closed"}], "id": "7306300002", "name": "USPS COLLECTION BOX - PO LOBBY", "address": {"city": "MULHALL", "state": "OK", "street": "112 S LEWIS", "postcode": "73063"}}},
{"geometry": {"type": "Point", "coordinates": [-97.4057689592, 36.0647153672]}, "type": "Feature", "properties": {"collection_times": [{"days": "Mon-Fri", "time": "11:15am"}, {"days": "Sat", "time": "9:30am"}, {"days": "Sun", "time": "Closed"}], "id": "7306300003", "name": "USPS COLLECTION BOX - PO LOBBY", "address": {"city": "MULHALL", "state": "OK", "street": "112 S LEWIS", "postcode": "73063"}}},
{"geometry": {"type": "Point", "coordinates": [-97.7245108143, 35.3962713159]}, "type": "Feature", "properties": {"collection_times": [{"days": "Mon-Fri", "time": "5:00pm"}, {"days": "Sat", "time": "2:30pm"}, {"days": "Sun", "time": "Closed"}], "id": "7306400008", "name": "USPS COLLECTION BOX - BLUE BOX", "address": {"city": "MUSTANG", "state": "OK", "street": "600 N MUSTANG RD", "postcode": "73064"}}},
{"geometry": {"type": "Point", "coordinates": [-97.7245108143, 35.3962713159]}, "type": "Feature", "properties": {"collection_times": [{"days": "Mon-Fri", "time": "4:30pm"}, {"days": "Sat", "time": "2:30pm"}, {"days": "Sun", "time": "Closed"}], "id": "7306400009", "name": "USPS COLLECTION BOX - PO LOBBY", "address": {"city": "MUSTANG", "state": "OK", "street": "600 N MUSTANG RD", "postcode": "73064"}}},
{"geometry": {"type": "Point", "coordinates": [-97.7245108143, 35.3962713159]}, "type": "Feature", "properties": {"collection_times": [{"days": "Mon-Fri", "time": "4:30pm"}, {"days": "Sat", "time": "2:30pm"}, {"days": "Sun", "time": "Closed"}], "id": "7306400010", "name": "USPS COLLECTION BOX - PO LOBBY", "address": {"city": "MUSTANG", "state": "OK", "street": "600 N MUSTANG RD", "postcode": "73064"}}},
{"geometry": {"type": "Point", "coordinates": [-97.7242782715, 35.3917543744]}, "type": "Feature", "properties": {"collection_times": [{"days": "Mon-Sat", "time": "2:45pm"}, {"days": "Sun", "time": "Closed"}], "id": "7306400011", "name": "USPS COLLECTION BOX - BLUE BOX", "address": {"city": "MUSTANG", "state": "OK", "street": "115 E HIGHWAY 152", "postcode": "73064"}}},
{"geometry": {"type": "Point", "coordinates": [-97.7055619525, 35.391714241]}, "type": "Feature", "properties": {"collection_times": [{"days": "Mon-Sat", "time": "2:00pm"}, {"days": "Sun", "time": "Closed"}], "id": "7306400012", "name": "USPS COLLECTION BOX - BLUE BOX", "address": {"city": "MUSTANG", "state": "OK", "street": "951 E STATE HIGHWAY 152", "postcode": "73064"}}},
{"geometry": {"type": "Point", "coordinates": [-97.6076877719, 35.2909269821]}, "type": "Feature", "properties": {"collection_times": [{"days": "Mon-Sat", "time": "10:30am"}, {"days": "Sun", "time": "Closed"}], "id": "7306500002", "name": "USPS COLLECTION BOX - BLUE BOX", "address": {"city": "NEWCASTLE", "state": "OK", "street": "500 NW 32ND ST", "postcode": "73065"}}},
{"geometry": {"type": "Point", "coordinates": [-97.5987662759, 35.2489992332]}, "type": "Feature", "properties": {"collection_times": [{"days": "Mon-Fri", "time": "4:30pm"}, {"days": "Sat", "time": "10:30am"}, {"days": "Sun", "time": "Closed"}], "id": "7306500004", "name": "USPS COLLECTION BOX - BLUE BOX", "address": {"city": "NEWCASTLE", "state": "OK", "street": "220 N WRIGHT ST", "postcode": "73065"}}},
{"geometry": {"type": "Point", "coordinates": [-97.5987662759, 35.2489992332]}, "type": "Feature", "properties": {"collection_times": [{"days": "Mon-Fri", "time": "4:45pm"}, {"days": "Sat", "time": "10:30am"}, {"days": "Sun", "time": "Closed"}], "id": "7306500006", "name": "USPS COLLECTION BOX - PO LOBBY", "address": {"city": "NEWCASTLE", "state": "OK", "street": "220 N WRIGHT ST", "postcode": "73065"}}},
{"geometry": {"type": "Point", "coordinates": [-97.6133087087, 35.248595611]}, "type": "Feature", "properties": {"collection_times": [{"days": "Mon-Sat", "time": "10:15am"}, {"days": "Sun", "time": "Closed"}], "id": "7306500007", "name": "USPS COLLECTION BOX - BLUE BOX", "address": {"city": "NEWCASTLE", "state": "OK", "street": "3300 TRI CITY DR", "postcode": "73065"}}},
{"geometry": {"type": "Point", "coordinates": [-97.3248932486, 35.4930546566]}, "type": "Feature", "properties": {"collection_times": [{"days": "Mon-Fri", "time": "4:15pm"}, {"days": "Sat", "time": "10:00am"}, {"days": "Sun", "time": "Closed"}], "id": "7306600001", "name": "USPS COLLECTION BOX - BLUE BOX", "address": {"city": "NICOMA PARK", "state": "OK", "street": "2301 OVERHOLSER DR", "postcode": "73066"}}},
{"geometry": {"type": "Point", "coordinates": [-97.3248932486, 35.4930546566]}, "type": "Feature", "properties": {"collection_times": [{"days": "Mon-Fri", "time": "4:15pm"}, {"days": "Sat", "time": "10:00am"}, {"days": "Sun", "time": "Closed"}], "id": "7306600004", "name": "USPS COLLECTION BOX - PO LOBBY", "address": {"city": "NICOMA PARK", "state": "OK", "street": "2301 OVERHOLSER DR", "postcode": "73066"}}},
{"geometry": {"type": "Point", "coordinates": [-97.3248932486, 35.4930546566]}, "type": "Feature", "properties": {"collection_times": [{"days": "Mon-Fri", "time": "4:15pm"}, {"days": "Sat", "time": "10:00am"}, {"days": "Sun", "time": "Closed"}], "id": "7306600005", "name": "USPS COLLECTION BOX - PO LOBBY", "address": {"city": "NICOMA PARK", "state": "OK", "street": "2301 OVERHOLSER DR", "postcode": "73066"}}},
{"geometry": {"type": "Point", "coordinates": [-97.8913151329, 34.9104004714]}, "type": "Feature", "properties": {"collection_times": [{"days": "Mon-Fri", "time": "3:45pm"}, {"days": "Sat", "time": "9:30am"}, {"days": "Sun", "time": "Closed"}], "id": "7306700002", "name": "USPS COLLECTION BOX - PO LOBBY", "address": {"city": "NINNEKAH", "state": "OK", "street": "905 WALNUT ST", "postcode": "73067"}}},
{"geometry": {"type": "Point", "coordinates": [-97.8913151329, 34.9104004714]}, "type": "Feature", "properties": {"collection_times": [{"days": "Mon-Fri", "time": "3:45pm"}, {"days": "Sat", "time": "9:30am"}, {"days": "Sun", "time": "Closed"}], "id": "7306700003", "name": "USPS COLLECTION BOX - PO LOBBY", "address": {"city": "NINNEKAH", "state": "OK", "street": "905 WALNUT ST", "postcode": "73067"}}},
{"geometry": {"type": "Point", "coordinates": [-97.3947069363, 35.1462544084]}, "type": "Feature", "properties": {"collection_times": [{"days": "Mon-Sat", "time": "1:15pm"}, {"days": "Sun", "time": "Closed"}], "id": "7306800001", "name": "USPS COLLECTION BOX - BLUE BOX", "address": {"city": "NOBLE", "state": "OK", "street": "609 N MAIN ST", "postcode": "73068"}}},
{"geometry": {"type": "Point", "coordinates": [-97.3963938327, 35.1366220611]}, "type": "Feature", "properties": {"collection_times": [{"days": "Mon-Fri", "time": "4:30pm"}, {"days": "Sat", "time": "12:00pm"}, {"days": "Sun", "time": "Closed"}], "id": "7306800002", "name": "USPS COLLECTION BOX - BLUE BOX", "address": {"city": "NOBLE", "state": "OK", "street": "220 MAPLE ST", "postcode": "73068"}}},
{"geometry": {"type": "Point", "coordinates": [-97.3963938327, 35.1366220611]}, "type": "Feature", "properties": {"collection_times": [{"days": "Mon-Fri", "time": "4:30pm"}, {"days": "Sat", "time": "12:00pm"}, {"days": "Sun", "time": "Closed"}], "id": "7306800004", "name": "USPS COLLECTION BOX - PO LOBBY", "address": {"city": "NOBLE", "state": "OK", "street": "220 MAPLE ST", "postcode": "73068"}}},
{"geometry": {"type": "Point", "coordinates": [-97.3963938327, 35.1366220611]}, "type": "Feature", "properties": {"collection_times": [{"days": "Mon-Fri", "time": "4:30pm"}, {"days": "Sat", "time": "12:00pm"}, {"days": "Sun", "time": "Closed"}], "id": "7306800005", "name": "USPS COLLECTION BOX - BLUE BOX", "address": {"city": "NOBLE", "state": "OK", "street": "220 MAPLE ST", "postcode": "73068"}}},
{"geometry": {"type": "Point", "coordinates": [-97.4454695457, 35.2212501444]}, "type": "Feature", "properties": {"collection_times": [{"days": "Mon-Sat", "time": "5:00pm"}, {"days": "Sun", "time": "Closed"}], "id": "7306900001", "name": "USPS COLLECTION BOX - BLUE BOX", "address": {"city": "NORMAN", "state": "OK", "street": "129 W GRAY ST", "postcode": "73069"}}},
{"geometry": {"type": "Point", "coordinates": [-97.476047852, 35.2183625416]}, "type": "Feature", "properties": {"collection_times": [{"days": "Mon-Fri", "time": "2:30pm"}, {"days": "Sat", "time": "2:00pm"}, {"days": "Sun", "time": "Closed"}], "id": "7306900014", "name": "USPS COLLECTION BOX - BLUE BOX", "address": {"city": "NORMAN", "state": "OK", "street": "2300 W MAIN ST", "postcode": "73069"}}},
{"geometry": {"type": "Point", "coordinates": [-97.4785947627, 35.20546474]}, "type": "Feature", "properties": {"collection_times": [{"days": "Mon-Fri", "time": "11:45am"}, {"days": "Sat-Sun", "time": "Closed"}], "id": "7306900018", "name": "USPS COLLECTION BOX - BLUE BOX", "address": {"city": "NORMAN", "state": "OK", "street": "2424 SPRINGER DR", "postcode": "73069"}}},
{"geometry": {"type": "Point", "coordinates": [-97.4816669071, 35.2329496086]}, "type": "Feature", "properties": {"collection_times": [{"days": "Mon-Fri", "time": "2:15pm"}, {"days": "Sat", "time": "12:00pm"}, {"days": "Sun", "time": "Closed"}], "id": "7306900026", "name": "USPS COLLECTION BOX - BLUE BOX", "address": {"city": "NORMAN", "state": "OK", "street": "2600 W ROBINSON ST", "postcode": "73069"}}},
{"geometry": {"type": "Point", "coordinates": [-97.4678063881, 35.2038696211]}, "type": "Feature", "properties": {"collection_times": [{"days": "Mon-Fri", "time": "2:15pm"}, {"days": "Sat", "time": "2:00pm"}, {"days": "Sun", "time": "Closed"}], "id": "7306900031", "name": "USPS COLLECTION BOX - BLUE BOX", "address": {"city": "NORMAN", "state": "OK", "street": "1700 W LINDSEY ST", "postcode": "73069"}}},
{"geometry": {"type": "Point", "coordinates": [-97.4581486968, 35.225150102]}, "type": "Feature", "properties": {"collection_times": [{"days": "Mon-Sat", "time": "11:00am"}, {"days": "Sun", "time": "Closed"}], "id": "7306900043", "name": "USPS COLLECTION BOX - BLUE BOX", "address": {"city": "NORMAN", "state": "OK", "street": "746 ASP AVE", "postcode": "73069"}}},
{"geometry": {"type": "Point", "coordinates": [-97.4425074165, 35.2197276762]}, "type": "Feature", "properties": {"collection_times": [{"days": "Mon-Fri", "time": "2:45pm"}, {"days": "Sat-Sun", "time": "Closed"}], "id": "7306900047", "name": "USPS COLLECTION BOX - BLUE BOX", "address": {"city": "NORMAN", "state": "OK", "street": "201 S JONES AVE", "postcode": "73069"}}},
{"geometry": {"type": "Point", "coordinates": [-97.4454695457, 35.2212501444]}, "type": "Feature", "properties": {"collection_times": [{"days": "Mon-Sat", "time": "5:00pm"}, {"days": "Sun", "time": "Closed"}], "id": "7306900049", "name": "USPS COLLECTION BOX - BLUE BOX", "address": {"city": "NORMAN", "state": "OK", "street": "129 W GRAY ST", "postcode": "73069"}}},
{"geometry": {"type": "Point", "coordinates": [-97.4521154092, 35.2474278434]}, "type": "Feature", "properties": {"collection_times": [{"days": "Mon-Fri", "time": "1:15pm"}, {"days": "Sat-Sun", "time": "Closed"}], "id": "7306900057", "name": "USPS COLLECTION BOX - BLUE BOX", "address": {"city": "NORMAN", "state": "OK", "street": "600 W ROCK CREEK RD", "postcode": "73069"}}},
{"geometry": {"type": "Point", "coordinates": [-97.4454695457, 35.2212501444]}, "type": "Feature", "properties": {"collection_times": [{"days": "Mon-Sat", "time": "5:00pm"}, {"days": "Sun", "time": "Closed"}], "id": "7306900060", "name": "USPS COLLECTION BOX - PO LOBBY", "address": {"city": "NORMAN", "state": "OK", "street": "129 W GRAY ST", "postcode": "73069"}}},
{"geometry": {"type": "Point", "coordinates": [-97.4454695457, 35.2212501444]}, "type": "Feature", "properties": {"collection_times": [{"days": "Mon-Sat", "time": "5:00pm"}, {"days": "Sun", "time": "Closed"}], "id": "7306900061", "name": "USPS COLLECTION BOX - PO LOBBY", "address": {"city": "NORMAN", "state": "OK", "street": "129 W GRAY ST", "postcode": "73069"}}},
{"geometry": {"type": "Point", "coordinates": [-97.4454695457, 35.2212501444]}, "type": "Feature", "properties": {"collection_times": [{"days": "Mon-Sat", "time": "5:00pm"}, {"days": "Sun", "time": "Closed"}], "id": "7306900067", "name": "USPS COLLECTION BOX - APC", "address": {"city": "NORMAN", "state": "OK", "street": "129 W GRAY ST", "postcode": "73069"}}},
{"geometry": {"type": "Point", "coordinates": [-97.4601772745, 35.2039174297]}, "type": "Feature", "properties": {"collection_times": [{"days": "Mon-Fri", "time": "1:30pm"}, {"days": "Sat", "time": "2:00pm"}, {"days": "Sun", "time": "Closed"}], "id": "7307100017", "name": "USPS COLLECTION BOX - BLUE BOX", "address": {"city": "NORMAN", "state": "OK", "street": "1213 E LINDSEY ST", "postcode": "73071"}}},
{"geometry": {"type": "Point", "coordinates": [-97.4251770677, 35.218380286]}, "type": "Feature", "properties": {"collection_times": [{"days": "Mon-Fri", "time": "1:30pm"}, {"days": "Sat", "time": "2:00pm"}, {"days": "Sun", "time": "Closed"}], "id": "7307100018", "name": "USPS COLLECTION BOX - BLUE BOX", "address": {"city": "NORMAN", "state": "OK", "street": "1000 ALAMEDA ST", "postcode": "73071"}}},
{"geometry": {"type": "Point", "coordinates": [-97.402726632, 35.189205373]}, "type": "Feature", "properties": {"collection_times": [{"days": "Mon-Fri", "time": "1:45pm"}, {"days": "Sat-Sun", "time": "Closed"}], "id": "7307100046", "name": "USPS COLLECTION BOX - BLUE BOX", "address": {"city": "NORMAN", "state": "OK", "street": "2701 E IMHOFF RD", "postcode": "73071"}}},
{"geometry": {"type": "Point", "coordinates": [-97.4943683375, 35.2205876874]}, "type": "Feature", "properties": {"collection_times": [{"days": "Mon-Fri", "time": "5:00pm"}, {"days": "Sat", "time": "4:00pm"}, {"days": "Sun", "time": "Closed"}], "id": "7307200024", "name": "USPS COLLECTION BOX - BLUE BOX", "address": {"city": "NORMAN", "state": "OK", "street": "200 36TH AVE NW", "postcode": "73072"}}},
{"geometry": {"type": "Point", "coordinates": [-97.4943683375, 35.2205876874]}, "type": "Feature", "properties": {"collection_times": [{"days": "Mon-Fri", "time": "5:00pm"}, {"days": "Sat", "time": "4:00pm"}, {"days": "Sun", "time": "Closed"}], "id": "7307200025", "name": "USPS COLLECTION BOX - BLUE BOX", "address": {"city": "NORMAN", "state": "OK", "street": "200 36TH AVE NW", "postcode": "73072"}}},
{"geometry": {"type": "Point", "coordinates": [-97.4960599688, 35.2328265808]}, "type": "Feature", "properties": {"collection_times": [{"days": "Mon-Fri", "time": "2:15pm"}, {"days": "Sat", "time": "2:00pm"}, {"days": "Sun", "time": "Closed"}], "id": "7307200055", "name": "USPS COLLECTION BOX - BLUE BOX", "address": {"city": "NORMAN", "state": "OK", "street": "3700 W ROBINSON ST", "postcode": "73072"}}},
{"geometry": {"type": "Point", "coordinates": [-97.4943683375, 35.2205876874]}, "type": "Feature", "properties": {"collection_times": [{"days": "Mon-Fri", "time": "5:00pm"}, {"days": "Sat", "time": "4:00pm"}, {"days": "Sun", "time": "Closed"}], "id": "7307200060", "name": "USPS COLLECTION BOX - PO LOBBY", "address": {"city": "NORMAN", "state": "OK", "street": "200 36TH AVE NW", "postcode": "73072"}}},
{"geometry": {"type": "Point", "coordinates": [-97.4943683375, 35.2205876874]}, "type": "Feature", "properties": {"collection_times": [{"days": "Mon-Fri", "time": "5:00pm"}, {"days": "Sat", "time": "4:00pm"}, {"days": "Sun", "time": "Closed"}], "id": "7307200061", "name": "USPS COLLECTION BOX - PO LOBBY", "address": {"city": "NORMAN", "state": "OK", "street": "200 36TH AVE NW", "postcode": "73072"}}},
{"geometry": {"type": "Point", "coordinates": [-97.4908529734, 35.2185271446]}, "type": "Feature", "properties": {"collection_times": [{"days": "Mon-Sat", "time": "10:00am"}, {"days": "Sun", "time": "Closed"}], "id": "7307200063", "name": "USPS COLLECTION BOX - BLUE BOX", "address": {"city": "NORMAN", "state": "OK", "street": "3301 W MAIN ST", "postcode": "73072"}}},
{"geometry": {"type": "Point", "coordinates": [-97.4943683375, 35.2205876874]}, "type": "Feature", "properties": {"collection_times": [{"days": "Mon-Fri", "time": "5:00pm"}, {"days": "Sat", "time": "4:00pm"}, {"days": "Sun", "time": "Closed"}], "id": "7307200066", "name": "USPS COLLECTION BOX - APC", "address": {"city": "NORMAN", "state": "OK", "street": "200 36TH AVE NW", "postcode": "73072"}}},
{"geometry": {"type": "Point", "coordinates": [-97.435017239, 36.132210226]}, "type": "Feature", "properties": {"collection_times": [{"days": "Mon-Fri", "time": "10:45am"}, {"days": "Sat", "time": "8:00am"}, {"days": "Sun", "time": "Closed"}], "id": "7307300002", "name": "USPS COLLECTION BOX - PO LOBBY", "address": {"city": "ORLANDO", "state": "OK", "street": "100 HIGHWAY 77", "postcode": "73073"}}},
{"geometry": {"type": "Point", "coordinates": [-97.2594053458, 34.8267744677]}, "type": "Feature", "properties": {"collection_times": [{"days": "Mon-Fri", "time": "4:15pm"}, {"days": "Sat", "time": "11:00am"}, {"days": "Sun", "time": "Closed"}], "id": "7307400003", "name": "USPS COLLECTION BOX - PO LOBBY", "address": {"city": "PAOLI", "state": "OK", "street": "307 S OKLAHOMA ST", "postcode": "73074"}}},
{"geometry": {"type": "Point", "coordinates": [-97.2594053458, 34.8267744677]}, "type": "Feature", "properties": {"collection_times": [{"days": "Mon-Fri", "time": "4:15pm"}, {"days": "Sat", "time": "11:00am"}, {"days": "Sun", "time": "Closed"}], "id": "7307400004", "name": "USPS COLLECTION BOX - PO LOBBY", "address": {"city": "PAOLI", "state": "OK", "street": "307 S OKLAHOMA ST", "postcode": "73074"}}},
{"geometry": {"type": "Point", "coordinates": [-97.2206654312, 34.7400020194]}, "type": "Feature", "properties": {"collection_times": [{"days": "Mon-Fri", "time": "5:00pm"}, {"days": "Sat", "time": "11:15am"}, {"days": "Sun", "time": "Closed"}], "id": "7307500014", "name": "USPS COLLECTION BOX - BLUE BOX", "address": {"city": "PAULS VALLEY", "state": "OK", "street": "100 S WILLOW ST", "postcode": "73075"}}},
{"geometry": {"type": "Point", "coordinates": [-97.2199549638, 34.7405017884]}, "type": "Feature", "properties": {"collection_times": [{"days": "Mon-Fri", "time": "5:00pm"}, {"days": "Sat", "time": "11:15am"}, {"days": "Sun", "time": "Closed"}], "id": "7307500018", "name": "USPS COLLECTION BOX - PO LOBBY", "address": {"city": "PAULS VALLEY", "state": "OK", "street": "120 W PAUL AVE", "postcode": "73075"}}},
{"geometry": {"type": "Point", "coordinates": [-97.2199549638, 34.7405017884]}, "type": "Feature", "properties": {"collection_times": [{"days": "Mon-Fri", "time": "5:00pm"}, {"days": "Sat", "time": "11:15am"}, {"days": "Sun", "time": "Closed"}], "id": "7307500019", "name": "USPS COLLECTION BOX - PO LOBBY", "address": {"city": "PAULS VALLEY", "state": "OK", "street": "120 W PAUL AVE", "postcode": "73075"}}},
{"geometry": {"type": "Point", "coordinates": [-97.284296453, 36.2873384263]}, "type": "Feature", "properties": {"collection_times": [{"days": "Mon-Sat", "time": "2:30pm"}, {"days": "Sun", "time": "Closed"}], "id": "7307700004", "name": "USPS COLLECTION BOX - BLUE BOX", "address": {"city": "PERRY", "state": "OK", "street": "523 DELAWARE ST", "postcode": "73077"}}},
{"geometry": {"type": "Point", "coordinates": [-97.2988207877, 36.2984591219]}, "type": "Feature", "properties": {"collection_times": [{"days": "Mon-Fri", "time": "2:30pm"}, {"days": "Sat-Sun", "time": "Closed"}], "id": "7307700005", "name": "USPS COLLECTION BOX - BLUE BOX", "address": {"city": "PERRY", "state": "OK", "street": "300 COURTHOUSE DR", "postcode": "73077"}}},
{"geometry": {"type": "Point", "coordinates": [-97.2883002904, 36.2885476316]}, "type": "Feature", "properties": {"collection_times": [{"days": "Mon-Sat", "time": "2:30pm"}, {"days": "Sun", "time": "Closed"}], "id": "7307700010", "name": "USPS COLLECTION BOX - BLUE BOX", "address": {"city": "PERRY", "state": "OK", "street": "401 N 7TH ST", "postcode": "73077"}}},
{"geometry": {"type": "Point", "coordinates": [-97.2881464809, 36.2876534023]}, "type": "Feature", "properties": {"collection_times": [{"days": "Mon-Fri", "time": "4:30pm"}, {"days": "Sat", "time": "3:00pm"}, {"days": "Sun", "time": "Closed"}], "id": "7307700011", "name": "USPS COLLECTION BOX - PO LOBBY", "address": {"city": "PERRY", "state": "OK", "street": "326 N 7TH ST", "postcode": "73077"}}},
{"geometry": {"type": "Point", "coordinates": [-97.2881464809, 36.2876534023]}, "type": "Feature", "properties": {"collection_times": [{"days": "Mon-Fri", "time": "4:30pm"}, {"days": "Sat", "time": "3:00pm"}, {"days": "Sun", "time": "Closed"}], "id": "7307700012", "name": "USPS COLLECTION BOX - PO LOBBY", "address": {"city": "PERRY", "state": "OK", "street": "326 N 7TH ST", "postcode": "73077"}}},
{"geometry": {"type": "Point", "coordinates": [-97.7466451004, 35.6430624389]}, "type": "Feature", "properties": {"collection_times": [{"days": "Mon-Fri", "time": "4:15pm"}, {"days": "Sat", "time": "9:00am"}, {"days": "Sun", "time": "Closed"}], "id": "7307800001", "name": "USPS COLLECTION BOX - BLUE BOX", "address": {"city": "PIEDMONT", "state": "OK", "street": "112 JACKSON AVE NW", "postcode": "73078"}}},
{"geometry": {"type": "Point", "coordinates": [-97.7466451004, 35.6430624389]}, "type": "Feature", "properties": {"collection_times": [{"days": "Mon-Fri", "time": "4:15pm"}, {"days": "Sat", "time": "9:00am"}, {"days": "Sun", "time": "Closed"}], "id": "7307800002", "name": "USPS COLLECTION BOX - PO LOBBY", "address": {"city": "PIEDMONT", "state": "OK", "street": "112 JACKSON AVE NW", "postcode": "73078"}}},
{"geometry": {"type": "Point", "coordinates": [-97.9530786459, 35.1971381845]}, "type": "Feature", "properties": {"collection_times": [{"days": "Mon-Fri", "time": "11:45am"}, {"days": "Sat", "time": "9:30am"}, {"days": "Sun", "time": "Closed"}], "id": "7307900002", "name": "USPS COLLECTION BOX - PO LOBBY", "address": {"city": "POCASSET", "state": "OK", "street": "130 N MAIN ST", "postcode": "73079"}}},
{"geometry": {"type": "Point", "coordinates": [-97.9530786459, 35.1971381845]}, "type": "Feature", "properties": {"collection_times": [{"days": "Mon-Fri", "time": "11:45am"}, {"days": "Sat", "time": "9:30am"}, {"days": "Sun", "time": "Closed"}], "id": "7307900003", "name": "USPS COLLECTION BOX - PO LOBBY", "address": {"city": "POCASSET", "state": "OK", "street": "130 N MAIN ST", "postcode": "73079"}}},
{"geometry": {"type": "Point", "coordinates": [-97.3615359806, 35.0121782892]}, "type": "Feature", "properties": {"collection_times": [{"days": "Mon-Fri", "time": "4:15pm"}, {"days": "Sat", "time": "12:00pm"}, {"days": "Sun", "time": "Closed"}], "id": "7308000004", "name": "USPS COLLECTION BOX - BLUE BOX", "address": {"city": "PURCELL", "state": "OK", "street": "228 W MAIN ST", "postcode": "73080"}}},
{"geometry": {"type": "Point", "coordinates": [-97.3615359806, 35.0121782892]}, "type": "Feature", "properties": {"collection_times": [{"days": "Mon-Fri", "time": "4:15pm"}, {"days": "Sat", "time": "12:00pm"}, {"days": "Sun", "time": "Closed"}], "id": "7308000006", "name": "USPS COLLECTION BOX - BLUE BOX", "address": {"city": "PURCELL", "state": "OK", "street": "228 W MAIN ST", "postcode": "73080"}}},
{"geometry": {"type": "Point", "coordinates": [-97.3615359806, 35.0121782892]}, "type": "Feature", "properties": {"collection_times": [{"days": "Mon-Fri", "time": "4:15pm"}, {"days": "Sat", "time": "12:00pm"}, {"days": "Sun", "time": "Closed"}], "id": "7308000009", "name": "USPS COLLECTION BOX - BLUE BOX", "address": {"city": "PURCELL", "state": "OK", "street": "228 W MAIN ST", "postcode": "73080"}}},
{"geometry": {"type": "Point", "coordinates": [-97.3615359806, 35.0121782892]}, "type": "Feature", "properties": {"collection_times": [{"days": "Mon-Fri", "time": "4:15pm"}, {"days": "Sat", "time": "12:00pm"}, {"days": "Sun", "time": "Closed"}], "id": "7308000010", "name": "USPS COLLECTION BOX - PO LOBBY", "address": {"city": "PURCELL", "state": "OK", "street": "228 W MAIN ST", "postcode": "73080"}}},
{"geometry": {"type": "Point", "coordinates": [-97.95657, 34.78275]}, "type": "Feature", "properties": {"collection_times": [{"days": "Mon-Fri", "time": "4:30pm"}, {"days": "Sat", "time": "10:00am"}, {"days": "Sun", "time": "Closed"}], "id": "7308200002", "name": "USPS COLLECTION BOX - BLUE BOX", "address": {"city": "RUSH SPRINGS", "state": "OK", "street": "317 W BLAKELY ST", "postcode": "73082"}}},
{"geometry": {"type": "Point", "coordinates": [-97.95657, 34.78275]}, "type": "Feature", "properties": {"collection_times": [{"days": "Mon-Fri", "time": "4:30pm"}, {"days": "Sat", "time": "10:00am"}, {"days": "Sun", "time": "Closed"}], "id": "7308200004", "name": "USPS COLLECTION BOX - PO LOBBY", "address": {"city": "RUSH SPRINGS", "state": "OK", "street": "317 W BLAKELY ST", "postcode": "73082"}}},
{"geometry": {"type": "Point", "coordinates": [-97.3798082254, 35.50792842]}, "type": "Feature", "properties": {"collection_times": [{"days": "Mon-Fri", "time": "4:30pm"}, {"days": "Sat", "time": "10:30am"}, {"days": "Sun", "time": "Closed"}], "id": "7308400002", "name": "USPS COLLECTION BOX - BLUE BOX", "address": {"city": "SPENCER", "state": "OK", "street": "3601 SPENCER RD", "postcode": "73084"}}},
{"geometry": {"type": "Point", "coordinates": [-97.3798082254, 35.50792842]}, "type": "Feature", "properties": {"collection_times": [{"days": "Mon-Fri", "time": "4:30pm"}, {"days": "Sat", "time": "10:30am"}, {"days": "Sun", "time": "Closed"}], "id": "7308400003", "name": "USPS COLLECTION BOX - PO LOBBY", "address": {"city": "SPENCER", "state": "OK", "street": "3601 SPENCER RD", "postcode": "73084"}}},
{"geometry": {"type": "Point", "coordinates": [-96.9796967879, 34.5052596383]}, "type": "Feature", "properties": {"collection_times": [{"days": "Mon-Fri", "time": "2:30pm"}, {"days": "Sat", "time": "1:00pm"}, {"days": "Sun", "time": "Closed"}], "id": "7308600005", "name": "USPS COLLECTION BOX - BLUE BOX", "address": {"city": "SULPHUR", "state": "OK", "street": "1001 W WYANDOTTE AVE", "postcode": "73086"}}},
{"geometry": {"type": "Point", "coordinates": [-96.969691362, 34.5086594493]}, "type": "Feature", "properties": {"collection_times": [{"days": "Mon-Fri", "time": "4:15pm"}, {"days": "Sat", "time": "1:00pm"}, {"days": "Sun", "time": "Closed"}], "id": "7308600008", "name": "USPS COLLECTION BOX - BLUE BOX", "address": {"city": "SULPHUR", "state": "OK", "street": "1100 W 2ND ST", "postcode": "73086"}}},
{"geometry": {"type": "Point", "coordinates": [-96.9792970476, 34.5063557673]}, "type": "Feature", "properties": {"collection_times": [{"days": "Mon-Fri", "time": "2:30pm"}, {"days": "Sat", "time": "1:00pm"}, {"days": "Sun", "time": "Closed"}], "id": "7308600009", "name": "USPS COLLECTION BOX - BLUE BOX", "address": {"city": "SULPHUR", "state": "OK", "street": "815 W BROADWAY AVE", "postcode": "73086"}}},
{"geometry": {"type": "Point", "coordinates": [-96.969691362, 34.5086594493]}, "type": "Feature", "properties": {"collection_times": [{"days": "Mon-Fri", "time": "4:15pm"}, {"days": "Sat", "time": "1:00pm"}, {"days": "Sun", "time": "Closed"}], "id": "7308600011", "name": "USPS COLLECTION BOX - BLUE BOX", "address": {"city": "SULPHUR", "state": "OK", "street": "1100 W 2ND ST", "postcode": "73086"}}},
{"geometry": {"type": "Point", "coordinates": [-96.969691362, 34.5086594493]}, "type": "Feature", "properties": {"collection_times": [{"days": "Mon-Fri", "time": "4:15pm"}, {"days": "Sat", "time": "1:00pm"}, {"days": "Sun", "time": "Closed"}], "id": "7308600012", "name": "USPS COLLECTION BOX - PO LOBBY", "address": {"city": "SULPHUR", "state": "OK", "street": "1100 W 2ND ST", "postcode": "73086"}}},
{"geometry": {"type": "Point", "coordinates": [-96.969691362, 34.5086594493]}, "type": "Feature", "properties": {"collection_times": [{"days": "Mon-Fri", "time": "4:15pm"}, {"days": "Sat", "time": "1:00pm"}, {"days": "Sun", "time": "Closed"}], "id": "7308600014", "name": "USPS COLLECTION BOX - PO LOBBY", "address": {"city": "SULPHUR", "state": "OK", "street": "1100 W 2ND ST", "postcode": "73086"}}},
{"geometry": {"type": "Point", "coordinates": [-97.8076573425, 35.290766815]}, "type": "Feature", "properties": {"collection_times": [{"days": "Mon-Fri", "time": "5:00pm"}, {"days": "Sat", "time": "9:30am"}, {"days": "Sun", "time": "Closed"}], "id": "7308900001", "name": "USPS COLLECTION BOX - BLUE BOX", "address": {"city": "TUTTLE", "state": "OK", "street": "407 E MAIN ST", "postcode": "73089"}}},
{"geometry": {"type": "Point", "coordinates": [-97.7184840243, 35.2908912309]}, "type": "Feature", "properties": {"collection_times": [{"days": "Mon-Sat", "time": "1:15pm"}, {"days": "Sun", "time": "Closed"}], "id": "7308900003", "name": "USPS COLLECTION BOX - BLUE BOX", "address": {"city": "TUTTLE", "state": "OK", "street": "5311 E HIGHWAY 37", "postcode": "73089"}}},
{"geometry": {"type": "Point", "coordinates": [-97.8076573425, 35.290766815]}, "type": "Feature", "properties": {"collection_times": [{"days": "Mon-Fri", "time": "5:00pm"}, {"days": "Sat", "time": "9:30am"}, {"days": "Sun", "time": "Closed"}], "id": "7308900005", "name": "USPS COLLECTION BOX - PO LOBBY", "address": {"city": "TUTTLE", "state": "OK", "street": "407 E MAIN ST", "postcode": "73089"}}},
{"geometry": {"type": "Point", "coordinates": [-97.8076573425, 35.290766815]}, "type": "Feature", "properties": {"collection_times": [{"days": "Mon-Fri", "time": "5:00pm"}, {"days": "Sat", "time": "9:30am"}, {"days": "Sun", "time": "Closed"}], "id": "7308900006", "name": "USPS COLLECTION BOX - PO LOBBY", "address": {"city": "TUTTLE", "state": "OK", "street": "407 E MAIN ST", "postcode": "73089"}}},
{"geometry": {"type": "Point", "coordinates": [-97.9370245281, 35.3906948914]}, "type": "Feature", "properties": {"collection_times": [{"days": "Mon-Fri", "time": "3:45pm"}, {"days": "Sat", "time": "8:00am"}, {"days": "Sun", "time": "Closed"}], "id": "7309000001", "name": "USPS COLLECTION BOX - BLUE BOX", "address": {"city": "UNION CITY", "state": "OK", "street": "201 N MAIN", "postcode": "73090"}}},
{"geometry": {"type": "Point", "coordinates": [-97.9370245281, 35.3906948914]}, "type": "Feature", "properties": {"collection_times": [{"days": "Mon-Fri", "time": "4:00pm"}, {"days": "Sat", "time": "8:30am"}, {"days": "Sun", "time": "Closed"}], "id": "7309000002", "name": "USPS COLLECTION BOX - PO LOBBY", "address": {"city": "UNION CITY", "state": "OK", "street": "201 N MAIN", "postcode": "73090"}}},
{"geometry": {"type": "Point", "coordinates": [-98.0881551765, 35.0858282093]}, "type": "Feature", "properties": {"collection_times": [{"days": "Mon-Fri", "time": "3:30pm"}, {"days": "Sat", "time": "10:00am"}, {"days": "Sun", "time": "Closed"}], "id": "7309200001", "name": "USPS COLLECTION BOX - BLUE BOX", "address": {"city": "VERDEN", "state": "OK", "street": "100 MORRIS AVE", "postcode": "73092"}}},
{"geometry": {"type": "Point", "coordinates": [-98.0881551765, 35.0858282093]}, "type": "Feature", "properties": {"collection_times": [{"days": "Mon-Fri", "time": "3:30pm"}, {"days": "Sat", "time": "10:00am"}, {"days": "Sun", "time": "Closed"}], "id": "7309200002", "name": "USPS COLLECTION BOX - PO LOBBY", "address": {"city": "VERDEN", "state": "OK", "street": "100 MORRIS AVE", "postcode": "73092"}}},
{"geometry": {"type": "Point", "coordinates": [-98.0881551765, 35.0858282093]}, "type": "Feature", "properties": {"collection_times": [{"days": "Mon-Fri", "time": "3:30pm"}, {"days": "Sat", "time": "10:00am"}, {"days": "Sun", "time": "Closed"}], "id": "7309200003", "name": "USPS COLLECTION BOX - PO LOBBY", "address": {"city": "VERDEN", "state": "OK", "street": "100 MORRIS AVE", "postcode": "73092"}}},
{"geometry": {"type": "Point", "coordinates": [-97.4767827747, 35.1487447227]}, "type": "Feature", "properties": {"collection_times": [{"days": "Mon-Fri", "time": "3:45pm"}, {"days": "Sat", "time": "9:00am"}, {"days": "Sun", "time": "Closed"}], "id": "7309300001", "name": "USPS COLLECTION BOX - BLUE BOX", "address": {"city": "WASHINGTON", "state": "OK", "street": "214 N MAIN AVE", "postcode": "73093"}}},
{"geometry": {"type": "Point", "coordinates": [-97.4732789104, 35.1497353189]}, "type": "Feature", "properties": {"collection_times": [{"days": "Mon-Fri", "time": "11:00am"}, {"days": "Sat-Sun", "time": "Closed"}], "id": "7309300002", "name": "USPS COLLECTION BOX - BLUE BOX", "address": {"city": "WASHINGTON", "state": "OK", "street": "434 W INTERSTATE DR", "postcode": "73093"}}},
{"geometry": {"type": "Point", "coordinates": [-97.4767827747, 35.1487447227]}, "type": "Feature", "properties": {"collection_times": [{"days": "Mon-Fri", "time": "3:45pm"}, {"days": "Sat", "time": "9:00am"}, {"days": "Sun", "time": "Closed"}], "id": "7309300003", "name": "USPS COLLECTION BOX - PO LOBBY", "address": {"city": "WASHINGTON", "state": "OK", "street": "214 N MAIN AVE", "postcode": "73093"}}},
{"geometry": {"type": "Point", "coordinates": [-97.3134140736, 34.9192582271]}, "type": "Feature", "properties": {"collection_times": [{"days": "Mon-Fri", "time": "4:00pm"}, {"days": "Sat", "time": "9:30am"}, {"days": "Sun", "time": "Closed"}], "id": "7309500001", "name": "USPS COLLECTION BOX - BLUE BOX", "address": {"city": "WAYNE", "state": "OK", "street": "100 S SHANNON ST", "postcode": "73095"}}},
{"geometry": {"type": "Point", "coordinates": [-97.3134140736, 34.9192582271]}, "type": "Feature", "properties": {"collection_times": [{"days": "Mon-Fri", "time": "3:15pm"}, {"days": "Sat-Sun", "time": "Closed"}], "id": "7309500002", "name": "USPS COLLECTION BOX - PO LOBBY", "address": {"city": "WAYNE", "state": "OK", "street": "100 S SHANNON ST", "postcode": "73095"}}},
{"geometry": {"type": "Point", "coordinates": [-98.7076154288, 35.5271622248]}, "type": "Feature", "properties": {"collection_times": [{"days": "Mon-Fri", "time": "5:00pm"}, {"days": "Sat", "time": "2:45pm"}, {"days": "Sun", "time": "Closed"}], "id": "7309600009", "name": "USPS COLLECTION BOX - PO LOBBY", "address": {"city": "WEATHERFORD", "state": "OK", "street": "107 E FRANKLIN AVE", "postcode": "73096"}}},
{"geometry": {"type": "Point", "coordinates": [-98.7076154288, 35.5271622248]}, "type": "Feature", "properties": {"collection_times": [{"days": "Mon-Fri", "time": "5:00pm"}, {"days": "Sat", "time": "2:30pm"}, {"days": "Sun", "time": "Closed"}], "id": "7309600010", "name": "USPS COLLECTION BOX - BLUE BOX", "address": {"city": "WEATHERFORD", "state": "OK", "street": "107 E FRANKLIN AVE", "postcode": "73096"}}},
{"geometry": {"type": "Point", "coordinates": [-98.6940247878, 35.5280550834]}, "type": "Feature", "properties": {"collection_times": [{"days": "Mon-Fri", "time": "2:00pm"}, {"days": "Sat", "time": "12:00pm"}, {"days": "Sun", "time": "Closed"}], "id": "7309600012", "name": "USPS COLLECTION BOX - BLUE BOX", "address": {"city": "WEATHERFORD", "state": "OK", "street": "310 N WASHINGTON ST", "postcode": "73096"}}},
{"geometry": {"type": "Point", "coordinates": [-97.6525578947, 35.3976189094]}, "type": "Feature", "properties": {"collection_times": [{"days": "Mon-Fri", "time": "4:15pm"}, {"days": "Sat", "time": "9:45am"}, {"days": "Sun", "time": "Closed"}], "id": "7309700002", "name": "USPS COLLECTION BOX - BLUE BOX", "address": {"city": "WHEATLAND", "state": "OK", "street": "6920 S MAIN ST", "postcode": "73097"}}},
{"geometry": {"type": "Point", "coordinates": [-97.6525578947, 35.3976189094]}, "type": "Feature", "properties": {"collection_times": [{"days": "Mon-Fri", "time": "4:15pm"}, {"days": "Sat", "time": "10:00am"}, {"days": "Sun", "time": "Closed"}], "id": "7309700003", "name": "USPS COLLECTION BOX - PO LOBBY", "address": {"city": "WHEATLAND", "state": "OK", "street": "6920 S MAIN ST", "postcode": "73097"}}},
{"geometry": {"type": "Point", "coordinates": [-97.6525578947, 35.3976189094]}, "type": "Feature", "properties": {"collection_times": [{"days": "Mon-Fri", "time": "4:15pm"}, {"days": "Sat", "time": "10:00am"}, {"days": "Sun", "time": "Closed"}], "id": "7309700005", "name": "USPS COLLECTION BOX - PO LOBBY", "address": {"city": "WHEATLAND", "state": "OK", "street": "6920 S MAIN ST", "postcode": "73097"}}},
{"geometry": {"type": "Point", "coordinates": [-97.1701572695, 34.6426714362]}, "type": "Feature", "properties": {"collection_times": [{"days": "Mon-Fri", "time": "4:45pm"}, {"days": "Sat", "time": "10:30am"}, {"days": "Sun", "time": "Closed"}], "id": "7309800001", "name": "USPS COLLECTION BOX - BLUE BOX", "address": {"city": "WYNNEWOOD", "state": "OK", "street": "115 E ROBERT S KERR BLVD", "postcode": "73098"}}},
{"geometry": {"type": "Point", "coordinates": [-97.1701572695, 34.6426714362]}, "type": "Feature", "properties": {"collection_times": [{"days": "Mon-Fri", "time": "4:45pm"}, {"days": "Sat", "time": "10:30am"}, {"days": "Sun", "time": "Closed"}], "id": "7309800005", "name": "USPS COLLECTION BOX - PO LOBBY", "address": {"city": "WYNNEWOOD", "state": "OK", "street": "115 E ROBERT S KERR BLVD", "postcode": "73098"}}},
{"geometry": {"type": "Point", "coordinates": [-97.719452494, 35.4644222764]}, "type": "Feature", "properties": {"collection_times": [{"days": "Mon-Sat", "time": "12:00pm"}, {"days": "Sun", "time": "Closed"}], "id": "7309900003", "name": "USPS COLLECTION BOX - BLUE BOX", "address": {"city": "YUKON", "state": "OK", "street": "11241 W RENO AVE", "postcode": "73099"}}},
{"geometry": {"type": "Point", "coordinates": [-97.7475022745, 35.5069006827]}, "type": "Feature", "properties": {"collection_times": [{"days": "Mon-Sat", "time": "2:00pm"}, {"days": "Sun", "time": "Closed"}], "id": "7309900004", "name": "USPS COLLECTION BOX - BLUE BOX", "address": {"city": "YUKON", "state": "OK", "street": "307 ELM AVE", "postcode": "73099"}}},
{"geometry": {"type": "Point", "coordinates": [-97.7504073894, 35.4933731344]}, "type": "Feature", "properties": {"collection_times": [{"days": "Mon-Sat", "time": "2:00pm"}, {"days": "Sun", "time": "Closed"}], "id": "7309900006", "name": "USPS COLLECTION BOX - BLUE BOX", "address": {"city": "YUKON", "state": "OK", "street": "508 W VANDAMENT AVE", "postcode": "73099"}}},
{"geometry": {"type": "Point", "coordinates": [-97.7505937321, 35.5077137514]}, "type": "Feature", "properties": {"collection_times": [{"days": "Mon-Sat", "time": "2:00pm"}, {"days": "Sun", "time": "Closed"}], "id": "7309900007", "name": "USPS COLLECTION BOX - BLUE BOX", "address": {"city": "YUKON", "state": "OK", "street": "12 S 5TH ST", "postcode": "73099"}}},
{"geometry": {"type": "Point", "coordinates": [-97.7426028553, 35.4951787285]}, "type": "Feature", "properties": {"collection_times": [{"days": "Mon-Sat", "time": "2:15pm"}, {"days": "Sun", "time": "Closed"}], "id": "7309900009", "name": "USPS COLLECTION BOX - BLUE BOX", "address": {"city": "YUKON", "state": "OK", "street": "1200 S CORNWELL DR", "postcode": "73099"}}},
{"geometry": {"type": "Point", "coordinates": [-97.7601891537, 35.499703111]}, "type": "Feature", "properties": {"collection_times": [{"days": "Mon-Sat", "time": "5:00pm"}, {"days": "Sun", "time": "Closed"}], "id": "7309900011", "name": "USPS COLLECTION BOX - BLUE BOX", "address": {"city": "YUKON", "state": "OK", "street": "900 GARTH BROOKS BLVD", "postcode": "73099"}}},
{"geometry": {"type": "Point", "coordinates": [-97.7426028553, 35.4951787285]}, "type": "Feature", "properties": {"collection_times": [{"days": "Mon-Sat", "time": "2:15pm"}, {"days": "Sun", "time": "Closed"}], "id": "7309900013", "name": "USPS COLLECTION BOX - BLUE BOX", "address": {"city": "YUKON", "state": "OK", "street": "1200 S CORNWELL DR", "postcode": "73099"}}},
{"geometry": {"type": "Point", "coordinates": [-97.7601802416, 35.4967406083]}, "type": "Feature", "properties": {"collection_times": [{"days": "Mon-Sat", "time": "2:00pm"}, {"days": "Sun", "time": "Closed"}], "id": "7309900023", "name": "USPS COLLECTION BOX - BLUE BOX", "address": {"city": "YUKON", "state": "OK", "street": "1200 GARTH BROOKS BLVD", "postcode": "73099"}}},
{"geometry": {"type": "Point", "coordinates": [-97.7601891537, 35.499703111]}, "type": "Feature", "properties": {"collection_times": [{"days": "Mon-Sat", "time": "5:00pm"}, {"days": "Sun", "time": "Closed"}], "id": "7309900025", "name": "USPS COLLECTION BOX - PO LOBBY", "address": {"city": "YUKON", "state": "OK", "street": "900 GARTH BROOKS BLVD", "postcode": "73099"}}},
{"geometry": {"type": "Point", "coordinates": [-97.7191136586, 35.507817853]}, "type": "Feature", "properties": {"collection_times": [{"days": "Mon-Sat", "time": "2:00pm"}, {"days": "Sun", "time": "Closed"}], "id": "7309900026", "name": "USPS COLLECTION BOX - BLUE BOX", "address": {"city": "YUKON", "state": "OK", "street": "1200 LAKESHORE DR", "postcode": "73099"}}},
{"geometry": {"type": "Point", "coordinates": [-97.7601891537, 35.499703111]}, "type": "Feature", "properties": {"collection_times": [{"days": "Mon-Sat", "time": "5:00pm"}, {"days": "Sun", "time": "Closed"}], "id": "7309900027", "name": "USPS COLLECTION BOX - PO LOBBY", "address": {"city": "YUKON", "state": "OK", "street": "900 GARTH BROOKS BLVD", "postcode": "73099"}}},
{"geometry": {"type": "Point", "coordinates": [-97.7585143577, 35.5252693389]}, "type": "Feature", "properties": {"collection_times": [{"days": "Mon-Sat", "time": "10:30am"}, {"days": "Sun", "time": "Closed"}], "id": "7309900028", "name": "USPS COLLECTION BOX - BLUE BOX", "address": {"city": "YUKON", "state": "OK", "street": "11801 SW 15TH TER", "postcode": "73099"}}},
{"geometry": {"type": "Point", "coordinates": [-97.742585222, 35.4807674855]}, "type": "Feature", "properties": {"collection_times": [{"days": "Mon-Sat", "time": "2:30pm"}, {"days": "Sun", "time": "Closed"}], "id": "7309900030", "name": "USPS COLLECTION BOX - BLUE BOX", "address": {"city": "YUKON", "state": "OK", "street": "2500 S CORNWELL DR", "postcode": "73099"}}},
{"geometry": {"type": "Point", "coordinates": [-97.7208920087, 35.592627111]}, "type": "Feature", "properties": {"collection_times": [{"days": "Mon-Sat", "time": "10:30am"}, {"days": "Sun", "time": "Closed"}], "id": "7309900031", "name": "USPS COLLECTION BOX - BLUE BOX", "address": {"city": "YUKON", "state": "OK", "street": "11000 SURREY HILLS BLVD", "postcode": "73099"}}},
{"geometry": {"type": "Point", "coordinates": [-97.7601891537, 35.499703111]}, "type": "Feature", "properties": {"collection_times": [{"days": "Mon-Sat", "time": "5:00pm"}, {"days": "Sun", "time": "Closed"}], "id": "7309900032", "name": "USPS COLLECTION BOX - APC", "address": {"city": "YUKON", "state": "OK", "street": "900 GARTH BROOKS BLVD", "postcode": "73099"}}},
{"geometry": {"type": "Point", "coordinates": [-97.7585143577, 35.5252693389]}, "type": "Feature", "properties": {"collection_times": [{"days": "Mon-Sat", "time": "10:00am"}, {"days": "Sun", "time": "Closed"}], "id": "7309900033", "name": "USPS COLLECTION BOX - BLUE BOX", "address": {"city": "YUKON", "state": "OK", "street": "1200 HEALTHCARE PARKWAY", "postcode": "73099"}}}
]}
