{"type": "FeatureCollection", "features": [
{"geometry": {"type": "Point", "coordinates": [-97.517988113, 35.4700911435]}, "type": "Feature", "properties": {"collection_times": [{"days": "Mon-Fri", "time": "4:15pm"}, {"days": "Sat-Sun", "time": "Closed"}], "id": "7310200003", "name": "USPS COLLECTION BOX - BLUE BOX", "address": {"city": "OKLAHOMA CITY", "state": "OK", "street": "520 W MAIN ST", "postcode": "73102"}}},
{"geometry": {"type": "Point", "coordinates": [-97.5170858815, 35.4719534549]}, "type": "Feature", "properties": {"collection_times": [{"days": "Mon-Fri", "time": "4:45pm"}, {"days": "Sat-Sun", "time": "Closed"}], "id": "7310200028", "name": "USPS COLLECTION BOX - BLUE BOX", "address": {"city": "OKLAHOMA CITY", "state": "OK", "street": "200 NW 4TH ST", "postcode": "73102"}}},
{"geometry": {"type": "Point", "coordinates": [-97.5179939127, 35.4696039897]}, "type": "Feature", "properties": {"collection_times": [{"days": "Mon-Fri", "time": "4:45pm"}, {"days": "Sat-Sun", "time": "Closed"}], "id": "7310200032", "name": "USPS COLLECTION BOX - BLUE BOX", "address": {"city": "OKLAHOMA CITY", "state": "OK", "street": "217 N HARVEY AVE", "postcode": "73102"}}},
{"geometry": {"type": "Point", "coordinates": [-97.5236867925, 35.4772673066]}, "type": "Feature", "properties": {"collection_times": [{"days": "Mon-Fri", "time": "4:15pm"}, {"days": "Sat-Sun", "time": "Closed"}], "id": "7310200049", "name": "USPS COLLECTION BOX - BLUE BOX", "address": {"city": "OKLAHOMA CITY", "state": "OK", "street": "608 NW 9TH ST", "postcode": "73102"}}},
{"geometry": {"type": "Point", "coordinates": [-97.5168552045, 35.469845422]}, "type": "Feature", "properties": {"collection_times": [{"days": "Mon-Fri", "time": "4:30pm"}, {"days": "Sat-Sun", "time": "Closed"}], "id": "7310200066", "name": "USPS COLLECTION BOX - BLUE BOX", "address": {"city": "OKLAHOMA CITY", "state": "OK", "street": "201 ROBERT S KERR AVE", "postcode": "73102"}}},
{"geometry": {"type": "Point", "coordinates": [-97.5160980363, 35.4762919074]}, "type": "Feature", "properties": {"collection_times": [{"days": "Mon-Fri", "time": "3:45pm"}, {"days": "Sat-Sun", "time": "Closed"}], "id": "7310200069", "name": "USPS COLLECTION BOX - BLUE BOX", "address": {"city": "OKLAHOMA CITY", "state": "OK", "street": "920 N ROBINSON AVE", "postcode": "73102"}}},
{"geometry": {"type": "Point", "coordinates": [-97.5145853922, 35.4675927045]}, "type": "Feature", "properties": {"collection_times": [{"days": "Mon-Fri", "time": "4:45pm"}, {"days": "Sat-Sun", "time": "Closed"}], "id": "7310200072", "name": "USPS COLLECTION BOX - BLUE BOX", "address": {"city": "OKLAHOMA CITY", "state": "OK", "street": "100 W MAIN ST", "postcode": "73102"}}},
{"geometry": {"type": "Point", "coordinates": [-97.5145853922, 35.4675927045]}, "type": "Feature", "properties": {"collection_times": [{"days": "Mon-Fri", "time": "4:45pm"}, {"days": "Sat-Sun", "time": "Closed"}], "id": "7310200076", "name": "USPS COLLECTION BOX - BLUE BOX", "address": {"city": "OKLAHOMA CITY", "state": "OK", "street": "100 W MAIN ST", "postcode": "73102"}}},
{"geometry": {"type": "Point", "coordinates": [-97.5145853922, 35.4675927045]}, "type": "Feature", "properties": {"collection_times": [{"days": "Mon-Fri", "time": "4:45pm"}, {"days": "Sat-Sun", "time": "Closed"}], "id": "7310200077", "name": "USPS COLLECTION BOX - BLUE BOX", "address": {"city": "OKLAHOMA CITY", "state": "OK", "street": "100 W MAIN ST", "postcode": "73102"}}},
{"geometry": {"type": "Point", "coordinates": [-97.5257619817, 35.4689588113]}, "type": "Feature", "properties": {"collection_times": [{"days": "Mon-Fri", "time": "4:30pm"}, {"days": "Sat-Sun", "time": "Closed"}], "id": "7310200091", "name": "USPS COLLECTION BOX - BLUE BOX", "address": {"city": "OKLAHOMA CITY", "state": "OK", "street": "201 N SHARTEL AVE", "postcode": "73102"}}},
{"geometry": {"type": "Point", "coordinates": [-97.5170858815, 35.4719534549]}, "type": "Feature", "properties": {"collection_times": [{"days": "Mon-Fri", "time": "4:45pm"}, {"days": "Sat-Sun", "time": "Closed"}], "id": "7310200102", "name": "USPS COLLECTION BOX - BLUE BOX", "address": {"city": "OKLAHOMA CITY", "state": "OK", "street": "200 NW 4TH ST", "postcode": "73102"}}},
{"geometry": {"type": "Point", "coordinates": [-97.5176516847, 35.4698229234]}, "type": "Feature", "properties": {"collection_times": [{"days": "Mon-Fri", "time": "4:45pm"}, {"days": "Sat-Sun", "time": "Closed"}], "id": "7310200138", "name": "USPS COLLECTION BOX - BLUE BOX", "address": {"city": "OKLAHOMA CITY", "state": "OK", "street": "228 ROBERT S KERR AVE", "postcode": "73102"}}},
{"geometry": {"type": "Point", "coordinates": [-97.5144531568, 35.471907852]}, "type": "Feature", "properties": {"collection_times": [{"days": "Mon-Fri", "time": "4:00pm"}, {"days": "Sat-Sun", "time": "Closed"}], "id": "7310200141", "name": "USPS COLLECTION BOX - BLUE BOX", "address": {"city": "OKLAHOMA CITY", "state": "OK", "street": "500 N BROADWAY AVE", "postcode": "73102"}}},
{"geometry": {"type": "Point", "coordinates": [-97.518195497, 35.4730193009]}, "type": "Feature", "properties": {"collection_times": [{"days": "Mon-Fri", "time": "5:45pm"}, {"days": "Sat", "time": "3:00pm"}, {"days": "Sun", "time": "Closed"}], "id": "7310200152", "name": "USPS COLLECTION BOX - BLUE BOX", "address": {"city": "OKLAHOMA CITY", "state": "OK", "street": "305 NW 5TH ST", "postcode": "73102"}}},
{"geometry": {"type": "Point", "coordinates": [-97.518195497, 35.4730193009]}, "type": "Feature", "properties": {"collection_times": [{"days": "Mon-Fri", "time": "5:45pm"}, {"days": "Sat", "time": "3:00pm"}, {"days": "Sun", "time": "Closed"}], "id": "7310200153", "name": "USPS COLLECTION BOX - BLUE BOX", "address": {"city": "OKLAHOMA CITY", "state": "OK", "street": "305 NW 5TH ST", "postcode": "73102"}}},
{"geometry": {"type": "Point", "coordinates": [-97.518195497, 35.4730193009]}, "type": "Feature", "properties": {"collection_times": [{"days": "Mon-Fri", "time": "5:00pm"}, {"days": "Sat", "time": "2:00pm"}, {"days": "Sun", "time": "Closed"}], "id": "7310200155", "name": "USPS COLLECTION BOX - PO LOBBY", "address": {"city": "OKLAHOMA CITY", "state": "OK", "street": "305 NW 5TH ST", "postcode": "73102"}}},
{"geometry": {"type": "Point", "coordinates": [-97.518195497, 35.4730193009]}, "type": "Feature", "properties": {"collection_times": [{"days": "Mon-Fri", "time": "5:00pm"}, {"days": "Sat", "time": "2:00pm"}, {"days": "Sun", "time": "Closed"}], "id": "7310200156", "name": "USPS COLLECTION BOX - PO LOBBY", "address": {"city": "OKLAHOMA CITY", "state": "OK", "street": "305 NW 5TH ST", "postcode": "73102"}}},
{"geometry": {"type": "Point", "coordinates": [-97.518195497, 35.4730193009]}, "type": "Feature", "properties": {"collection_times": [{"days": "Mon-Fri", "time": "5:00pm"}, {"days": "Sat", "time": "2:00pm"}, {"days": "Sun", "time": "Closed"}], "id": "7310200157", "name": "USPS COLLECTION BOX - PO LOBBY", "address": {"city": "OKLAHOMA CITY", "state": "OK", "street": "305 NW 5TH ST", "postcode": "73102"}}},
{"geometry": {"type": "Point", "coordinates": [-97.5144531568, 35.471907852]}, "type": "Feature", "properties": {"collection_times": [{"days": "Mon-Fri", "time": "4:00pm"}, {"days": "Sat-Sun", "time": "Closed"}], "id": "7310200159", "name": "USPS COLLECTION BOX - BLUE BOX", "address": {"city": "OKLAHOMA CITY", "state": "OK", "street": "500 N BROADWAY AVE", "postcode": "73102"}}},
{"geometry": {"type": "Point", "coordinates": [-97.5178072773, 35.4741399197]}, "type": "Feature", "properties": {"collection_times": [{"days": "Mon-Fri", "time": "3:45pm"}, {"days": "Sat-Sun", "time": "Closed"}], "id": "7310200166", "name": "USPS COLLECTION BOX - BLUE BOX", "address": {"city": "OKLAHOMA CITY", "state": "OK", "street": "301 NW 6TH ST", "postcode": "73102"}}},
{"geometry": {"type": "Point", "coordinates": [-97.5176516847, 35.4698229234]}, "type": "Feature", "properties": {"collection_times": [{"days": "Mon-Fri", "time": "4:45pm"}, {"days": "Sat-Sun", "time": "Closed"}], "id": "7310200171", "name": "USPS COLLECTION BOX - BLUE BOX", "address": {"city": "OKLAHOMA CITY", "state": "OK", "street": "228 ROBERT S KERR AVE", "postcode": "73102"}}},
{"geometry": {"type": "Point", "coordinates": [-97.5187398375, 35.4894783436]}, "type": "Feature", "properties": {"collection_times": [{"days": "Mon-Fri", "time": "3:45pm"}, {"days": "Sat-Sun", "time": "Closed"}], "id": "7310300010", "name": "USPS COLLECTION BOX - BLUE BOX", "address": {"city": "OKLAHOMA CITY", "state": "OK", "street": "320 NW 13TH ST", "postcode": "73103"}}},
{"geometry": {"type": "Point", "coordinates": [-97.52265, 35.47939]}, "type": "Feature", "properties": {"collection_times": [{"days": "Mon-Fri", "time": "4:15pm"}, {"days": "Sat-Sun", "time": "Closed"}], "id": "7310300014", "name": "USPS COLLECTION BOX - BLUE BOX", "address": {"city": "OKLAHOMA CITY", "state": "OK", "street": "1111 N DEWEY AVE", "postcode": "73103"}}},
{"geometry": {"type": "Point", "coordinates": [-97.524191916, 35.4794250237]}, "type": "Feature", "properties": {"collection_times": [{"days": "Mon-Fri", "time": "4:15pm"}, {"days": "Sat-Sun", "time": "Closed"}], "id": "7310300017", "name": "USPS COLLECTION BOX - BLUE BOX", "address": {"city": "OKLAHOMA CITY", "state": "OK", "street": "1111 N LEE AVE", "postcode": "73103"}}},
{"geometry": {"type": "Point", "coordinates": [-97.5159845467, 35.4810066399]}, "type": "Feature", "properties": {"collection_times": [{"days": "Mon-Fri", "time": "3:45pm"}, {"days": "Sat-Sun", "time": "Closed"}], "id": "7310300022", "name": "USPS COLLECTION BOX - BLUE BOX", "address": {"city": "OKLAHOMA CITY", "state": "OK", "street": "1220 N ROBINSON AVE", "postcode": "73103"}}},
{"geometry": {"type": "Point", "coordinates": [-97.5183741238, 35.4823776893]}, "type": "Feature", "properties": {"collection_times": [{"days": "Mon-Fri", "time": "3:45pm"}, {"days": "Sat-Sun", "time": "Closed"}], "id": "7310300026", "name": "USPS COLLECTION BOX - BLUE BOX", "address": {"city": "OKLAHOMA CITY", "state": "OK", "street": "320 NW 13TH ST", "postcode": "73103"}}},
{"geometry": {"type": "Point", "coordinates": [-97.5007572143, 35.4756571768]}, "type": "Feature", "properties": {"collection_times": [{"days": "Mon-Fri", "time": "4:15pm"}, {"days": "Sat-Sun", "time": "Closed"}], "id": "7310400003", "name": "USPS COLLECTION BOX - BLUE BOX", "address": {"city": "OKLAHOMA CITY", "state": "OK", "street": "1100 N LINDSAY AVE", "postcode": "73104"}}},
{"geometry": {"type": "Point", "coordinates": [-97.5100212505, 35.4664491468]}, "type": "Feature", "properties": {"collection_times": [{"days": "Mon-Fri", "time": "4:30pm"}, {"days": "Sat-Sun", "time": "Closed"}], "id": "7310400006", "name": "USPS COLLECTION BOX - BLUE BOX", "address": {"city": "OKLAHOMA CITY", "state": "OK", "street": "115 E SHERIDAN AVE", "postcode": "73104"}}},
{"geometry": {"type": "Point", "coordinates": [-97.5057363744, 35.4768800483]}, "type": "Feature", "properties": {"collection_times": [{"days": "Mon-Fri", "time": "4:30pm"}, {"days": "Sat-Sun", "time": "Closed"}], "id": "7310400018", "name": "USPS COLLECTION BOX - BLUE BOX", "address": {"city": "OKLAHOMA CITY", "state": "OK", "street": "900 N STILES AVE", "postcode": "73104"}}},
{"geometry": {"type": "Point", "coordinates": [-97.5025011804, 35.477255477]}, "type": "Feature", "properties": {"collection_times": [{"days": "Mon-Fri", "time": "4:30pm"}, {"days": "Sat-Sun", "time": "Closed"}], "id": "7310400024", "name": "USPS COLLECTION BOX - BLUE BOX", "address": {"city": "OKLAHOMA CITY", "state": "OK", "street": "1000 N LINCOLN BLVD", "postcode": "73104"}}},
{"geometry": {"type": "Point", "coordinates": [-97.5054516878, 35.5262388967]}, "type": "Feature", "properties": {"collection_times": [{"days": "Mon-Fri", "time": "4:15pm"}, {"days": "Sat-Sun", "time": "Closed"}], "id": "7310500001", "name": "USPS COLLECTION BOX - BLUE BOX", "address": {"city": "OKLAHOMA CITY", "state": "OK", "street": "525 CENTRAL PARK DR", "postcode": "73105"}}},
{"geometry": {"type": "Point", "coordinates": [-97.5054516878, 35.5262388967]}, "type": "Feature", "properties": {"collection_times": [{"days": "Mon-Fri", "time": "4:15pm"}, {"days": "Sat-Sun", "time": "Closed"}], "id": "7310500003", "name": "USPS COLLECTION BOX - BLUE BOX", "address": {"city": "OKLAHOMA CITY", "state": "OK", "street": "525 CENTRAL PARK DR", "postcode": "73105"}}},
{"geometry": {"type": "Point", "coordinates": [-97.5033446301, 35.5121586813]}, "type": "Feature", "properties": {"collection_times": [{"days": "Mon-Fri", "time": "4:45pm"}, {"days": "Sat-Sun", "time": "Closed"}], "id": "7310500011", "name": "USPS COLLECTION BOX - BLUE BOX", "address": {"city": "OKLAHOMA CITY", "state": "OK", "street": "4001 N LINCOLN BLVD", "postcode": "73105"}}},
{"geometry": {"type": "Point", "coordinates": [-97.50312, 35.51524]}, "type": "Feature", "properties": {"collection_times": [{"days": "Mon-Fri", "time": "4:45pm"}, {"days": "Sat-Sun", "time": "Closed"}], "id": "7310500013", "name": "USPS COLLECTION BOX - BLUE BOX", "address": {"city": "OKLAHOMA CITY", "state": "OK", "street": "4300 N LINCOLN BLVD", "postcode": "73105"}}},
{"geometry": {"type": "Point", "coordinates": [-97.5033738653, 35.5163212573]}, "type": "Feature", "properties": {"collection_times": [{"days": "Mon-Fri", "time": "4:45pm"}, {"days": "Sat-Sun", "time": "Closed"}], "id": "7310500014", "name": "USPS COLLECTION BOX - BLUE BOX", "address": {"city": "OKLAHOMA CITY", "state": "OK", "street": "4345 N LINCOLN BLVD", "postcode": "73105"}}},
{"geometry": {"type": "Point", "coordinates": [-97.5099455412, 35.4971209069]}, "type": "Feature", "properties": {"collection_times": [{"days": "Mon-Fri", "time": "4:00pm"}, {"days": "Sat-Sun", "time": "Closed"}], "id": "7310500020", "name": "USPS COLLECTION BOX - BLUE BOX", "address": {"city": "OKLAHOMA CITY", "state": "OK", "street": "2701 N OKLAHOMA AVE", "postcode": "73105"}}},
{"geometry": {"type": "Point", "coordinates": [-97.5179198675, 35.4984966882]}, "type": "Feature", "properties": {"collection_times": [{"days": "Mon-Fri", "time": "4:00pm"}, {"days": "Sat-Sun", "time": "Closed"}], "id": "7310500028", "name": "USPS COLLECTION BOX - BLUE BOX", "address": {"city": "OKLAHOMA CITY", "state": "OK", "street": "313 NE 28TH ST", "postcode": "73105"}}},
{"geometry": {"type": "Point", "coordinates": [-97.5034062742, 35.5113817301]}, "type": "Feature", "properties": {"collection_times": [{"days": "Mon-Fri", "time": "4:15pm"}, {"days": "Sat-Sun", "time": "Closed"}], "id": "7310500061", "name": "USPS COLLECTION BOX - BLUE BOX", "address": {"city": "OKLAHOMA CITY", "state": "OK", "street": "2300 N LINCOLN BLVD", "postcode": "73105"}}},
{"geometry": {"type": "Point", "coordinates": [-97.5300537916, 35.483971074]}, "type": "Feature", "properties": {"collection_times": [{"days": "Mon-Fri", "time": "3:45pm"}, {"days": "Sat-Sun", "time": "Closed"}], "id": "7310600018", "name": "USPS COLLECTION BOX - BLUE BOX", "address": {"city": "OKLAHOMA CITY", "state": "OK", "street": "1501 N CLASSEN BLVD", "postcode": "73106"}}},
{"geometry": {"type": "Point", "coordinates": [-97.5311272359, 35.489840172]}, "type": "Feature", "properties": {"collection_times": [{"days": "Mon-Fri", "time": "4:00pm"}, {"days": "Sat-Sun", "time": "Closed"}], "id": "7310600022", "name": "USPS COLLECTION BOX - BLUE BOX", "address": {"city": "OKLAHOMA CITY", "state": "OK", "street": "2000 N CLASSEN BLVD", "postcode": "73106"}}},
{"geometry": {"type": "Point", "coordinates": [-97.5412800908, 35.4678155799]}, "type": "Feature", "properties": {"collection_times": [{"days": "Mon-Fri", "time": "4:15pm"}, {"days": "Sat-Sun", "time": "Closed"}], "id": "7310600036", "name": "USPS COLLECTION BOX - BLUE BOX", "address": {"city": "OKLAHOMA CITY", "state": "OK", "street": "1600 W MAIN ST", "postcode": "73106"}}},
{"geometry": {"type": "Point", "coordinates": [-97.6011292011, 35.4707728619]}, "type": "Feature", "properties": {"collection_times": [{"days": "Mon-Fri", "time": "4:45pm"}, {"days": "Sat-Sun", "time": "Closed"}], "id": "7310700002", "name": "USPS COLLECTION BOX - BLUE BOX", "address": {"city": "OKLAHOMA CITY", "state": "OK", "street": "304 N MERIDIAN AVE", "postcode": "73107"}}},
{"geometry": {"type": "Point", "coordinates": [-97.5476701026, 35.4940676898]}, "type": "Feature", "properties": {"collection_times": [{"days": "Mon-Fri", "time": "4:15pm"}, {"days": "Sat-Sun", "time": "Closed"}], "id": "7310700007", "name": "USPS COLLECTION BOX - BLUE BOX", "address": {"city": "OKLAHOMA CITY", "state": "OK", "street": "2500 N PENNSYLVANIA AVE", "postcode": "73107"}}},
{"geometry": {"type": "Point", "coordinates": [-97.5562982768, 35.4953703736]}, "type": "Feature", "properties": {"collection_times": [{"days": "Mon-Fri", "time": "4:15pm"}, {"days": "Sat-Sun", "time": "Closed"}], "id": "7310700016", "name": "USPS COLLECTION BOX - BLUE BOX", "address": {"city": "OKLAHOMA CITY", "state": "OK", "street": "2632 N VILLA AVE", "postcode": "73107"}}},
{"geometry": {"type": "Point", "coordinates": [-97.5746078793, 35.4854202764]}, "type": "Feature", "properties": {"collection_times": [{"days": "Mon-Fri", "time": "5:00pm"}, {"days": "Sat", "time": "12:30pm"}, {"days": "Sun", "time": "Closed"}], "id": "7310700021", "name": "USPS COLLECTION BOX - BLUE BOX", "address": {"city": "OKLAHOMA CITY", "state": "OK", "street": "3621 NW 16TH ST", "postcode": "73107"}}},
{"geometry": {"type": "Point", "coordinates": [-97.6011292011, 35.4707728619]}, "type": "Feature", "properties": {"collection_times": [{"days": "Mon-Fri", "time": "4:45pm"}, {"days": "Sat-Sun", "time": "Closed"}], "id": "7310700028", "name": "USPS COLLECTION BOX - BLUE BOX", "address": {"city": "OKLAHOMA CITY", "state": "OK", "street": "304 N MERIDIAN AVE", "postcode": "73107"}}},
{"geometry": {"type": "Point", "coordinates": [-97.5826241741, 35.4860543258]}, "type": "Feature", "properties": {"collection_times": [{"days": "Mon-Fri", "time": "5:00pm"}, {"days": "Sat", "time": "12:30pm"}, {"days": "Sun", "time": "Closed"}], "id": "7310700030", "name": "USPS COLLECTION BOX - PO LOBBY", "address": {"city": "OKLAHOMA CITY", "state": "OK", "street": "3621 NW 16TH ST", "postcode": "73107"}}},
{"geometry": {"type": "Point", "coordinates": [-97.5746078794, 35.4855115677]}, "type": "Feature", "properties": {"collection_times": [{"days": "Mon-Fri", "time": "4:15pm"}, {"days": "Sat-Sun", "time": "Closed"}], "id": "7310700031", "name": "USPS COLLECTION BOX - BLUE BOX", "address": {"city": "OKLAHOMA CITY", "state": "OK", "street": "2632 N VILLA AVE", "postcode": "73107"}}},
{"geometry": {"type": "Point", "coordinates": [-97.5987365624, 35.4523068369]}, "type": "Feature", "properties": {"collection_times": [{"days": "Mon-Fri", "time": "4:45pm"}, {"days": "Sat-Sun", "time": "Closed"}], "id": "7310800008", "name": "USPS COLLECTION BOX - BLUE BOX", "address": {"city": "OKLAHOMA CITY", "state": "OK", "street": "4401 WILL ROGERS PKWY", "postcode": "73108"}}},
{"geometry": {"type": "Point", "coordinates": [-97.5987365624, 35.4523068369]}, "type": "Feature", "properties": {"collection_times": [{"days": "Mon-Fri", "time": "4:45pm"}, {"days": "Sat-Sun", "time": "Closed"}], "id": "7310800009", "name": "USPS COLLECTION BOX - BLUE BOX", "address": {"city": "OKLAHOMA CITY", "state": "OK", "street": "4401 WILL ROGERS PKWY", "postcode": "73108"}}},
{"geometry": {"type": "Point", "coordinates": [-97.5987365624, 35.4523068369]}, "type": "Feature", "properties": {"collection_times": [{"days": "Mon-Fri", "time": "4:45pm"}, {"days": "Sat-Sun", "time": "Closed"}], "id": "7310800010", "name": "USPS COLLECTION BOX - BLUE BOX", "address": {"city": "OKLAHOMA CITY", "state": "OK", "street": "4401 WILL ROGERS PKWY", "postcode": "73108"}}},
{"geometry": {"type": "Point", "coordinates": [-97.5987365624, 35.4523068369]}, "type": "Feature", "properties": {"collection_times": [{"days": "Mon-Fri", "time": "4:45pm"}, {"days": "Sat-Sun", "time": "Closed"}], "id": "7310800012", "name": "USPS COLLECTION BOX - BLUE BOX", "address": {"city": "OKLAHOMA CITY", "state": "OK", "street": "4401 WILL ROGERS PKWY", "postcode": "73108"}}},
{"geometry": {"type": "Point", "coordinates": [-97.5301895179, 35.4125689149]}, "type": "Feature", "properties": {"collection_times": [{"days": "Mon-Fri", "time": "3:30pm"}, {"days": "Sat-Sun", "time": "Closed"}], "id": "7310900011", "name": "USPS COLLECTION BOX - BLUE BOX", "address": {"city": "OKLAHOMA CITY", "state": "OK", "street": "5350 S WESTERN AVE", "postcode": "73109"}}},
{"geometry": {"type": "Point", "coordinates": [-97.5302108112, 35.421099232]}, "type": "Feature", "properties": {"collection_times": [{"days": "Mon-Fri", "time": "3:30pm"}, {"days": "Sat-Sun", "time": "Closed"}], "id": "7310900015", "name": "USPS COLLECTION BOX - BLUE BOX", "address": {"city": "OKLAHOMA CITY", "state": "OK", "street": "4401 S WESTERN AVE", "postcode": "73109"}}},
{"geometry": {"type": "Point", "coordinates": [-97.526411147, 35.4352308598]}, "type": "Feature", "properties": {"collection_times": [{"days": "Mon-Fri", "time": "4:00pm"}, {"days": "Sat-Sun", "time": "Closed"}], "id": "7310900020", "name": "USPS COLLECTION BOX - BLUE BOX", "address": {"city": "OKLAHOMA CITY", "state": "OK", "street": "700 SW 29TH ST", "postcode": "73109"}}},
{"geometry": {"type": "Point", "coordinates": [-97.5301977986, 35.4313921579]}, "type": "Feature", "properties": {"collection_times": [{"days": "Mon-Fri", "time": "3:45pm"}, {"days": "Sat-Sun", "time": "Closed"}], "id": "7310900021", "name": "USPS COLLECTION BOX - BLUE BOX", "address": {"city": "OKLAHOMA CITY", "state": "OK", "street": "3301 S WESTERN AVE", "postcode": "73109"}}},
{"geometry": {"type": "Point", "coordinates": [-97.5161690883, 35.4385490597]}, "type": "Feature", "properties": {"collection_times": [{"days": "Mon-Fri", "time": "4:00pm"}, {"days": "Sat-Sun", "time": "Closed"}], "id": "7310900024", "name": "USPS COLLECTION BOX - BLUE BOX", "address": {"city": "OKLAHOMA CITY", "state": "OK", "street": "2617 S ROBINSON AVE", "postcode": "73109"}}},
{"geometry": {"type": "Point", "coordinates": [-97.410406642, 35.4642169033]}, "type": "Feature", "properties": {"collection_times": [{"days": "Mon-Fri", "time": "4:00pm"}, {"days": "Sat-Sun", "time": "Closed"}], "id": "7311000007", "name": "USPS COLLECTION BOX - BLUE BOX", "address": {"city": "MIDWEST CITY", "state": "OK", "street": "6801 E RENO AVE", "postcode": "73110"}}},
{"geometry": {"type": "Point", "coordinates": [-97.406114515, 35.4473580598]}, "type": "Feature", "properties": {"collection_times": [{"days": "Mon-Fri", "time": "4:00pm"}, {"days": "Sat-Sun", "time": "Closed"}], "id": "7311000009", "name": "USPS COLLECTION BOX - BLUE BOX", "address": {"city": "MIDWEST CITY", "state": "OK", "street": "1805 S AIR DEPOT BLVD", "postcode": "73110"}}},
{"geometry": {"type": "Point", "coordinates": [-97.4059788266, 35.4359761239]}, "type": "Feature", "properties": {"collection_times": [{"days": "Mon-Fri", "time": "4:15pm"}, {"days": "Sat-Sun", "time": "Closed"}], "id": "7311000010", "name": "USPS COLLECTION BOX - BLUE BOX", "address": {"city": "MIDWEST CITY", "state": "OK", "street": "2911 S AIR DEPOT BLVD", "postcode": "73110"}}},
{"geometry": {"type": "Point", "coordinates": [-97.3884603873, 35.4503916619]}, "type": "Feature", "properties": {"collection_times": [{"days": "Mon-Fri", "time": "3:15pm"}, {"days": "Sat-Sun", "time": "Closed"}], "id": "7311000015", "name": "USPS COLLECTION BOX - BLUE BOX", "address": {"city": "MIDWEST CITY", "state": "OK", "street": "1500 S MIDWEST BLVD", "postcode": "73110"}}},
{"geometry": {"type": "Point", "coordinates": [-97.3838547033, 35.4641195447]}, "type": "Feature", "properties": {"collection_times": [{"days": "Mon-Fri", "time": "5:00pm"}, {"days": "Sat", "time": "4:00pm"}, {"days": "Sun", "time": "Closed"}], "id": "7311000017", "name": "USPS COLLECTION BOX - BLUE BOX", "address": {"city": "MIDWEST CITY", "state": "OK", "street": "8275 E RENO AVE", "postcode": "73110"}}},
{"geometry": {"type": "Point", "coordinates": [-97.3838547033, 35.4641195447]}, "type": "Feature", "properties": {"collection_times": [{"days": "Mon-Fri", "time": "5:00pm"}, {"days": "Sat", "time": "4:00pm"}, {"days": "Sun", "time": "Closed"}], "id": "7311000019", "name": "USPS COLLECTION BOX - BLUE BOX", "address": {"city": "MIDWEST CITY", "state": "OK", "street": "8275 E RENO AVE", "postcode": "73110"}}},
{"geometry": {"type": "Point", "coordinates": [-97.3862612666, 35.4663426805]}, "type": "Feature", "properties": {"collection_times": [{"days": "Mon-Fri", "time": "3:45pm"}, {"days": "Sat-Sun", "time": "Closed"}], "id": "7311000023", "name": "USPS COLLECTION BOX - BLUE BOX", "address": {"city": "MIDWEST CITY", "state": "OK", "street": "8121 NATIONAL AVE", "postcode": "73110"}}},
{"geometry": {"type": "Point", "coordinates": [-97.3862612666, 35.4663426805]}, "type": "Feature", "properties": {"collection_times": [{"days": "Mon-Fri", "time": "3:45pm"}, {"days": "Sat-Sun", "time": "Closed"}], "id": "7311000024", "name": "USPS COLLECTION BOX - BLUE BOX", "address": {"city": "MIDWEST CITY", "state": "OK", "street": "8121 NATIONAL AVE", "postcode": "73110"}}},
{"geometry": {"type": "Point", "coordinates": [-97.3929260574, 35.4665272221]}, "type": "Feature", "properties": {"collection_times": [{"days": "Mon-Fri", "time": "3:45pm"}, {"days": "Sat-Sun", "time": "Closed"}], "id": "7311000025", "name": "USPS COLLECTION BOX - BLUE BOX", "address": {"city": "MIDWEST CITY", "state": "OK", "street": "2825 PARKLAWN DR", "postcode": "73110"}}},
{"geometry": {"type": "Point", "coordinates": [-97.4226904879, 35.4402868264]}, "type": "Feature", "properties": {"collection_times": [{"days": "Mon-Fri", "time": "4:15pm"}, {"days": "Sat-Sun", "time": "Closed"}], "id": "7311000031", "name": "USPS COLLECTION BOX - BLUE BOX", "address": {"city": "MIDWEST CITY", "state": "OK", "street": "5600 LIBERTY PKWY", "postcode": "73110"}}},
{"geometry": {"type": "Point", "coordinates": [-97.3838547033, 35.4641195447]}, "type": "Feature", "properties": {"collection_times": [{"days": "Mon-Fri", "time": "5:00pm"}, {"days": "Sat", "time": "4:00pm"}, {"days": "Sun", "time": "Closed"}], "id": "7311000042", "name": "USPS COLLECTION BOX - PO LOBBY", "address": {"city": "MIDWEST CITY", "state": "OK", "street": "8275 E RENO AVE", "postcode": "73110"}}},
{"geometry": {"type": "Point", "coordinates": [-97.3838547033, 35.4641195447]}, "type": "Feature", "properties": {"collection_times": [{"days": "Mon-Fri", "time": "5:00pm"}, {"days": "Sat", "time": "4:00pm"}, {"days": "Sun", "time": "Closed"}], "id": "7311000044", "name": "USPS COLLECTION BOX - PO LOBBY", "address": {"city": "MIDWEST CITY", "state": "OK", "street": "8275 E RENO AVE", "postcode": "73110"}}},
{"geometry": {"type": "Point", "coordinates": [-97.3838547033, 35.4641195447]}, "type": "Feature", "properties": {"collection_times": [{"days": "Mon-Fri", "time": "5:00pm"}, {"days": "Sat", "time": "4:00pm"}, {"days": "Sun", "time": "Closed"}], "id": "7311000046", "name": "USPS COLLECTION BOX - APC", "address": {"city": "MIDWEST CITY", "state": "OK", "street": "8275 E RENO AVE", "postcode": "73110"}}},
{"geometry": {"type": "Point", "coordinates": [-97.4945122203, 35.493352101]}, "type": "Feature", "properties": {"collection_times": [{"days": "Mon-Fri", "time": "3:45pm"}, {"days": "Sat-Sun", "time": "Closed"}], "id": "7311100001", "name": "USPS COLLECTION BOX - BLUE BOX", "address": {"city": "OKLAHOMA CITY", "state": "OK", "street": "2409 N KELLEY AVE", "postcode": "73111"}}},
{"geometry": {"type": "Point", "coordinates": [-97.4766067781, 35.5062475401]}, "type": "Feature", "properties": {"collection_times": [{"days": "Mon-Fri", "time": "3:45pm"}, {"days": "Sat-Sun", "time": "Closed"}], "id": "7311100002", "name": "USPS COLLECTION BOX - BLUE BOX", "address": {"city": "OKLAHOMA CITY", "state": "OK", "street": "3600 N MARTIN LUTHER KING AVE", "postcode": "73111"}}},
{"geometry": {"type": "Point", "coordinates": [-97.5668801732, 35.400484989]}, "type": "Feature", "properties": {"collection_times": [{"days": "Mon-Fri", "time": "4:15pm"}, {"days": "Sat-Sun", "time": "Closed"}], "id": "7311100004", "name": "USPS COLLECTION BOX - BLUE BOX", "address": {"city": "OKLAHOMA CITY", "state": "OK", "street": "2928 NE 63RD ST", "postcode": "73111"}}},
{"geometry": {"type": "Point", "coordinates": [-97.484177433, 35.493204985]}, "type": "Feature", "properties": {"collection_times": [{"days": "Mon-Fri", "time": "3:45pm"}, {"days": "Sat-Sun", "time": "Closed"}], "id": "7311100014", "name": "USPS COLLECTION BOX - BLUE BOX", "address": {"city": "OKLAHOMA CITY", "state": "OK", "street": "1541 NE 23RD ST", "postcode": "73111"}}},
{"geometry": {"type": "Point", "coordinates": [-97.4824459676, 35.5076406346]}, "type": "Feature", "properties": {"collection_times": [{"days": "Mon-Fri", "time": "4:15pm"}, {"days": "Sat-Sun", "time": "Closed"}], "id": "7311100018", "name": "USPS COLLECTION BOX - BLUE BOX", "address": {"city": "OKLAHOMA CITY", "state": "OK", "street": "2501 NE 23RD ST STE E", "postcode": "73111"}}},
{"geometry": {"type": "Point", "coordinates": [-97.5571070331, 35.52521111]}, "type": "Feature", "properties": {"collection_times": [{"days": "Mon-Fri", "time": "4:00pm"}, {"days": "Sat-Sun", "time": "Closed"}], "id": "7311200001", "name": "USPS COLLECTION BOX - BLUE BOX", "address": {"city": "OKLAHOMA CITY", "state": "OK", "street": "2525 NW EXPRESSWAY", "postcode": "73112"}}},
{"geometry": {"type": "Point", "coordinates": [-97.549959715, 35.5222327772]}, "type": "Feature", "properties": {"collection_times": [{"days": "Mon-Fri", "time": "4:30pm"}, {"days": "Sat-Sun", "time": "Closed"}], "id": "7311200015", "name": "USPS COLLECTION BOX - BLUE BOX", "address": {"city": "OKLAHOMA CITY", "state": "OK", "street": "2200 NW 50TH ST", "postcode": "73112"}}},
{"geometry": {"type": "Point", "coordinates": [-97.5509776558, 35.5222422235]}, "type": "Feature", "properties": {"collection_times": [{"days": "Mon-Fri", "time": "4:30pm"}, {"days": "Sat-Sun", "time": "Closed"}], "id": "7311200016", "name": "USPS COLLECTION BOX - BLUE BOX", "address": {"city": "OKLAHOMA CITY", "state": "OK", "street": "2200 NW 50TH ST", "postcode": "73112"}}},
{"geometry": {"type": "Point", "coordinates": [-97.5509776558, 35.5222422235]}, "type": "Feature", "properties": {"collection_times": [{"days": "Mon-Fri", "time": "4:30pm"}, {"days": "Sat-Sun", "time": "Closed"}], "id": "7311200017", "name": "USPS COLLECTION BOX - BLUE BOX", "address": {"city": "OKLAHOMA CITY", "state": "OK", "street": "2200 NW 50TH ST", "postcode": "73112"}}},
{"geometry": {"type": "Point", "coordinates": [-97.5509776558, 35.5222422235]}, "type": "Feature", "properties": {"collection_times": [{"days": "Mon-Fri", "time": "4:30pm"}, {"days": "Sat-Sun", "time": "Closed"}], "id": "7311200018", "name": "USPS COLLECTION BOX - BLUE BOX", "address": {"city": "OKLAHOMA CITY", "state": "OK", "street": "2200 NW 50TH ST", "postcode": "73112"}}},
{"geometry": {"type": "Point", "coordinates": [-97.5799334086, 35.5298262947]}, "type": "Feature", "properties": {"collection_times": [{"days": "Mon-Fri", "time": "4:30pm"}, {"days": "Sat-Sun", "time": "Closed"}], "id": "7311200022", "name": "USPS COLLECTION BOX - BLUE BOX", "address": {"city": "OKLAHOMA CITY", "state": "OK", "street": "3520 NW 58TH ST", "postcode": "73112"}}},
{"geometry": {"type": "Point", "coordinates": [-97.5762184513, 35.5275205864]}, "type": "Feature", "properties": {"collection_times": [{"days": "Mon-Fri", "time": "3:30pm"}, {"days": "Sat-Sun", "time": "Closed"}], "id": "7311200032", "name": "USPS COLLECTION BOX - BLUE BOX", "address": {"city": "OKLAHOMA CITY", "state": "OK", "street": "3330 NW 56TH ST", "postcode": "73112"}}},
{"geometry": {"type": "Point", "coordinates": [-97.5774960469, 35.527532416]}, "type": "Feature", "properties": {"collection_times": [{"days": "Mon-Fri", "time": "3:30pm"}, {"days": "Sat-Sun", "time": "Closed"}], "id": "7311200033", "name": "USPS COLLECTION BOX - BLUE BOX", "address": {"city": "OKLAHOMA CITY", "state": "OK", "street": "3433 NW 56TH ST", "postcode": "73112"}}},
{"geometry": {"type": "Point", "coordinates": [-97.5774960469, 35.527532416]}, "type": "Feature", "properties": {"collection_times": [{"days": "Mon-Fri", "time": "3:30pm"}, {"days": "Sat-Sun", "time": "Closed"}], "id": "7311200034", "name": "USPS COLLECTION BOX - BLUE BOX", "address": {"city": "OKLAHOMA CITY", "state": "OK", "street": "3433 NW 56TH ST", "postcode": "73112"}}},
{"geometry": {"type": "Point", "coordinates": [-97.5815855361, 35.5282954245]}, "type": "Feature", "properties": {"collection_times": [{"days": "Mon-Fri", "time": "4:30pm"}, {"days": "Sat-Sun", "time": "Closed"}], "id": "7311200038", "name": "USPS COLLECTION BOX - BLUE BOX", "address": {"city": "OKLAHOMA CITY", "state": "OK", "street": "3625 NW 56TH ST", "postcode": "73112"}}},
{"geometry": {"type": "Point", "coordinates": [-97.5767223918, 35.5256538771]}, "type": "Feature", "properties": {"collection_times": [{"days": "Mon-Fri", "time": "3:30pm"}, {"days": "Sat-Sun", "time": "Closed"}], "id": "7311200041", "name": "USPS COLLECTION BOX - BLUE BOX", "address": {"city": "OKLAHOMA CITY", "state": "OK", "street": "5400 N GRAND BLVD", "postcode": "73112"}}},
{"geometry": {"type": "Point", "coordinates": [-97.5767223918, 35.5256538771]}, "type": "Feature", "properties": {"collection_times": [{"days": "Mon-Fri", "time": "3:30pm"}, {"days": "Sat-Sun", "time": "Closed"}], "id": "7311200042", "name": "USPS COLLECTION BOX - BLUE BOX", "address": {"city": "OKLAHOMA CITY", "state": "OK", "street": "5400 N GRAND BLVD", "postcode": "73112"}}},
{"geometry": {"type": "Point", "coordinates": [-97.5834965083, 35.5252354026]}, "type": "Feature", "properties": {"collection_times": [{"days": "Mon-Fri", "time": "4:00pm"}, {"days": "Sat-Sun", "time": "Closed"}], "id": "7311200065", "name": "USPS COLLECTION BOX - BLUE BOX", "address": {"city": "OKLAHOMA CITY", "state": "OK", "street": "5401 N PORTLAND AVE", "postcode": "73112"}}},
{"geometry": {"type": "Point", "coordinates": [-97.5834993215, 35.5255547037]}, "type": "Feature", "properties": {"collection_times": [{"days": "Mon-Fri", "time": "4:00pm"}, {"days": "Sat-Sun", "time": "Closed"}], "id": "7311200066", "name": "USPS COLLECTION BOX - BLUE BOX", "address": {"city": "OKLAHOMA CITY", "state": "OK", "street": "5501 N PORTLAND AVE", "postcode": "73112"}}},
{"geometry": {"type": "Point", "coordinates": [-97.5834581601, 35.5288703426]}, "type": "Feature", "properties": {"collection_times": [{"days": "Mon-Fri", "time": "4:15pm"}, {"days": "Sat-Sun", "time": "Closed"}], "id": "7311200067", "name": "USPS COLLECTION BOX - BLUE BOX", "address": {"city": "OKLAHOMA CITY", "state": "OK", "street": "5700 N PORTLAND AVE", "postcode": "73112"}}},
{"geometry": {"type": "Point", "coordinates": [-97.5834463305, 35.5267386505]}, "type": "Feature", "properties": {"collection_times": [{"days": "Mon-Fri", "time": "4:00pm"}, {"days": "Sat-Sun", "time": "Closed"}], "id": "7311200068", "name": "USPS COLLECTION BOX - BLUE BOX", "address": {"city": "OKLAHOMA CITY", "state": "OK", "street": "5701 N PORTLAND AVE", "postcode": "73112"}}},
{"geometry": {"type": "Point", "coordinates": [-97.5680284196, 35.5111259539]}, "type": "Feature", "properties": {"collection_times": [{"days": "Mon-Fri", "time": "5:00pm"}, {"days": "Sat", "time": "4:30pm"}, {"days": "Sun", "time": "Closed"}], "id": "7311200073", "name": "USPS COLLECTION BOX - BLUE BOX", "address": {"city": "OKLAHOMA CITY", "state": "OK", "street": "3022 NW 39TH EXPY", "postcode": "73112"}}},
{"geometry": {"type": "Point", "coordinates": [-97.5948262456, 35.5141272254]}, "type": "Feature", "properties": {"collection_times": [{"days": "Mon-Fri", "time": "3:45pm"}, {"days": "Sat-Sun", "time": "Closed"}], "id": "7311200081", "name": "USPS COLLECTION BOX - BLUE BOX", "address": {"city": "OKLAHOMA CITY", "state": "OK", "street": "4200 PERIMETER CENTER DR", "postcode": "73112"}}},
{"geometry": {"type": "Point", "coordinates": [-97.5667642432, 35.5293790149]}, "type": "Feature", "properties": {"collection_times": [{"days": "Mon-Fri", "time": "3:45pm"}, {"days": "Sat-Sun", "time": "Closed"}], "id": "7311200085", "name": "USPS COLLECTION BOX - BLUE BOX", "address": {"city": "OKLAHOMA CITY", "state": "OK", "street": "2915 UNITED FOUNDERS BLVD", "postcode": "73112"}}},
{"geometry": {"type": "Point", "coordinates": [-97.5667642432, 35.5293790149]}, "type": "Feature", "properties": {"collection_times": [{"days": "Mon-Fri", "time": "3:45pm"}, {"days": "Sat-Sun", "time": "Closed"}], "id": "7311200086", "name": "USPS COLLECTION BOX - BLUE BOX", "address": {"city": "OKLAHOMA CITY", "state": "OK", "street": "2915 UNITED FOUNDERS BLVD", "postcode": "73112"}}},
{"geometry": {"type": "Point", "coordinates": [-97.5667642432, 35.5293790149]}, "type": "Feature", "properties": {"collection_times": [{"days": "Mon-Fri", "time": "3:45pm"}, {"days": "Sat-Sun", "time": "Closed"}], "id": "7311200087", "name": "USPS COLLECTION BOX - BLUE BOX", "address": {"city": "OKLAHOMA CITY", "state": "OK", "street": "2915 UNITED FOUNDERS BLVD", "postcode": "73112"}}},
{"geometry": {"type": "Point", "coordinates": [-97.5688864716, 35.5292678168]}, "type": "Feature", "properties": {"collection_times": [{"days": "Mon-Fri", "time": "3:30pm"}, {"days": "Sat-Sun", "time": "Closed"}], "id": "7311200089", "name": "USPS COLLECTION BOX - BLUE BOX", "address": {"city": "OKLAHOMA CITY", "state": "OK", "street": "3000 UNITED FOUNDERS BLVD", "postcode": "73112"}}},
{"geometry": {"type": "Point", "coordinates": [-97.576464313, 35.5307129521]}, "type": "Feature", "properties": {"collection_times": [{"days": "Mon-Fri", "time": "3:30pm"}, {"days": "Sat-Sun", "time": "Closed"}], "id": "7311200100", "name": "USPS COLLECTION BOX - BLUE BOX", "address": {"city": "OKLAHOMA CITY", "state": "OK", "street": "3300 NW EXPRESSWAY", "postcode": "73112"}}},
{"geometry": {"type": "Point", "coordinates": [-97.5834404157, 35.5351069022]}, "type": "Feature", "properties": {"collection_times": [{"days": "Mon-Fri", "time": "4:15pm"}, {"days": "Sat-Sun", "time": "Closed"}], "id": "7311200104", "name": "USPS COLLECTION BOX - BLUE BOX", "address": {"city": "OKLAHOMA CITY", "state": "OK", "street": "6303 N PORTLAND AVE", "postcode": "73112"}}},
{"geometry": {"type": "Point", "coordinates": [-97.5937014018, 35.5141484182]}, "type": "Feature", "properties": {"collection_times": [{"days": "Mon-Fri", "time": "3:45pm"}, {"days": "Sat-Sun", "time": "Closed"}], "id": "7311200110", "name": "USPS COLLECTION BOX - BLUE BOX", "address": {"city": "OKLAHOMA CITY", "state": "OK", "street": "4101 PERIMETER CENTER DR", "postcode": "73112"}}},
{"geometry": {"type": "Point", "coordinates": [-97.5780733309, 35.5263411763]}, "type": "Feature", "properties": {"collection_times": [{"days": "Mon-Fri", "time": "4:30pm"}, {"days": "Sat-Sun", "time": "Closed"}], "id": "7311200127", "name": "USPS COLLECTION BOX - BLUE BOX", "address": {"city": "OKLAHOMA CITY", "state": "OK", "street": "5555 N GRAND BLVD", "postcode": "73112"}}},
{"geometry": {"type": "Point", "coordinates": [-97.5826774072, 35.5299279079]}, "type": "Feature", "properties": {"collection_times": [{"days": "Mon-Fri", "time": "4:15pm"}, {"days": "Sat-Sun", "time": "Closed"}], "id": "7311200130", "name": "USPS COLLECTION BOX - BLUE BOX", "address": {"city": "OKLAHOMA CITY", "state": "OK", "street": "3555 NW 58TH ST", "postcode": "73112"}}},
{"geometry": {"type": "Point", "coordinates": [-97.5824372665, 35.5299255419]}, "type": "Feature", "properties": {"collection_times": [{"days": "Mon-Fri", "time": "4:15pm"}, {"days": "Sat-Sun", "time": "Closed"}], "id": "7311200131", "name": "USPS COLLECTION BOX - BLUE BOX", "address": {"city": "OKLAHOMA CITY", "state": "OK", "street": "3545 NW 58TH ST", "postcode": "73112"}}},
{"geometry": {"type": "Point", "coordinates": [-97.5808402719, 35.5299148953]}, "type": "Feature", "properties": {"collection_times": [{"days": "Mon-Fri", "time": "4:15pm"}, {"days": "Sat-Sun", "time": "Closed"}], "id": "7311200132", "name": "USPS COLLECTION BOX - BLUE BOX", "address": {"city": "OKLAHOMA CITY", "state": "OK", "street": "3535 NW 58TH ST", "postcode": "73112"}}},
{"geometry": {"type": "Point", "coordinates": [-97.5684200141, 35.5110649917]}, "type": "Feature", "properties": {"collection_times": [{"days": "Mon-Fri", "time": "5:00pm"}, {"days": "Sat", "time": "4:30pm"}, {"days": "Sun", "time": "Closed"}], "id": "7311200134", "name": "USPS COLLECTION BOX - PO LOBBY", "address": {"city": "OKLAHOMA CITY", "state": "OK", "street": "3022 NW 39TH EXPY", "postcode": "73112"}}},
{"geometry": {"type": "Point", "coordinates": [-97.5815855361, 35.5282954245]}, "type": "Feature", "properties": {"collection_times": [{"days": "Mon-Fri", "time": "4:30pm"}, {"days": "Sat-Sun", "time": "Closed"}], "id": "7311200135", "name": "USPS COLLECTION BOX - BLUE BOX", "address": {"city": "OKLAHOMA CITY", "state": "OK", "street": "3625 NW 56TH ST", "postcode": "73112"}}},
{"geometry": {"type": "Point", "coordinates": [-97.5767223918, 35.5256538771]}, "type": "Feature", "properties": {"collection_times": [{"days": "Mon-Fri", "time": "3:30pm"}, {"days": "Sat-Sun", "time": "Closed"}], "id": "7311200137", "name": "USPS COLLECTION BOX - BLUE BOX", "address": {"city": "OKLAHOMA CITY", "state": "OK", "street": "5400 N GRAND BLVD", "postcode": "73112"}}},
{"geometry": {"type": "Point", "coordinates": [-97.5684200141, 35.5110649917]}, "type": "Feature", "properties": {"collection_times": [{"days": "Mon-Fri", "time": "5:00pm"}, {"days": "Sat", "time": "4:30pm"}, {"days": "Sun", "time": "Closed"}], "id": "7311200138", "name": "USPS COLLECTION BOX - PO LOBBY", "address": {"city": "OKLAHOMA CITY", "state": "OK", "street": "3022 NW 39TH EXPY", "postcode": "73112"}}},
{"geometry": {"type": "Point", "coordinates": [-97.5684200141, 35.5110649917]}, "type": "Feature", "properties": {"collection_times": [{"days": "Mon-Fri", "time": "5:00pm"}, {"days": "Sat", "time": "4:30pm"}, {"days": "Sun", "time": "Closed"}], "id": "7311200139", "name": "USPS COLLECTION BOX - PO LOBBY", "address": {"city": "OKLAHOMA CITY", "state": "OK", "street": "3022 NW 39TH EXPY", "postcode": "73112"}}},
{"geometry": {"type": "Point", "coordinates": [-97.5808402719, 35.5299148953]}, "type": "Feature", "properties": {"collection_times": [{"days": "Mon-Fri", "time": "4:15pm"}, {"days": "Sat-Sun", "time": "Closed"}], "id": "7311200140", "name": "USPS COLLECTION BOX - BLUE BOX", "address": {"city": "OKLAHOMA CITY", "state": "OK", "street": "3535 NW 58TH ST", "postcode": "73112"}}},
{"geometry": {"type": "Point", "coordinates": [-97.5808402719, 35.5299148953]}, "type": "Feature", "properties": {"collection_times": [{"days": "Mon-Fri", "time": "4:15pm"}, {"days": "Sat-Sun", "time": "Closed"}], "id": "7311200141", "name": "USPS COLLECTION BOX - BLUE BOX", "address": {"city": "OKLAHOMA CITY", "state": "OK", "street": "3535 NW 58TH ST", "postcode": "73112"}}},
{"geometry": {"type": "Point", "coordinates": [-97.5824372665, 35.5299255419]}, "type": "Feature", "properties": {"collection_times": [{"days": "Mon-Fri", "time": "4:15pm"}, {"days": "Sat-Sun", "time": "Closed"}], "id": "7311200142", "name": "USPS COLLECTION BOX - BLUE BOX", "address": {"city": "OKLAHOMA CITY", "state": "OK", "street": "3545 NW 58TH ST", "postcode": "73112"}}},
{"geometry": {"type": "Point", "coordinates": [-97.5824372665, 35.5299255419]}, "type": "Feature", "properties": {"collection_times": [{"days": "Mon-Fri", "time": "4:15pm"}, {"days": "Sat-Sun", "time": "Closed"}], "id": "7311200143", "name": "USPS COLLECTION BOX - BLUE BOX", "address": {"city": "OKLAHOMA CITY", "state": "OK", "street": "3545 NW 58TH ST", "postcode": "73112"}}},
{"geometry": {"type": "Point", "coordinates": [-97.5826774072, 35.5299279079]}, "type": "Feature", "properties": {"collection_times": [{"days": "Mon-Fri", "time": "4:15pm"}, {"days": "Sat-Sun", "time": "Closed"}], "id": "7311200144", "name": "USPS COLLECTION BOX - BLUE BOX", "address": {"city": "OKLAHOMA CITY", "state": "OK", "street": "3555 NW 58TH ST", "postcode": "73112"}}},
{"geometry": {"type": "Point", "coordinates": [-97.5826774072, 35.5299279079]}, "type": "Feature", "properties": {"collection_times": [{"days": "Mon-Fri", "time": "4:15pm"}, {"days": "Sat-Sun", "time": "Closed"}], "id": "7311200145", "name": "USPS COLLECTION BOX - BLUE BOX", "address": {"city": "OKLAHOMA CITY", "state": "OK", "street": "3555 NW 58TH ST", "postcode": "73112"}}},
{"geometry": {"type": "Point", "coordinates": [-97.5653056548, 35.5279109628]}, "type": "Feature", "properties": {"collection_times": [{"days": "Mon-Fri", "time": "4:15pm"}, {"days": "Sat-Sun", "time": "Closed"}], "id": "7311200148", "name": "USPS COLLECTION BOX - BLUE BOX", "address": {"city": "OKLAHOMA CITY", "state": "OK", "street": "5600 N MAY AVE", "postcode": "73112"}}},
{"geometry": {"type": "Point", "coordinates": [-97.5948262456, 35.5141272254]}, "type": "Feature", "properties": {"collection_times": [{"days": "Mon-Fri", "time": "3:45pm"}, {"days": "Sat-Sun", "time": "Closed"}], "id": "7311200149", "name": "USPS COLLECTION BOX - BLUE BOX", "address": {"city": "OKLAHOMA CITY", "state": "OK", "street": "4200 PERIMETER CENTER DR", "postcode": "73112"}}},
{"geometry": {"type": "Point", "coordinates": [-97.6012608655, 35.5143506081]}, "type": "Feature", "properties": {"collection_times": [{"days": "Mon-Fri", "time": "3:45pm"}, {"days": "Sat-Sun", "time": "Closed"}], "id": "7311200150", "name": "USPS COLLECTION BOX - BLUE BOX", "address": {"city": "OKLAHOMA CITY", "state": "OK", "street": "4235 N MERIDIAN AVE", "postcode": "73112"}}},
{"geometry": {"type": "Point", "coordinates": [-97.5684200141, 35.5110649917]}, "type": "Feature", "properties": {"collection_times": [{"days": "Mon-Fri", "time": "5:00pm"}, {"days": "Sat", "time": "4:30pm"}, {"days": "Sun", "time": "Closed"}], "id": "7311200155", "name": "USPS COLLECTION BOX - APC", "address": {"city": "OKLAHOMA CITY", "state": "OK", "street": "3022 NW 39TH EXPY", "postcode": "73112"}}},
{"geometry": {"type": "Point", "coordinates": [-97.5858110655, 35.5350643157]}, "type": "Feature", "properties": {"collection_times": [{"days": "Mon-Fri", "time": "4:15pm"}, {"days": "Sat-Sun", "time": "Closed"}], "id": "7311200156", "name": "USPS COLLECTION BOX - BLUE BOX", "address": {"city": "OKLAHOMA CITY", "state": "OK", "street": "3817 NW EXPRESSWAY", "postcode": "73112"}}},
{"geometry": {"type": "Point", "coordinates": [-97.5858110655, 35.5350643157]}, "type": "Feature", "properties": {"collection_times": [{"days": "Mon-Fri", "time": "4:15pm"}, {"days": "Sat-Sun", "time": "Closed"}], "id": "7311200157", "name": "USPS COLLECTION BOX - BLUE BOX", "address": {"city": "OKLAHOMA CITY", "state": "OK", "street": "3817 NW EXPRESSWAY", "postcode": "73112"}}},
{"geometry": {"type": "Point", "coordinates": [-97.5834965083, 35.5252354026]}, "type": "Feature", "properties": {"collection_times": [{"days": "Mon-Fri", "time": "4:00pm"}, {"days": "Sat-Sun", "time": "Closed"}], "id": "7311200159", "name": "USPS COLLECTION BOX - BLUE BOX", "address": {"city": "OKLAHOMA CITY", "state": "OK", "street": "5401 N PORTLAND AVE", "postcode": "73112"}}},
{"geometry": {"type": "Point", "coordinates": [-97.5948262456, 35.5141272254]}, "type": "Feature", "properties": {"collection_times": [{"days": "Mon-Fri", "time": "3:45pm"}, {"days": "Sat-Sun", "time": "Closed"}], "id": "7311200160", "name": "USPS COLLECTION BOX - BLUE BOX", "address": {"city": "OKLAHOMA CITY", "state": "OK", "street": "4200 PERIMETER CENTER DR", "postcode": "73112"}}},
{"geometry": {"type": "Point", "coordinates": [-97.5081379799, 35.5655882059]}, "type": "Feature", "properties": {"collection_times": [{"days": "Mon-Fri", "time": "5:00pm"}, {"days": "Sat", "time": "3:45pm"}, {"days": "Sun", "time": "Closed"}], "id": "7311400000", "name": "USPS COLLECTION BOX - BLUE BOX", "address": {"city": "OKLAHOMA CITY", "state": "OK", "street": "301 W BRITTON RD", "postcode": "73114"}}},
{"geometry": {"type": "Point", "coordinates": [-97.5081379799, 35.5655882059]}, "type": "Feature", "properties": {"collection_times": [{"days": "Mon-Fri", "time": "5:00pm"}, {"days": "Sat", "time": "3:45pm"}, {"days": "Sun", "time": "Closed"}], "id": "7311400001", "name": "USPS COLLECTION BOX - BLUE BOX", "address": {"city": "OKLAHOMA CITY", "state": "OK", "street": "301 W BRITTON RD", "postcode": "73114"}}},
{"geometry": {"type": "Point", "coordinates": [-97.5126001011, 35.566075585]}, "type": "Feature", "properties": {"collection_times": [{"days": "Mon-Fri", "time": "4:45pm"}, {"days": "Sat-Sun", "time": "Closed"}], "id": "7311400005", "name": "USPS COLLECTION BOX - BLUE BOX", "address": {"city": "OKLAHOMA CITY", "state": "OK", "street": "9400 BROADWAY EXT", "postcode": "73114"}}},
{"geometry": {"type": "Point", "coordinates": [-97.5126001011, 35.566075585]}, "type": "Feature", "properties": {"collection_times": [{"days": "Mon-Fri", "time": "4:45pm"}, {"days": "Sat-Sun", "time": "Closed"}], "id": "7311400007", "name": "USPS COLLECTION BOX - BLUE BOX", "address": {"city": "OKLAHOMA CITY", "state": "OK", "street": "9400 BROADWAY EXT", "postcode": "73114"}}},
{"geometry": {"type": "Point", "coordinates": [-97.4999512208, 35.567248614]}, "type": "Feature", "properties": {"collection_times": [{"days": "Mon-Fri", "time": "4:30pm"}, {"days": "Sat-Sun", "time": "Closed"}], "id": "7311400009", "name": "USPS COLLECTION BOX - BLUE BOX", "address": {"city": "OKLAHOMA CITY", "state": "OK", "street": "701 CEDAR LAKE BLVD", "postcode": "73114"}}},
{"geometry": {"type": "Point", "coordinates": [-97.50431653, 35.6091006915]}, "type": "Feature", "properties": {"collection_times": [{"days": "Mon-Fri", "time": "3:45pm"}, {"days": "Sat-Sun", "time": "Closed"}], "id": "7311400012", "name": "USPS COLLECTION BOX - BLUE BOX", "address": {"city": "OKLAHOMA CITY", "state": "OK", "street": "520 E MEMORIAL RD", "postcode": "73114"}}},
{"geometry": {"type": "Point", "coordinates": [-97.5081379799, 35.5655882059]}, "type": "Feature", "properties": {"collection_times": [{"days": "Mon-Fri", "time": "5:00pm"}, {"days": "Sat", "time": "3:45pm"}, {"days": "Sun", "time": "Closed"}], "id": "7311400022", "name": "USPS COLLECTION BOX - PO LOBBY", "address": {"city": "OKLAHOMA CITY", "state": "OK", "street": "301 W BRITTON RD", "postcode": "73114"}}},
{"geometry": {"type": "Point", "coordinates": [-97.5302758739, 35.6090725945]}, "type": "Feature", "properties": {"collection_times": [{"days": "Mon-Fri", "time": "4:00pm"}, {"days": "Sat-Sun", "time": "Closed"}], "id": "7311400025", "name": "USPS COLLECTION BOX - BLUE BOX", "address": {"city": "OKLAHOMA CITY", "state": "OK", "street": "1001 W MEMORIAL RD", "postcode": "73114"}}},
{"geometry": {"type": "Point", "coordinates": [-97.5081379799, 35.5655882059]}, "type": "Feature", "properties": {"collection_times": [{"days": "Mon-Fri", "time": "5:00pm"}, {"days": "Sat", "time": "3:45pm"}, {"days": "Sun", "time": "Closed"}], "id": "7311400026", "name": "USPS COLLECTION BOX - PO LOBBY", "address": {"city": "OKLAHOMA CITY", "state": "OK", "street": "301 W BRITTON RD", "postcode": "73114"}}},
{"geometry": {"type": "Point", "coordinates": [-97.4982085126, 35.5660507204]}, "type": "Feature", "properties": {"collection_times": [{"days": "Mon-Fri", "time": "4:30pm"}, {"days": "Sat-Sun", "time": "Closed"}], "id": "7311400028", "name": "USPS COLLECTION BOX - BLUE BOX", "address": {"city": "OKLAHOMA CITY", "state": "OK", "street": "9401 CEDAR LAKE AVE", "postcode": "73114"}}},
{"geometry": {"type": "Point", "coordinates": [-97.4369999458, 35.4362137827]}, "type": "Feature", "properties": {"collection_times": [{"days": "Mon-Fri", "time": "5:00pm"}, {"days": "Sat", "time": "12:00pm"}, {"days": "Sun", "time": "Closed"}], "id": "7311500000", "name": "USPS COLLECTION BOX - BLUE BOX", "address": {"city": "DEL CITY", "state": "OK", "street": "4520 SE 28TH ST", "postcode": "73115"}}},
{"geometry": {"type": "Point", "coordinates": [-97.4369999458, 35.4362137827]}, "type": "Feature", "properties": {"collection_times": [{"days": "Mon-Fri", "time": "5:00pm"}, {"days": "Sat", "time": "12:00pm"}, {"days": "Sun", "time": "Closed"}], "id": "7311500001", "name": "USPS COLLECTION BOX - BLUE BOX", "address": {"city": "DEL CITY", "state": "OK", "street": "4520 SE 28TH ST", "postcode": "73115"}}},
{"geometry": {"type": "Point", "coordinates": [-97.4337961067, 35.435253336]}, "type": "Feature", "properties": {"collection_times": [{"days": "Mon-Fri", "time": "4:15pm"}, {"days": "Sat-Sun", "time": "Closed"}], "id": "7311500003", "name": "USPS COLLECTION BOX - BLUE BOX", "address": {"city": "DEL CITY", "state": "OK", "street": "4600 SE 29TH ST", "postcode": "73115"}}},
{"geometry": {"type": "Point", "coordinates": [-97.4367972736, 35.4362635829]}, "type": "Feature", "properties": {"collection_times": [{"days": "Mon-Fri", "time": "5:00pm"}, {"days": "Sat-Sun", "time": "Closed"}], "id": "7311500018", "name": "USPS COLLECTION BOX - PO LOBBY", "address": {"city": "DEL CITY", "state": "OK", "street": "4500 SE 28TH ST", "postcode": "73115"}}},
{"geometry": {"type": "Point", "coordinates": [-97.5337251702, 35.5417678857]}, "type": "Feature", "properties": {"collection_times": [{"days": "Mon-Fri", "time": "4:30pm"}, {"days": "Sat-Sun", "time": "Closed"}], "id": "7311600006", "name": "USPS COLLECTION BOX - BLUE BOX", "address": {"city": "NICHOLS HILLS", "state": "OK", "street": "1212 BEDFORD DR", "postcode": "73116"}}},
{"geometry": {"type": "Point", "coordinates": [-97.5143485144, 35.5411991409]}, "type": "Feature", "properties": {"collection_times": [{"days": "Mon-Fri", "time": "4:00pm"}, {"days": "Sat-Sun", "time": "Closed"}], "id": "7311600009", "name": "USPS COLLECTION BOX - BLUE BOX", "address": {"city": "NICHOLS HILLS", "state": "OK", "street": "6801 BROADWAY EXT", "postcode": "73116"}}},
{"geometry": {"type": "Point", "coordinates": [-97.514304745, 35.5450958077]}, "type": "Feature", "properties": {"collection_times": [{"days": "Mon-Fri", "time": "3:45pm"}, {"days": "Sat-Sun", "time": "Closed"}], "id": "7311600011", "name": "USPS COLLECTION BOX - BLUE BOX", "address": {"city": "NICHOLS HILLS", "state": "OK", "street": "7301 BROADWAY EXT", "postcode": "73116"}}},
{"geometry": {"type": "Point", "coordinates": [-97.5143627099, 35.5399641317]}, "type": "Feature", "properties": {"collection_times": [{"days": "Mon-Fri", "time": "4:00pm"}, {"days": "Sat-Sun", "time": "Closed"}], "id": "7311600014", "name": "USPS COLLECTION BOX - BLUE BOX", "address": {"city": "NICHOLS HILLS", "state": "OK", "street": "6701 BROADWAY EXT", "postcode": "73116"}}},
{"geometry": {"type": "Point", "coordinates": [-97.5774101723, 35.536738233]}, "type": "Feature", "properties": {"collection_times": [{"days": "Mon-Fri", "time": "4:15pm"}, {"days": "Sat-Sun", "time": "Closed"}], "id": "7311600017", "name": "USPS COLLECTION BOX - BLUE BOX", "address": {"city": "NICHOLS HILLS", "state": "OK", "street": "3401 NW 63RD ST", "postcode": "73116"}}},
{"geometry": {"type": "Point", "coordinates": [-97.5913693357, 35.5375763918]}, "type": "Feature", "properties": {"collection_times": [{"days": "Mon-Fri", "time": "4:15pm"}, {"days": "Sat-Sun", "time": "Closed"}], "id": "7311600020", "name": "USPS COLLECTION BOX - BLUE BOX", "address": {"city": "NICHOLS HILLS", "state": "OK", "street": "4045 NW EXPRESSWAY", "postcode": "73116"}}},
{"geometry": {"type": "Point", "coordinates": [-97.5913693357, 35.5375763918]}, "type": "Feature", "properties": {"collection_times": [{"days": "Mon-Fri", "time": "4:15pm"}, {"days": "Sat-Sun", "time": "Closed"}], "id": "7311600021", "name": "USPS COLLECTION BOX - BLUE BOX", "address": {"city": "NICHOLS HILLS", "state": "OK", "street": "4045 NW EXPRESSWAY", "postcode": "73116"}}},
{"geometry": {"type": "Point", "coordinates": [-97.5933978259, 35.5384527513]}, "type": "Feature", "properties": {"collection_times": [{"days": "Mon-Fri", "time": "4:15pm"}, {"days": "Sat-Sun", "time": "Closed"}], "id": "7311600023", "name": "USPS COLLECTION BOX - BLUE BOX", "address": {"city": "NICHOLS HILLS", "state": "OK", "street": "4141 NW EXPRESSWAY", "postcode": "73116"}}},
{"geometry": {"type": "Point", "coordinates": [-97.5153825963, 35.539530497]}, "type": "Feature", "properties": {"collection_times": [{"days": "Mon-Fri", "time": "4:00pm"}, {"days": "Sat-Sun", "time": "Closed"}], "id": "7311600038", "name": "USPS COLLECTION BOX - BLUE BOX", "address": {"city": "NICHOLS HILLS", "state": "OK", "street": "202 NW 66TH ST", "postcode": "73116"}}},
{"geometry": {"type": "Point", "coordinates": [-97.5153825963, 35.539530497]}, "type": "Feature", "properties": {"collection_times": [{"days": "Mon-Fri", "time": "4:00pm"}, {"days": "Sat-Sun", "time": "Closed"}], "id": "7311600042", "name": "USPS COLLECTION BOX - BLUE BOX", "address": {"city": "NICHOLS HILLS", "state": "OK", "street": "202 NW 66TH ST", "postcode": "73116"}}},
{"geometry": {"type": "Point", "coordinates": [-97.5325696314, 35.5368470349]}, "type": "Feature", "properties": {"collection_times": [{"days": "Mon-Fri", "time": "4:15pm"}, {"days": "Sat-Sun", "time": "Closed"}], "id": "7311600050", "name": "USPS COLLECTION BOX - BLUE BOX", "address": {"city": "NICHOLS HILLS", "state": "OK", "street": "1144 NW 63RD ST", "postcode": "73116"}}},
{"geometry": {"type": "Point", "coordinates": [-97.5721739146, 35.5366624933]}, "type": "Feature", "properties": {"collection_times": [{"days": "Mon-Fri", "time": "4:00pm"}, {"days": "Sat-Sun", "time": "Closed"}], "id": "7311600052", "name": "USPS COLLECTION BOX - BLUE BOX", "address": {"city": "NICHOLS HILLS", "state": "OK", "street": "3141 NW 63RD ST", "postcode": "73116"}}},
{"geometry": {"type": "Point", "coordinates": [-97.5858228951, 35.5368281075]}, "type": "Feature", "properties": {"collection_times": [{"days": "Mon-Fri", "time": "4:15pm"}, {"days": "Sat-Sun", "time": "Closed"}], "id": "7311600053", "name": "USPS COLLECTION BOX - BLUE BOX", "address": {"city": "NICHOLS HILLS", "state": "OK", "street": "3727 NW 63RD ST", "postcode": "73116"}}},
{"geometry": {"type": "Point", "coordinates": [-97.5861788602, 35.5368863422]}, "type": "Feature", "properties": {"collection_times": [{"days": "Mon-Fri", "time": "4:15pm"}, {"days": "Sat-Sun", "time": "Closed"}], "id": "7311600054", "name": "USPS COLLECTION BOX - BLUE BOX", "address": {"city": "NICHOLS HILLS", "state": "OK", "street": "3801 NW 63RD ST", "postcode": "73116"}}},
{"geometry": {"type": "Point", "coordinates": [-97.5955074065, 35.5369090094]}, "type": "Feature", "properties": {"collection_times": [{"days": "Mon-Fri", "time": "4:45pm"}, {"days": "Sat-Sun", "time": "Closed"}], "id": "7311600055", "name": "USPS COLLECTION BOX - BLUE BOX", "address": {"city": "NICHOLS HILLS", "state": "OK", "street": "4247 NW 63RD ST", "postcode": "73116"}}},
{"geometry": {"type": "Point", "coordinates": [-97.5983468817, 35.5368588644]}, "type": "Feature", "properties": {"collection_times": [{"days": "Mon-Fri", "time": "4:45pm"}, {"days": "Sat-Sun", "time": "Closed"}], "id": "7311600057", "name": "USPS COLLECTION BOX - BLUE BOX", "address": {"city": "NICHOLS HILLS", "state": "OK", "street": "4323 NW 63RD ST", "postcode": "73116"}}},
{"geometry": {"type": "Point", "coordinates": [-97.5692451829, 35.5366422588]}, "type": "Feature", "properties": {"collection_times": [{"days": "Mon-Fri", "time": "4:00pm"}, {"days": "Sat-Sun", "time": "Closed"}], "id": "7311600059", "name": "USPS COLLECTION BOX - BLUE BOX", "address": {"city": "NICHOLS HILLS", "state": "OK", "street": "3037 NW 63RD ST", "postcode": "73116"}}},
{"geometry": {"type": "Point", "coordinates": [-97.5297507742, 35.5510453836]}, "type": "Feature", "properties": {"collection_times": [{"days": "Mon-Fri", "time": "3:45pm"}, {"days": "Sat-Sun", "time": "Closed"}], "id": "7311600065", "name": "USPS COLLECTION BOX - BLUE BOX", "address": {"city": "NICHOLS HILLS", "state": "OK", "street": "1000 W WILSHIRE BLVD", "postcode": "73116"}}},
{"geometry": {"type": "Point", "coordinates": [-97.5157083448, 35.5510631164]}, "type": "Feature", "properties": {"collection_times": [{"days": "Mon-Fri", "time": "3:45pm"}, {"days": "Sat-Sun", "time": "Closed"}], "id": "7311600069", "name": "USPS COLLECTION BOX - BLUE BOX", "address": {"city": "NICHOLS HILLS", "state": "OK", "street": "200 W WILSHIRE BLVD", "postcode": "73116"}}},
{"geometry": {"type": "Point", "coordinates": [-97.5692451829, 35.5366422588]}, "type": "Feature", "properties": {"collection_times": [{"days": "Mon-Fri", "time": "4:00pm"}, {"days": "Sat-Sun", "time": "Closed"}], "id": "7311600072", "name": "USPS COLLECTION BOX - BLUE BOX", "address": {"city": "NICHOLS HILLS", "state": "OK", "street": "3037 NW 63RD ST", "postcode": "73116"}}},
{"geometry": {"type": "Point", "coordinates": [-97.5635123596, 35.536445931]}, "type": "Feature", "properties": {"collection_times": [{"days": "Mon-Fri", "time": "3:45pm"}, {"days": "Sat-Sun", "time": "Closed"}], "id": "7311600077", "name": "USPS COLLECTION BOX - BLUE BOX", "address": {"city": "NICHOLS HILLS", "state": "OK", "street": "2844 NW 63RD ST", "postcode": "73116"}}},
{"geometry": {"type": "Point", "coordinates": [-97.5151106556, 35.5368332509]}, "type": "Feature", "properties": {"collection_times": [{"days": "Mon-Fri", "time": "4:15pm"}, {"days": "Sat-Sun", "time": "Closed"}], "id": "7311600078", "name": "USPS COLLECTION BOX - BLUE BOX", "address": {"city": "NICHOLS HILLS", "state": "OK", "street": "100 NW 63RD ST", "postcode": "73116"}}},
{"geometry": {"type": "Point", "coordinates": [-97.5184344547, 35.5369073658]}, "type": "Feature", "properties": {"collection_times": [{"days": "Mon-Fri", "time": "4:15pm"}, {"days": "Sat-Sun", "time": "Closed"}], "id": "7311600079", "name": "USPS COLLECTION BOX - BLUE BOX", "address": {"city": "NICHOLS HILLS", "state": "OK", "street": "301 NW 63RD ST", "postcode": "73116"}}},
{"geometry": {"type": "Point", "coordinates": [-97.5184344547, 35.5369073658]}, "type": "Feature", "properties": {"collection_times": [{"days": "Mon-Fri", "time": "4:15pm"}, {"days": "Sat-Sun", "time": "Closed"}], "id": "7311600086", "name": "USPS COLLECTION BOX - BLUE BOX", "address": {"city": "NICHOLS HILLS", "state": "OK", "street": "301 NW 63RD ST", "postcode": "73116"}}},
{"geometry": {"type": "Point", "coordinates": [-97.5566977666, 35.5413839473]}, "type": "Feature", "properties": {"collection_times": [{"days": "Mon-Fri", "time": "4:15pm"}, {"days": "Sat-Sun", "time": "Closed"}], "id": "7311600097", "name": "USPS COLLECTION BOX - BLUE BOX", "address": {"city": "NICHOLS HILLS", "state": "OK", "street": "4013 NW EXPRESSWAY", "postcode": "73116"}}},
{"geometry": {"type": "Point", "coordinates": [-97.5566977666, 35.5413839473]}, "type": "Feature", "properties": {"collection_times": [{"days": "Mon-Fri", "time": "4:15pm"}, {"days": "Sat-Sun", "time": "Closed"}], "id": "7311600101", "name": "USPS COLLECTION BOX - BLUE BOX", "address": {"city": "NICHOLS HILLS", "state": "OK", "street": "4013 NW EXPRESSWAY", "postcode": "73116"}}},
{"geometry": {"type": "Point", "coordinates": [-97.5119637372, 35.53696002]}, "type": "Feature", "properties": {"collection_times": [{"days": "Mon-Fri", "time": "4:15pm"}, {"days": "Sat-Sun", "time": "Closed"}], "id": "7311600109", "name": "USPS COLLECTION BOX - BLUE BOX", "address": {"city": "NICHOLS HILLS", "state": "OK", "street": "6402 N SANTA FE AVE", "postcode": "73116"}}},
{"geometry": {"type": "Point", "coordinates": [-97.5275763616, 35.5372125692]}, "type": "Feature", "properties": {"collection_times": [{"days": "Mon-Fri", "time": "3:45pm"}, {"days": "Sat-Sun", "time": "Closed"}], "id": "7311600110", "name": "USPS COLLECTION BOX - BLUE BOX", "address": {"city": "NICHOLS HILLS", "state": "OK", "street": "1001 NW 63RD ST", "postcode": "73116"}}},
{"geometry": {"type": "Point", "coordinates": [-97.5983468817, 35.5368588644]}, "type": "Feature", "properties": {"collection_times": [{"days": "Mon-Fri", "time": "4:45pm"}, {"days": "Sat-Sun", "time": "Closed"}], "id": "7311600111", "name": "USPS COLLECTION BOX - BLUE BOX", "address": {"city": "NICHOLS HILLS", "state": "OK", "street": "4323 NW 63RD ST", "postcode": "73116"}}},
{"geometry": {"type": "Point", "coordinates": [-97.5566977666, 35.5413839473]}, "type": "Feature", "properties": {"collection_times": [{"days": "Mon-Fri", "time": "4:15pm"}, {"days": "Sat-Sun", "time": "Closed"}], "id": "7311600112", "name": "USPS COLLECTION BOX - BLUE BOX", "address": {"city": "NICHOLS HILLS", "state": "OK", "street": "4141 NW EXPRESSWAY", "postcode": "73116"}}},
{"geometry": {"type": "Point", "coordinates": [-97.5721739146, 35.5366624933]}, "type": "Feature", "properties": {"collection_times": [{"days": "Mon-Fri", "time": "4:00pm"}, {"days": "Sat-Sun", "time": "Closed"}], "id": "7311600118", "name": "USPS COLLECTION BOX - BLUE BOX", "address": {"city": "NICHOLS HILLS", "state": "OK", "street": "3141 NW 63RD ST", "postcode": "73116"}}},
{"geometry": {"type": "Point", "coordinates": [-97.4714357237, 35.4786507579]}, "type": "Feature", "properties": {"collection_times": [{"days": "Mon-Fri", "time": "5:00pm"}, {"days": "Sat", "time": "3:45pm"}, {"days": "Sun", "time": "Closed"}], "id": "7311700001", "name": "USPS COLLECTION BOX - BLUE BOX", "address": {"city": "OKLAHOMA CITY", "state": "OK", "street": "701 N KELLEY AVE", "postcode": "73117"}}},
{"geometry": {"type": "Point", "coordinates": [-97.4714357237, 35.4786507579]}, "type": "Feature", "properties": {"collection_times": [{"days": "Mon-Fri", "time": "4:30pm"}, {"days": "Sat", "time": "3:45pm"}, {"days": "Sun", "time": "Closed"}], "id": "7311700003", "name": "USPS COLLECTION BOX - PO LOBBY", "address": {"city": "OKLAHOMA CITY", "state": "OK", "street": "701 N KELLEY AVE", "postcode": "73117"}}},
{"geometry": {"type": "Point", "coordinates": [-97.5257825044, 35.5241253068]}, "type": "Feature", "properties": {"collection_times": [{"days": "Mon-Fri", "time": "5:00pm"}, {"days": "Sat", "time": "4:00pm"}, {"days": "Sun", "time": "Closed"}], "id": "7311800001", "name": "USPS COLLECTION BOX - BLUE BOX", "address": {"city": "OKLAHOMA CITY", "state": "OK", "street": "5300 N SHARTEL AVE", "postcode": "73118"}}},
{"geometry": {"type": "Point", "coordinates": [-97.5257825044, 35.5241253068]}, "type": "Feature", "properties": {"collection_times": [{"days": "Mon-Fri", "time": "5:00pm"}, {"days": "Sat", "time": "4:00pm"}, {"days": "Sun", "time": "Closed"}], "id": "7311800002", "name": "USPS COLLECTION BOX - BLUE BOX", "address": {"city": "OKLAHOMA CITY", "state": "OK", "street": "5300 N SHARTEL AVE", "postcode": "73118"}}},
{"geometry": {"type": "Point", "coordinates": [-97.5459950327, 35.5347591123]}, "type": "Feature", "properties": {"collection_times": [{"days": "Mon-Fri", "time": "4:45pm"}, {"days": "Sat-Sun", "time": "Closed"}], "id": "7311800010", "name": "USPS COLLECTION BOX - BLUE BOX", "address": {"city": "OKLAHOMA CITY", "state": "OK", "street": "6303 WATERFORD BLVD", "postcode": "73118"}}},
{"geometry": {"type": "Point", "coordinates": [-97.5391822744, 35.5220715846]}, "type": "Feature", "properties": {"collection_times": [{"days": "Mon-Fri", "time": "3:30pm"}, {"days": "Sat-Sun", "time": "Closed"}], "id": "7311800019", "name": "USPS COLLECTION BOX - BLUE BOX", "address": {"city": "OKLAHOMA CITY", "state": "OK", "street": "1601 NW EXPRESSWAY", "postcode": "73118"}}},
{"geometry": {"type": "Point", "coordinates": [-97.5391822744, 35.5220715846]}, "type": "Feature", "properties": {"collection_times": [{"days": "Mon-Fri", "time": "3:30pm"}, {"days": "Sat-Sun", "time": "Closed"}], "id": "7311800021", "name": "USPS COLLECTION BOX - BLUE BOX", "address": {"city": "OKLAHOMA CITY", "state": "OK", "street": "1601 NW EXPRESSWAY", "postcode": "73118"}}},
{"geometry": {"type": "Point", "coordinates": [-97.5344458043, 35.5199969674]}, "type": "Feature", "properties": {"collection_times": [{"days": "Mon-Fri", "time": "3:45pm"}, {"days": "Sat-Sun", "time": "Closed"}], "id": "7311800054", "name": "USPS COLLECTION BOX - BLUE BOX", "address": {"city": "OKLAHOMA CITY", "state": "OK", "street": "4801 N CLASSEN BLVD", "postcode": "73118"}}},
{"geometry": {"type": "Point", "coordinates": [-97.54801, 35.444748]}, "type": "Feature", "properties": {"collection_times": [{"days": "Mon-Fri", "time": "4:45pm"}, {"days": "Sat-Sun", "time": "Closed"}], "id": "7311800060", "name": "USPS COLLECTION BOX - BLUE BOX", "address": {"city": "OKLAHOMA CITY", "state": "OK", "street": "5636 N PENN AVE", "postcode": "73118"}}},
{"geometry": {"type": "Point", "coordinates": [-97.5297433375, 35.528280527]}, "type": "Feature", "properties": {"collection_times": [{"days": "Mon-Fri", "time": "3:45pm"}, {"days": "Sat-Sun", "time": "Closed"}], "id": "7311800061", "name": "USPS COLLECTION BOX - BLUE BOX", "address": {"city": "OKLAHOMA CITY", "state": "OK", "street": "5500 N WESTERN AVE", "postcode": "73118"}}},
{"geometry": {"type": "Point", "coordinates": [-97.5297433375, 35.528280527]}, "type": "Feature", "properties": {"collection_times": [{"days": "Mon-Fri", "time": "3:45pm"}, {"days": "Sat-Sun", "time": "Closed"}], "id": "7311800062", "name": "USPS COLLECTION BOX - BLUE BOX", "address": {"city": "OKLAHOMA CITY", "state": "OK", "street": "5500 N WESTERN AVE", "postcode": "73118"}}},
{"geometry": {"type": "Point", "coordinates": [-97.5269221853, 35.532231129]}, "type": "Feature", "properties": {"collection_times": [{"days": "Mon-Fri", "time": "3:45pm"}, {"days": "Sat-Sun", "time": "Closed"}], "id": "7311800063", "name": "USPS COLLECTION BOX - BLUE BOX", "address": {"city": "OKLAHOMA CITY", "state": "OK", "street": "5905 N CLASSEN CT", "postcode": "73118"}}},
{"geometry": {"type": "Point", "coordinates": [-97.5257825044, 35.5241253068]}, "type": "Feature", "properties": {"collection_times": [{"days": "Mon-Fri", "time": "5:00pm"}, {"days": "Sat", "time": "4:00pm"}, {"days": "Sun", "time": "Closed"}], "id": "7311800077", "name": "USPS COLLECTION BOX - PO LOBBY", "address": {"city": "OKLAHOMA CITY", "state": "OK", "street": "5300 N SHARTEL AVE", "postcode": "73118"}}},
{"geometry": {"type": "Point", "coordinates": [-97.5432340064, 35.5225072063]}, "type": "Feature", "properties": {"collection_times": [{"days": "Mon-Sat", "time": "12:30pm"}, {"days": "Sun", "time": "Closed"}], "id": "7311800095", "name": "USPS COLLECTION BOX - BLUE BOX", "address": {"city": "OKLAHOMA CITY", "state": "OK", "street": "1901 NW EXPRESSWAY", "postcode": "73118"}}},
{"geometry": {"type": "Point", "coordinates": [-97.5391822744, 35.5220715846]}, "type": "Feature", "properties": {"collection_times": [{"days": "Mon-Fri", "time": "3:30pm"}, {"days": "Sat-Sun", "time": "Closed"}], "id": "7311800096", "name": "USPS COLLECTION BOX - BLUE BOX", "address": {"city": "OKLAHOMA CITY", "state": "OK", "street": "1601 NW EXPRESSWAY", "postcode": "73118"}}},
{"geometry": {"type": "Point", "coordinates": [-97.5320789651, 35.5164610416]}, "type": "Feature", "properties": {"collection_times": [{"days": "Mon-Fri", "time": "4:00pm"}, {"days": "Sat-Sun", "time": "Closed"}], "id": "7311800099", "name": "USPS COLLECTION BOX - BLUE BOX", "address": {"city": "OKLAHOMA CITY", "state": "OK", "street": "5801 BROADWAY EXT", "postcode": "73118"}}},
{"geometry": {"type": "Point", "coordinates": [-97.555037571, 35.4085231952]}, "type": "Feature", "properties": {"collection_times": [{"days": "Mon-Fri", "time": "4:45pm"}, {"days": "Sat", "time": "12:00pm"}, {"days": "Sun", "time": "Closed"}], "id": "7311900042", "name": "USPS COLLECTION BOX - BLUE BOX", "address": {"city": "OKLAHOMA CITY", "state": "OK", "street": "5701 S AGNEW AVE", "postcode": "73119"}}},
{"geometry": {"type": "Point", "coordinates": [-97.5664365636, 35.4207159533]}, "type": "Feature", "properties": {"collection_times": [{"days": "Mon-Fri", "time": "3:15pm"}, {"days": "Sat-Sun", "time": "Closed"}], "id": "7311900075", "name": "USPS COLLECTION BOX - BLUE BOX", "address": {"city": "OKLAHOMA CITY", "state": "OK", "street": "2901 SW 44TH ST", "postcode": "73119"}}},
{"geometry": {"type": "Point", "coordinates": [-97.555037571, 35.4085231952]}, "type": "Feature", "properties": {"collection_times": [{"days": "Mon-Fri", "time": "4:45pm"}, {"days": "Sat", "time": "12:00pm"}, {"days": "Sun", "time": "Closed"}], "id": "7311900082", "name": "USPS COLLECTION BOX - PO LOBBY", "address": {"city": "OKLAHOMA CITY", "state": "OK", "street": "5701 S AGNEW AVE", "postcode": "73119"}}},
{"geometry": {"type": "Point", "coordinates": [-97.555037571, 35.4085231952]}, "type": "Feature", "properties": {"collection_times": [{"days": "Mon-Fri", "time": "4:45pm"}, {"days": "Sat", "time": "12:00pm"}, {"days": "Sun", "time": "Closed"}], "id": "7311900083", "name": "USPS COLLECTION BOX - PO LOBBY", "address": {"city": "OKLAHOMA CITY", "state": "OK", "street": "5701 S AGNEW AVE", "postcode": "73119"}}},
{"geometry": {"type": "Point", "coordinates": [-97.6010321985, 35.4312797768]}, "type": "Feature", "properties": {"collection_times": [{"days": "Mon-Fri", "time": "4:30pm"}, {"days": "Sat-Sun", "time": "Closed"}], "id": "7311900084", "name": "USPS COLLECTION BOX - BLUE BOX", "address": {"city": "OKLAHOMA CITY", "state": "OK", "street": "3303 S MERIDIAN AVE", "postcode": "73119"}}},
{"geometry": {"type": "Point", "coordinates": [-97.5552554383, 35.5801246402]}, "type": "Feature", "properties": {"collection_times": [{"days": "Mon-Fri", "time": "5:00pm"}, {"days": "Sat", "time": "4:00pm"}, {"days": "Sun", "time": "Closed"}], "id": "7312000014", "name": "USPS COLLECTION BOX - BLUE BOX", "address": {"city": "OKLAHOMA CITY", "state": "OK", "street": "2304 W HEFNER RD", "postcode": "73120"}}},
{"geometry": {"type": "Point", "coordinates": [-97.5552554383, 35.5801246402]}, "type": "Feature", "properties": {"collection_times": [{"days": "Mon-Fri", "time": "5:00pm"}, {"days": "Sat", "time": "4:00pm"}, {"days": "Sun", "time": "Closed"}], "id": "7312000016", "name": "USPS COLLECTION BOX - BLUE BOX", "address": {"city": "OKLAHOMA CITY", "state": "OK", "street": "2304 W HEFNER RD", "postcode": "73120"}}},
{"geometry": {"type": "Point", "coordinates": [-97.5671605345, 35.5679742341]}, "type": "Feature", "properties": {"collection_times": [{"days": "Mon-Fri", "time": "4:30pm"}, {"days": "Sat-Sun", "time": "Closed"}], "id": "7312000023", "name": "USPS COLLECTION BOX - BLUE BOX", "address": {"city": "OKLAHOMA CITY", "state": "OK", "street": "9520 N MAY AVE", "postcode": "73120"}}},
{"geometry": {"type": "Point", "coordinates": [-97.5670439245, 35.5813786686]}, "type": "Feature", "properties": {"collection_times": [{"days": "Mon-Fri", "time": "4:15pm"}, {"days": "Sat-Sun", "time": "Closed"}], "id": "7312000025", "name": "USPS COLLECTION BOX - BLUE BOX", "address": {"city": "OKLAHOMA CITY", "state": "OK", "street": "10942 N MAY AVE", "postcode": "73120"}}},
{"geometry": {"type": "Point", "coordinates": [-97.5671581685, 35.5974724988]}, "type": "Feature", "properties": {"collection_times": [{"days": "Mon-Fri", "time": "4:00pm"}, {"days": "Sat-Sun", "time": "Closed"}], "id": "7312000029", "name": "USPS COLLECTION BOX - BLUE BOX", "address": {"city": "OKLAHOMA CITY", "state": "OK", "street": "12516 N MAY AVE", "postcode": "73120"}}},
{"geometry": {"type": "Point", "coordinates": [-97.5671581685, 35.5847000909]}, "type": "Feature", "properties": {"collection_times": [{"days": "Mon-Fri", "time": "4:15pm"}, {"days": "Sat-Sun", "time": "Closed"}], "id": "7312000030", "name": "USPS COLLECTION BOX - BLUE BOX", "address": {"city": "OKLAHOMA CITY", "state": "OK", "street": "11212 N MAY AVE", "postcode": "73120"}}},
{"geometry": {"type": "Point", "coordinates": [-97.5949458746, 35.5946475928]}, "type": "Feature", "properties": {"collection_times": [{"days": "Mon-Fri", "time": "4:45pm"}, {"days": "Sat-Sun", "time": "Closed"}], "id": "7312000031", "name": "USPS COLLECTION BOX - BLUE BOX", "address": {"city": "OKLAHOMA CITY", "state": "OK", "street": "4117 NW 122ND ST", "postcode": "73120"}}},
{"geometry": {"type": "Point", "coordinates": [-97.5689811083, 35.5817758163]}, "type": "Feature", "properties": {"collection_times": [{"days": "Mon-Fri", "time": "4:15pm"}, {"days": "Sat-Sun", "time": "Closed"}], "id": "7312000040", "name": "USPS COLLECTION BOX - BLUE BOX", "address": {"city": "OKLAHOMA CITY", "state": "OK", "street": "11032 QUAIL CREEK RD", "postcode": "73120"}}},
{"geometry": {"type": "Point", "coordinates": [-97.5671257798, 35.5844820568]}, "type": "Feature", "properties": {"collection_times": [{"days": "Mon-Fri", "time": "3:45pm"}, {"days": "Sat-Sun", "time": "Closed"}], "id": "7312000044", "name": "USPS COLLECTION BOX - BLUE BOX", "address": {"city": "OKLAHOMA CITY", "state": "OK", "street": "12024 N PENN AVE", "postcode": "73120"}}},
{"geometry": {"type": "Point", "coordinates": [-97.5713493922, 35.5656781107]}, "type": "Feature", "properties": {"collection_times": [{"days": "Mon-Fri", "time": "4:30pm"}, {"days": "Sat-Sun", "time": "Closed"}], "id": "7312000047", "name": "USPS COLLECTION BOX - BLUE BOX", "address": {"city": "OKLAHOMA CITY", "state": "OK", "street": "3240 W BRITTON RD", "postcode": "73120"}}},
{"geometry": {"type": "Point", "coordinates": [-97.5984462502, 35.6056727704]}, "type": "Feature", "properties": {"collection_times": [{"days": "Mon-Fri", "time": "4:30pm"}, {"days": "Sat-Sun", "time": "Closed"}], "id": "7312000049", "name": "USPS COLLECTION BOX - BLUE BOX", "address": {"city": "OKLAHOMA CITY", "state": "OK", "street": "4300 MCAULEY BLVD", "postcode": "73120"}}},
{"geometry": {"type": "Point", "coordinates": [-97.5689811083, 35.5817758163]}, "type": "Feature", "properties": {"collection_times": [{"days": "Mon-Fri", "time": "4:15pm"}, {"days": "Sat-Sun", "time": "Closed"}], "id": "7312000058", "name": "USPS COLLECTION BOX - BLUE BOX", "address": {"city": "OKLAHOMA CITY", "state": "OK", "street": "11032 QUAIL CREEK RD", "postcode": "73120"}}},
{"geometry": {"type": "Point", "coordinates": [-97.5671581685, 35.5974724988]}, "type": "Feature", "properties": {"collection_times": [{"days": "Mon-Fri", "time": "4:00pm"}, {"days": "Sat-Sun", "time": "Closed"}], "id": "7312000060", "name": "USPS COLLECTION BOX - BLUE BOX", "address": {"city": "OKLAHOMA CITY", "state": "OK", "street": "12516 N MAY AVE", "postcode": "73120"}}},
{"geometry": {"type": "Point", "coordinates": [-97.5552554383, 35.5801246402]}, "type": "Feature", "properties": {"collection_times": [{"days": "Mon-Fri", "time": "5:00pm"}, {"days": "Sat", "time": "4:00pm"}, {"days": "Sun", "time": "Closed"}], "id": "7312000061", "name": "USPS COLLECTION BOX - PO LOBBY", "address": {"city": "OKLAHOMA CITY", "state": "OK", "street": "2304 W HEFNER RD", "postcode": "73120"}}},
{"geometry": {"type": "Point", "coordinates": [-97.5949458746, 35.5946475928]}, "type": "Feature", "properties": {"collection_times": [{"days": "Mon-Fri", "time": "4:45pm"}, {"days": "Sat-Sun", "time": "Closed"}], "id": "7312000062", "name": "USPS COLLECTION BOX - BLUE BOX", "address": {"city": "OKLAHOMA CITY", "state": "OK", "street": "4117 NW 122ND ST", "postcode": "73120"}}},
{"geometry": {"type": "Point", "coordinates": [-97.5552554383, 35.5801246402]}, "type": "Feature", "properties": {"collection_times": [{"days": "Mon-Fri", "time": "5:00pm"}, {"days": "Sat", "time": "4:00pm"}, {"days": "Sun", "time": "Closed"}], "id": "7312000063", "name": "USPS COLLECTION BOX - PO LOBBY", "address": {"city": "OKLAHOMA CITY", "state": "OK", "street": "2304 W HEFNER RD", "postcode": "73120"}}},
{"geometry": {"type": "Point", "coordinates": [-97.5552554383, 35.5801246402]}, "type": "Feature", "properties": {"collection_times": [{"days": "Mon-Fri", "time": "5:00pm"}, {"days": "Sat", "time": "4:00pm"}, {"days": "Sun", "time": "Closed"}], "id": "7312000064", "name": "USPS COLLECTION BOX - PO LOBBY", "address": {"city": "OKLAHOMA CITY", "state": "OK", "street": "2304 W HEFNER RD", "postcode": "73120"}}},
{"geometry": {"type": "Point", "coordinates": [-97.5984048467, 35.6090311909]}, "type": "Feature", "properties": {"collection_times": [{"days": "Mon-Fri", "time": "4:00pm"}, {"days": "Sat-Sun", "time": "Closed"}], "id": "7312000065", "name": "USPS COLLECTION BOX - BLUE BOX", "address": {"city": "OKLAHOMA CITY", "state": "OK", "street": "4140 W MEMORIAL RD", "postcode": "73120"}}},
{"geometry": {"type": "Point", "coordinates": [-97.5850727843, 35.5829919303]}, "type": "Feature", "properties": {"collection_times": [{"days": "Mon-Fri", "time": "4:45pm"}, {"days": "Sat-Sun", "time": "Closed"}], "id": "7312000069", "name": "USPS COLLECTION BOX - BLUE BOX", "address": {"city": "OKLAHOMA CITY", "state": "OK", "street": "11101 N PORTLAND AVE", "postcode": "73120"}}},
{"geometry": {"type": "Point", "coordinates": [-97.5984048467, 35.6090311909]}, "type": "Feature", "properties": {"collection_times": [{"days": "Mon-Fri", "time": "4:00pm"}, {"days": "Sat-Sun", "time": "Closed"}], "id": "7312000070", "name": "USPS COLLECTION BOX - BLUE BOX", "address": {"city": "OKLAHOMA CITY", "state": "OK", "street": "4140 W MEMORIAL RD", "postcode": "73120"}}},
{"geometry": {"type": "Point", "coordinates": [-97.5984048467, 35.6090311909]}, "type": "Feature", "properties": {"collection_times": [{"days": "Mon-Fri", "time": "4:00pm"}, {"days": "Sat-Sun", "time": "Closed"}], "id": "7312000071", "name": "USPS COLLECTION BOX - BLUE BOX", "address": {"city": "OKLAHOMA CITY", "state": "OK", "street": "4140 W MEMORIAL RD", "postcode": "73120"}}},
{"geometry": {"type": "Point", "coordinates": [-97.5984048467, 35.6090311909]}, "type": "Feature", "properties": {"collection_times": [{"days": "Mon-Fri", "time": "4:00pm"}, {"days": "Sat-Sun", "time": "Closed"}], "id": "7312000072", "name": "USPS COLLECTION BOX - BLUE BOX", "address": {"city": "OKLAHOMA CITY", "state": "OK", "street": "4140 W MEMORIAL RD", "postcode": "73120"}}},
{"geometry": {"type": "Point", "coordinates": [-97.5552554383, 35.5801246402]}, "type": "Feature", "properties": {"collection_times": [{"days": "Mon-Fri", "time": "5:00pm"}, {"days": "Sat", "time": "4:00pm"}, {"days": "Sun", "time": "Closed"}], "id": "7312000076", "name": "USPS COLLECTION BOX - APC", "address": {"city": "OKLAHOMA CITY", "state": "OK", "street": "2304 W HEFNER RD", "postcode": "73120"}}},
{"geometry": {"type": "Point", "coordinates": [-97.5713493922, 35.5656781107]}, "type": "Feature", "properties": {"collection_times": [{"days": "Mon-Fri", "time": "4:30pm"}, {"days": "Sat-Sun", "time": "Closed"}], "id": "7312000077", "name": "USPS COLLECTION BOX - BLUE BOX", "address": {"city": "OKLAHOMA CITY", "state": "OK", "street": "3240 W BRITTON RD", "postcode": "73120"}}},
{"geometry": {"type": "Point", "coordinates": [-97.6190349321, 35.5080233202]}, "type": "Feature", "properties": {"collection_times": [{"days": "Mon-Fri", "time": "3:30pm"}, {"days": "Sat-Sun", "time": "Closed"}], "id": "7312200007", "name": "USPS COLLECTION BOX - BLUE BOX", "address": {"city": "WARR ACRES", "state": "OK", "street": "3701 N MACARTHUR BLVD", "postcode": "73122"}}},
{"geometry": {"type": "Point", "coordinates": [-97.5906886641, 35.4644196607]}, "type": "Feature", "properties": {"collection_times": [{"days": "Mon-Sat", "time": "9:15pm"}, {"days": "Sun", "time": "Closed"}], "id": "7312500001", "name": "USPS COLLECTION BOX - BLUE BOX", "address": {"city": "OKLAHOMA CITY", "state": "OK", "street": "4025 W RENO AVE", "postcode": "73125"}}},
{"geometry": {"type": "Point", "coordinates": [-97.5906886641, 35.4644196607]}, "type": "Feature", "properties": {"collection_times": [{"days": "Mon-Sat", "time": "5:00pm"}, {"days": "Sun", "time": "Closed"}], "id": "7312500012", "name": "USPS COLLECTION BOX - BLUE BOX", "address": {"city": "OKLAHOMA CITY", "state": "OK", "street": "4025 W RENO AVE", "postcode": "73125"}}},
{"geometry": {"type": "Point", "coordinates": [-97.5906886641, 35.4644196607]}, "type": "Feature", "properties": {"collection_times": [{"days": "Mon-Fri", "time": "5:00pm"}, {"days": "Sat-Sun", "time": "Closed"}], "id": "7312500013", "name": "USPS COLLECTION BOX - APC", "address": {"city": "OKLAHOMA CITY", "state": "OK", "street": "4025 W RENO AVE", "postcode": "73125"}}},
{"geometry": {"type": "Point", "coordinates": [-97.6194376357, 35.4684822905]}, "type": "Feature", "properties": {"collection_times": [{"days": "Mon-Fri", "time": "4:00pm"}, {"days": "Sat-Sun", "time": "Closed"}], "id": "7312700017", "name": "USPS COLLECTION BOX - BLUE BOX", "address": {"city": "OKLAHOMA CITY", "state": "OK", "street": "5924 NW 2ND ST", "postcode": "73127"}}},
{"geometry": {"type": "Point", "coordinates": [-97.6061310731, 35.4933565128]}, "type": "Feature", "properties": {"collection_times": [{"days": "Mon-Fri", "time": "5:00pm"}, {"days": "Sat-Sun", "time": "Closed"}], "id": "7312700022", "name": "USPS COLLECTION BOX - BLUE BOX", "address": {"city": "OKLAHOMA CITY", "state": "OK", "street": "4615 NW 23RD ST", "postcode": "73127"}}},
{"geometry": {"type": "Point", "coordinates": [-97.6061310731, 35.4933565128]}, "type": "Feature", "properties": {"collection_times": [{"days": "Mon-Fri", "time": "5:00pm"}, {"days": "Sat-Sun", "time": "Closed"}], "id": "7312700023", "name": "USPS COLLECTION BOX - BLUE BOX", "address": {"city": "OKLAHOMA CITY", "state": "OK", "street": "4615 NW 23RD ST", "postcode": "73127"}}},
{"geometry": {"type": "Point", "coordinates": [-97.6331568284, 35.4824004976]}, "type": "Feature", "properties": {"collection_times": [{"days": "Mon-Fri", "time": "5:00pm"}, {"days": "Sat-Sun", "time": "Closed"}], "id": "7312700030", "name": "USPS COLLECTION BOX - BLUE BOX", "address": {"city": "OKLAHOMA CITY", "state": "OK", "street": "7101 NW 10TH ST", "postcode": "73127"}}},
{"geometry": {"type": "Point", "coordinates": [-97.6331568284, 35.4824004976]}, "type": "Feature", "properties": {"collection_times": [{"days": "Mon-Fri", "time": "5:00pm"}, {"days": "Sat-Sun", "time": "Closed"}], "id": "7312700035", "name": "USPS COLLECTION BOX - BLUE BOX", "address": {"city": "OKLAHOMA CITY", "state": "OK", "street": "7101 NW 10TH ST", "postcode": "73127"}}},
{"geometry": {"type": "Point", "coordinates": [-97.4901670424, 35.429773791]}, "type": "Feature", "properties": {"collection_times": [{"days": "Mon-Fri", "time": "4:15pm"}, {"days": "Sat-Sun", "time": "Closed"}], "id": "7312900006", "name": "USPS COLLECTION BOX - BLUE BOX", "address": {"city": "OKLAHOMA CITY", "state": "OK", "street": "1 SE 59TH ST", "postcode": "73129"}}},
{"geometry": {"type": "Point", "coordinates": [-97.4899501132, 35.4178870707]}, "type": "Feature", "properties": {"collection_times": [{"days": "Mon-Fri", "time": "5:00pm"}, {"days": "Sat", "time": "3:30pm"}, {"days": "Sun", "time": "Closed"}], "id": "7312900018", "name": "USPS COLLECTION BOX - BLUE BOX", "address": {"city": "OKLAHOMA CITY", "state": "OK", "street": "4801 S I 35 SERVICE RD", "postcode": "73129"}}},
{"geometry": {"type": "Point", "coordinates": [-97.4900563515, 35.417647251]}, "type": "Feature", "properties": {"collection_times": [{"days": "Mon-Fri", "time": "4:45pm"}, {"days": "Sat", "time": "3:30pm"}, {"days": "Sun", "time": "Closed"}], "id": "7312900022", "name": "USPS COLLECTION BOX - PO LOBBY", "address": {"city": "OKLAHOMA CITY", "state": "OK", "street": "4801 S I 35 SERVICE RD", "postcode": "73129"}}},
{"geometry": {"type": "Point", "coordinates": [-97.4899501132, 35.4178870707]}, "type": "Feature", "properties": {"collection_times": [{"days": "Mon-Fri", "time": "5:00pm"}, {"days": "Sat", "time": "3:30pm"}, {"days": "Sun", "time": "Closed"}], "id": "7312900023", "name": "USPS COLLECTION BOX - BLUE BOX", "address": {"city": "OKLAHOMA CITY", "state": "OK", "street": "4801 S I 35 SERVICE RD", "postcode": "73129"}}},
{"geometry": {"type": "Point", "coordinates": [-97.508188115, 35.4147281013]}, "type": "Feature", "properties": {"collection_times": [{"days": "Mon-Fri", "time": "4:45pm"}, {"days": "Sat-Sun", "time": "Closed"}], "id": "7312900024", "name": "USPS COLLECTION BOX - BLUE BOX", "address": {"city": "OKLAHOMA CITY", "state": "OK", "street": "5105 S SHIELDS BLVD", "postcode": "73129"}}},
{"geometry": {"type": "Point", "coordinates": [-97.4900563515, 35.417647251]}, "type": "Feature", "properties": {"collection_times": [{"days": "Mon-Fri", "time": "4:45pm"}, {"days": "Sat", "time": "3:30pm"}, {"days": "Sun", "time": "Closed"}], "id": "7312900025", "name": "USPS COLLECTION BOX - PO LOBBY", "address": {"city": "OKLAHOMA CITY", "state": "OK", "street": "4801 S I 35 SERVICE RD", "postcode": "73129"}}},
{"geometry": {"type": "Point", "coordinates": [-97.3708473113, 35.4514657886]}, "type": "Feature", "properties": {"collection_times": [{"days": "Mon-Fri", "time": "3:15pm"}, {"days": "Sat-Sun", "time": "Closed"}], "id": "7313000002", "name": "USPS COLLECTION BOX - BLUE BOX", "address": {"city": "MIDWEST CITY", "state": "OK", "street": "1401 S DOUGLAS BLVD STE A", "postcode": "73130"}}},
{"geometry": {"type": "Point", "coordinates": [-97.351627777, 35.4496322022]}, "type": "Feature", "properties": {"collection_times": [{"days": "Mon-Fri", "time": "3:15pm"}, {"days": "Sat-Sun", "time": "Closed"}], "id": "7313000006", "name": "USPS COLLECTION BOX - BLUE BOX", "address": {"city": "MIDWEST CITY", "state": "OK", "street": "10100 SE 15TH ST", "postcode": "73130"}}},
{"geometry": {"type": "Point", "coordinates": [-97.619109803, 35.5368381692]}, "type": "Feature", "properties": {"collection_times": [{"days": "Mon-Fri", "time": "5:00pm"}, {"days": "Sat", "time": "2:45pm"}, {"days": "Sun", "time": "Closed"}], "id": "7313200000", "name": "USPS COLLECTION BOX - BLUE BOX", "address": {"city": "WARR ACRES", "state": "OK", "street": "5901 NW 63RD ST", "postcode": "73132"}}},
{"geometry": {"type": "Point", "coordinates": [-97.619109803, 35.5368381692]}, "type": "Feature", "properties": {"collection_times": [{"days": "Mon-Fri", "time": "5:00pm"}, {"days": "Sat", "time": "2:45pm"}, {"days": "Sun", "time": "Closed"}], "id": "7313200004", "name": "USPS COLLECTION BOX - BLUE BOX", "address": {"city": "WARR ACRES", "state": "OK", "street": "5901 NW 63RD ST", "postcode": "73132"}}},
{"geometry": {"type": "Point", "coordinates": [-97.6283075416, 35.553414495]}, "type": "Feature", "properties": {"collection_times": [{"days": "Mon-Fri", "time": "4:00pm"}, {"days": "Sat-Sun", "time": "Closed"}], "id": "7313200012", "name": "USPS COLLECTION BOX - BLUE BOX", "address": {"city": "WARR ACRES", "state": "OK", "street": "6444 NW EXPRESSWAY", "postcode": "73132"}}},
{"geometry": {"type": "Point", "coordinates": [-97.6172873394, 35.54888727]}, "type": "Feature", "properties": {"collection_times": [{"days": "Mon-Fri", "time": "4:00pm"}, {"days": "Sat-Sun", "time": "Closed"}], "id": "7313200017", "name": "USPS COLLECTION BOX - BLUE BOX", "address": {"city": "WARR ACRES", "state": "OK", "street": "5857 NW EXPRESSWAY", "postcode": "73132"}}},
{"geometry": {"type": "Point", "coordinates": [-97.6207339869, 35.5503993247]}, "type": "Feature", "properties": {"collection_times": [{"days": "Mon-Fri", "time": "4:00pm"}, {"days": "Sat-Sun", "time": "Closed"}], "id": "7313200018", "name": "USPS COLLECTION BOX - BLUE BOX", "address": {"city": "WARR ACRES", "state": "OK", "street": "5909 NW EXPRESSWAY", "postcode": "73132"}}},
{"geometry": {"type": "Point", "coordinates": [-97.6207339869, 35.5503993247]}, "type": "Feature", "properties": {"collection_times": [{"days": "Mon-Fri", "time": "4:00pm"}, {"days": "Sat-Sun", "time": "Closed"}], "id": "7313200019", "name": "USPS COLLECTION BOX - BLUE BOX", "address": {"city": "WARR ACRES", "state": "OK", "street": "5909 NW EXPRESSWAY", "postcode": "73132"}}},
{"geometry": {"type": "Point", "coordinates": [-97.6390223479, 35.5584034103]}, "type": "Feature", "properties": {"collection_times": [{"days": "Mon-Fri", "time": "3:45pm"}, {"days": "Sat-Sun", "time": "Closed"}], "id": "7313200023", "name": "USPS COLLECTION BOX - BLUE BOX", "address": {"city": "WARR ACRES", "state": "OK", "street": "7101 NW EXPRESSWAY", "postcode": "73132"}}},
{"geometry": {"type": "Point", "coordinates": [-97.6120337169, 35.5448426545]}, "type": "Feature", "properties": {"collection_times": [{"days": "Mon-Fri", "time": "4:15pm"}, {"days": "Sat-Sun", "time": "Closed"}], "id": "7313200024", "name": "USPS COLLECTION BOX - BLUE BOX", "address": {"city": "WARR ACRES", "state": "OK", "street": "5601 NW 72ND ST", "postcode": "73132"}}},
{"geometry": {"type": "Point", "coordinates": [-97.6120337169, 35.5448426545]}, "type": "Feature", "properties": {"collection_times": [{"days": "Mon-Fri", "time": "4:15pm"}, {"days": "Sat-Sun", "time": "Closed"}], "id": "7313200025", "name": "USPS COLLECTION BOX - BLUE BOX", "address": {"city": "WARR ACRES", "state": "OK", "street": "5601 NW 72ND ST", "postcode": "73132"}}},
{"geometry": {"type": "Point", "coordinates": [-97.6227241171, 35.536871877]}, "type": "Feature", "properties": {"collection_times": [{"days": "Mon-Fri", "time": "5:00pm"}, {"days": "Sat", "time": "11:45am"}, {"days": "Sun", "time": "Closed"}], "id": "7313200046", "name": "USPS COLLECTION BOX - PO LOBBY", "address": {"city": "WARR ACRES", "state": "OK", "street": "6001 NW 63RD ST", "postcode": "73132"}}},
{"geometry": {"type": "Point", "coordinates": [-97.5800559701, 35.6099728262]}, "type": "Feature", "properties": {"collection_times": [{"days": "Mon-Fri", "time": "3:45pm"}, {"days": "Sat-Sun", "time": "Closed"}], "id": "7313400009", "name": "USPS COLLECTION BOX - BLUE BOX", "address": {"city": "OKLAHOMA CITY", "state": "OK", "street": "3445 W MEMORIAL RD", "postcode": "73134"}}},
{"geometry": {"type": "Point", "coordinates": [-97.5873867669, 35.6101266109]}, "type": "Feature", "properties": {"collection_times": [{"days": "Mon-Fri", "time": "3:45pm"}, {"days": "Sat-Sun", "time": "Closed"}], "id": "7313400011", "name": "USPS COLLECTION BOX - BLUE BOX", "address": {"city": "OKLAHOMA CITY", "state": "OK", "street": "3705 W MEMORIAL RD", "postcode": "73134"}}},
{"geometry": {"type": "Point", "coordinates": [-97.5873867669, 35.6101266109]}, "type": "Feature", "properties": {"collection_times": [{"days": "Mon-Fri", "time": "3:45pm"}, {"days": "Sat-Sun", "time": "Closed"}], "id": "7313400019", "name": "USPS COLLECTION BOX - BLUE BOX", "address": {"city": "OKLAHOMA CITY", "state": "OK", "street": "3705 W MEMORIAL RD", "postcode": "73134"}}},
{"geometry": {"type": "Point", "coordinates": [-97.6022470974, 35.6102555534]}, "type": "Feature", "properties": {"collection_times": [{"days": "Mon-Fri", "time": "3:45pm"}, {"days": "Sat-Sun", "time": "Closed"}], "id": "7313400021", "name": "USPS COLLECTION BOX - BLUE BOX", "address": {"city": "OKLAHOMA CITY", "state": "OK", "street": "4401 W MEMORIAL RD", "postcode": "73134"}}},
{"geometry": {"type": "Point", "coordinates": [-97.5614231835, 35.6098178586]}, "type": "Feature", "properties": {"collection_times": [{"days": "Mon-Fri", "time": "4:00pm"}, {"days": "Sat-Sun", "time": "Closed"}], "id": "7313400023", "name": "USPS COLLECTION BOX - BLUE BOX", "address": {"city": "OKLAHOMA CITY", "state": "OK", "street": "2501 W MEMORIAL RD", "postcode": "73134"}}},
{"geometry": {"type": "Point", "coordinates": [-97.6070124816, 35.4644594521]}, "type": "Feature", "properties": {"collection_times": [{"days": "Mon-Fri", "time": "5:00pm"}, {"days": "Sat", "time": "3:30pm"}, {"days": "Sun", "time": "Closed"}], "id": "7313700000", "name": "USPS COLLECTION BOX - BLUE BOX", "address": {"city": "OKLAHOMA CITY", "state": "OK", "street": "4901 W RENO AVE", "postcode": "73137"}}},
{"geometry": {"type": "Point", "coordinates": [-97.6070124816, 35.4644594521]}, "type": "Feature", "properties": {"collection_times": [{"days": "Mon-Fri", "time": "5:00pm"}, {"days": "Sat", "time": "3:30pm"}, {"days": "Sun", "time": "Closed"}], "id": "7313700002", "name": "USPS COLLECTION BOX - BLUE BOX", "address": {"city": "OKLAHOMA CITY", "state": "OK", "street": "4901 W RENO AVE", "postcode": "73137"}}},
{"geometry": {"type": "Point", "coordinates": [-97.6071693896, 35.4644676906]}, "type": "Feature", "properties": {"collection_times": [{"days": "Mon-Fri", "time": "5:00pm"}, {"days": "Sat", "time": "3:30pm"}, {"days": "Sun", "time": "Closed"}], "id": "7313700003", "name": "USPS COLLECTION BOX - BLUE BOX", "address": {"city": "OKLAHOMA CITY", "state": "OK", "street": "4901 W RENO AVE", "postcode": "73137"}}},
{"geometry": {"type": "Point", "coordinates": [-97.6071693896, 35.4644676906]}, "type": "Feature", "properties": {"collection_times": [{"days": "Mon-Fri", "time": "5:00pm"}, {"days": "Sat", "time": "3:30pm"}, {"days": "Sun", "time": "Closed"}], "id": "7313700004", "name": "USPS COLLECTION BOX - BLUE BOX", "address": {"city": "OKLAHOMA CITY", "state": "OK", "street": "4901 W RENO AVE", "postcode": "73137"}}},
{"geometry": {"type": "Point", "coordinates": [-97.6071693896, 35.4644676906]}, "type": "Feature", "properties": {"collection_times": [{"days": "Mon-Fri", "time": "5:00pm"}, {"days": "Sat-Sun", "time": "Closed"}], "id": "7313700006", "name": "USPS COLLECTION BOX - PO LOBBY", "address": {"city": "OKLAHOMA CITY", "state": "OK", "street": "4901 W RENO AVE", "postcode": "73137"}}},
{"geometry": {"type": "Point", "coordinates": [-97.5213179741, 35.3779675815]}, "type": "Feature", "properties": {"collection_times": [{"days": "Mon-Fri", "time": "4:00pm"}, {"days": "Sat-Sun", "time": "Closed"}], "id": "7313900000", "name": "USPS COLLECTION BOX - BLUE BOX", "address": {"city": "OKLAHOMA CITY", "state": "OK", "street": "8921 S WALKER AVE", "postcode": "73139"}}},
{"geometry": {"type": "Point", "coordinates": [-97.527315744, 35.3771119906]}, "type": "Feature", "properties": {"collection_times": [{"days": "Mon-Fri", "time": "4:00pm"}, {"days": "Sat-Sun", "time": "Closed"}], "id": "7313900003", "name": "USPS COLLECTION BOX - BLUE BOX", "address": {"city": "OKLAHOMA CITY", "state": "OK", "street": "820 SW 89TH ST", "postcode": "73139"}}},
{"geometry": {"type": "Point", "coordinates": [-97.5213339966, 35.383361368]}, "type": "Feature", "properties": {"collection_times": [{"days": "Mon-Fri", "time": "4:00pm"}, {"days": "Sat-Sun", "time": "Closed"}], "id": "7313900007", "name": "USPS COLLECTION BOX - BLUE BOX", "address": {"city": "OKLAHOMA CITY", "state": "OK", "street": "8283 S WALKER AVE", "postcode": "73139"}}},
{"geometry": {"type": "Point", "coordinates": [-97.5300817899, 35.4055421029]}, "type": "Feature", "properties": {"collection_times": [{"days": "Mon-Fri", "time": "4:15pm"}, {"days": "Sat-Sun", "time": "Closed"}], "id": "7313900012", "name": "USPS COLLECTION BOX - BLUE BOX", "address": {"city": "OKLAHOMA CITY", "state": "OK", "street": "6014 S WESTERN AVE", "postcode": "73139"}}},
{"geometry": {"type": "Point", "coordinates": [-97.5300817899, 35.4055421029]}, "type": "Feature", "properties": {"collection_times": [{"days": "Mon-Fri", "time": "4:15pm"}, {"days": "Sat-Sun", "time": "Closed"}], "id": "7313900014", "name": "USPS COLLECTION BOX - BLUE BOX", "address": {"city": "OKLAHOMA CITY", "state": "OK", "street": "6014 S WESTERN AVE", "postcode": "73139"}}},
{"geometry": {"type": "Point", "coordinates": [-97.530167672, 35.3953157338]}, "type": "Feature", "properties": {"collection_times": [{"days": "Mon-Fri", "time": "4:30pm"}, {"days": "Sat-Sun", "time": "Closed"}], "id": "7313900018", "name": "USPS COLLECTION BOX - BLUE BOX", "address": {"city": "OKLAHOMA CITY", "state": "OK", "street": "7101 S WESTERN AVE", "postcode": "73139"}}},
{"geometry": {"type": "Point", "coordinates": [-97.5301860341, 35.3842922064]}, "type": "Feature", "properties": {"collection_times": [{"days": "Mon-Fri", "time": "4:00pm"}, {"days": "Sat-Sun", "time": "Closed"}], "id": "7313900024", "name": "USPS COLLECTION BOX - BLUE BOX", "address": {"city": "OKLAHOMA CITY", "state": "OK", "street": "8101 S WESTERN AVE", "postcode": "73139"}}},
{"geometry": {"type": "Point", "coordinates": [-97.5361989495, 35.3917027017]}, "type": "Feature", "properties": {"collection_times": [{"days": "Mon-Fri", "time": "4:30pm"}, {"days": "Sat-Sun", "time": "Closed"}], "id": "7313900025", "name": "USPS COLLECTION BOX - BLUE BOX", "address": {"city": "OKLAHOMA CITY", "state": "OK", "street": "1145 W I 240 SERVICE RD", "postcode": "73139"}}},
{"geometry": {"type": "Point", "coordinates": [-97.622345, 35.59407]}, "type": "Feature", "properties": {"collection_times": [{"days": "Mon-Fri", "time": "4:30pm"}, {"days": "Sat-Sun", "time": "Closed"}], "id": "7314200003", "name": "USPS COLLECTION BOX - BLUE BOX", "address": {"city": "OKLAHOMA CITY", "state": "OK", "street": "12203 WARWICK DR", "postcode": "73142"}}},
{"geometry": {"type": "Point", "coordinates": [-97.6079154632, 35.6111750757]}, "type": "Feature", "properties": {"collection_times": [{"days": "Mon-Fri", "time": "4:00pm"}, {"days": "Sat-Sun", "time": "Closed"}], "id": "7314200005", "name": "USPS COLLECTION BOX - BLUE BOX", "address": {"city": "OKLAHOMA CITY", "state": "OK", "street": "4801 GAILLARDIA PKWY", "postcode": "73142"}}},
{"geometry": {"type": "Point", "coordinates": [-97.6079154632, 35.6111750757]}, "type": "Feature", "properties": {"collection_times": [{"days": "Mon-Fri", "time": "4:00pm"}, {"days": "Sat-Sun", "time": "Closed"}], "id": "7314200006", "name": "USPS COLLECTION BOX - BLUE BOX", "address": {"city": "OKLAHOMA CITY", "state": "OK", "street": "4801 GAILLARDIA PKWY", "postcode": "73142"}}},
{"geometry": {"type": "Point", "coordinates": [-97.37656, 35.417423]}, "type": "Feature", "properties": {"collection_times": [{"days": "Mon-Fri", "time": "3:00pm"}, {"days": "Sat-Sun", "time": "Closed"}], "id": "7314500012", "name": "USPS COLLECTION BOX - BLUE BOX", "address": {"city": "OKC", "state": "OK", "street": "3001 STAFF DR", "postcode": "73145"}}},
{"geometry": {"type": "Point", "coordinates": [-97.41363, 35.428467]}, "type": "Feature", "properties": {"collection_times": [{"days": "Mon-Fri", "time": "2:30pm"}, {"days": "Sat-Sun", "time": "Closed"}], "id": "7314500013", "name": "USPS COLLECTION BOX - BLUE BOX", "address": {"city": "OKC", "state": "OK", "street": "5905 ARNOLD ST", "postcode": "73145"}}},
{"geometry": {"type": "Point", "coordinates": [-97.5546034251, 35.454683437]}, "type": "Feature", "properties": {"collection_times": [{"days": "Mon-Fri", "time": "4:45pm"}, {"days": "Sat", "time": "11:30am"}, {"days": "Sun", "time": "Closed"}], "id": "7314800001", "name": "USPS COLLECTION BOX - BLUE BOX", "address": {"city": "OKLAHOMA CITY", "state": "OK", "street": "1101 S AGNEW AVE", "postcode": "73148"}}},
{"geometry": {"type": "Point", "coordinates": [-97.5546034251, 35.454683437]}, "type": "Feature", "properties": {"collection_times": [{"days": "Mon-Fri", "time": "4:45pm"}, {"days": "Sat", "time": "11:30am"}, {"days": "Sun", "time": "Closed"}], "id": "7314800002", "name": "USPS COLLECTION BOX - BLUE BOX", "address": {"city": "OKLAHOMA CITY", "state": "OK", "street": "1101 S AGNEW AVE", "postcode": "73148"}}},
{"geometry": {"type": "Point", "coordinates": [-97.5546034251, 35.454683437]}, "type": "Feature", "properties": {"collection_times": [{"days": "Mon-Fri", "time": "4:45pm"}, {"days": "Sat", "time": "11:30am"}, {"days": "Sun", "time": "Closed"}], "id": "7314800005", "name": "USPS COLLECTION BOX - BLUE BOX", "address": {"city": "OKLAHOMA CITY", "state": "OK", "street": "1101 S AGNEW AVE", "postcode": "73148"}}},
{"geometry": {"type": "Point", "coordinates": [-97.5546034251, 35.454683437]}, "type": "Feature", "properties": {"collection_times": [{"days": "Mon-Fri", "time": "4:45pm"}, {"days": "Sat-Sun", "time": "Closed"}], "id": "7314800006", "name": "USPS COLLECTION BOX - PO LOBBY", "address": {"city": "OKLAHOMA CITY", "state": "OK", "street": "1101 S AGNEW AVE", "postcode": "73148"}}},
{"geometry": {"type": "Point", "coordinates": [-97.5546034251, 35.454683437]}, "type": "Feature", "properties": {"collection_times": [{"days": "Mon-Fri", "time": "4:45pm"}, {"days": "Sat-Sun", "time": "Closed"}], "id": "7314800007", "name": "USPS COLLECTION BOX - PO LOBBY", "address": {"city": "OKLAHOMA CITY", "state": "OK", "street": "1101 S AGNEW AVE", "postcode": "73148"}}},
{"geometry": {"type": "Point", "coordinates": [-97.4871960573, 35.3983391015]}, "type": "Feature", "properties": {"collection_times": [{"days": "Mon-Fri", "time": "2:00pm"}, {"days": "Sat-Sun", "time": "Closed"}], "id": "7314900001", "name": "USPS COLLECTION BOX - BLUE BOX", "address": {"city": "OKLAHOMA CITY", "state": "OK", "street": "7000 CROSSROADS BLVD", "postcode": "73149"}}},
{"geometry": {"type": "Point", "coordinates": [-97.547853867, 35.3940422401]}, "type": "Feature", "properties": {"collection_times": [{"days": "Mon-Fri", "time": "4:30pm"}, {"days": "Sat-Sun", "time": "Closed"}], "id": "7315900010", "name": "USPS COLLECTION BOX - BLUE BOX", "address": {"city": "OKLAHOMA CITY", "state": "OK", "street": "7300 S PENN AVE", "postcode": "73159"}}},
{"geometry": {"type": "Point", "coordinates": [-97.5464911176, 35.3653734953]}, "type": "Feature", "properties": {"collection_times": [{"days": "Mon-Fri", "time": "3:45pm"}, {"days": "Sat-Sun", "time": "Closed"}], "id": "7315900015", "name": "USPS COLLECTION BOX - BLUE BOX", "address": {"city": "OKLAHOMA CITY", "state": "OK", "street": "1624 GREENBRIAR PL", "postcode": "73159"}}},
{"geometry": {"type": "Point", "coordinates": [-97.5478868368, 35.3757004741]}, "type": "Feature", "properties": {"collection_times": [{"days": "Mon-Fri", "time": "5:00pm"}, {"days": "Sat", "time": "3:30pm"}, {"days": "Sun", "time": "Closed"}], "id": "7315900019", "name": "USPS COLLECTION BOX - BLUE BOX", "address": {"city": "OKLAHOMA CITY", "state": "OK", "street": "9201 S PENN AVE", "postcode": "73159"}}},
{"geometry": {"type": "Point", "coordinates": [-97.5459976996, 35.3650087621]}, "type": "Feature", "properties": {"collection_times": [{"days": "Mon-Fri", "time": "3:45pm"}, {"days": "Sat-Sun", "time": "Closed"}], "id": "7315900024", "name": "USPS COLLECTION BOX - BLUE BOX", "address": {"city": "OKLAHOMA CITY", "state": "OK", "street": "10330 GREENBRIAR PKWY", "postcode": "73159"}}},
{"geometry": {"type": "Point", "coordinates": [-97.5478868368, 35.3757004741]}, "type": "Feature", "properties": {"collection_times": [{"days": "Mon-Fri", "time": "5:00pm"}, {"days": "Sat", "time": "3:30pm"}, {"days": "Sun", "time": "Closed"}], "id": "7315900026", "name": "USPS COLLECTION BOX - PO LOBBY", "address": {"city": "OKLAHOMA CITY", "state": "OK", "street": "9201 S PENN AVE", "postcode": "73159"}}},
{"geometry": {"type": "Point", "coordinates": [-97.5478868368, 35.3757004741]}, "type": "Feature", "properties": {"collection_times": [{"days": "Mon-Fri", "time": "5:00pm"}, {"days": "Sat", "time": "3:30pm"}, {"days": "Sun", "time": "Closed"}], "id": "7315900028", "name": "USPS COLLECTION BOX - PO LOBBY", "address": {"city": "OKLAHOMA CITY", "state": "OK", "street": "9201 S PENN AVE", "postcode": "73159"}}},
{"geometry": {"type": "Point", "coordinates": [-97.5964139267, 35.3954444009]}, "type": "Feature", "properties": {"collection_times": [{"days": "Mon-Fri", "time": "8:30am"}, {"days": "Sat-Sun", "time": "Closed"}], "id": "7315900029", "name": "USPS COLLECTION BOX - BLUE BOX", "address": {"city": "OKLAHOMA CITY", "state": "OK", "street": "7100 TERMINAL DR", "postcode": "73159"}}},
{"geometry": {"type": "Point", "coordinates": [-97.5478868368, 35.3757004741]}, "type": "Feature", "properties": {"collection_times": [{"days": "Mon-Fri", "time": "5:00pm"}, {"days": "Sat", "time": "3:30pm"}, {"days": "Sun", "time": "Closed"}], "id": "7315900030", "name": "USPS COLLECTION BOX - APC", "address": {"city": "OKLAHOMA CITY", "state": "OK", "street": "9201 S PENN AVE", "postcode": "73159"}}},
{"geometry": {"type": "Point", "coordinates": [-97.4756952733, 35.3343445548]}, "type": "Feature", "properties": {"collection_times": [{"days": "Mon-Fri", "time": "4:00pm"}, {"days": "Sat-Sun", "time": "Closed"}], "id": "7316000001", "name": "USPS COLLECTION BOX - BLUE BOX", "address": {"city": "MOORE", "state": "OK", "street": "805 SE 4TH ST", "postcode": "73160"}}},
{"geometry": {"type": "Point", "coordinates": [-97.492558984, 35.33373124]}, "type": "Feature", "properties": {"collection_times": [{"days": "Mon-Fri", "time": "5:00pm"}, {"days": "Sat", "time": "4:30pm"}, {"days": "Sun", "time": "Closed"}], "id": "7316000002", "name": "USPS COLLECTION BOX - BLUE BOX", "address": {"city": "MOORE", "state": "OK", "street": "601 S I 35 SERVICE RD", "postcode": "73160"}}},
{"geometry": {"type": "Point", "coordinates": [-97.492558984, 35.33373124]}, "type": "Feature", "properties": {"collection_times": [{"days": "Mon-Fri", "time": "5:00pm"}, {"days": "Sat", "time": "4:30pm"}, {"days": "Sun", "time": "Closed"}], "id": "7316000004", "name": "USPS COLLECTION BOX - BLUE BOX", "address": {"city": "MOORE", "state": "OK", "street": "601 S I 35 SERVICE RD", "postcode": "73160"}}},
{"geometry": {"type": "Point", "coordinates": [-97.4873055659, 35.3437913313]}, "type": "Feature", "properties": {"collection_times": [{"days": "Mon-Fri", "time": "4:15pm"}, {"days": "Sat-Sun", "time": "Closed"}], "id": "7316000010", "name": "USPS COLLECTION BOX - BLUE BOX", "address": {"city": "MOORE", "state": "OK", "street": "625 N BROADWAY ST", "postcode": "73160"}}},
{"geometry": {"type": "Point", "coordinates": [-97.4954281209, 35.3441992034]}, "type": "Feature", "properties": {"collection_times": [{"days": "Mon-Fri", "time": "4:15pm"}, {"days": "Sat-Sun", "time": "Closed"}], "id": "7316000018", "name": "USPS COLLECTION BOX - BLUE BOX", "address": {"city": "MOORE", "state": "OK", "street": "633 N MOORE AVE", "postcode": "73160"}}},
{"geometry": {"type": "Point", "coordinates": [-97.4767986579, 35.3484935893]}, "type": "Feature", "properties": {"collection_times": [{"days": "Mon-Fri", "time": "4:00pm"}, {"days": "Sat-Sun", "time": "Closed"}], "id": "7316000021", "name": "USPS COLLECTION BOX - BLUE BOX", "address": {"city": "MOORE", "state": "OK", "street": "1258 N EASTERN AVE", "postcode": "73160"}}},
{"geometry": {"type": "Point", "coordinates": [-97.492558984, 35.33373124]}, "type": "Feature", "properties": {"collection_times": [{"days": "Mon-Fri", "time": "5:00pm"}, {"days": "Sat", "time": "4:30pm"}, {"days": "Sun", "time": "Closed"}], "id": "7316000026", "name": "USPS COLLECTION BOX - PO LOBBY", "address": {"city": "MOORE", "state": "OK", "street": "601 S I 35 SERVICE RD", "postcode": "73160"}}},
{"geometry": {"type": "Point", "coordinates": [-97.492558984, 35.33373124]}, "type": "Feature", "properties": {"collection_times": [{"days": "Mon-Fri", "time": "5:00pm"}, {"days": "Sat", "time": "4:30pm"}, {"days": "Sun", "time": "Closed"}], "id": "7316000028", "name": "USPS COLLECTION BOX - PO LOBBY", "address": {"city": "MOORE", "state": "OK", "street": "601 S I 35 SERVICE RD", "postcode": "73160"}}},
{"geometry": {"type": "Point", "coordinates": [-97.4925589844, 35.3337312404]}, "type": "Feature", "properties": {"collection_times": [{"days": "Mon-Fri", "time": "5:00pm"}, {"days": "Sat", "time": "4:30pm"}, {"days": "Sun", "time": "Closed"}], "id": "7316000030", "name": "USPS COLLECTION BOX - APC", "address": {"city": "MOORE", "state": "OK", "street": "601 S I 35 SERVICE RD", "postcode": "73160"}}},
{"geometry": {"type": "Point", "coordinates": [-97.6571480545, 35.5663447745]}, "type": "Feature", "properties": {"collection_times": [{"days": "Mon-Fri", "time": "3:45pm"}, {"days": "Sat-Sun", "time": "Closed"}], "id": "7316200003", "name": "USPS COLLECTION BOX - BLUE BOX", "address": {"city": "OKLAHOMA CITY", "state": "OK", "street": "8027 NW EXPRESSWAY", "postcode": "73162"}}},
{"geometry": {"type": "Point", "coordinates": [-97.6526975685, 35.5800824726]}, "type": "Feature", "properties": {"collection_times": [{"days": "Mon-Fri", "time": "5:00pm"}, {"days": "Sat", "time": "3:15pm"}, {"days": "Sun", "time": "Closed"}], "id": "7316200009", "name": "USPS COLLECTION BOX - BLUE BOX", "address": {"city": "OKLAHOMA CITY", "state": "OK", "street": "7800 W HEFNER RD", "postcode": "73162"}}},
{"geometry": {"type": "Point", "coordinates": [-97.6526975685, 35.5800824726]}, "type": "Feature", "properties": {"collection_times": [{"days": "Mon-Fri", "time": "5:00pm"}, {"days": "Sat", "time": "3:15pm"}, {"days": "Sun", "time": "Closed"}], "id": "7316200010", "name": "USPS COLLECTION BOX - BLUE BOX", "address": {"city": "OKLAHOMA CITY", "state": "OK", "street": "7800 W HEFNER RD", "postcode": "73162"}}},
{"geometry": {"type": "Point", "coordinates": [-97.6526975685, 35.5800824726]}, "type": "Feature", "properties": {"collection_times": [{"days": "Mon-Fri", "time": "5:00pm"}, {"days": "Sat", "time": "3:15pm"}, {"days": "Sun", "time": "Closed"}], "id": "7316200021", "name": "USPS COLLECTION BOX - PO LOBBY", "address": {"city": "OKLAHOMA CITY", "state": "OK", "street": "7800 W HEFNER RD", "postcode": "73162"}}},
{"geometry": {"type": "Point", "coordinates": [-97.6526975685, 35.5800824726]}, "type": "Feature", "properties": {"collection_times": [{"days": "Mon-Fri", "time": "5:00pm"}, {"days": "Sat", "time": "3:15pm"}, {"days": "Sun", "time": "Closed"}], "id": "7316200022", "name": "USPS COLLECTION BOX - PO LOBBY", "address": {"city": "OKLAHOMA CITY", "state": "OK", "street": "7800 W HEFNER RD", "postcode": "73162"}}},
{"geometry": {"type": "Point", "coordinates": [-97.6526975685, 35.5800824726]}, "type": "Feature", "properties": {"collection_times": [{"days": "Mon-Fri", "time": "5:00pm"}, {"days": "Sat", "time": "3:15pm"}, {"days": "Sun", "time": "Closed"}], "id": "7316200023", "name": "USPS COLLECTION BOX - APC", "address": {"city": "OKLAHOMA CITY", "state": "OK", "street": "7800 W HEFNER RD", "postcode": "73162"}}},
{"geometry": {"type": "Point", "coordinates": [-97.5121438885, 35.3264696754]}, "type": "Feature", "properties": {"collection_times": [{"days": "Mon-Fri", "time": "4:30pm"}, {"days": "Sat-Sun", "time": "Closed"}], "id": "7317000002", "name": "USPS COLLECTION BOX - BLUE BOX", "address": {"city": "MOORE", "state": "OK", "street": "1219 N SANTA FE AVE", "postcode": "73170"}}},
{"geometry": {"type": "Point", "coordinates": [-97.5300308272, 35.3506700438]}, "type": "Feature", "properties": {"collection_times": [{"days": "Mon-Fri", "time": "4:30pm"}, {"days": "Sat-Sun", "time": "Closed"}], "id": "7317000003", "name": "USPS COLLECTION BOX - BLUE BOX", "address": {"city": "MOORE", "state": "OK", "street": "11809 S WESTERN AVE", "postcode": "73170"}}},
{"geometry": {"type": "Point", "coordinates": [-97.5300308272, 35.3506700438]}, "type": "Feature", "properties": {"collection_times": [{"days": "Mon-Fri", "time": "4:30pm"}, {"days": "Sat-Sun", "time": "Closed"}], "id": "7317000004", "name": "USPS COLLECTION BOX - BLUE BOX", "address": {"city": "MOORE", "state": "OK", "street": "11809 S WESTERN AVE", "postcode": "73170"}}},
{"geometry": {"type": "Point", "coordinates": [-97.5159988357, 35.3343312682]}, "type": "Feature", "properties": {"collection_times": [{"days": "Mon-Fri", "time": "4:30pm"}, {"days": "Sat", "time": "3:30pm"}, {"days": "Sun", "time": "Closed"}], "id": "7317000005", "name": "USPS COLLECTION BOX - BLUE BOX", "address": {"city": "MOORE", "state": "OK", "street": "201 SW 134TH ST", "postcode": "73170"}}},
{"geometry": {"type": "Point", "coordinates": [-97.5159988357, 35.3343312682]}, "type": "Feature", "properties": {"collection_times": [{"days": "Mon-Fri", "time": "4:30pm"}, {"days": "Sat", "time": "3:30pm"}, {"days": "Sun", "time": "Closed"}], "id": "7317000006", "name": "USPS COLLECTION BOX - BLUE BOX", "address": {"city": "MOORE", "state": "OK", "street": "201 SW 134TH ST", "postcode": "73170"}}},
{"geometry": {"type": "Point", "coordinates": [-97.5159988357, 35.3343312682]}, "type": "Feature", "properties": {"collection_times": [{"days": "Mon-Fri", "time": "4:30pm"}, {"days": "Sat", "time": "3:30pm"}, {"days": "Sun", "time": "Closed"}], "id": "7317000007", "name": "USPS COLLECTION BOX - PO LOBBY", "address": {"city": "MOORE", "state": "OK", "street": "201 SW 134TH ST", "postcode": "73170"}}},
{"geometry": {"type": "Point", "coordinates": [-97.5159988357, 35.3343312682]}, "type": "Feature", "properties": {"collection_times": [{"days": "Mon-Fri", "time": "4:30pm"}, {"days": "Sat", "time": "3:30pm"}, {"days": "Sun", "time": "Closed"}], "id": "7317000008", "name": "USPS COLLECTION BOX - PO LOBBY", "address": {"city": "MOORE", "state": "OK", "street": "201 SW 134TH ST", "postcode": "73170"}}},
{"geometry": {"type": "Point", "coordinates": [-97.60770527, 35.4280077123]}, "type": "Feature", "properties": {"collection_times": [{"days": "Mon-Fri", "time": "4:15pm"}, {"days": "Sat-Sun", "time": "Closed"}], "id": "7317900002", "name": "USPS COLLECTION BOX - BLUE BOX", "address": {"city": "OKLAHOMA CITY", "state": "OK", "street": "5024 SW 36TH ST", "postcode": "73179"}}},
{"geometry": {"type": "Point", "coordinates": [-97.60770527, 35.4280077123]}, "type": "Feature", "properties": {"collection_times": [{"days": "Mon-Fri", "time": "4:15pm"}, {"days": "Sat-Sun", "time": "Closed"}], "id": "7317900003", "name": "USPS COLLECTION BOX - BLUE BOX", "address": {"city": "OKLAHOMA CITY", "state": "OK", "street": "5024 SW 36TH ST", "postcode": "73179"}}},
{"geometry": {"type": "Point", "coordinates": [-97.6134604606, 35.4352579257]}, "type": "Feature", "properties": {"collection_times": [{"days": "Mon-Fri", "time": "4:15pm"}, {"days": "Sat-Sun", "time": "Closed"}], "id": "7317900005", "name": "USPS COLLECTION BOX - BLUE BOX", "address": {"city": "OKLAHOMA CITY", "state": "OK", "street": "5421 SW 29TH ST", "postcode": "73179"}}},
{"geometry": {"type": "Point", "coordinates": [-97.6461898402, 35.4207565477]}, "type": "Feature", "properties": {"collection_times": [{"days": "Mon-Fri", "time": "4:00pm"}, {"days": "Sat-Sun", "time": "Closed"}], "id": "7317900006", "name": "USPS COLLECTION BOX - BLUE BOX", "address": {"city": "OKLAHOMA CITY", "state": "OK", "street": "7707 SW 44TH ST", "postcode": "73179"}}},
{"geometry": {"type": "Point", "coordinates": [-97.59471109, 35.3985056612]}, "type": "Feature", "properties": {"collection_times": [{"days": "Mon-Sat", "time": "5:00pm"}, {"days": "Sun", "time": "Closed"}], "id": "7319500001", "name": "USPS COLLECTION BOX - BLUE BOX", "address": {"city": "OKLAHOMA CITY", "state": "OK", "street": "6500 AIR CARGO RD", "postcode": "73195"}}},
{"geometry": {"type": "Point", "coordinates": [-97.59471109, 35.3985056612]}, "type": "Feature", "properties": {"collection_times": [{"days": "Mon-Sat", "time": "5:00pm"}, {"days": "Sun", "time": "Closed"}], "id": "7319500002", "name": "USPS COLLECTION BOX - BLUE BOX", "address": {"city": "OKLAHOMA CITY", "state": "OK", "street": "6500 AIR CARGO RD", "postcode": "73195"}}},
{"geometry": {"type": "Point", "coordinates": [-97.59471109, 35.3985056612]}, "type": "Feature", "properties": {"collection_times": [{"days": "Mon-Sat", "time": "5:00pm"}, {"days": "Sun", "time": "Closed"}], "id": "7319500003", "name": "USPS COLLECTION BOX - PO LOBBY", "address": {"city": "OKLAHOMA CITY", "state": "OK", "street": "6500 AIR CARGO RD", "postcode": "73195"}}},
{"geometry": {"type": "Point", "coordinates": [-97.59471109, 35.3985056612]}, "type": "Feature", "properties": {"collection_times": [{"days": "Mon-Sat", "time": "5:00pm"}, {"days": "Sun", "time": "Closed"}], "id": "7319500004", "name": "USPS COLLECTION BOX - PO LOBBY", "address": {"city": "OKLAHOMA CITY", "state": "OK", "street": "6500 AIR CARGO RD", "postcode": "73195"}}}
]}
