{"type": "FeatureCollection", "features": [
{"geometry": {"type": "Point", "coordinates": [-97.1293988738, 34.1742797574]}, "type": "Feature", "properties": {"collection_times": [{"days": "Mon-Sat", "time": "3:15pm"}, {"days": "Sun", "time": "Closed"}], "id": "7340100002", "name": "USPS COLLECTION BOX - BLUE BOX", "address": {"city": "ARDMORE", "state": "OK", "street": "115 W BROADWAY ST", "postcode": "73401"}}},
{"geometry": {"type": "Point", "coordinates": [-97.1284834753, 34.1725670103]}, "type": "Feature", "properties": {"collection_times": [{"days": "Mon-Sat", "time": "3:15pm"}, {"days": "Sun", "time": "Closed"}], "id": "7340100006", "name": "USPS COLLECTION BOX - BLUE BOX", "address": {"city": "ARDMORE", "state": "OK", "street": "10 W MAIN ST", "postcode": "73401"}}},
{"geometry": {"type": "Point", "coordinates": [-97.1249238935, 34.1819315174]}, "type": "Feature", "properties": {"collection_times": [{"days": "Mon-Sat", "time": "3:30pm"}, {"days": "Sun", "time": "Closed"}], "id": "7340100007", "name": "USPS COLLECTION BOX - BLUE BOX", "address": {"city": "ARDMORE", "state": "OK", "street": "921 N WASHINGTON ST", "postcode": "73401"}}},
{"geometry": {"type": "Point", "coordinates": [-97.1310868739, 34.1861540256]}, "type": "Feature", "properties": {"collection_times": [{"days": "Mon-Sat", "time": "3:30pm"}, {"days": "Sun", "time": "Closed"}], "id": "7340100009", "name": "USPS COLLECTION BOX - BLUE BOX", "address": {"city": "ARDMORE", "state": "OK", "street": "423 12TH AVE NW", "postcode": "73401"}}},
{"geometry": {"type": "Point", "coordinates": [-97.1339765265, 34.18081065]}, "type": "Feature", "properties": {"collection_times": [{"days": "Mon-Fri", "time": "3:45pm"}, {"days": "Sat", "time": "3:30pm"}, {"days": "Sun", "time": "Closed"}], "id": "7340100010", "name": "USPS COLLECTION BOX - BLUE BOX", "address": {"city": "ARDMORE", "state": "OK", "street": "12 BROADLAWN SHOPPING CTR", "postcode": "73401"}}},
{"geometry": {"type": "Point", "coordinates": [-97.1459976883, 34.1802898467]}, "type": "Feature", "properties": {"collection_times": [{"days": "Mon-Sat", "time": "4:00pm"}, {"days": "Sun", "time": "Closed"}], "id": "7340100011", "name": "USPS COLLECTION BOX - BLUE BOX", "address": {"city": "ARDMORE", "state": "OK", "street": "1405 4TH AVE NW", "postcode": "73401"}}},
{"geometry": {"type": "Point", "coordinates": [-97.1429180501, 34.1949595297]}, "type": "Feature", "properties": {"collection_times": [{"days": "Mon-Sat", "time": "3:45pm"}, {"days": "Sun", "time": "Closed"}], "id": "7340100016", "name": "USPS COLLECTION BOX - BLUE BOX", "address": {"city": "ARDMORE", "state": "OK", "street": "1901 N COMMERCE ST", "postcode": "73401"}}},
{"geometry": {"type": "Point", "coordinates": [-97.1429131397, 34.1928872978]}, "type": "Feature", "properties": {"collection_times": [{"days": "Mon-Sat", "time": "4:00pm"}, {"days": "Sun", "time": "Closed"}], "id": "7340100017", "name": "USPS COLLECTION BOX - BLUE BOX", "address": {"city": "ARDMORE", "state": "OK", "street": "1715 N COMMERCE ST", "postcode": "73401"}}},
{"geometry": {"type": "Point", "coordinates": [-97.1409333788, 34.1745383772]}, "type": "Feature", "properties": {"collection_times": [{"days": "Mon-Fri", "time": "4:30pm"}, {"days": "Sat", "time": "4:15pm"}, {"days": "Sun", "time": "Closed"}], "id": "7340100022", "name": "USPS COLLECTION BOX - BLUE BOX", "address": {"city": "ARDMORE", "state": "OK", "street": "925 W BROADWAY ST", "postcode": "73401"}}},
{"geometry": {"type": "Point", "coordinates": [-97.1550748673, 34.1733244725]}, "type": "Feature", "properties": {"collection_times": [{"days": "Mon-Sat", "time": "4:15pm"}, {"days": "Sun", "time": "Closed"}], "id": "7340100023", "name": "USPS COLLECTION BOX - BLUE BOX", "address": {"city": "ARDMORE", "state": "OK", "street": "24 TIFFANY PLZ", "postcode": "73401"}}},
{"geometry": {"type": "Point", "coordinates": [-97.1304824042, 34.1728261074]}, "type": "Feature", "properties": {"collection_times": [{"days": "Mon-Fri", "time": "4:30pm"}, {"days": "Sat-Sun", "time": "Closed"}], "id": "7340100028", "name": "USPS COLLECTION BOX - BLUE BOX", "address": {"city": "ARDMORE", "state": "OK", "street": "20 B ST SW", "postcode": "73401"}}},
{"geometry": {"type": "Point", "coordinates": [-97.5085968103, 35.5826863005]}, "type": "Feature", "properties": {"collection_times": [{"days": "Mon-Sat", "time": "4:00pm"}, {"days": "Sun", "time": "Closed"}], "id": "7340100036", "name": "USPS COLLECTION BOX - BLUE BOX", "address": {"city": "ARDMORE", "state": "OK", "street": "2021 4TH AVE NW", "postcode": "73401"}}},
{"geometry": {"type": "Point", "coordinates": [-97.1311336677, 34.1716782079]}, "type": "Feature", "properties": {"collection_times": [{"days": "Mon-Fri", "time": "5:00pm"}, {"days": "Sat", "time": "4:30pm"}, {"days": "Sun", "time": "Closed"}], "id": "7340100039", "name": "USPS COLLECTION BOX - BLUE BOX", "address": {"city": "ARDMORE", "state": "OK", "street": "208 1ST AVE SW", "postcode": "73401"}}},
{"geometry": {"type": "Point", "coordinates": [-97.1311336677, 34.1716782079]}, "type": "Feature", "properties": {"collection_times": [{"days": "Mon-Fri", "time": "4:45pm"}, {"days": "Sat", "time": "4:30pm"}, {"days": "Sun", "time": "Closed"}], "id": "7340100040", "name": "USPS COLLECTION BOX - PO LOBBY", "address": {"city": "ARDMORE", "state": "OK", "street": "208 1ST AVE SW", "postcode": "73401"}}},
{"geometry": {"type": "Point", "coordinates": [-97.142930113, 34.1872834989]}, "type": "Feature", "properties": {"collection_times": [{"days": "Mon-Sat", "time": "4:00pm"}, {"days": "Sun", "time": "Closed"}], "id": "7340100043", "name": "USPS COLLECTION BOX - BLUE BOX", "address": {"city": "ARDMORE", "state": "OK", "street": "1211 N COMMERCE ST", "postcode": "73401"}}},
{"geometry": {"type": "Point", "coordinates": [-97.143633683, 34.1759717653]}, "type": "Feature", "properties": {"collection_times": [{"days": "Mon-Sat", "time": "4:00pm"}, {"days": "Sun", "time": "Closed"}], "id": "7340100045", "name": "USPS COLLECTION BOX - BLUE BOX", "address": {"city": "ARDMORE", "state": "OK", "street": "5 S COMMERCE ST", "postcode": "73401"}}},
{"geometry": {"type": "Point", "coordinates": [-97.1431919776, 34.1827142078]}, "type": "Feature", "properties": {"collection_times": [{"days": "Mon-Fri", "time": "3:45pm"}, {"days": "Sat-Sun", "time": "Closed"}], "id": "7340100051", "name": "USPS COLLECTION BOX - BLUE BOX", "address": {"city": "ARDMORE", "state": "OK", "street": "720 N COMMERCE ST", "postcode": "73401"}}},
{"geometry": {"type": "Point", "coordinates": [-97.1311336677, 34.1716782079]}, "type": "Feature", "properties": {"collection_times": [{"days": "Mon-Fri", "time": "4:45pm"}, {"days": "Sat", "time": "4:30pm"}, {"days": "Sun", "time": "Closed"}], "id": "7340100052", "name": "USPS COLLECTION BOX - PO LOBBY", "address": {"city": "ARDMORE", "state": "OK", "street": "208 1ST AVE SW", "postcode": "73401"}}},
{"geometry": {"type": "Point", "coordinates": [-97.1781113203, 34.1875037659]}, "type": "Feature", "properties": {"collection_times": [{"days": "Mon-Sat", "time": "4:00pm"}, {"days": "Sun", "time": "Closed"}], "id": "7340100053", "name": "USPS COLLECTION BOX - BLUE BOX", "address": {"city": "ARDMORE", "state": "OK", "street": "3201 12TH AVE NW", "postcode": "73401"}}},
{"geometry": {"type": "Point", "coordinates": [-97.1434509655, 34.1595129251]}, "type": "Feature", "properties": {"collection_times": [{"days": "Mon-Fri", "time": "4:30pm"}, {"days": "Sat", "time": "4:15pm"}, {"days": "Sun", "time": "Closed"}], "id": "7340100054", "name": "USPS COLLECTION BOX - BLUE BOX", "address": {"city": "ARDMORE", "state": "OK", "street": "1109 S COMMERCE ST", "postcode": "73401"}}},
{"geometry": {"type": "Point", "coordinates": [-97.5711170143, 34.4450825381]}, "type": "Feature", "properties": {"collection_times": [{"days": "Mon-Sat", "time": "10:00am"}, {"days": "Sun", "time": "Closed"}], "id": "7342500001", "name": "USPS COLLECTION BOX - PO LOBBY", "address": {"city": "COUNTYLINE", "state": "OK", "street": "304900 OLD HIGHWAY 7", "postcode": "73425"}}},
{"geometry": {"type": "Point", "coordinates": [-97.3353264378, 33.9823039192]}, "type": "Feature", "properties": {"collection_times": [{"days": "Mon-Fri", "time": "2:30pm"}, {"days": "Sat", "time": "10:45am"}, {"days": "Sun", "time": "Closed"}], "id": "7343000001", "name": "USPS COLLECTION BOX - PO LOBBY", "address": {"city": "BURNEYVILLE", "state": "OK", "street": "11340 SPARROW RD", "postcode": "73430"}}},
{"geometry": {"type": "Point", "coordinates": [-97.309887122, 33.9270094039]}, "type": "Feature", "properties": {"collection_times": [{"days": "Mon-Fri", "time": "10:00am"}, {"days": "Sat-Sun", "time": "Closed"}], "id": "7343000002", "name": "USPS COLLECTION BOX - BLUE BOX", "address": {"city": "BURNEYVILLE", "state": "OK", "street": "113 FALCONHEAD DR", "postcode": "73430"}}},
{"geometry": {"type": "Point", "coordinates": [-96.4810524542, 34.2895486782]}, "type": "Feature", "properties": {"collection_times": [{"days": "Mon-Fri", "time": "11:15am"}, {"days": "Sat", "time": "10:00am"}, {"days": "Sun", "time": "Closed"}], "id": "7343200001", "name": "USPS COLLECTION BOX - PO LOBBY", "address": {"city": "COLEMAN", "state": "OK", "street": "12900 OK HIGHWAY 48A E", "postcode": "73432"}}},
{"geometry": {"type": "Point", "coordinates": [-96.4810524542, 34.2895486782]}, "type": "Feature", "properties": {"collection_times": [{"days": "Mon-Fri", "time": "11:15am"}, {"days": "Sat", "time": "10:00am"}, {"days": "Sun", "time": "Closed"}], "id": "7343200002", "name": "USPS COLLECTION BOX - PO LOBBY", "address": {"city": "COLEMAN", "state": "OK", "street": "12900 OK HIGHWAY 48A E", "postcode": "73432"}}},
{"geometry": {"type": "Point", "coordinates": [-97.3964076569, 34.6221792843]}, "type": "Feature", "properties": {"collection_times": [{"days": "Mon-Fri", "time": "4:15pm"}, {"days": "Sat", "time": "10:00am"}, {"days": "Sun", "time": "Closed"}], "id": "7343300000", "name": "USPS COLLECTION BOX - BLUE BOX", "address": {"city": "ELMORE CITY", "state": "OK", "street": "204 S MAIN ST", "postcode": "73433"}}},
{"geometry": {"type": "Point", "coordinates": [-97.3964076569, 34.6221792843]}, "type": "Feature", "properties": {"collection_times": [{"days": "Mon-Fri", "time": "4:15pm"}, {"days": "Sat", "time": "10:00am"}, {"days": "Sun", "time": "Closed"}], "id": "7343300001", "name": "USPS COLLECTION BOX - PO LOBBY", "address": {"city": "ELMORE CITY", "state": "OK", "street": "204 S MAIN ST", "postcode": "73433"}}},
{"geometry": {"type": "Point", "coordinates": [-97.3964076569, 34.6221792843]}, "type": "Feature", "properties": {"collection_times": [{"days": "Mon-Fri", "time": "4:15pm"}, {"days": "Sat", "time": "10:00am"}, {"days": "Sun", "time": "Closed"}], "id": "7343300002", "name": "USPS COLLECTION BOX - PO LOBBY", "address": {"city": "ELMORE CITY", "state": "OK", "street": "204 S MAIN ST", "postcode": "73433"}}},
{"geometry": {"type": "Point", "coordinates": [-97.510412514, 34.62311334]}, "type": "Feature", "properties": {"collection_times": [{"days": "Mon-Sat", "time": "1:30pm"}, {"days": "Sun", "time": "Closed"}], "id": "7343300004", "name": "USPS COLLECTION BOX - BLUE BOX", "address": {"city": "ELMORE CITY", "state": "OK", "street": "22964 HIGHWAY 29", "postcode": "73433"}}},
{"geometry": {"type": "Point", "coordinates": [-97.5380539889, 34.6309761037]}, "type": "Feature", "properties": {"collection_times": [{"days": "Mon-Fri", "time": "11:15am"}, {"days": "Sat", "time": "9:15am"}, {"days": "Sun", "time": "Closed"}], "id": "7343400001", "name": "USPS COLLECTION BOX - PO LOBBY", "address": {"city": "FOSTER", "state": "OK", "street": "20188 E COUNTY ROAD 1655", "postcode": "73434"}}},
{"geometry": {"type": "Point", "coordinates": [-97.4921981526, 34.3630728818]}, "type": "Feature", "properties": {"collection_times": [{"days": "Mon-Fri", "time": "3:45pm"}, {"days": "Sat", "time": "10:30am"}, {"days": "Sun", "time": "Closed"}], "id": "7343500000", "name": "USPS COLLECTION BOX - BLUE BOX", "address": {"city": "FOX", "state": "OK", "street": "20378 STATE HIGHWAY 76", "postcode": "73435"}}},
{"geometry": {"type": "Point", "coordinates": [-97.4921981526, 34.3630728818]}, "type": "Feature", "properties": {"collection_times": [{"days": "Mon-Fri", "time": "3:45pm"}, {"days": "Sat", "time": "10:30am"}, {"days": "Sun", "time": "Closed"}], "id": "7343500002", "name": "USPS COLLECTION BOX - PO LOBBY", "address": {"city": "FOX", "state": "OK", "street": "20378 STATE HIGHWAY 76", "postcode": "73435"}}},
{"geometry": {"type": "Point", "coordinates": [-97.0409880899, 34.2817599347]}, "type": "Feature", "properties": {"collection_times": [{"days": "Mon-Fri", "time": "4:00pm"}, {"days": "Sat", "time": "10:00am"}, {"days": "Sun", "time": "Closed"}], "id": "7343600001", "name": "USPS COLLECTION BOX - PO LOBBY", "address": {"city": "GENE AUTRY", "state": "OK", "street": "45 PRAIRIE ST", "postcode": "73436"}}},
{"geometry": {"type": "Point", "coordinates": [-97.4536689962, 34.3471200805]}, "type": "Feature", "properties": {"collection_times": [{"days": "Mon-Fri", "time": "3:45pm"}, {"days": "Sat", "time": "10:30am"}, {"days": "Sun", "time": "Closed"}], "id": "7343700000", "name": "USPS COLLECTION BOX - BLUE BOX", "address": {"city": "GRAHAM", "state": "OK", "street": "29173 STATE HIGHWAY 53", "postcode": "73437"}}},
{"geometry": {"type": "Point", "coordinates": [-97.435341167, 34.340267721]}, "type": "Feature", "properties": {"collection_times": [{"days": "Mon-Fri", "time": "12:45pm"}, {"days": "Sat", "time": "10:30am"}, {"days": "Sun", "time": "Closed"}], "id": "7343700001", "name": "USPS COLLECTION BOX - PO LOBBY", "address": {"city": "GRAHAM", "state": "OK", "street": "29173 STATE HIGHWAY 53", "postcode": "73437"}}},
{"geometry": {"type": "Point", "coordinates": [-97.4536689962, 34.3471200805]}, "type": "Feature", "properties": {"collection_times": [{"days": "Mon-Fri", "time": "12:45pm"}, {"days": "Sat", "time": "10:30am"}, {"days": "Sun", "time": "Closed"}], "id": "7343700002", "name": "USPS COLLECTION BOX - PO LOBBY", "address": {"city": "GRAHAM", "state": "OK", "street": "29173 STATE HIGHWAY 53", "postcode": "73437"}}},
{"geometry": {"type": "Point", "coordinates": [-97.4862567766, 34.234126001]}, "type": "Feature", "properties": {"collection_times": [{"days": "Mon-Fri", "time": "4:15pm"}, {"days": "Sat", "time": "10:30am"}, {"days": "Sun", "time": "Closed"}], "id": "7343800000", "name": "USPS COLLECTION BOX - BLUE BOX", "address": {"city": "HEALDTON", "state": "OK", "street": "186 FRANKLIN ST", "postcode": "73438"}}},
{"geometry": {"type": "Point", "coordinates": [-97.4862567766, 34.234126001]}, "type": "Feature", "properties": {"collection_times": [{"days": "Mon-Fri", "time": "4:15pm"}, {"days": "Sat-Sun", "time": "Closed"}], "id": "7343800002", "name": "USPS COLLECTION BOX - PO LOBBY", "address": {"city": "HEALDTON", "state": "OK", "street": "186 FRANKLIN ST", "postcode": "73438"}}},
{"geometry": {"type": "Point", "coordinates": [-96.7195345708, 33.9993441023]}, "type": "Feature", "properties": {"collection_times": [{"days": "Mon-Fri", "time": "4:00pm"}, {"days": "Sat", "time": "10:00am"}, {"days": "Sun", "time": "Closed"}], "id": "7343900000", "name": "USPS COLLECTION BOX - BLUE BOX", "address": {"city": "KINGSTON", "state": "OK", "street": "101 N MAIN ST", "postcode": "73439"}}},
{"geometry": {"type": "Point", "coordinates": [-96.7195345708, 33.9993441023]}, "type": "Feature", "properties": {"collection_times": [{"days": "Mon-Fri", "time": "4:00pm"}, {"days": "Sat", "time": "10:00am"}, {"days": "Sun", "time": "Closed"}], "id": "7343900001", "name": "USPS COLLECTION BOX - PO LOBBY", "address": {"city": "KINGSTON", "state": "OK", "street": "101 N MAIN ST", "postcode": "73439"}}},
{"geometry": {"type": "Point", "coordinates": [-96.8751270684, 33.9564939387]}, "type": "Feature", "properties": {"collection_times": [{"days": "Mon-Fri", "time": "12:00pm"}, {"days": "Sat", "time": "10:30am"}, {"days": "Sun", "time": "Closed"}], "id": "7344000000", "name": "USPS COLLECTION BOX - BLUE BOX", "address": {"city": "LEBANON", "state": "OK", "street": "21601 HIGHWAY 32", "postcode": "73440"}}},
{"geometry": {"type": "Point", "coordinates": [-96.8751270684, 33.9564939387]}, "type": "Feature", "properties": {"collection_times": [{"days": "Mon-Fri", "time": "12:00pm"}, {"days": "Sat", "time": "10:30am"}, {"days": "Sun", "time": "Closed"}], "id": "7344000001", "name": "USPS COLLECTION BOX - PO LOBBY", "address": {"city": "LEBANON", "state": "OK", "street": "21601 HIGHWAY 32", "postcode": "73440"}}},
{"geometry": {"type": "Point", "coordinates": [-97.4583436874, 33.9502353807]}, "type": "Feature", "properties": {"collection_times": [{"days": "Mon-Sat", "time": "10:45am"}, {"days": "Sun", "time": "Closed"}], "id": "7344100000", "name": "USPS COLLECTION BOX - BLUE BOX", "address": {"city": "LEON", "state": "OK", "street": "27339 EASTRIDGE ST", "postcode": "73441"}}},
{"geometry": {"type": "Point", "coordinates": [-97.4583436874, 33.9502353807]}, "type": "Feature", "properties": {"collection_times": [{"days": "Mon-Sat", "time": "10:45am"}, {"days": "Sun", "time": "Closed"}], "id": "7344100001", "name": "USPS COLLECTION BOX - PO LOBBY", "address": {"city": "LEON", "state": "OK", "street": "27339 EASTRIDGE ST", "postcode": "73441"}}},
{"geometry": {"type": "Point", "coordinates": [-97.7068091496, 34.3327888492]}, "type": "Feature", "properties": {"collection_times": [{"days": "Mon-Fri", "time": "12:00pm"}, {"days": "Sat", "time": "10:00am"}, {"days": "Sun", "time": "Closed"}], "id": "7344200001", "name": "USPS COLLECTION BOX - PO LOBBY", "address": {"city": "LOCO", "state": "OK", "street": "115 W 2ND ST", "postcode": "73442"}}},
{"geometry": {"type": "Point", "coordinates": [-97.2837476795, 34.1647142446]}, "type": "Feature", "properties": {"collection_times": [{"days": "Mon-Fri", "time": "4:00pm"}, {"days": "Sat", "time": "9:45am"}, {"days": "Sun", "time": "Closed"}], "id": "7344300003", "name": "USPS COLLECTION BOX - BLUE BOX", "address": {"city": "LONE GROVE", "state": "OK", "street": "25 HERITAGE ST", "postcode": "73443"}}},
{"geometry": {"type": "Point", "coordinates": [-97.2837476795, 34.1647142446]}, "type": "Feature", "properties": {"collection_times": [{"days": "Mon-Fri", "time": "4:00pm"}, {"days": "Sat", "time": "9:45am"}, {"days": "Sun", "time": "Closed"}], "id": "7344300004", "name": "USPS COLLECTION BOX - PO LOBBY", "address": {"city": "LONE GROVE", "state": "OK", "street": "25 HERITAGE ST", "postcode": "73443"}}},
{"geometry": {"type": "Point", "coordinates": [-97.2837476795, 34.1647142446]}, "type": "Feature", "properties": {"collection_times": [{"days": "Mon-Fri", "time": "4:00pm"}, {"days": "Sat", "time": "9:45am"}, {"days": "Sun", "time": "Closed"}], "id": "7344300005", "name": "USPS COLLECTION BOX - PO LOBBY", "address": {"city": "LONE GROVE", "state": "OK", "street": "25 HERITAGE ST", "postcode": "73443"}}},
{"geometry": {"type": "Point", "coordinates": [-97.4122335306, 34.4632765864]}, "type": "Feature", "properties": {"collection_times": [{"days": "Mon-Fri", "time": "3:00pm"}, {"days": "Sat", "time": "9:45am"}, {"days": "Sun", "time": "Closed"}], "id": "7344400000", "name": "USPS COLLECTION BOX - BLUE BOX", "address": {"city": "HENNEPIN", "state": "OK", "street": "28240 HIGHWAY 7", "postcode": "73444"}}},
{"geometry": {"type": "Point", "coordinates": [-97.4122335306, 34.4632765864]}, "type": "Feature", "properties": {"collection_times": [{"days": "Mon-Fri", "time": "10:30am"}, {"days": "Sat", "time": "9:45am"}, {"days": "Sun", "time": "Closed"}], "id": "7344400002", "name": "USPS COLLECTION BOX - PO LOBBY", "address": {"city": "HENNEPIN", "state": "OK", "street": "28240 HIGHWAY 7", "postcode": "73444"}}},
{"geometry": {"type": "Point", "coordinates": [-97.4122335306, 34.4632765864]}, "type": "Feature", "properties": {"collection_times": [{"days": "Mon-Fri", "time": "10:30am"}, {"days": "Sat", "time": "9:45am"}, {"days": "Sun", "time": "Closed"}], "id": "7344400003", "name": "USPS COLLECTION BOX - PO LOBBY", "address": {"city": "HENNEPIN", "state": "OK", "street": "28240 HIGHWAY 7", "postcode": "73444"}}},
{"geometry": {"type": "Point", "coordinates": [-96.7721594859, 34.0902867797]}, "type": "Feature", "properties": {"collection_times": [{"days": "Mon-Fri", "time": "5:00pm"}, {"days": "Sat", "time": "10:00am"}, {"days": "Sun", "time": "Closed"}], "id": "7344600000", "name": "USPS COLLECTION BOX - BLUE BOX", "address": {"city": "MADILL", "state": "OK", "street": "223 W LILLIE BLVD", "postcode": "73446"}}},
{"geometry": {"type": "Point", "coordinates": [-96.7721594859, 34.0902867797]}, "type": "Feature", "properties": {"collection_times": [{"days": "Mon-Fri", "time": "5:00pm"}, {"days": "Sat", "time": "10:00am"}, {"days": "Sun", "time": "Closed"}], "id": "7344600007", "name": "USPS COLLECTION BOX - BLUE BOX", "address": {"city": "MADILL", "state": "OK", "street": "223 W LILLIE BLVD", "postcode": "73446"}}},
{"geometry": {"type": "Point", "coordinates": [-96.7721594859, 34.0902867797]}, "type": "Feature", "properties": {"collection_times": [{"days": "Mon-Fri", "time": "5:00pm"}, {"days": "Sat-Sun", "time": "Closed"}], "id": "7344600008", "name": "USPS COLLECTION BOX - PO LOBBY", "address": {"city": "MADILL", "state": "OK", "street": "223 W LILLIE BLVD", "postcode": "73446"}}},
{"geometry": {"type": "Point", "coordinates": [-96.7721594859, 34.0902867797]}, "type": "Feature", "properties": {"collection_times": [{"days": "Mon-Fri", "time": "5:00pm"}, {"days": "Sat-Sun", "time": "Closed"}], "id": "7344600009", "name": "USPS COLLECTION BOX - PO LOBBY", "address": {"city": "MADILL", "state": "OK", "street": "223 W LILLIE BLVD", "postcode": "73446"}}},
{"geometry": {"type": "Point", "coordinates": [-96.8831715531, 34.207549492]}, "type": "Feature", "properties": {"collection_times": [{"days": "Mon-Fri", "time": "4:00pm"}, {"days": "Sat", "time": "9:00am"}, {"days": "Sun", "time": "Closed"}], "id": "7344700000", "name": "USPS COLLECTION BOX - BLUE BOX", "address": {"city": "MANNSVILLE", "state": "OK", "street": "101 N 20TH ST", "postcode": "73447"}}},
{"geometry": {"type": "Point", "coordinates": [-96.8831715531, 34.207549492]}, "type": "Feature", "properties": {"collection_times": [{"days": "Mon-Fri", "time": "4:00pm"}, {"days": "Sat", "time": "9:00am"}, {"days": "Sun", "time": "Closed"}], "id": "7344700002", "name": "USPS COLLECTION BOX - PO LOBBY", "address": {"city": "MANNSVILLE", "state": "OK", "street": "101 N 20TH ST", "postcode": "73447"}}},
{"geometry": {"type": "Point", "coordinates": [-97.1171067087, 33.9372417999]}, "type": "Feature", "properties": {"collection_times": [{"days": "Mon-Fri", "time": "4:45pm"}, {"days": "Sat", "time": "10:45am"}, {"days": "Sun", "time": "Closed"}], "id": "7344800001", "name": "USPS COLLECTION BOX - BLUE BOX", "address": {"city": "MARIETTA", "state": "OK", "street": "118 W MAIN ST", "postcode": "73448"}}},
{"geometry": {"type": "Point", "coordinates": [-97.1171067087, 33.9372417999]}, "type": "Feature", "properties": {"collection_times": [{"days": "Mon-Fri", "time": "4:45pm"}, {"days": "Sat", "time": "11:00am"}, {"days": "Sun", "time": "Closed"}], "id": "7344800011", "name": "USPS COLLECTION BOX - PO LOBBY", "address": {"city": "MARIETTA", "state": "OK", "street": "118 W MAIN ST", "postcode": "73448"}}},
{"geometry": {"type": "Point", "coordinates": [-96.5419998688, 33.9970331974]}, "type": "Feature", "properties": {"collection_times": [{"days": "Mon-Fri", "time": "4:00pm"}, {"days": "Sat", "time": "9:00am"}, {"days": "Sun", "time": "Closed"}], "id": "7344900000", "name": "USPS COLLECTION BOX - BLUE BOX", "address": {"city": "MEAD", "state": "OK", "street": "310 N MAIN ST", "postcode": "73449"}}},
{"geometry": {"type": "Point", "coordinates": [-96.5419998688, 33.9970331974]}, "type": "Feature", "properties": {"collection_times": [{"days": "Mon-Fri", "time": "2:00pm"}, {"days": "Sat", "time": "9:00am"}, {"days": "Sun", "time": "Closed"}], "id": "7344900001", "name": "USPS COLLECTION BOX - PO LOBBY", "address": {"city": "MEAD", "state": "OK", "street": "310 N MAIN ST", "postcode": "73449"}}},
{"geometry": {"type": "Point", "coordinates": [-96.5285336685, 34.1827894715]}, "type": "Feature", "properties": {"collection_times": [{"days": "Mon-Fri", "time": "3:30pm"}, {"days": "Sat", "time": "9:00am"}, {"days": "Sun", "time": "Closed"}], "id": "7345000001", "name": "USPS COLLECTION BOX - BLUE BOX", "address": {"city": "MILBURN", "state": "OK", "street": "201 E I AVE", "postcode": "73450"}}},
{"geometry": {"type": "Point", "coordinates": [-96.5285336685, 34.1827894715]}, "type": "Feature", "properties": {"collection_times": [{"days": "Mon-Fri", "time": "11:45am"}, {"days": "Sat", "time": "9:00am"}, {"days": "Sun", "time": "Closed"}], "id": "7345000002", "name": "USPS COLLECTION BOX - PO LOBBY", "address": {"city": "MILBURN", "state": "OK", "street": "201 E I AVE", "postcode": "73450"}}},
{"geometry": {"type": "Point", "coordinates": [-96.5285336685, 34.1827894715]}, "type": "Feature", "properties": {"collection_times": [{"days": "Mon-Fri", "time": "11:45am"}, {"days": "Sat", "time": "9:00am"}, {"days": "Sun", "time": "Closed"}], "id": "7345000003", "name": "USPS COLLECTION BOX - PO LOBBY", "address": {"city": "MILBURN", "state": "OK", "street": "201 E I AVE", "postcode": "73450"}}},
{"geometry": {"type": "Point", "coordinates": [-97.143349971, 34.06788876]}, "type": "Feature", "properties": {"collection_times": [{"days": "Mon-Fri", "time": "4:45pm"}, {"days": "Sat", "time": "9:45am"}, {"days": "Sun", "time": "Closed"}], "id": "7345300000", "name": "USPS COLLECTION BOX - BLUE BOX", "address": {"city": "OVERBROOK", "state": "OK", "street": "209 HIGHWAY 77 S", "postcode": "73453"}}},
{"geometry": {"type": "Point", "coordinates": [-97.143349971, 34.06788876]}, "type": "Feature", "properties": {"collection_times": [{"days": "Mon-Fri", "time": "11:45am"}, {"days": "Sat", "time": "9:45am"}, {"days": "Sun", "time": "Closed"}], "id": "7345300001", "name": "USPS COLLECTION BOX - PO LOBBY", "address": {"city": "OVERBROOK", "state": "OK", "street": "209 HIGHWAY 77 S", "postcode": "73453"}}},
{"geometry": {"type": "Point", "coordinates": [-96.7515379551, 34.2413644473]}, "type": "Feature", "properties": {"collection_times": [{"days": "Mon-Fri", "time": "4:00pm"}, {"days": "Sat", "time": "9:00am"}, {"days": "Sun", "time": "Closed"}], "id": "7345500000", "name": "USPS COLLECTION BOX - BLUE BOX", "address": {"city": "RAVIA", "state": "OK", "street": "312 E GRAND ST", "postcode": "73455"}}},
{"geometry": {"type": "Point", "coordinates": [-96.7515379551, 34.2413644473]}, "type": "Feature", "properties": {"collection_times": [{"days": "Mon-Fri", "time": "11:45am"}, {"days": "Sat", "time": "9:00am"}, {"days": "Sun", "time": "Closed"}], "id": "7345500001", "name": "USPS COLLECTION BOX - PO LOBBY", "address": {"city": "RAVIA", "state": "OK", "street": "312 E GRAND ST", "postcode": "73455"}}},
{"geometry": {"type": "Point", "coordinates": [-97.6476462409, 34.136822814]}, "type": "Feature", "properties": {"collection_times": [{"days": "Mon-Fri", "time": "4:00pm"}, {"days": "Sat", "time": "10:00am"}, {"days": "Sun", "time": "Closed"}], "id": "7345600000", "name": "USPS COLLECTION BOX - BLUE BOX", "address": {"city": "RINGLING", "state": "OK", "street": "204 N 4TH ST", "postcode": "73456"}}},
{"geometry": {"type": "Point", "coordinates": [-97.6476462409, 34.136822814]}, "type": "Feature", "properties": {"collection_times": [{"days": "Mon-Fri", "time": "4:00pm"}, {"days": "Sat", "time": "10:00am"}, {"days": "Sun", "time": "Closed"}], "id": "7345600001", "name": "USPS COLLECTION BOX - PO LOBBY", "address": {"city": "RINGLING", "state": "OK", "street": "204 N 4TH ST", "postcode": "73456"}}},
{"geometry": {"type": "Point", "coordinates": [-97.6476462409, 34.136822814]}, "type": "Feature", "properties": {"collection_times": [{"days": "Mon-Fri", "time": "4:00pm"}, {"days": "Sat", "time": "10:00am"}, {"days": "Sun", "time": "Closed"}], "id": "7345600002", "name": "USPS COLLECTION BOX - PO LOBBY", "address": {"city": "RINGLING", "state": "OK", "street": "204 N 4TH ST", "postcode": "73456"}}},
{"geometry": {"type": "Point", "coordinates": [-97.134381972, 34.3181377142]}, "type": "Feature", "properties": {"collection_times": [{"days": "Mon-Fri", "time": "4:00pm"}, {"days": "Sat", "time": "10:15am"}, {"days": "Sun", "time": "Closed"}], "id": "7345800000", "name": "USPS COLLECTION BOX - BLUE BOX", "address": {"city": "SPRINGER", "state": "OK", "street": "16625 US HIGHWAY 77", "postcode": "73458"}}},
{"geometry": {"type": "Point", "coordinates": [-97.134381972, 34.3181377142]}, "type": "Feature", "properties": {"collection_times": [{"days": "Mon-Fri", "time": "4:00pm"}, {"days": "Sat", "time": "10:15am"}, {"days": "Sun", "time": "Closed"}], "id": "7345800001", "name": "USPS COLLECTION BOX - PO LOBBY", "address": {"city": "SPRINGER", "state": "OK", "street": "16625 US HIGHWAY 77", "postcode": "73458"}}},
{"geometry": {"type": "Point", "coordinates": [-97.1214499868, 33.8054204475]}, "type": "Feature", "properties": {"collection_times": [{"days": "Mon-Fri", "time": "3:30pm"}, {"days": "Sat", "time": "9:15am"}, {"days": "Sun", "time": "Closed"}], "id": "7345900000", "name": "USPS COLLECTION BOX - BLUE BOX", "address": {"city": "THACKERVILLE", "state": "OK", "street": "281 S HIGHWAY 77", "postcode": "73459"}}},
{"geometry": {"type": "Point", "coordinates": [-97.1214499868, 33.8054204475]}, "type": "Feature", "properties": {"collection_times": [{"days": "Mon-Fri", "time": "3:30pm"}, {"days": "Sat", "time": "9:15am"}, {"days": "Sun", "time": "Closed"}], "id": "7345900001", "name": "USPS COLLECTION BOX - PO LOBBY", "address": {"city": "THACKERVILLE", "state": "OK", "street": "281 S HIGHWAY 77", "postcode": "73459"}}},
{"geometry": {"type": "Point", "coordinates": [-97.1214499868, 33.8054204475]}, "type": "Feature", "properties": {"collection_times": [{"days": "Mon-Fri", "time": "3:30pm"}, {"days": "Sat", "time": "9:15am"}, {"days": "Sun", "time": "Closed"}], "id": "7345900003", "name": "USPS COLLECTION BOX - PO LOBBY", "address": {"city": "THACKERVILLE", "state": "OK", "street": "281 S HIGHWAY 77", "postcode": "73459"}}},
{"geometry": {"type": "Point", "coordinates": [-96.6781997134, 34.2353598168]}, "type": "Feature", "properties": {"collection_times": [{"days": "Mon-Fri", "time": "4:30pm"}, {"days": "Sat-Sun", "time": "Closed"}], "id": "7346000006", "name": "USPS COLLECTION BOX - BLUE BOX", "address": {"city": "TISHOMINGO", "state": "OK", "street": "108 N NESHOBA ST", "postcode": "73460"}}},
{"geometry": {"type": "Point", "coordinates": [-96.6781997134, 34.2353598168]}, "type": "Feature", "properties": {"collection_times": [{"days": "Mon-Fri", "time": "4:30pm"}, {"days": "Sat", "time": "10:00am"}, {"days": "Sun", "time": "Closed"}], "id": "7346000007", "name": "USPS COLLECTION BOX - BLUE BOX", "address": {"city": "TISHOMINGO", "state": "OK", "street": "108 N NESHOBA ST", "postcode": "73460"}}},
{"geometry": {"type": "Point", "coordinates": [-96.6781997134, 34.2353598168]}, "type": "Feature", "properties": {"collection_times": [{"days": "Mon-Fri", "time": "4:30pm"}, {"days": "Sat", "time": "10:00am"}, {"days": "Sun", "time": "Closed"}], "id": "7346000011", "name": "USPS COLLECTION BOX - PO LOBBY", "address": {"city": "TISHOMINGO", "state": "OK", "street": "108 N NESHOBA ST", "postcode": "73460"}}},
{"geometry": {"type": "Point", "coordinates": [-96.4243779873, 34.375063788]}, "type": "Feature", "properties": {"collection_times": [{"days": "Mon-Fri", "time": "11:30am"}, {"days": "Sat", "time": "9:30am"}, {"days": "Sun", "time": "Closed"}], "id": "7346100001", "name": "USPS COLLECTION BOX - PO LOBBY", "address": {"city": "WAPANUCKA", "state": "OK", "street": "109 E MAIN ST", "postcode": "73461"}}},
{"geometry": {"type": "Point", "coordinates": [-96.4243779873, 34.375063788]}, "type": "Feature", "properties": {"collection_times": [{"days": "Mon-Fri", "time": "11:30am"}, {"days": "Sat", "time": "9:30am"}, {"days": "Sun", "time": "Closed"}], "id": "7346100002", "name": "USPS COLLECTION BOX - PO LOBBY", "address": {"city": "WAPANUCKA", "state": "OK", "street": "109 E MAIN ST", "postcode": "73461"}}},
{"geometry": {"type": "Point", "coordinates": [-97.4227501812, 34.1559806791]}, "type": "Feature", "properties": {"collection_times": [{"days": "Mon-Fri", "time": "4:30pm"}, {"days": "Sat", "time": "8:30am"}, {"days": "Sun", "time": "Closed"}], "id": "7346300000", "name": "USPS COLLECTION BOX - BLUE BOX", "address": {"city": "WILSON", "state": "OK", "street": "1224 US HIGHWAY 70A", "postcode": "73463"}}},
{"geometry": {"type": "Point", "coordinates": [-97.4227501812, 34.1559806791]}, "type": "Feature", "properties": {"collection_times": [{"days": "Mon-Fri", "time": "4:30pm"}, {"days": "Sat", "time": "8:30am"}, {"days": "Sun", "time": "Closed"}], "id": "7346300001", "name": "USPS COLLECTION BOX - PO LOBBY", "address": {"city": "WILSON", "state": "OK", "street": "1224 US HIGHWAY 70A", "postcode": "73463"}}},
{"geometry": {"type": "Point", "coordinates": [-97.5064287353, 34.4134610223]}, "type": "Feature", "properties": {"collection_times": [{"days": "Mon-Fri", "time": "4:15pm"}, {"days": "Sat", "time": "9:00am"}, {"days": "Sun", "time": "Closed"}], "id": "7348100000", "name": "USPS COLLECTION BOX - BLUE BOX", "address": {"city": "RATLIFF CITY", "state": "OK", "street": "57 CHURCH ST", "postcode": "73481"}}},
{"geometry": {"type": "Point", "coordinates": [-97.5064287353, 34.4134610223]}, "type": "Feature", "properties": {"collection_times": [{"days": "Mon-Fri", "time": "1:45pm"}, {"days": "Sat", "time": "9:00am"}, {"days": "Sun", "time": "Closed"}], "id": "7348100001", "name": "USPS COLLECTION BOX - PO LOBBY", "address": {"city": "RATLIFF CITY", "state": "OK", "street": "57 CHURCH ST", "postcode": "73481"}}},
{"geometry": {"type": "Point", "coordinates": [-97.4593473774, 34.4835215427]}, "type": "Feature", "properties": {"collection_times": [{"days": "Mon-Sat", "time": "1:15pm"}, {"days": "Sun", "time": "Closed"}], "id": "7348700001", "name": "USPS COLLECTION BOX - PO LOBBY", "address": {"city": "TATUMS", "state": "OK", "street": "26 KING ST", "postcode": "73487"}}},
{"geometry": {"type": "Point", "coordinates": [-97.6424802666, 34.4459074896]}, "type": "Feature", "properties": {"collection_times": [{"days": "Mon-Fri", "time": "4:00pm"}, {"days": "Sat", "time": "10:00am"}, {"days": "Sun", "time": "Closed"}], "id": "7349100000", "name": "USPS COLLECTION BOX - BLUE BOX", "address": {"city": "VELMA", "state": "OK", "street": "503 MAIN ST", "postcode": "73491"}}},
{"geometry": {"type": "Point", "coordinates": [-97.6424802666, 34.4459074896]}, "type": "Feature", "properties": {"collection_times": [{"days": "Mon-Fri", "time": "4:15pm"}, {"days": "Sat", "time": "10:00am"}, {"days": "Sun", "time": "Closed"}], "id": "7349100001", "name": "USPS COLLECTION BOX - PO LOBBY", "address": {"city": "VELMA", "state": "OK", "street": "503 MAIN ST", "postcode": "73491"}}},
{"geometry": {"type": "Point", "coordinates": [-97.6424802666, 34.4459074896]}, "type": "Feature", "properties": {"collection_times": [{"days": "Mon-Fri", "time": "4:15pm"}, {"days": "Sat", "time": "10:00am"}, {"days": "Sun", "time": "Closed"}], "id": "7349100002", "name": "USPS COLLECTION BOX - PO LOBBY", "address": {"city": "VELMA", "state": "OK", "street": "503 MAIN ST", "postcode": "73491"}}},
{"geometry": {"type": "Point", "coordinates": [-97.673778284, 34.457190345]}, "type": "Feature", "properties": {"collection_times": [{"days": "Mon-Sat", "time": "9:00am"}, {"days": "Sun", "time": "Closed"}], "id": "7349100003", "name": "USPS COLLECTION BOX - BLUE BOX", "address": {"city": "VELMA", "state": "OK", "street": "102 PURDUE ST", "postcode": "73491"}}}
]}
