{"type": "FeatureCollection", "features": [
{"geometry": {"type": "Point", "coordinates": [-98.4075023165, 34.5942435539]}, "type": "Feature", "properties": {"collection_times": [{"days": "Mon-Sat", "time": "1:00pm"}, {"days": "Sun", "time": "Closed"}], "id": "7350100000", "name": "USPS COLLECTION BOX - BLUE BOX", "address": {"city": "LAWTON", "state": "OK", "street": "1300 SW LEE BLVD", "postcode": "73501"}}},
{"geometry": {"type": "Point", "coordinates": [-98.4076537936, 34.6088950719]}, "type": "Feature", "properties": {"collection_times": [{"days": "Mon-Sat", "time": "1:00pm"}, {"days": "Sun", "time": "Closed"}], "id": "7350100004", "name": "USPS COLLECTION BOX - BLUE BOX", "address": {"city": "LAWTON", "state": "OK", "street": "1309 W GORE BLVD", "postcode": "73501"}}},
{"geometry": {"type": "Point", "coordinates": [-98.4154473893, 34.6089619608]}, "type": "Feature", "properties": {"collection_times": [{"days": "Mon-Sat", "time": "1:00pm"}, {"days": "Sun", "time": "Closed"}], "id": "7350100005", "name": "USPS COLLECTION BOX - BLUE BOX", "address": {"city": "LAWTON", "state": "OK", "street": "1823 W GORE BLVD", "postcode": "73501"}}},
{"geometry": {"type": "Point", "coordinates": [-98.3611668453, 34.5924738969]}, "type": "Feature", "properties": {"collection_times": [{"days": "Mon-Sat", "time": "5:00pm"}, {"days": "Sun", "time": "Closed"}], "id": "7350100015", "name": "USPS COLLECTION BOX - BLUE BOX", "address": {"city": "LAWTON", "state": "OK", "street": "212 SW 9TH ST", "postcode": "73501"}}},
{"geometry": {"type": "Point", "coordinates": [-98.395262998, 34.6052833351]}, "type": "Feature", "properties": {"collection_times": [{"days": "Mon-Sat", "time": "5:00pm"}, {"days": "Sun", "time": "Closed"}], "id": "7350100018", "name": "USPS COLLECTION BOX - BLUE BOX", "address": {"city": "LAWTON", "state": "OK", "street": "501 SW C AVE", "postcode": "73501"}}},
{"geometry": {"type": "Point", "coordinates": [-98.3969548946, 34.6052919873]}, "type": "Feature", "properties": {"collection_times": [{"days": "Mon-Sat", "time": "5:00pm"}, {"days": "Sun", "time": "Closed"}], "id": "7350100019", "name": "USPS COLLECTION BOX - BLUE BOX", "address": {"city": "LAWTON", "state": "OK", "street": "607 SW C AVE", "postcode": "73501"}}},
{"geometry": {"type": "Point", "coordinates": [-98.3952790927, 34.605040727]}, "type": "Feature", "properties": {"collection_times": [{"days": "Mon-Fri", "time": "5:00pm"}, {"days": "Sat-Sun", "time": "Closed"}], "id": "7350100023", "name": "USPS COLLECTION BOX - BLUE BOX", "address": {"city": "LAWTON", "state": "OK", "street": "315 SW 5TH ST", "postcode": "73501"}}},
{"geometry": {"type": "Point", "coordinates": [-98.3971658699, 34.6028836074]}, "type": "Feature", "properties": {"collection_times": [{"days": "Mon-Sat", "time": "5:00pm"}, {"days": "Sun", "time": "Closed"}], "id": "7350100029", "name": "USPS COLLECTION BOX - BLUE BOX", "address": {"city": "LAWTON", "state": "OK", "street": "620 SW E AVE", "postcode": "73501"}}},
{"geometry": {"type": "Point", "coordinates": [-98.4017064237, 34.6086485168]}, "type": "Feature", "properties": {"collection_times": [{"days": "Mon-Sat", "time": "5:00pm"}, {"days": "Sun", "time": "Closed"}], "id": "7350100036", "name": "USPS COLLECTION BOX - BLUE BOX", "address": {"city": "LAWTON", "state": "OK", "street": "902 W GORE BLVD", "postcode": "73501"}}},
{"geometry": {"type": "Point", "coordinates": [-98.3594227424, 34.608849427]}, "type": "Feature", "properties": {"collection_times": [{"days": "Mon-Fri", "time": "5:00pm"}, {"days": "Sat", "time": "3:00pm"}, {"days": "Sun", "time": "Closed"}], "id": "7350100041", "name": "USPS COLLECTION BOX - BLUE BOX", "address": {"city": "LAWTON", "state": "OK", "street": "2310 E GORE BLVD", "postcode": "73501"}}},
{"geometry": {"type": "Point", "coordinates": [-98.3521798036, 34.6085856776]}, "type": "Feature", "properties": {"collection_times": [{"days": "Mon-Sat", "time": "1:00pm"}, {"days": "Sun", "time": "Closed"}], "id": "7350100043", "name": "USPS COLLECTION BOX - BLUE BOX", "address": {"city": "LAWTON", "state": "OK", "street": "3003 E GORE BLVD", "postcode": "73501"}}},
{"geometry": {"type": "Point", "coordinates": [-98.3361582734, 34.6031154267]}, "type": "Feature", "properties": {"collection_times": [{"days": "Mon-Sat", "time": "12:00pm"}, {"days": "Sun", "time": "Closed"}], "id": "7350100047", "name": "USPS COLLECTION BOX - BLUE BOX", "address": {"city": "LAWTON", "state": "OK", "street": "4315 SE CAMELOT DR", "postcode": "73501"}}},
{"geometry": {"type": "Point", "coordinates": [-98.3952791439, 34.6028770612]}, "type": "Feature", "properties": {"collection_times": [{"days": "Mon-Sat", "time": "5:00pm"}, {"days": "Sun", "time": "Closed"}], "id": "7350100058", "name": "USPS COLLECTION BOX - BLUE BOX", "address": {"city": "LAWTON", "state": "OK", "street": "501 SW 5TH ST", "postcode": "73501"}}},
{"geometry": {"type": "Point", "coordinates": [-98.3346641813, 34.6086228731]}, "type": "Feature", "properties": {"collection_times": [{"days": "Mon-Sat", "time": "1:00pm"}, {"days": "Sun", "time": "Closed"}], "id": "7350100066", "name": "USPS COLLECTION BOX - BLUE BOX", "address": {"city": "LAWTON", "state": "OK", "street": "2 SE 45TH ST", "postcode": "73501"}}},
{"geometry": {"type": "Point", "coordinates": [-98.3952791439, 34.6028770612]}, "type": "Feature", "properties": {"collection_times": [{"days": "Mon-Sat", "time": "5:00pm"}, {"days": "Sun", "time": "Closed"}], "id": "7350100069", "name": "USPS COLLECTION BOX - PO LOBBY", "address": {"city": "LAWTON", "state": "OK", "street": "501 SW 5TH ST", "postcode": "73501"}}},
{"geometry": {"type": "Point", "coordinates": [-98.3952791439, 34.6028770612]}, "type": "Feature", "properties": {"collection_times": [{"days": "Mon-Sat", "time": "5:00pm"}, {"days": "Sun", "time": "Closed"}], "id": "7350100070", "name": "USPS COLLECTION BOX - APC", "address": {"city": "LAWTON", "state": "OK", "street": "501 SW 5TH ST", "postcode": "73501"}}},
{"geometry": {"type": "Point", "coordinates": [-98.4209683631, 34.6087597953]}, "type": "Feature", "properties": {"collection_times": [{"days": "Mon-Sat", "time": "1:00pm"}, {"days": "Sun", "time": "Closed"}], "id": "7350100071", "name": "USPS COLLECTION BOX - BLUE BOX", "address": {"city": "LAWTON", "state": "OK", "street": "2210 W GORE BLVD", "postcode": "73501"}}},
{"geometry": {"type": "Point", "coordinates": [-98.3921047593, 34.6052565795]}, "type": "Feature", "properties": {"collection_times": [{"days": "Mon-Sat", "time": "5:00pm"}, {"days": "Sun", "time": "Closed"}], "id": "7350100076", "name": "USPS COLLECTION BOX - BLUE BOX", "address": {"city": "LAWTON", "state": "OK", "street": "301 SW C AVE", "postcode": "73501"}}},
{"geometry": {"type": "Point", "coordinates": [-98.4224707333, 34.6125726128]}, "type": "Feature", "properties": {"collection_times": [{"days": "Mon-Sat", "time": "1:00pm"}, {"days": "Sun", "time": "Closed"}], "id": "7350500000", "name": "USPS COLLECTION BOX - BLUE BOX", "address": {"city": "LAWTON", "state": "OK", "street": "402 NW SHERIDAN RD", "postcode": "73505"}}},
{"geometry": {"type": "Point", "coordinates": [-98.4480866911, 34.6090406976]}, "type": "Feature", "properties": {"collection_times": [{"days": "Mon-Sat", "time": "2:30pm"}, {"days": "Sun", "time": "Closed"}], "id": "7350500006", "name": "USPS COLLECTION BOX - BLUE BOX", "address": {"city": "LAWTON", "state": "OK", "street": "4405 W GORE BLVD", "postcode": "73505"}}},
{"geometry": {"type": "Point", "coordinates": [-98.4499455419, 34.6090685506]}, "type": "Feature", "properties": {"collection_times": [{"days": "Mon-Sat", "time": "2:30pm"}, {"days": "Sun", "time": "Closed"}], "id": "7350500007", "name": "USPS COLLECTION BOX - BLUE BOX", "address": {"city": "LAWTON", "state": "OK", "street": "4645 W GORE BLVD", "postcode": "73505"}}},
{"geometry": {"type": "Point", "coordinates": [-98.4839031999, 34.6319867804]}, "type": "Feature", "properties": {"collection_times": [{"days": "Mon-Sat", "time": "12:00pm"}, {"days": "Sun", "time": "Closed"}], "id": "7350500013", "name": "USPS COLLECTION BOX - BLUE BOX", "address": {"city": "LAWTON", "state": "OK", "street": "7510 NW TANGO RD", "postcode": "73505"}}},
{"geometry": {"type": "Point", "coordinates": [-98.4572514782, 34.6327870624]}, "type": "Feature", "properties": {"collection_times": [{"days": "Mon-Sat", "time": "1:30pm"}, {"days": "Sun", "time": "Closed"}], "id": "7350500015", "name": "USPS COLLECTION BOX - BLUE BOX", "address": {"city": "LAWTON", "state": "OK", "street": "2408 NW 52ND ST", "postcode": "73505"}}},
{"geometry": {"type": "Point", "coordinates": [-98.4572476677, 34.6357096265]}, "type": "Feature", "properties": {"collection_times": [{"days": "Mon-Sat", "time": "1:30pm"}, {"days": "Sun", "time": "Closed"}], "id": "7350500017", "name": "USPS COLLECTION BOX - BLUE BOX", "address": {"city": "LAWTON", "state": "OK", "street": "2704 NW 52ND ST", "postcode": "73505"}}},
{"geometry": {"type": "Point", "coordinates": [-98.4921400491, 34.6279096161]}, "type": "Feature", "properties": {"collection_times": [{"days": "Mon-Sat", "time": "2:00pm"}, {"days": "Sun", "time": "Closed"}], "id": "7350500019", "name": "USPS COLLECTION BOX - BLUE BOX", "address": {"city": "LAWTON", "state": "OK", "street": "1821 NW 82ND ST", "postcode": "73505"}}},
{"geometry": {"type": "Point", "coordinates": [-98.4591347063, 34.6234067808]}, "type": "Feature", "properties": {"collection_times": [{"days": "Mon-Sat", "time": "1:45pm"}, {"days": "Sun", "time": "Closed"}], "id": "7350500023", "name": "USPS COLLECTION BOX - BLUE BOX", "address": {"city": "LAWTON", "state": "OK", "street": "5338 NW CACHE RD", "postcode": "73505"}}},
{"geometry": {"type": "Point", "coordinates": [-98.4591347063, 34.6234067808]}, "type": "Feature", "properties": {"collection_times": [{"days": "Mon-Sat", "time": "1:45pm"}, {"days": "Sun", "time": "Closed"}], "id": "7350500024", "name": "USPS COLLECTION BOX - BLUE BOX", "address": {"city": "LAWTON", "state": "OK", "street": "5338 NW CACHE RD", "postcode": "73505"}}},
{"geometry": {"type": "Point", "coordinates": [-98.4572088465, 34.6134602277]}, "type": "Feature", "properties": {"collection_times": [{"days": "Mon-Sat", "time": "3:00pm"}, {"days": "Sun", "time": "Closed"}], "id": "7350500030", "name": "USPS COLLECTION BOX - BLUE BOX", "address": {"city": "LAWTON", "state": "OK", "street": "2800 W GORE BLVD", "postcode": "73505"}}},
{"geometry": {"type": "Point", "coordinates": [-98.4737929437, 34.5991434155]}, "type": "Feature", "properties": {"collection_times": [{"days": "Mon-Sat", "time": "3:00pm"}, {"days": "Sun", "time": "Closed"}], "id": "7350500031", "name": "USPS COLLECTION BOX - BLUE BOX", "address": {"city": "LAWTON", "state": "OK", "street": "2800 SW UNIVERSITY DR", "postcode": "73505"}}},
{"geometry": {"type": "Point", "coordinates": [-98.4373684016, 34.6089970596]}, "type": "Feature", "properties": {"collection_times": [{"days": "Mon-Sat", "time": "3:00pm"}, {"days": "Sun", "time": "Closed"}], "id": "7350500032", "name": "USPS COLLECTION BOX - BLUE BOX", "address": {"city": "LAWTON", "state": "OK", "street": "3401 W GORE BLVD", "postcode": "73505"}}},
{"geometry": {"type": "Point", "coordinates": [-98.4731899984, 34.6091058047]}, "type": "Feature", "properties": {"collection_times": [{"days": "Mon-Sat", "time": "5:00pm"}, {"days": "Sun", "time": "Closed"}], "id": "7350500038", "name": "USPS COLLECTION BOX - BLUE BOX", "address": {"city": "LAWTON", "state": "OK", "street": "6601 W GORE BLVD", "postcode": "73505"}}},
{"geometry": {"type": "Point", "coordinates": [-98.4921404143, 34.6342994712]}, "type": "Feature", "properties": {"collection_times": [{"days": "Mon-Sat", "time": "1:00pm"}, {"days": "Sun", "time": "Closed"}], "id": "7350500040", "name": "USPS COLLECTION BOX - BLUE BOX", "address": {"city": "LAWTON", "state": "OK", "street": "2505 NW 82ND ST", "postcode": "73505"}}},
{"geometry": {"type": "Point", "coordinates": [-98.4361039772, 34.609010743]}, "type": "Feature", "properties": {"collection_times": [{"days": "Mon-Sat", "time": "3:00pm"}, {"days": "Sun", "time": "Closed"}], "id": "7350500041", "name": "USPS COLLECTION BOX - BLUE BOX", "address": {"city": "LAWTON", "state": "OK", "street": "3201 W GORE BLVD", "postcode": "73505"}}},
{"geometry": {"type": "Point", "coordinates": [-98.4399080647, 34.6233411318]}, "type": "Feature", "properties": {"collection_times": [{"days": "Mon-Sat", "time": "1:45pm"}, {"days": "Sun", "time": "Closed"}], "id": "7350500044", "name": "USPS COLLECTION BOX - BLUE BOX", "address": {"city": "LAWTON", "state": "OK", "street": "3800 NW CACHE RD", "postcode": "73505"}}},
{"geometry": {"type": "Point", "coordinates": [-98.4224639829, 34.6234376218]}, "type": "Feature", "properties": {"collection_times": [{"days": "Mon-Sat", "time": "3:00pm"}, {"days": "Sun", "time": "Closed"}], "id": "7350500045", "name": "USPS COLLECTION BOX - BLUE BOX", "address": {"city": "LAWTON", "state": "OK", "street": "2504 NW CACHE RD", "postcode": "73505"}}},
{"geometry": {"type": "Point", "coordinates": [-98.4753494354, 34.6234109284]}, "type": "Feature", "properties": {"collection_times": [{"days": "Mon-Sat", "time": "3:00pm"}, {"days": "Sun", "time": "Closed"}], "id": "7350500050", "name": "USPS COLLECTION BOX - BLUE BOX", "address": {"city": "LAWTON", "state": "OK", "street": "6746 NW CACHE RD", "postcode": "73505"}}},
{"geometry": {"type": "Point", "coordinates": [-98.4224590063, 34.6189905914]}, "type": "Feature", "properties": {"collection_times": [{"days": "Mon-Sat", "time": "3:00pm"}, {"days": "Sun", "time": "Closed"}], "id": "7350500052", "name": "USPS COLLECTION BOX - BLUE BOX", "address": {"city": "LAWTON", "state": "OK", "street": "1002 NW SHERIDAN RD", "postcode": "73505"}}},
{"geometry": {"type": "Point", "coordinates": [-98.4731899984, 34.6091058047]}, "type": "Feature", "properties": {"collection_times": [{"days": "Mon-Sat", "time": "5:00pm"}, {"days": "Sun", "time": "Closed"}], "id": "7350500054", "name": "USPS COLLECTION BOX - PO LOBBY", "address": {"city": "LAWTON", "state": "OK", "street": "6601 W GORE BLVD", "postcode": "73505"}}},
{"geometry": {"type": "Point", "coordinates": [-98.4731899984, 34.6091058047]}, "type": "Feature", "properties": {"collection_times": [{"days": "Mon-Sat", "time": "5:00pm"}, {"days": "Sun", "time": "Closed"}], "id": "7350500055", "name": "USPS COLLECTION BOX - PO LOBBY", "address": {"city": "LAWTON", "state": "OK", "street": "6601 W GORE BLVD", "postcode": "73505"}}},
{"geometry": {"type": "Point", "coordinates": [-98.4731899984, 34.6091058047]}, "type": "Feature", "properties": {"collection_times": [{"days": "Mon-Sat", "time": "5:00pm"}, {"days": "Sun", "time": "Closed"}], "id": "7350500056", "name": "USPS COLLECTION BOX - PO LOBBY", "address": {"city": "LAWTON", "state": "OK", "street": "6601 W GORE BLVD", "postcode": "73505"}}},
{"geometry": {"type": "Point", "coordinates": [-98.4060114652, 34.6231677845]}, "type": "Feature", "properties": {"collection_times": [{"days": "Mon-Sat", "time": "1:15pm"}, {"days": "Sun", "time": "Closed"}], "id": "7350700002", "name": "USPS COLLECTION BOX - BLUE BOX", "address": {"city": "LAWTON", "state": "OK", "street": "1146 NW CACHE RD", "postcode": "73507"}}},
{"geometry": {"type": "Point", "coordinates": [-98.4189322976, 34.6231665496]}, "type": "Feature", "properties": {"collection_times": [{"days": "Mon-Sat", "time": "1:00pm"}, {"days": "Sun", "time": "Closed"}], "id": "7350700003", "name": "USPS COLLECTION BOX - BLUE BOX", "address": {"city": "LAWTON", "state": "OK", "street": "1910 NW CACHE RD", "postcode": "73507"}}},
{"geometry": {"type": "Point", "coordinates": [-98.4063254089, 34.6161235373]}, "type": "Feature", "properties": {"collection_times": [{"days": "Mon-Sat", "time": "1:00pm"}, {"days": "Sun", "time": "Closed"}], "id": "7350700007", "name": "USPS COLLECTION BOX - BLUE BOX", "address": {"city": "LAWTON", "state": "OK", "street": "1115 NW FERRIS AVE", "postcode": "73507"}}},
{"geometry": {"type": "Point", "coordinates": [-98.3863675517, 34.6380732006]}, "type": "Feature", "properties": {"collection_times": [{"days": "Mon-Sat", "time": "12:45pm"}, {"days": "Sun", "time": "Closed"}], "id": "7350700011", "name": "USPS COLLECTION BOX - BLUE BOX", "address": {"city": "LAWTON", "state": "OK", "street": "118 NE ROGERS LN", "postcode": "73507"}}},
{"geometry": {"type": "Point", "coordinates": [-97.9656887893, 34.243183204]}, "type": "Feature", "properties": {"collection_times": [{"days": "Mon-Fri", "time": "10:45am"}, {"days": "Sat", "time": "9:15am"}, {"days": "Sun", "time": "Closed"}], "id": "7352000000", "name": "USPS COLLECTION BOX - PO LOBBY", "address": {"city": "ADDINGTON", "state": "OK", "street": "201 PARKER ST", "postcode": "73520"}}},
{"geometry": {"type": "Point", "coordinates": [-97.9656887893, 34.243183204]}, "type": "Feature", "properties": {"collection_times": [{"days": "Mon-Fri", "time": "2:15pm"}, {"days": "Sat", "time": "9:15am"}, {"days": "Sun", "time": "Closed"}], "id": "7352000001", "name": "USPS COLLECTION BOX - BLUE BOX", "address": {"city": "ADDINGTON", "state": "OK", "street": "201 PARKER ST", "postcode": "73520"}}},
{"geometry": {"type": "Point", "coordinates": [-99.3338770455, 34.6377886074]}, "type": "Feature", "properties": {"collection_times": [{"days": "Mon-Fri", "time": "4:15pm"}, {"days": "Sat-Sun", "time": "Closed"}], "id": "7352100001", "name": "USPS COLLECTION BOX - BLUE BOX", "address": {"city": "ALTUS", "state": "OK", "street": "100 E BROADWAY ST", "postcode": "73521"}}},
{"geometry": {"type": "Point", "coordinates": [-99.3166193113, 34.6365116126]}, "type": "Feature", "properties": {"collection_times": [{"days": "Mon-Sat", "time": "2:00pm"}, {"days": "Sun", "time": "Closed"}], "id": "7352100008", "name": "USPS COLLECTION BOX - BLUE BOX", "address": {"city": "ALTUS", "state": "OK", "street": "201 S PARK LN", "postcode": "73521"}}},
{"geometry": {"type": "Point", "coordinates": [-99.342681122, 34.6802077252]}, "type": "Feature", "properties": {"collection_times": [{"days": "Mon-Sat", "time": "2:45pm"}, {"days": "Sun", "time": "Closed"}], "id": "7352100016", "name": "USPS COLLECTION BOX - BLUE BOX", "address": {"city": "ALTUS", "state": "OK", "street": "105 S 1ST ST", "postcode": "73521"}}},
{"geometry": {"type": "Point", "coordinates": [-99.3338675168, 34.6528935393]}, "type": "Feature", "properties": {"collection_times": [{"days": "Mon-Fri", "time": "4:15pm"}, {"days": "Sat", "time": "4:00pm"}, {"days": "Sun", "time": "Closed"}], "id": "7352100023", "name": "USPS COLLECTION BOX - BLUE BOX", "address": {"city": "ALTUS", "state": "OK", "street": "1424 N MAIN ST", "postcode": "73521"}}},
{"geometry": {"type": "Point", "coordinates": [-99.3341497345, 34.6569530083]}, "type": "Feature", "properties": {"collection_times": [{"days": "Mon-Fri", "time": "4:30pm"}, {"days": "Sat", "time": "4:00pm"}, {"days": "Sun", "time": "Closed"}], "id": "7352100024", "name": "USPS COLLECTION BOX - BLUE BOX", "address": {"city": "ALTUS", "state": "OK", "street": "1717 N MAIN ST", "postcode": "73521"}}},
{"geometry": {"type": "Point", "coordinates": [-99.3354920679, 34.6411940167]}, "type": "Feature", "properties": {"collection_times": [{"days": "Mon-Sat", "time": "4:45pm"}, {"days": "Sun", "time": "Closed"}], "id": "7352100029", "name": "USPS COLLECTION BOX - BLUE BOX", "address": {"city": "ALTUS", "state": "OK", "street": "217 W ELM ST", "postcode": "73521"}}},
{"geometry": {"type": "Point", "coordinates": [-99.3340099991, 34.6703658916]}, "type": "Feature", "properties": {"collection_times": [{"days": "Mon-Fri", "time": "4:30pm"}, {"days": "Sat", "time": "4:00pm"}, {"days": "Sun", "time": "Closed"}], "id": "7352100031", "name": "USPS COLLECTION BOX - BLUE BOX", "address": {"city": "ALTUS", "state": "OK", "street": "3120 N MAIN ST", "postcode": "73521"}}},
{"geometry": {"type": "Point", "coordinates": [-99.3354900289, 34.6401056696]}, "type": "Feature", "properties": {"collection_times": [{"days": "Mon-Sat", "time": "5:00pm"}, {"days": "Sun", "time": "Closed"}], "id": "7352100033", "name": "USPS COLLECTION BOX - PO LOBBY", "address": {"city": "ALTUS", "state": "OK", "street": "217 W CYPRESS ST", "postcode": "73521"}}},
{"geometry": {"type": "Point", "coordinates": [-99.3354900289, 34.6401056696]}, "type": "Feature", "properties": {"collection_times": [{"days": "Mon-Sat", "time": "5:00pm"}, {"days": "Sun", "time": "Closed"}], "id": "7352100034", "name": "USPS COLLECTION BOX - PO LOBBY", "address": {"city": "ALTUS", "state": "OK", "street": "217 W CYPRESS ST", "postcode": "73521"}}},
{"geometry": {"type": "Point", "coordinates": [-99.3340113769, 34.6334685992]}, "type": "Feature", "properties": {"collection_times": [{"days": "Mon-Fri", "time": "4:15pm"}, {"days": "Sat-Sun", "time": "Closed"}], "id": "7352100041", "name": "USPS COLLECTION BOX - BLUE BOX", "address": {"city": "ALTUS", "state": "OK", "street": "509 S MAIN ST", "postcode": "73521"}}},
{"geometry": {"type": "Point", "coordinates": [-99.3354920679, 34.6411940167]}, "type": "Feature", "properties": {"collection_times": [{"days": "Mon-Sat", "time": "4:45pm"}, {"days": "Sun", "time": "Closed"}], "id": "7352100042", "name": "USPS COLLECTION BOX - BLUE BOX", "address": {"city": "ALTUS", "state": "OK", "street": "217 W ELM ST", "postcode": "73521"}}},
{"geometry": {"type": "Point", "coordinates": [-99.3351759803, 34.7805337864]}, "type": "Feature", "properties": {"collection_times": [{"days": "Mon-Fri", "time": "3:45pm"}, {"days": "Sat", "time": "11:00am"}, {"days": "Sun", "time": "Closed"}], "id": "7352600000", "name": "USPS COLLECTION BOX - BLUE BOX", "address": {"city": "BLAIR", "state": "OK", "street": "111 E MAIN ST", "postcode": "73526"}}},
{"geometry": {"type": "Point", "coordinates": [-99.3351759803, 34.7805337864]}, "type": "Feature", "properties": {"collection_times": [{"days": "Mon-Fri", "time": "4:00pm"}, {"days": "Sat", "time": "11:00am"}, {"days": "Sun", "time": "Closed"}], "id": "7352600001", "name": "USPS COLLECTION BOX - PO LOBBY", "address": {"city": "BLAIR", "state": "OK", "street": "111 E MAIN ST", "postcode": "73526"}}},
{"geometry": {"type": "Point", "coordinates": [-99.3351759803, 34.7805337864]}, "type": "Feature", "properties": {"collection_times": [{"days": "Mon-Fri", "time": "4:00pm"}, {"days": "Sat", "time": "11:00am"}, {"days": "Sun", "time": "Closed"}], "id": "7352600002", "name": "USPS COLLECTION BOX - PO LOBBY", "address": {"city": "BLAIR", "state": "OK", "street": "111 E MAIN ST", "postcode": "73526"}}},
{"geometry": {"type": "Point", "coordinates": [-98.6326979363, 34.6256267022]}, "type": "Feature", "properties": {"collection_times": [{"days": "Mon-Fri", "time": "4:30pm"}, {"days": "Sat", "time": "10:00am"}, {"days": "Sun", "time": "Closed"}], "id": "7352700000", "name": "USPS COLLECTION BOX - BLUE BOX", "address": {"city": "CACHE", "state": "OK", "street": "601 S 8TH ST", "postcode": "73527"}}},
{"geometry": {"type": "Point", "coordinates": [-98.6278705206, 34.6287608191]}, "type": "Feature", "properties": {"collection_times": [{"days": "Mon-Sat", "time": "9:00am"}, {"days": "Sun", "time": "Closed"}], "id": "7352700002", "name": "USPS COLLECTION BOX - BLUE BOX", "address": {"city": "CACHE", "state": "OK", "street": "416 W C AVE", "postcode": "73527"}}},
{"geometry": {"type": "Point", "coordinates": [-98.6326979363, 34.6256267022]}, "type": "Feature", "properties": {"collection_times": [{"days": "Mon-Fri", "time": "4:30pm"}, {"days": "Sat", "time": "10:00am"}, {"days": "Sun", "time": "Closed"}], "id": "7352700003", "name": "USPS COLLECTION BOX - PO LOBBY", "address": {"city": "CACHE", "state": "OK", "street": "601 S 8TH ST", "postcode": "73527"}}},
{"geometry": {"type": "Point", "coordinates": [-98.6326979363, 34.6256267022]}, "type": "Feature", "properties": {"collection_times": [{"days": "Mon-Fri", "time": "4:30pm"}, {"days": "Sat", "time": "10:00am"}, {"days": "Sun", "time": "Closed"}], "id": "7352700004", "name": "USPS COLLECTION BOX - PO LOBBY", "address": {"city": "CACHE", "state": "OK", "street": "601 S 8TH ST", "postcode": "73527"}}},
{"geometry": {"type": "Point", "coordinates": [-98.6584433312, 34.4225529952]}, "type": "Feature", "properties": {"collection_times": [{"days": "Mon-Fri", "time": "12:00pm"}, {"days": "Sat", "time": "9:00am"}, {"days": "Sun", "time": "Closed"}], "id": "7352800001", "name": "USPS COLLECTION BOX - PO LOBBY", "address": {"city": "CHATTANOOGA", "state": "OK", "street": "307 MADISON AVE", "postcode": "73528"}}},
{"geometry": {"type": "Point", "coordinates": [-98.6584433312, 34.4225529952]}, "type": "Feature", "properties": {"collection_times": [{"days": "Mon-Fri", "time": "12:00pm"}, {"days": "Sat", "time": "9:00am"}, {"days": "Sun", "time": "Closed"}], "id": "7352800002", "name": "USPS COLLECTION BOX - PO LOBBY", "address": {"city": "CHATTANOOGA", "state": "OK", "street": "307 MADISON AVE", "postcode": "73528"}}},
{"geometry": {"type": "Point", "coordinates": [-97.9629893523, 34.3687507145]}, "type": "Feature", "properties": {"collection_times": [{"days": "Mon-Fri", "time": "4:45pm"}, {"days": "Sat", "time": "10:00am"}, {"days": "Sun", "time": "Closed"}], "id": "7352900006", "name": "USPS COLLECTION BOX - PO LOBBY", "address": {"city": "COMANCHE", "state": "OK", "street": "121 S 2ND ST", "postcode": "73529"}}},
{"geometry": {"type": "Point", "coordinates": [-99.0759380982, 34.2417093084]}, "type": "Feature", "properties": {"collection_times": [{"days": "Mon-Fri", "time": "3:45pm"}, {"days": "Sat", "time": "9:30am"}, {"days": "Sun", "time": "Closed"}], "id": "7353000000", "name": "USPS COLLECTION BOX - BLUE BOX", "address": {"city": "DAVIDSON", "state": "OK", "street": "110 W GRAND ST", "postcode": "73530"}}},
{"geometry": {"type": "Point", "coordinates": [-99.0759380982, 34.2417093084]}, "type": "Feature", "properties": {"collection_times": [{"days": "Mon-Fri", "time": "11:45am"}, {"days": "Sat", "time": "9:30am"}, {"days": "Sun", "time": "Closed"}], "id": "7353000001", "name": "USPS COLLECTION BOX - PO LOBBY", "address": {"city": "DAVIDSON", "state": "OK", "street": "110 W GRAND ST", "postcode": "73530"}}},
{"geometry": {"type": "Point", "coordinates": [-98.5644233988, 34.2161679738]}, "type": "Feature", "properties": {"collection_times": [{"days": "Mon-Fri", "time": "2:15pm"}, {"days": "Sat", "time": "10:00am"}, {"days": "Sun", "time": "Closed"}], "id": "7353100000", "name": "USPS COLLECTION BOX - PO LOBBY", "address": {"city": "DEVOL", "state": "OK", "street": "110 W MULBERRY ST", "postcode": "73531"}}},
{"geometry": {"type": "Point", "coordinates": [-98.5644233988, 34.2161679738]}, "type": "Feature", "properties": {"collection_times": [{"days": "Mon-Fri", "time": "2:15pm"}, {"days": "Sat", "time": "10:00am"}, {"days": "Sun", "time": "Closed"}], "id": "7353100001", "name": "USPS COLLECTION BOX - PO LOBBY", "address": {"city": "DEVOL", "state": "OK", "street": "110 W MULBERRY ST", "postcode": "73531"}}},
{"geometry": {"type": "Point", "coordinates": [-99.5702281011, 34.6614876203]}, "type": "Feature", "properties": {"collection_times": [{"days": "Mon-Fri", "time": "4:00pm"}, {"days": "Sat", "time": "9:00am"}, {"days": "Sun", "time": "Closed"}], "id": "7353200000", "name": "USPS COLLECTION BOX - BLUE BOX", "address": {"city": "DUKE", "state": "OK", "street": "106 E 2ND ST", "postcode": "73532"}}},
{"geometry": {"type": "Point", "coordinates": [-99.5702281011, 34.6614876203]}, "type": "Feature", "properties": {"collection_times": [{"days": "Mon-Fri", "time": "4:00pm"}, {"days": "Sat", "time": "9:00am"}, {"days": "Sun", "time": "Closed"}], "id": "7353200001", "name": "USPS COLLECTION BOX - PO LOBBY", "address": {"city": "DUKE", "state": "OK", "street": "106 E 2ND ST", "postcode": "73532"}}},
{"geometry": {"type": "Point", "coordinates": [-99.5702281011, 34.6614876203]}, "type": "Feature", "properties": {"collection_times": [{"days": "Mon-Fri", "time": "4:00pm"}, {"days": "Sat", "time": "9:00am"}, {"days": "Sun", "time": "Closed"}], "id": "7353200002", "name": "USPS COLLECTION BOX - PO LOBBY", "address": {"city": "DUKE", "state": "OK", "street": "106 E 2ND ST", "postcode": "73532"}}},
{"geometry": {"type": "Point", "coordinates": [-97.9627239717, 34.5011831033]}, "type": "Feature", "properties": {"collection_times": [{"days": "Mon-Fri", "time": "4:45pm"}, {"days": "Sat-Sun", "time": "Closed"}], "id": "7353300006", "name": "USPS COLLECTION BOX - BLUE BOX", "address": {"city": "DUNCAN", "state": "OK", "street": "102 S 12TH ST", "postcode": "73533"}}},
{"geometry": {"type": "Point", "coordinates": [-97.97156275, 34.5216408128]}, "type": "Feature", "properties": {"collection_times": [{"days": "Mon-Fri", "time": "4:30pm"}, {"days": "Sat-Sun", "time": "Closed"}], "id": "7353300010", "name": "USPS COLLECTION BOX - BLUE BOX", "address": {"city": "DUNCAN", "state": "OK", "street": "2120 W ELK AVE", "postcode": "73533"}}},
{"geometry": {"type": "Point", "coordinates": [-97.9668137899, 34.5217214913]}, "type": "Feature", "properties": {"collection_times": [{"days": "Mon-Fri", "time": "4:15pm"}, {"days": "Sat", "time": "9:30am"}, {"days": "Sun", "time": "Closed"}], "id": "7353300012", "name": "USPS COLLECTION BOX - BLUE BOX", "address": {"city": "DUNCAN", "state": "OK", "street": "1500 N HIGHWAY 81", "postcode": "73533"}}},
{"geometry": {"type": "Point", "coordinates": [-97.958174391, 34.5162202564]}, "type": "Feature", "properties": {"collection_times": [{"days": "Mon-Fri", "time": "4:15pm"}, {"days": "Sat", "time": "9:30am"}, {"days": "Sun", "time": "Closed"}], "id": "7353300016", "name": "USPS COLLECTION BOX - BLUE BOX", "address": {"city": "DUNCAN", "state": "OK", "street": "900 W PEACH AVE", "postcode": "73533"}}},
{"geometry": {"type": "Point", "coordinates": [-97.9570007564, 34.5006737359]}, "type": "Feature", "properties": {"collection_times": [{"days": "Mon-Fri", "time": "5:00pm"}, {"days": "Sat", "time": "3:00pm"}, {"days": "Sun", "time": "Closed"}], "id": "7353300021", "name": "USPS COLLECTION BOX - BLUE BOX", "address": {"city": "DUNCAN", "state": "OK", "street": "802 W WILLOW AVE", "postcode": "73533"}}},
{"geometry": {"type": "Point", "coordinates": [-97.9570007564, 34.5006737359]}, "type": "Feature", "properties": {"collection_times": [{"days": "Mon-Fri", "time": "5:00pm"}, {"days": "Sat", "time": "3:00pm"}, {"days": "Sun", "time": "Closed"}], "id": "7353300022", "name": "USPS COLLECTION BOX - BLUE BOX", "address": {"city": "DUNCAN", "state": "OK", "street": "802 W WILLOW AVE", "postcode": "73533"}}},
{"geometry": {"type": "Point", "coordinates": [-97.9558145533, 34.5018147338]}, "type": "Feature", "properties": {"collection_times": [{"days": "Mon-Fri", "time": "3:45pm"}, {"days": "Sat-Sun", "time": "Closed"}], "id": "7353300024", "name": "USPS COLLECTION BOX - BLUE BOX", "address": {"city": "DUNCAN", "state": "OK", "street": "729 W MAIN ST", "postcode": "73533"}}},
{"geometry": {"type": "Point", "coordinates": [-97.9441723412, 34.5008506326]}, "type": "Feature", "properties": {"collection_times": [{"days": "Mon-Fri", "time": "3:45pm"}, {"days": "Sat", "time": "9:30am"}, {"days": "Sun", "time": "Closed"}], "id": "7353300029", "name": "USPS COLLECTION BOX - BLUE BOX", "address": {"city": "DUNCAN", "state": "OK", "street": "109 E MAIN ST", "postcode": "73533"}}},
{"geometry": {"type": "Point", "coordinates": [-97.9614741607, 34.502298165]}, "type": "Feature", "properties": {"collection_times": [{"days": "Mon-Fri", "time": "4:30pm"}, {"days": "Sat", "time": "9:30am"}, {"days": "Sun", "time": "Closed"}], "id": "7353300030", "name": "USPS COLLECTION BOX - BLUE BOX", "address": {"city": "DUNCAN", "state": "OK", "street": "1109 W MAIN ST", "postcode": "73533"}}},
{"geometry": {"type": "Point", "coordinates": [-97.9734336786, 34.5072316667]}, "type": "Feature", "properties": {"collection_times": [{"days": "Mon-Sat", "time": "1:00pm"}, {"days": "Sun", "time": "Closed"}], "id": "7353300038", "name": "USPS COLLECTION BOX - BLUE BOX", "address": {"city": "DUNCAN", "state": "OK", "street": "400 N 20TH ST", "postcode": "73533"}}},
{"geometry": {"type": "Point", "coordinates": [-97.9775747109, 34.5183400865]}, "type": "Feature", "properties": {"collection_times": [{"days": "Mon-Fri", "time": "4:30pm"}, {"days": "Sat-Sun", "time": "Closed"}], "id": "7353300040", "name": "USPS COLLECTION BOX - BLUE BOX", "address": {"city": "DUNCAN", "state": "OK", "street": "1300 JACKIE RD", "postcode": "73533"}}},
{"geometry": {"type": "Point", "coordinates": [-97.9570007564, 34.5006737359]}, "type": "Feature", "properties": {"collection_times": [{"days": "Mon-Fri", "time": "5:00pm"}, {"days": "Sat", "time": "3:00pm"}, {"days": "Sun", "time": "Closed"}], "id": "7353300041", "name": "USPS COLLECTION BOX - PO LOBBY", "address": {"city": "DUNCAN", "state": "OK", "street": "802 W WILLOW AVE", "postcode": "73533"}}},
{"geometry": {"type": "Point", "coordinates": [-97.9570007564, 34.5006737359]}, "type": "Feature", "properties": {"collection_times": [{"days": "Mon-Fri", "time": "5:00pm"}, {"days": "Sat", "time": "3:00pm"}, {"days": "Sun", "time": "Closed"}], "id": "7353300042", "name": "USPS COLLECTION BOX - PO LOBBY", "address": {"city": "DUNCAN", "state": "OK", "street": "802 W WILLOW AVE", "postcode": "73533"}}},
{"geometry": {"type": "Point", "coordinates": [-97.9570007564, 34.5006737359]}, "type": "Feature", "properties": {"collection_times": [{"days": "Mon-Fri", "time": "5:00pm"}, {"days": "Sat", "time": "3:00pm"}, {"days": "Sun", "time": "Closed"}], "id": "7353300043", "name": "USPS COLLECTION BOX - PO LOBBY", "address": {"city": "DUNCAN", "state": "OK", "street": "802 W WILLOW AVE", "postcode": "73533"}}},
{"geometry": {"type": "Point", "coordinates": [-99.6488772322, 34.4728991557]}, "type": "Feature", "properties": {"collection_times": [{"days": "Mon-Fri", "time": "4:00pm"}, {"days": "Sat", "time": "9:00am"}, {"days": "Sun", "time": "Closed"}], "id": "7353700000", "name": "USPS COLLECTION BOX - BLUE BOX", "address": {"city": "ELDORADO", "state": "OK", "street": "116 N 4TH ST", "postcode": "73537"}}},
{"geometry": {"type": "Point", "coordinates": [-99.6488772322, 34.4728991557]}, "type": "Feature", "properties": {"collection_times": [{"days": "Mon-Fri", "time": "2:45pm"}, {"days": "Sat", "time": "9:00am"}, {"days": "Sun", "time": "Closed"}], "id": "7353700001", "name": "USPS COLLECTION BOX - PO LOBBY", "address": {"city": "ELDORADO", "state": "OK", "street": "116 N 4TH ST", "postcode": "73537"}}},
{"geometry": {"type": "Point", "coordinates": [-98.2878684933, 34.7825860195]}, "type": "Feature", "properties": {"collection_times": [{"days": "Mon-Fri", "time": "4:15pm"}, {"days": "Sat", "time": "10:00am"}, {"days": "Sun", "time": "Closed"}], "id": "7353800000", "name": "USPS COLLECTION BOX - BLUE BOX", "address": {"city": "ELGIN", "state": "OK", "street": "8292 STATE HIGHWAY 17", "postcode": "73538"}}},
{"geometry": {"type": "Point", "coordinates": [-98.2878684933, 34.7825860195]}, "type": "Feature", "properties": {"collection_times": [{"days": "Mon-Fri", "time": "4:30pm"}, {"days": "Sat", "time": "10:00am"}, {"days": "Sun", "time": "Closed"}], "id": "7353800002", "name": "USPS COLLECTION BOX - PO LOBBY", "address": {"city": "ELGIN", "state": "OK", "street": "8292 STATE HIGHWAY 17", "postcode": "73538"}}},
{"geometry": {"type": "Point", "coordinates": [-98.2878684933, 34.7825860195]}, "type": "Feature", "properties": {"collection_times": [{"days": "Mon-Fri", "time": "4:30pm"}, {"days": "Sat", "time": "10:00am"}, {"days": "Sun", "time": "Closed"}], "id": "7353800003", "name": "USPS COLLECTION BOX - PO LOBBY", "address": {"city": "ELGIN", "state": "OK", "street": "8292 STATE HIGHWAY 17", "postcode": "73538"}}},
{"geometry": {"type": "Point", "coordinates": [-99.2986865141, 34.5076192866]}, "type": "Feature", "properties": {"collection_times": [{"days": "Mon-Fri", "time": "2:00pm"}, {"days": "Sat", "time": "9:30am"}, {"days": "Sun", "time": "Closed"}], "id": "7353900001", "name": "USPS COLLECTION BOX - PO LOBBY", "address": {"city": "ELMER", "state": "OK", "street": "717 MAIN ST", "postcode": "73539"}}},
{"geometry": {"type": "Point", "coordinates": [-98.1799206132, 34.7657446661]}, "type": "Feature", "properties": {"collection_times": [{"days": "Mon-Fri", "time": "4:00pm"}, {"days": "Sat", "time": "11:00am"}, {"days": "Sun", "time": "Closed"}], "id": "7354100000", "name": "USPS COLLECTION BOX - BLUE BOX", "address": {"city": "FLETCHER", "state": "OK", "street": "103 N SELBY", "postcode": "73541"}}},
{"geometry": {"type": "Point", "coordinates": [-98.1799206132, 34.7657446661]}, "type": "Feature", "properties": {"collection_times": [{"days": "Mon-Fri", "time": "4:00pm"}, {"days": "Sat", "time": "11:00am"}, {"days": "Sun", "time": "Closed"}], "id": "7354100001", "name": "USPS COLLECTION BOX - PO LOBBY", "address": {"city": "FLETCHER", "state": "OK", "street": "103 N SELBY", "postcode": "73541"}}},
{"geometry": {"type": "Point", "coordinates": [-98.1799206132, 34.7657446661]}, "type": "Feature", "properties": {"collection_times": [{"days": "Mon-Fri", "time": "4:00pm"}, {"days": "Sat", "time": "11:00am"}, {"days": "Sun", "time": "Closed"}], "id": "7354100002", "name": "USPS COLLECTION BOX - PO LOBBY", "address": {"city": "FLETCHER", "state": "OK", "street": "103 N SELBY", "postcode": "73541"}}},
{"geometry": {"type": "Point", "coordinates": [-99.0173848033, 34.3896798718]}, "type": "Feature", "properties": {"collection_times": [{"days": "Mon-Sat", "time": "3:00pm"}, {"days": "Sun", "time": "Closed"}], "id": "7354200000", "name": "USPS COLLECTION BOX - BLUE BOX", "address": {"city": "FREDERICK", "state": "OK", "street": "127 W GRAND AVE", "postcode": "73542"}}},
{"geometry": {"type": "Point", "coordinates": [-99.0167711136, 34.3895784666]}, "type": "Feature", "properties": {"collection_times": [{"days": "Mon-Fri", "time": "4:30pm"}, {"days": "Sat", "time": "3:00pm"}, {"days": "Sun", "time": "Closed"}], "id": "7354200002", "name": "USPS COLLECTION BOX - BLUE BOX", "address": {"city": "FREDERICK", "state": "OK", "street": "120 E GRAND AVE", "postcode": "73542"}}},
{"geometry": {"type": "Point", "coordinates": [-99.0167711132, 34.389578467]}, "type": "Feature", "properties": {"collection_times": [{"days": "Mon-Fri", "time": "4:15pm"}, {"days": "Sat", "time": "3:00pm"}, {"days": "Sun", "time": "Closed"}], "id": "7354200003", "name": "USPS COLLECTION BOX - BLUE BOX", "address": {"city": "FREDERICK", "state": "OK", "street": "120 E GRAND AVE", "postcode": "73542"}}},
{"geometry": {"type": "Point", "coordinates": [-99.0167711136, 34.3895784666]}, "type": "Feature", "properties": {"collection_times": [{"days": "Mon-Fri", "time": "4:30pm"}, {"days": "Sat", "time": "3:00pm"}, {"days": "Sun", "time": "Closed"}], "id": "7354200004", "name": "USPS COLLECTION BOX - PO LOBBY", "address": {"city": "FREDERICK", "state": "OK", "street": "120 E GRAND AVE", "postcode": "73542"}}},
{"geometry": {"type": "Point", "coordinates": [-99.0167711136, 34.3895784666]}, "type": "Feature", "properties": {"collection_times": [{"days": "Mon-Fri", "time": "4:30pm"}, {"days": "Sat", "time": "3:00pm"}, {"days": "Sun", "time": "Closed"}], "id": "7354200005", "name": "USPS COLLECTION BOX - PO LOBBY", "address": {"city": "FREDERICK", "state": "OK", "street": "120 E GRAND AVE", "postcode": "73542"}}},
{"geometry": {"type": "Point", "coordinates": [-98.3627344416, 34.4794508029]}, "type": "Feature", "properties": {"collection_times": [{"days": "Mon-Fri", "time": "11:45am"}, {"days": "Sat", "time": "9:15am"}, {"days": "Sun", "time": "Closed"}], "id": "7354300000", "name": "USPS COLLECTION BOX - PO LOBBY", "address": {"city": "GERONIMO", "state": "OK", "street": "200 E MAIN ST", "postcode": "73543"}}},
{"geometry": {"type": "Point", "coordinates": [-98.3627344416, 34.4794508029]}, "type": "Feature", "properties": {"collection_times": [{"days": "Mon-Fri", "time": "11:45am"}, {"days": "Sat", "time": "9:15am"}, {"days": "Sun", "time": "Closed"}], "id": "7354300001", "name": "USPS COLLECTION BOX - PO LOBBY", "address": {"city": "GERONIMO", "state": "OK", "street": "200 E MAIN ST", "postcode": "73543"}}},
{"geometry": {"type": "Point", "coordinates": [-98.3627344416, 34.4794508029]}, "type": "Feature", "properties": {"collection_times": [{"days": "Mon-Fri", "time": "11:45am"}, {"days": "Sat", "time": "9:15am"}, {"days": "Sun", "time": "Closed"}], "id": "7354300002", "name": "USPS COLLECTION BOX - PO LOBBY", "address": {"city": "GERONIMO", "state": "OK", "street": "200 E MAIN ST", "postcode": "73543"}}},
{"geometry": {"type": "Point", "coordinates": [-99.7736174294, 34.6669622811]}, "type": "Feature", "properties": {"collection_times": [{"days": "Mon-Fri", "time": "3:30pm"}, {"days": "Sat", "time": "9:00am"}, {"days": "Sun", "time": "Closed"}], "id": "7354400000", "name": "USPS COLLECTION BOX - BLUE BOX", "address": {"city": "GOULD", "state": "OK", "street": "111 S KENNEDY ST", "postcode": "73544"}}},
{"geometry": {"type": "Point", "coordinates": [-99.7736174294, 34.6669622811]}, "type": "Feature", "properties": {"collection_times": [{"days": "Mon-Fri", "time": "11:15am"}, {"days": "Sat", "time": "9:00am"}, {"days": "Sun", "time": "Closed"}], "id": "7354400001", "name": "USPS COLLECTION BOX - PO LOBBY", "address": {"city": "GOULD", "state": "OK", "street": "111 S KENNEDY ST", "postcode": "73544"}}},
{"geometry": {"type": "Point", "coordinates": [-98.6830813032, 34.2306934308]}, "type": "Feature", "properties": {"collection_times": [{"days": "Mon-Fri", "time": "3:30pm"}, {"days": "Sat", "time": "9:15am"}, {"days": "Sun", "time": "Closed"}], "id": "7354600000", "name": "USPS COLLECTION BOX - BLUE BOX", "address": {"city": "GRANDFIELD", "state": "OK", "street": "123 E 2ND ST", "postcode": "73546"}}},
{"geometry": {"type": "Point", "coordinates": [-98.6830813032, 34.2306934308]}, "type": "Feature", "properties": {"collection_times": [{"days": "Mon-Fri", "time": "3:30pm"}, {"days": "Sat", "time": "9:30am"}, {"days": "Sun", "time": "Closed"}], "id": "7354600001", "name": "USPS COLLECTION BOX - PO LOBBY", "address": {"city": "GRANDFIELD", "state": "OK", "street": "123 E 2ND ST", "postcode": "73546"}}},
{"geometry": {"type": "Point", "coordinates": [-98.6830813032, 34.2306934308]}, "type": "Feature", "properties": {"collection_times": [{"days": "Mon-Fri", "time": "3:30pm"}, {"days": "Sat", "time": "9:30am"}, {"days": "Sun", "time": "Closed"}], "id": "7354600002", "name": "USPS COLLECTION BOX - PO LOBBY", "address": {"city": "GRANDFIELD", "state": "OK", "street": "123 E 2ND ST", "postcode": "73546"}}},
{"geometry": {"type": "Point", "coordinates": [-99.4116275563, 34.9949698577]}, "type": "Feature", "properties": {"collection_times": [{"days": "Mon-Fri", "time": "3:00pm"}, {"days": "Sat", "time": "9:30am"}, {"days": "Sun", "time": "Closed"}], "id": "7354700001", "name": "USPS COLLECTION BOX - PO LOBBY", "address": {"city": "GRANITE", "state": "OK", "street": "402 N GRANITE ST", "postcode": "73547"}}},
{"geometry": {"type": "Point", "coordinates": [-99.4116275563, 34.9949698577]}, "type": "Feature", "properties": {"collection_times": [{"days": "Mon-Fri", "time": "3:00pm"}, {"days": "Sat", "time": "9:30am"}, {"days": "Sun", "time": "Closed"}], "id": "7354700002", "name": "USPS COLLECTION BOX - PO LOBBY", "address": {"city": "GRANITE", "state": "OK", "street": "402 N GRANITE ST", "postcode": "73547"}}},
{"geometry": {"type": "Point", "coordinates": [-98.105984382, 34.215929282]}, "type": "Feature", "properties": {"collection_times": [{"days": "Mon-Fri", "time": "3:45pm"}, {"days": "Sat", "time": "9:15am"}, {"days": "Sun", "time": "Closed"}], "id": "7354800001", "name": "USPS COLLECTION BOX - PO LOBBY", "address": {"city": "HASTINGS", "state": "OK", "street": "106 W MAIN ST", "postcode": "73548"}}},
{"geometry": {"type": "Point", "coordinates": [-98.105984382, 34.215929282]}, "type": "Feature", "properties": {"collection_times": [{"days": "Mon-Fri", "time": "3:45pm"}, {"days": "Sat", "time": "9:15am"}, {"days": "Sun", "time": "Closed"}], "id": "7354800002", "name": "USPS COLLECTION BOX - PO LOBBY", "address": {"city": "HASTINGS", "state": "OK", "street": "106 W MAIN ST", "postcode": "73548"}}},
{"geometry": {"type": "Point", "coordinates": [-99.2001721229, 34.7012850709]}, "type": "Feature", "properties": {"collection_times": [{"days": "Mon-Fri", "time": "11:15am"}, {"days": "Sat", "time": "8:45am"}, {"days": "Sun", "time": "Closed"}], "id": "7354900001", "name": "USPS COLLECTION BOX - PO LOBBY", "address": {"city": "HEADRICK", "state": "OK", "street": "310 N BROADWAY ST", "postcode": "73549"}}},
{"geometry": {"type": "Point", "coordinates": [-99.2001721229, 34.7012850709]}, "type": "Feature", "properties": {"collection_times": [{"days": "Mon-Fri", "time": "11:15am"}, {"days": "Sat", "time": "8:45am"}, {"days": "Sun", "time": "Closed"}], "id": "7354900002", "name": "USPS COLLECTION BOX - PO LOBBY", "address": {"city": "HEADRICK", "state": "OK", "street": "310 N BROADWAY ST", "postcode": "73549"}}},
{"geometry": {"type": "Point", "coordinates": [-99.919782192, 34.682050156]}, "type": "Feature", "properties": {"collection_times": [{"days": "Mon-Fri", "time": "4:00pm"}, {"days": "Sat", "time": "10:15am"}, {"days": "Sun", "time": "Closed"}], "id": "7355000005", "name": "USPS COLLECTION BOX - BLUE BOX", "address": {"city": "HOLLIS", "state": "OK", "street": "120 N 2ND ST", "postcode": "73550"}}},
{"geometry": {"type": "Point", "coordinates": [-99.919782192, 34.682050156]}, "type": "Feature", "properties": {"collection_times": [{"days": "Mon-Fri", "time": "4:00pm"}, {"days": "Sat", "time": "3:45pm"}, {"days": "Sun", "time": "Closed"}], "id": "7355000006", "name": "USPS COLLECTION BOX - PO LOBBY", "address": {"city": "HOLLIS", "state": "OK", "street": "120 N 2ND ST", "postcode": "73550"}}},
{"geometry": {"type": "Point", "coordinates": [-99.919782192, 34.682050156]}, "type": "Feature", "properties": {"collection_times": [{"days": "Mon-Fri", "time": "4:00pm"}, {"days": "Sat", "time": "10:15am"}, {"days": "Sun", "time": "Closed"}], "id": "7355000009", "name": "USPS COLLECTION BOX - BLUE BOX", "address": {"city": "HOLLIS", "state": "OK", "street": "120 N 2ND ST", "postcode": "73550"}}},
{"geometry": {"type": "Point", "coordinates": [-98.8884419456, 34.3629577982]}, "type": "Feature", "properties": {"collection_times": [{"days": "Mon-Fri", "time": "12:00pm"}, {"days": "Sat-Sun", "time": "Closed"}], "id": "7355100002", "name": "USPS COLLECTION BOX - BLUE BOX", "address": {"city": "HOLLISTER", "state": "OK", "street": "516 MAJORS AVE", "postcode": "73551"}}},
{"geometry": {"type": "Point", "coordinates": [-98.7515010486, 34.6196952317]}, "type": "Feature", "properties": {"collection_times": [{"days": "Mon-Fri", "time": "3:30pm"}, {"days": "Sat", "time": "9:30am"}, {"days": "Sun", "time": "Closed"}], "id": "7355200002", "name": "USPS COLLECTION BOX - PO LOBBY", "address": {"city": "INDIAHOMA", "state": "OK", "street": "308 MAIN ST", "postcode": "73552"}}},
{"geometry": {"type": "Point", "coordinates": [-98.7515010486, 34.6196952317]}, "type": "Feature", "properties": {"collection_times": [{"days": "Mon-Fri", "time": "3:30pm"}, {"days": "Sat", "time": "9:30am"}, {"days": "Sun", "time": "Closed"}], "id": "7355200003", "name": "USPS COLLECTION BOX - PO LOBBY", "address": {"city": "INDIAHOMA", "state": "OK", "street": "308 MAIN ST", "postcode": "73552"}}},
{"geometry": {"type": "Point", "coordinates": [-99.5043013694, 34.8735965953]}, "type": "Feature", "properties": {"collection_times": [{"days": "Mon-Sat", "time": "4:00pm"}, {"days": "Sun", "time": "Closed"}], "id": "7355400001", "name": "USPS COLLECTION BOX - BLUE BOX", "address": {"city": "MANGUM", "state": "OK", "street": "101 S PENNSYLVANIA AVE", "postcode": "73554"}}},
{"geometry": {"type": "Point", "coordinates": [-99.5043013694, 34.8735965953]}, "type": "Feature", "properties": {"collection_times": [{"days": "Mon-Sat", "time": "4:00pm"}, {"days": "Sun", "time": "Closed"}], "id": "7355400006", "name": "USPS COLLECTION BOX - BLUE BOX", "address": {"city": "MANGUM", "state": "OK", "street": "101 S PENNSYLVANIA AVE", "postcode": "73554"}}},
{"geometry": {"type": "Point", "coordinates": [-99.5043013694, 34.8735965953]}, "type": "Feature", "properties": {"collection_times": [{"days": "Mon-Sat", "time": "4:00pm"}, {"days": "Sun", "time": "Closed"}], "id": "7355400007", "name": "USPS COLLECTION BOX - PO LOBBY", "address": {"city": "MANGUM", "state": "OK", "street": "101 S PENNSYLVANIA AVE", "postcode": "73554"}}},
{"geometry": {"type": "Point", "coordinates": [-99.5043013694, 34.8735965953]}, "type": "Feature", "properties": {"collection_times": [{"days": "Mon-Sat", "time": "4:00pm"}, {"days": "Sun", "time": "Closed"}], "id": "7355400008", "name": "USPS COLLECTION BOX - PO LOBBY", "address": {"city": "MANGUM", "state": "OK", "street": "101 S PENNSYLVANIA AVE", "postcode": "73554"}}},
{"geometry": {"type": "Point", "coordinates": [-99.5043013694, 34.8735965953]}, "type": "Feature", "properties": {"collection_times": [{"days": "Mon-Sat", "time": "4:00pm"}, {"days": "Sun", "time": "Closed"}], "id": "7355400009", "name": "USPS COLLECTION BOX - PO LOBBY", "address": {"city": "MANGUM", "state": "OK", "street": "101 S PENNSYLVANIA AVE", "postcode": "73554"}}},
{"geometry": {"type": "Point", "coordinates": [-98.9834313692, 34.5069671463]}, "type": "Feature", "properties": {"collection_times": [{"days": "Mon-Fri", "time": "9:45am"}, {"days": "Sat", "time": "8:45am"}, {"days": "Sun", "time": "Closed"}], "id": "7355500001", "name": "USPS COLLECTION BOX - PO LOBBY", "address": {"city": "MANITOU", "state": "OK", "street": "300 HIGHWAY 183", "postcode": "73555"}}},
{"geometry": {"type": "Point", "coordinates": [-99.3874301667, 34.7251301057]}, "type": "Feature", "properties": {"collection_times": [{"days": "Mon-Fri", "time": "11:15am"}, {"days": "Sat", "time": "9:30am"}, {"days": "Sun", "time": "Closed"}], "id": "7355600001", "name": "USPS COLLECTION BOX - PO LOBBY", "address": {"city": "MARTHA", "state": "OK", "street": "106 E CHURCH ST", "postcode": "73556"}}},
{"geometry": {"type": "Point", "coordinates": [-98.5065391966, 34.7295473263]}, "type": "Feature", "properties": {"collection_times": [{"days": "Mon-Fri", "time": "3:30pm"}, {"days": "Sat", "time": "11:00am"}, {"days": "Sun", "time": "Closed"}], "id": "7355700000", "name": "USPS COLLECTION BOX - BLUE BOX", "address": {"city": "MEDICINE PARK", "state": "OK", "street": "191 E LAKE DR", "postcode": "73557"}}},
{"geometry": {"type": "Point", "coordinates": [-98.5065391966, 34.7295473263]}, "type": "Feature", "properties": {"collection_times": [{"days": "Mon-Fri", "time": "11:45am"}, {"days": "Sat", "time": "11:00am"}, {"days": "Sun", "time": "Closed"}], "id": "7355700001", "name": "USPS COLLECTION BOX - PO LOBBY", "address": {"city": "MEDICINE PARK", "state": "OK", "street": "191 E LAKE DR", "postcode": "73557"}}},
{"geometry": {"type": "Point", "coordinates": [-98.5065391966, 34.7295473263]}, "type": "Feature", "properties": {"collection_times": [{"days": "Mon-Fri", "time": "11:15am"}, {"days": "Sat", "time": "11:00am"}, {"days": "Sun", "time": "Closed"}], "id": "7355700002", "name": "USPS COLLECTION BOX - PO LOBBY", "address": {"city": "MEDICINE PARK", "state": "OK", "street": "191 E LAKE DR", "postcode": "73557"}}},
{"geometry": {"type": "Point", "coordinates": [-98.9128666608, 34.7250320716]}, "type": "Feature", "properties": {"collection_times": [{"days": "Mon-Fri", "time": "3:30pm"}, {"days": "Sat", "time": "8:30am"}, {"days": "Sun", "time": "Closed"}], "id": "7355900000", "name": "USPS COLLECTION BOX - PO LOBBY", "address": {"city": "MOUNTAIN PARK", "state": "OK", "street": "204 SPRUCE ST", "postcode": "73559"}}},
{"geometry": {"type": "Point", "coordinates": [-98.9128666608, 34.7250320716]}, "type": "Feature", "properties": {"collection_times": [{"days": "Mon-Fri", "time": "3:30pm"}, {"days": "Sat", "time": "8:30am"}, {"days": "Sun", "time": "Closed"}], "id": "7355900001", "name": "USPS COLLECTION BOX - PO LOBBY", "address": {"city": "MOUNTAIN PARK", "state": "OK", "street": "204 SPRUCE ST", "postcode": "73559"}}},
{"geometry": {"type": "Point", "coordinates": [-99.5311482539, 34.5648087249]}, "type": "Feature", "properties": {"collection_times": [{"days": "Mon-Fri", "time": "12:00pm"}, {"days": "Sat", "time": "9:00am"}, {"days": "Sun", "time": "Closed"}], "id": "7356000001", "name": "USPS COLLECTION BOX - PO LOBBY", "address": {"city": "OLUSTEE", "state": "OK", "street": "104 E 4TH ST", "postcode": "73560"}}},
{"geometry": {"type": "Point", "coordinates": [-99.5311482539, 34.5648087249]}, "type": "Feature", "properties": {"collection_times": [{"days": "Mon-Fri", "time": "12:00pm"}, {"days": "Sat", "time": "9:00am"}, {"days": "Sun", "time": "Closed"}], "id": "7356000002", "name": "USPS COLLECTION BOX - PO LOBBY", "address": {"city": "OLUSTEE", "state": "OK", "street": "104 E 4TH ST", "postcode": "73560"}}},
{"geometry": {"type": "Point", "coordinates": [-98.4333318281, 34.1778906048]}, "type": "Feature", "properties": {"collection_times": [{"days": "Mon-Fri", "time": "11:15am"}, {"days": "Sat", "time": "8:45am"}, {"days": "Sun", "time": "Closed"}], "id": "7356200001", "name": "USPS COLLECTION BOX - PO LOBBY", "address": {"city": "RANDLETT", "state": "OK", "street": "101 S 6TH ST", "postcode": "73562"}}},
{"geometry": {"type": "Point", "coordinates": [-99.0217927956, 34.8505835578]}, "type": "Feature", "properties": {"collection_times": [{"days": "Mon-Fri", "time": "3:30pm"}, {"days": "Sat", "time": "8:30am"}, {"days": "Sun", "time": "Closed"}], "id": "7356400000", "name": "USPS COLLECTION BOX - BLUE BOX", "address": {"city": "ROOSEVELT", "state": "OK", "street": "526 S MAIN ST", "postcode": "73564"}}},
{"geometry": {"type": "Point", "coordinates": [-99.0217927956, 34.8505835578]}, "type": "Feature", "properties": {"collection_times": [{"days": "Mon-Fri", "time": "11:45am"}, {"days": "Sat", "time": "8:30am"}, {"days": "Sun", "time": "Closed"}], "id": "7356400001", "name": "USPS COLLECTION BOX - PO LOBBY", "address": {"city": "ROOSEVELT", "state": "OK", "street": "526 S MAIN ST", "postcode": "73564"}}},
{"geometry": {"type": "Point", "coordinates": [-99.0217927956, 34.8505835578]}, "type": "Feature", "properties": {"collection_times": [{"days": "Mon-Fri", "time": "11:45am"}, {"days": "Sat", "time": "8:30am"}, {"days": "Sun", "time": "Closed"}], "id": "7356400002", "name": "USPS COLLECTION BOX - PO LOBBY", "address": {"city": "ROOSEVELT", "state": "OK", "street": "526 S MAIN ST", "postcode": "73564"}}},
{"geometry": {"type": "Point", "coordinates": [-97.9583017422, 34.0196126666]}, "type": "Feature", "properties": {"collection_times": [{"days": "Mon-Fri", "time": "4:00pm"}, {"days": "Sat", "time": "10:00am"}, {"days": "Sun", "time": "Closed"}], "id": "7356500000", "name": "USPS COLLECTION BOX - BLUE BOX", "address": {"city": "RYAN", "state": "OK", "street": "1114 5TH ST", "postcode": "73565"}}},
{"geometry": {"type": "Point", "coordinates": [-97.9583017422, 34.0196126666]}, "type": "Feature", "properties": {"collection_times": [{"days": "Mon-Fri", "time": "11:30am"}, {"days": "Sat", "time": "10:00am"}, {"days": "Sun", "time": "Closed"}], "id": "7356500001", "name": "USPS COLLECTION BOX - PO LOBBY", "address": {"city": "RYAN", "state": "OK", "street": "1114 5TH ST", "postcode": "73565"}}},
{"geometry": {"type": "Point", "coordinates": [-97.9583017422, 34.0196126666]}, "type": "Feature", "properties": {"collection_times": [{"days": "Mon-Fri", "time": "11:30am"}, {"days": "Sat", "time": "10:00am"}, {"days": "Sun", "time": "Closed"}], "id": "7356500002", "name": "USPS COLLECTION BOX - PO LOBBY", "address": {"city": "RYAN", "state": "OK", "street": "1114 5TH ST", "postcode": "73565"}}},
{"geometry": {"type": "Point", "coordinates": [-98.953729526, 34.6587131536]}, "type": "Feature", "properties": {"collection_times": [{"days": "Mon-Fri", "time": "3:00pm"}, {"days": "Sat", "time": "9:00am"}, {"days": "Sun", "time": "Closed"}], "id": "7356600000", "name": "USPS COLLECTION BOX - BLUE BOX", "address": {"city": "SNYDER", "state": "OK", "street": "401 7TH ST", "postcode": "73566"}}},
{"geometry": {"type": "Point", "coordinates": [-98.953729526, 34.6587131536]}, "type": "Feature", "properties": {"collection_times": [{"days": "Mon-Fri", "time": "2:45pm"}, {"days": "Sat", "time": "9:00am"}, {"days": "Sun", "time": "Closed"}], "id": "7356600001", "name": "USPS COLLECTION BOX - PO LOBBY", "address": {"city": "SNYDER", "state": "OK", "street": "401 7TH ST", "postcode": "73566"}}},
{"geometry": {"type": "Point", "coordinates": [-98.953729526, 34.6587131536]}, "type": "Feature", "properties": {"collection_times": [{"days": "Mon-Fri", "time": "2:45pm"}, {"days": "Sat", "time": "9:00am"}, {"days": "Sun", "time": "Closed"}], "id": "7356600002", "name": "USPS COLLECTION BOX - PO LOBBY", "address": {"city": "SNYDER", "state": "OK", "street": "401 7TH ST", "postcode": "73566"}}},
{"geometry": {"type": "Point", "coordinates": [-98.1764894174, 34.7502311146]}, "type": "Feature", "properties": {"collection_times": [{"days": "Mon-Fri", "time": "1:45pm"}, {"days": "Sat", "time": "9:15am"}, {"days": "Sun", "time": "Closed"}], "id": "7356700001", "name": "USPS COLLECTION BOX - PO LOBBY", "address": {"city": "STERLING", "state": "OK", "street": "210 W MAIN ST", "postcode": "73567"}}},
{"geometry": {"type": "Point", "coordinates": [-98.2359117636, 34.2698746708]}, "type": "Feature", "properties": {"collection_times": [{"days": "Mon-Fri", "time": "3:45pm"}, {"days": "Sat", "time": "9:00am"}, {"days": "Sun", "time": "Closed"}], "id": "7356800000", "name": "USPS COLLECTION BOX - BLUE BOX", "address": {"city": "TEMPLE", "state": "OK", "street": "209 S COMMERCIAL ST", "postcode": "73568"}}},
{"geometry": {"type": "Point", "coordinates": [-98.2359117636, 34.2698746708]}, "type": "Feature", "properties": {"collection_times": [{"days": "Mon-Fri", "time": "4:00pm"}, {"days": "Sat", "time": "9:00am"}, {"days": "Sun", "time": "Closed"}], "id": "7356800001", "name": "USPS COLLECTION BOX - PO LOBBY", "address": {"city": "TEMPLE", "state": "OK", "street": "209 S COMMERCIAL ST", "postcode": "73568"}}},
{"geometry": {"type": "Point", "coordinates": [-98.2359117636, 34.2698746708]}, "type": "Feature", "properties": {"collection_times": [{"days": "Mon-Fri", "time": "4:00pm"}, {"days": "Sat", "time": "9:00am"}, {"days": "Sun", "time": "Closed"}], "id": "7356800002", "name": "USPS COLLECTION BOX - PO LOBBY", "address": {"city": "TEMPLE", "state": "OK", "street": "209 S COMMERCIAL ST", "postcode": "73568"}}},
{"geometry": {"type": "Point", "coordinates": [-97.9302616916, 33.9076715033]}, "type": "Feature", "properties": {"collection_times": [{"days": "Mon-Fri", "time": "4:00pm"}, {"days": "Sat", "time": "9:15am"}, {"days": "Sun", "time": "Closed"}], "id": "7356900000", "name": "USPS COLLECTION BOX - BLUE BOX", "address": {"city": "TERRAL", "state": "OK", "street": "309 E APACHE ST", "postcode": "73569"}}},
{"geometry": {"type": "Point", "coordinates": [-97.9302616916, 33.9076715033]}, "type": "Feature", "properties": {"collection_times": [{"days": "Mon-Fri", "time": "11:30am"}, {"days": "Sat", "time": "9:30am"}, {"days": "Sun", "time": "Closed"}], "id": "7356900001", "name": "USPS COLLECTION BOX - PO LOBBY", "address": {"city": "TERRAL", "state": "OK", "street": "309 E APACHE ST", "postcode": "73569"}}},
{"geometry": {"type": "Point", "coordinates": [-99.1408591639, 34.5029368184]}, "type": "Feature", "properties": {"collection_times": [{"days": "Mon-Fri", "time": "3:45pm"}, {"days": "Sat", "time": "9:45am"}, {"days": "Sun", "time": "Closed"}], "id": "7357000001", "name": "USPS COLLECTION BOX - PO LOBBY", "address": {"city": "TIPTON", "state": "OK", "street": "105 E MAIN ST", "postcode": "73570"}}},
{"geometry": {"type": "Point", "coordinates": [-99.1408591639, 34.5029368184]}, "type": "Feature", "properties": {"collection_times": [{"days": "Mon-Fri", "time": "3:45pm"}, {"days": "Sat", "time": "9:45am"}, {"days": "Sun", "time": "Closed"}], "id": "7357000002", "name": "USPS COLLECTION BOX - PO LOBBY", "address": {"city": "TIPTON", "state": "OK", "street": "105 E MAIN ST", "postcode": "73570"}}},
{"geometry": {"type": "Point", "coordinates": [-98.3097028699, 34.3580495642]}, "type": "Feature", "properties": {"collection_times": [{"days": "Mon-Fri", "time": "4:15pm"}, {"days": "Sat", "time": "7:45am"}, {"days": "Sun", "time": "Closed"}], "id": "7357200000", "name": "USPS COLLECTION BOX - BLUE BOX", "address": {"city": "WALTERS", "state": "OK", "street": "130 W COLORADO ST", "postcode": "73572"}}},
{"geometry": {"type": "Point", "coordinates": [-98.3097028699, 34.3580495642]}, "type": "Feature", "properties": {"collection_times": [{"days": "Mon-Fri", "time": "4:15pm"}, {"days": "Sat", "time": "7:45am"}, {"days": "Sun", "time": "Closed"}], "id": "7357200001", "name": "USPS COLLECTION BOX - BLUE BOX", "address": {"city": "WALTERS", "state": "OK", "street": "130 W COLORADO ST", "postcode": "73572"}}},
{"geometry": {"type": "Point", "coordinates": [-98.3097028699, 34.3580495642]}, "type": "Feature", "properties": {"collection_times": [{"days": "Mon-Fri", "time": "4:15pm"}, {"days": "Sat", "time": "7:45am"}, {"days": "Sun", "time": "Closed"}], "id": "7357200004", "name": "USPS COLLECTION BOX - PO LOBBY", "address": {"city": "WALTERS", "state": "OK", "street": "130 W COLORADO ST", "postcode": "73572"}}},
{"geometry": {"type": "Point", "coordinates": [-98.3097028699, 34.3580495642]}, "type": "Feature", "properties": {"collection_times": [{"days": "Mon-Fri", "time": "4:15pm"}, {"days": "Sat", "time": "7:45am"}, {"days": "Sun", "time": "Closed"}], "id": "7357200005", "name": "USPS COLLECTION BOX - PO LOBBY", "address": {"city": "WALTERS", "state": "OK", "street": "130 W COLORADO ST", "postcode": "73572"}}},
{"geometry": {"type": "Point", "coordinates": [-98.000363468, 34.163954264]}, "type": "Feature", "properties": {"collection_times": [{"days": "Mon-Fri", "time": "3:45pm"}, {"days": "Sat", "time": "10:15am"}, {"days": "Sun", "time": "Closed"}], "id": "7357300001", "name": "USPS COLLECTION BOX - BLUE BOX", "address": {"city": "WAURIKA", "state": "OK", "street": "121 W BROADWAY AVE", "postcode": "73573"}}},
{"geometry": {"type": "Point", "coordinates": [-98.0015650841, 34.1638686927]}, "type": "Feature", "properties": {"collection_times": [{"days": "Mon-Sat", "time": "12:00pm"}, {"days": "Sun", "time": "Closed"}], "id": "7357300002", "name": "USPS COLLECTION BOX - BLUE BOX", "address": {"city": "WAURIKA", "state": "OK", "street": "101 S MAIN ST", "postcode": "73573"}}},
{"geometry": {"type": "Point", "coordinates": [-98.000363468, 34.163954264]}, "type": "Feature", "properties": {"collection_times": [{"days": "Mon-Fri", "time": "3:45pm"}, {"days": "Sat", "time": "10:30am"}, {"days": "Sun", "time": "Closed"}], "id": "7357300003", "name": "USPS COLLECTION BOX - PO LOBBY", "address": {"city": "WAURIKA", "state": "OK", "street": "121 W BROADWAY AVE", "postcode": "73573"}}},
{"geometry": {"type": "Point", "coordinates": [-98.000363468, 34.163954264]}, "type": "Feature", "properties": {"collection_times": [{"days": "Mon-Fri", "time": "3:45pm"}, {"days": "Sat", "time": "10:30am"}, {"days": "Sun", "time": "Closed"}], "id": "7357300004", "name": "USPS COLLECTION BOX - PO LOBBY", "address": {"city": "WAURIKA", "state": "OK", "street": "121 W BROADWAY AVE", "postcode": "73573"}}}
]}
