{"type": "FeatureCollection", "features": [
{"geometry": {"type": "Point", "coordinates": [-98.9733332303, 35.5132866361]}, "type": "Feature", "properties": {"collection_times": [{"days": "Mon-Fri", "time": "5:00pm"}, {"days": "Sat", "time": "4:00pm"}, {"days": "Sun", "time": "Closed"}], "id": "7360100006", "name": "USPS COLLECTION BOX - BLUE BOX", "address": {"city": "CLINTON", "state": "OK", "street": "212 S 11TH ST", "postcode": "73601"}}},
{"geometry": {"type": "Point", "coordinates": [-98.9733332303, 35.5132866361]}, "type": "Feature", "properties": {"collection_times": [{"days": "Mon-Fri", "time": "5:00pm"}, {"days": "Sat", "time": "4:00pm"}, {"days": "Sun", "time": "Closed"}], "id": "7360100007", "name": "USPS COLLECTION BOX - BLUE BOX", "address": {"city": "CLINTON", "state": "OK", "street": "212 S 11TH ST", "postcode": "73601"}}},
{"geometry": {"type": "Point", "coordinates": [-98.9733332303, 35.5132866361]}, "type": "Feature", "properties": {"collection_times": [{"days": "Mon-Fri", "time": "5:00pm"}, {"days": "Sat", "time": "4:00pm"}, {"days": "Sun", "time": "Closed"}], "id": "7360100009", "name": "USPS COLLECTION BOX - PO LOBBY", "address": {"city": "CLINTON", "state": "OK", "street": "212 S 11TH ST", "postcode": "73601"}}},
{"geometry": {"type": "Point", "coordinates": [-98.9733332303, 35.5132866361]}, "type": "Feature", "properties": {"collection_times": [{"days": "Mon-Fri", "time": "5:00pm"}, {"days": "Sat", "time": "4:00pm"}, {"days": "Sun", "time": "Closed"}], "id": "7360100010", "name": "USPS COLLECTION BOX - PO LOBBY", "address": {"city": "CLINTON", "state": "OK", "street": "212 S 11TH ST", "postcode": "73601"}}},
{"geometry": {"type": "Point", "coordinates": [-98.9437531062, 35.6087049387]}, "type": "Feature", "properties": {"collection_times": [{"days": "Mon-Fri", "time": "4:00pm"}, {"days": "Sat", "time": "9:30am"}, {"days": "Sun", "time": "Closed"}], "id": "7362000000", "name": "USPS COLLECTION BOX - BLUE BOX", "address": {"city": "ARAPAHO", "state": "OK", "street": "668 MAIN ST", "postcode": "73620"}}},
{"geometry": {"type": "Point", "coordinates": [-98.9437531062, 35.6087049387]}, "type": "Feature", "properties": {"collection_times": [{"days": "Mon-Fri", "time": "4:00pm"}, {"days": "Sat", "time": "9:30am"}, {"days": "Sun", "time": "Closed"}], "id": "7362000001", "name": "USPS COLLECTION BOX - PO LOBBY", "address": {"city": "ARAPAHO", "state": "OK", "street": "668 MAIN ST", "postcode": "73620"}}},
{"geometry": {"type": "Point", "coordinates": [-98.9437531062, 35.6087049387]}, "type": "Feature", "properties": {"collection_times": [{"days": "Mon-Fri", "time": "4:00pm"}, {"days": "Sat", "time": "9:30am"}, {"days": "Sun", "time": "Closed"}], "id": "7362000002", "name": "USPS COLLECTION BOX - PO LOBBY", "address": {"city": "ARAPAHO", "state": "OK", "street": "668 MAIN ST", "postcode": "73620"}}},
{"geometry": {"type": "Point", "coordinates": [-98.9879764616, 35.3864394381]}, "type": "Feature", "properties": {"collection_times": [{"days": "Mon-Fri", "time": "3:00pm"}, {"days": "Sat", "time": "9:00am"}, {"days": "Sun", "time": "Closed"}], "id": "7362200000", "name": "USPS COLLECTION BOX - BLUE BOX", "address": {"city": "BESSIE", "state": "OK", "street": "709 MAIN ST", "postcode": "73622"}}},
{"geometry": {"type": "Point", "coordinates": [-98.9879764616, 35.3864394381]}, "type": "Feature", "properties": {"collection_times": [{"days": "Mon-Fri", "time": "3:00pm"}, {"days": "Sat", "time": "9:00am"}, {"days": "Sun", "time": "Closed"}], "id": "7362200001", "name": "USPS COLLECTION BOX - PO LOBBY", "address": {"city": "BESSIE", "state": "OK", "street": "709 MAIN ST", "postcode": "73622"}}},
{"geometry": {"type": "Point", "coordinates": [-99.188024411, 35.3132427499]}, "type": "Feature", "properties": {"collection_times": [{"days": "Mon-Fri", "time": "3:45pm"}, {"days": "Sat", "time": "10:30am"}, {"days": "Sun", "time": "Closed"}], "id": "7362400002", "name": "USPS COLLECTION BOX - PO LOBBY", "address": {"city": "BURNS FLAT", "state": "OK", "street": "100 SOONER DR", "postcode": "73624"}}},
{"geometry": {"type": "Point", "coordinates": [-99.188024411, 35.3132427499]}, "type": "Feature", "properties": {"collection_times": [{"days": "Mon-Fri", "time": "3:45pm"}, {"days": "Sat", "time": "10:30am"}, {"days": "Sun", "time": "Closed"}], "id": "7362400003", "name": "USPS COLLECTION BOX - PO LOBBY", "address": {"city": "BURNS FLAT", "state": "OK", "street": "100 SOONER DR", "postcode": "73624"}}},
{"geometry": {"type": "Point", "coordinates": [-99.188024411, 35.3132427499]}, "type": "Feature", "properties": {"collection_times": [{"days": "Mon-Fri", "time": "3:45pm"}, {"days": "Sat", "time": "10:30am"}, {"days": "Sun", "time": "Closed"}], "id": "7362400004", "name": "USPS COLLECTION BOX - BLUE BOX", "address": {"city": "BURNS FLAT", "state": "OK", "street": "100 SOONER DR", "postcode": "73624"}}},
{"geometry": {"type": "Point", "coordinates": [-99.260568273, 35.6454507015]}, "type": "Feature", "properties": {"collection_times": [{"days": "Mon-Fri", "time": "4:00pm"}, {"days": "Sat", "time": "9:15am"}, {"days": "Sun", "time": "Closed"}], "id": "7362500000", "name": "USPS COLLECTION BOX - BLUE BOX", "address": {"city": "BUTLER", "state": "OK", "street": "103 N OLMSTEAD AVE", "postcode": "73625"}}},
{"geometry": {"type": "Point", "coordinates": [-99.260568273, 35.6454507015]}, "type": "Feature", "properties": {"collection_times": [{"days": "Mon-Fri", "time": "11:45am"}, {"days": "Sat", "time": "9:15am"}, {"days": "Sun", "time": "Closed"}], "id": "7362500001", "name": "USPS COLLECTION BOX - PO LOBBY", "address": {"city": "BUTLER", "state": "OK", "street": "103 N OLMSTEAD AVE", "postcode": "73625"}}},
{"geometry": {"type": "Point", "coordinates": [-99.260568273, 35.6454507015]}, "type": "Feature", "properties": {"collection_times": [{"days": "Mon-Fri", "time": "11:45am"}, {"days": "Sat", "time": "9:15am"}, {"days": "Sun", "time": "Closed"}], "id": "7362500002", "name": "USPS COLLECTION BOX - PO LOBBY", "address": {"city": "BUTLER", "state": "OK", "street": "103 N OLMSTEAD AVE", "postcode": "73625"}}},
{"geometry": {"type": "Point", "coordinates": [-99.2849191073, 35.3875583308]}, "type": "Feature", "properties": {"collection_times": [{"days": "Mon-Fri", "time": "3:45pm"}, {"days": "Sat", "time": "9:00am"}, {"days": "Sun", "time": "Closed"}], "id": "7362600000", "name": "USPS COLLECTION BOX - BLUE BOX", "address": {"city": "CANUTE", "state": "OK", "street": "915 E WILLARD ST", "postcode": "73626"}}},
{"geometry": {"type": "Point", "coordinates": [-99.2849191073, 35.3875583308]}, "type": "Feature", "properties": {"collection_times": [{"days": "Mon-Fri", "time": "3:45pm"}, {"days": "Sat", "time": "9:00am"}, {"days": "Sun", "time": "Closed"}], "id": "7362600001", "name": "USPS COLLECTION BOX - PO LOBBY", "address": {"city": "CANUTE", "state": "OK", "street": "915 E WILLARD ST", "postcode": "73626"}}},
{"geometry": {"type": "Point", "coordinates": [-99.2849191073, 35.3875583308]}, "type": "Feature", "properties": {"collection_times": [{"days": "Mon-Fri", "time": "3:45pm"}, {"days": "Sat", "time": "9:00am"}, {"days": "Sun", "time": "Closed"}], "id": "7362600002", "name": "USPS COLLECTION BOX - PO LOBBY", "address": {"city": "CANUTE", "state": "OK", "street": "915 E WILLARD ST", "postcode": "73626"}}},
{"geometry": {"type": "Point", "coordinates": [-99.5055313464, 35.2190088191]}, "type": "Feature", "properties": {"collection_times": [{"days": "Mon-Fri", "time": "3:30pm"}, {"days": "Sat", "time": "8:45am"}, {"days": "Sun", "time": "Closed"}], "id": "7362700000", "name": "USPS COLLECTION BOX - BLUE BOX", "address": {"city": "CARTER", "state": "OK", "street": "108 E MAIN ST", "postcode": "73627"}}},
{"geometry": {"type": "Point", "coordinates": [-99.5055313464, 35.2190088191]}, "type": "Feature", "properties": {"collection_times": [{"days": "Mon-Fri", "time": "3:30pm"}, {"days": "Sat", "time": "8:45am"}, {"days": "Sun", "time": "Closed"}], "id": "7362700001", "name": "USPS COLLECTION BOX - PO LOBBY", "address": {"city": "CARTER", "state": "OK", "street": "108 E MAIN ST", "postcode": "73627"}}},
{"geometry": {"type": "Point", "coordinates": [-99.6895998816, 35.6410803668]}, "type": "Feature", "properties": {"collection_times": [{"days": "Mon-Fri", "time": "3:45pm"}, {"days": "Sat", "time": "9:00am"}, {"days": "Sun", "time": "Closed"}], "id": "7362800000", "name": "USPS COLLECTION BOX - BLUE BOX", "address": {"city": "CHEYENNE", "state": "OK", "street": "207 S LL MALES AVE", "postcode": "73628"}}},
{"geometry": {"type": "Point", "coordinates": [-99.6895998816, 35.6410803668]}, "type": "Feature", "properties": {"collection_times": [{"days": "Mon-Fri", "time": "3:45pm"}, {"days": "Sat", "time": "9:00am"}, {"days": "Sun", "time": "Closed"}], "id": "7362800001", "name": "USPS COLLECTION BOX - PO LOBBY", "address": {"city": "CHEYENNE", "state": "OK", "street": "207 S LL MALES AVE", "postcode": "73628"}}},
{"geometry": {"type": "Point", "coordinates": [-99.6895998816, 35.6410803668]}, "type": "Feature", "properties": {"collection_times": [{"days": "Mon-Fri", "time": "3:45pm"}, {"days": "Sat", "time": "9:00am"}, {"days": "Sun", "time": "Closed"}], "id": "7362800002", "name": "USPS COLLECTION BOX - PO LOBBY", "address": {"city": "CHEYENNE", "state": "OK", "street": "207 S LL MALES AVE", "postcode": "73628"}}},
{"geometry": {"type": "Point", "coordinates": [-98.989968877, 35.2924589744]}, "type": "Feature", "properties": {"collection_times": [{"days": "Mon-Fri", "time": "4:30pm"}, {"days": "Sat", "time": "9:00am"}, {"days": "Sun", "time": "Closed"}], "id": "7363200001", "name": "USPS COLLECTION BOX - BLUE BOX", "address": {"city": "CORDELL", "state": "OK", "street": "121 E 1ST ST", "postcode": "73632"}}},
{"geometry": {"type": "Point", "coordinates": [-98.989968877, 35.2924589744]}, "type": "Feature", "properties": {"collection_times": [{"days": "Mon-Fri", "time": "4:30pm"}, {"days": "Sat", "time": "9:00am"}, {"days": "Sun", "time": "Closed"}], "id": "7363200002", "name": "USPS COLLECTION BOX - PO LOBBY", "address": {"city": "CORDELL", "state": "OK", "street": "121 E 1ST ST", "postcode": "73632"}}},
{"geometry": {"type": "Point", "coordinates": [-98.8834902559, 35.6648884541]}, "type": "Feature", "properties": {"collection_times": [{"days": "Mon-Fri", "time": "11:45am"}, {"days": "Sat", "time": "9:00am"}, {"days": "Sun", "time": "Closed"}], "id": "7363900001", "name": "USPS COLLECTION BOX - PO LOBBY", "address": {"city": "CUSTER CITY", "state": "OK", "street": "630 S MAIN ST", "postcode": "73639"}}},
{"geometry": {"type": "Point", "coordinates": [-99.1297577931, 35.2778654513]}, "type": "Feature", "properties": {"collection_times": [{"days": "Mon-Fri", "time": "3:30pm"}, {"days": "Sat", "time": "8:00am"}, {"days": "Sun", "time": "Closed"}], "id": "7364100000", "name": "USPS COLLECTION BOX - BLUE BOX", "address": {"city": "DILL CITY", "state": "OK", "street": "606 S MCDONALD ST", "postcode": "73641"}}},
{"geometry": {"type": "Point", "coordinates": [-99.1297577931, 35.2778654513]}, "type": "Feature", "properties": {"collection_times": [{"days": "Mon-Fri", "time": "12:00pm"}, {"days": "Sat", "time": "9:30am"}, {"days": "Sun", "time": "Closed"}], "id": "7364100001", "name": "USPS COLLECTION BOX - PO LOBBY", "address": {"city": "DILL CITY", "state": "OK", "street": "606 S MCDONALD ST", "postcode": "73641"}}},
{"geometry": {"type": "Point", "coordinates": [-99.1297577931, 35.2778654513]}, "type": "Feature", "properties": {"collection_times": [{"days": "Mon-Fri", "time": "12:00pm"}, {"days": "Sat", "time": "9:30am"}, {"days": "Sun", "time": "Closed"}], "id": "7364100002", "name": "USPS COLLECTION BOX - PO LOBBY", "address": {"city": "DILL CITY", "state": "OK", "street": "606 S MCDONALD ST", "postcode": "73641"}}},
{"geometry": {"type": "Point", "coordinates": [-99.4356219799, 35.4117055294]}, "type": "Feature", "properties": {"collection_times": [{"days": "Mon-Fri", "time": "3:00pm"}, {"days": "Sat", "time": "2:15pm"}, {"days": "Sun", "time": "Closed"}], "id": "7364400007", "name": "USPS COLLECTION BOX - BLUE BOX", "address": {"city": "ELK CITY", "state": "OK", "street": "2717 W 3RD ST", "postcode": "73644"}}},
{"geometry": {"type": "Point", "coordinates": [-99.407562289, 35.4106739523]}, "type": "Feature", "properties": {"collection_times": [{"days": "Mon-Fri", "time": "4:30pm"}, {"days": "Sat", "time": "3:30pm"}, {"days": "Sun", "time": "Closed"}], "id": "7364400015", "name": "USPS COLLECTION BOX - BLUE BOX", "address": {"city": "ELK CITY", "state": "OK", "street": "101 S ADAMS AVE", "postcode": "73644"}}},
{"geometry": {"type": "Point", "coordinates": [-99.407562289, 35.4106739523]}, "type": "Feature", "properties": {"collection_times": [{"days": "Mon-Fri", "time": "4:30pm"}, {"days": "Sat", "time": "3:30pm"}, {"days": "Sun", "time": "Closed"}], "id": "7364400020", "name": "USPS COLLECTION BOX - PO LOBBY", "address": {"city": "ELK CITY", "state": "OK", "street": "101 S ADAMS AVE", "postcode": "73644"}}},
{"geometry": {"type": "Point", "coordinates": [-99.407562289, 35.4106739523]}, "type": "Feature", "properties": {"collection_times": [{"days": "Mon-Fri", "time": "4:30pm"}, {"days": "Sat", "time": "3:30pm"}, {"days": "Sun", "time": "Closed"}], "id": "7364400021", "name": "USPS COLLECTION BOX - PO LOBBY", "address": {"city": "ELK CITY", "state": "OK", "street": "101 S ADAMS AVE", "postcode": "73644"}}},
{"geometry": {"type": "Point", "coordinates": [-99.425571413, 35.4117767149]}, "type": "Feature", "properties": {"collection_times": [{"days": "Mon-Fri", "time": "2:45pm"}, {"days": "Sat", "time": "2:15pm"}, {"days": "Sun", "time": "Closed"}], "id": "7364400022", "name": "USPS COLLECTION BOX - BLUE BOX", "address": {"city": "ELK CITY", "state": "OK", "street": "1801 W 3RD ST", "postcode": "73644"}}},
{"geometry": {"type": "Point", "coordinates": [-99.8669373251, 35.2139804895]}, "type": "Feature", "properties": {"collection_times": [{"days": "Mon-Fri", "time": "4:00pm"}, {"days": "Sat", "time": "10:15am"}, {"days": "Sun", "time": "Closed"}], "id": "7364500000", "name": "USPS COLLECTION BOX - PO LOBBY", "address": {"city": "ERICK", "state": "OK", "street": "119 W 3RD ST", "postcode": "73645"}}},
{"geometry": {"type": "Point", "coordinates": [-99.8669373251, 35.2139804895]}, "type": "Feature", "properties": {"collection_times": [{"days": "Mon-Fri", "time": "4:00pm"}, {"days": "Sat", "time": "10:15am"}, {"days": "Sun", "time": "Closed"}], "id": "7364500001", "name": "USPS COLLECTION BOX - PO LOBBY", "address": {"city": "ERICK", "state": "OK", "street": "119 W 3RD ST", "postcode": "73645"}}},
{"geometry": {"type": "Point", "coordinates": [-99.867710815, 35.213950728]}, "type": "Feature", "properties": {"collection_times": [{"days": "Mon-Fri", "time": "4:00pm"}, {"days": "Sat", "time": "10:15am"}, {"days": "Sun", "time": "Closed"}], "id": "7364500003", "name": "USPS COLLECTION BOX - BLUE BOX", "address": {"city": "ERICK", "state": "OK", "street": "119 W 3RD ST", "postcode": "73645"}}},
{"geometry": {"type": "Point", "coordinates": [-98.6805455787, 35.8354650683]}, "type": "Feature", "properties": {"collection_times": [{"days": "Mon-Fri", "time": "3:45pm"}, {"days": "Sat", "time": "12:45pm"}, {"days": "Sun", "time": "Closed"}], "id": "7364600001", "name": "USPS COLLECTION BOX - PO LOBBY", "address": {"city": "FAY", "state": "OK", "street": "120 N CUSTER ST", "postcode": "73646"}}},
{"geometry": {"type": "Point", "coordinates": [-98.6805455787, 35.8354650683]}, "type": "Feature", "properties": {"collection_times": [{"days": "Mon-Fri", "time": "3:45pm"}, {"days": "Sat", "time": "12:45pm"}, {"days": "Sun", "time": "Closed"}], "id": "7364600002", "name": "USPS COLLECTION BOX - PO LOBBY", "address": {"city": "FAY", "state": "OK", "street": "120 N CUSTER ST", "postcode": "73646"}}},
{"geometry": {"type": "Point", "coordinates": [-99.1092987135, 35.401487707]}, "type": "Feature", "properties": {"collection_times": [{"days": "Mon-Fri", "time": "11:45am"}, {"days": "Sat", "time": "8:00am"}, {"days": "Sun", "time": "Closed"}], "id": "7364700002", "name": "USPS COLLECTION BOX - PO LOBBY", "address": {"city": "FOSS", "state": "OK", "street": "302 E BROADWAY ST", "postcode": "73647"}}},
{"geometry": {"type": "Point", "coordinates": [-99.1092987135, 35.401487707]}, "type": "Feature", "properties": {"collection_times": [{"days": "Mon-Fri", "time": "11:45am"}, {"days": "Sat", "time": "8:00am"}, {"days": "Sun", "time": "Closed"}], "id": "7364700003", "name": "USPS COLLECTION BOX - PO LOBBY", "address": {"city": "FOSS", "state": "OK", "street": "302 E BROADWAY ST", "postcode": "73647"}}},
{"geometry": {"type": "Point", "coordinates": [-99.3817998336, 35.6327835721]}, "type": "Feature", "properties": {"collection_times": [{"days": "Mon-Fri", "time": "3:30pm"}, {"days": "Sat", "time": "7:30am"}, {"days": "Sun", "time": "Closed"}], "id": "7365000001", "name": "USPS COLLECTION BOX - PO LOBBY", "address": {"city": "HAMMON", "state": "OK", "street": "701 MAIN ST", "postcode": "73650"}}},
{"geometry": {"type": "Point", "coordinates": [-99.3817998336, 35.6327835721]}, "type": "Feature", "properties": {"collection_times": [{"days": "Mon-Fri", "time": "3:30pm"}, {"days": "Sat", "time": "7:30am"}, {"days": "Sun", "time": "Closed"}], "id": "7365000002", "name": "USPS COLLECTION BOX - PO LOBBY", "address": {"city": "HAMMON", "state": "OK", "street": "701 MAIN ST", "postcode": "73650"}}},
{"geometry": {"type": "Point", "coordinates": [-99.0932145409, 35.0267664872]}, "type": "Feature", "properties": {"collection_times": [{"days": "Mon-Fri", "time": "4:15pm"}, {"days": "Sat", "time": "11:30am"}, {"days": "Sun", "time": "Closed"}], "id": "7365100000", "name": "USPS COLLECTION BOX - BLUE BOX", "address": {"city": "HOBART", "state": "OK", "street": "229 S MAIN ST", "postcode": "73651"}}},
{"geometry": {"type": "Point", "coordinates": [-99.0932145409, 35.0267664872]}, "type": "Feature", "properties": {"collection_times": [{"days": "Mon-Fri", "time": "4:15pm"}, {"days": "Sat", "time": "11:30am"}, {"days": "Sun", "time": "Closed"}], "id": "7365100001", "name": "USPS COLLECTION BOX - BLUE BOX", "address": {"city": "HOBART", "state": "OK", "street": "229 S MAIN ST", "postcode": "73651"}}},
{"geometry": {"type": "Point", "coordinates": [-99.0932145409, 35.0267664872]}, "type": "Feature", "properties": {"collection_times": [{"days": "Mon-Fri", "time": "4:15pm"}, {"days": "Sat", "time": "11:30am"}, {"days": "Sun", "time": "Closed"}], "id": "7365100002", "name": "USPS COLLECTION BOX - PO LOBBY", "address": {"city": "HOBART", "state": "OK", "street": "229 S MAIN ST", "postcode": "73651"}}},
{"geometry": {"type": "Point", "coordinates": [-99.0932145409, 35.0267664872]}, "type": "Feature", "properties": {"collection_times": [{"days": "Mon-Fri", "time": "4:15pm"}, {"days": "Sat", "time": "11:30am"}, {"days": "Sun", "time": "Closed"}], "id": "7365100003", "name": "USPS COLLECTION BOX - PO LOBBY", "address": {"city": "HOBART", "state": "OK", "street": "229 S MAIN ST", "postcode": "73651"}}},
{"geometry": {"type": "Point", "coordinates": [-99.3476846415, 35.8637368014]}, "type": "Feature", "properties": {"collection_times": [{"days": "Mon-Fri", "time": "3:30pm"}, {"days": "Sat", "time": "9:30am"}, {"days": "Sun", "time": "Closed"}], "id": "7365400000", "name": "USPS COLLECTION BOX - BLUE BOX", "address": {"city": "LEEDEY", "state": "OK", "street": "515 S MAIN ST", "postcode": "73654"}}},
{"geometry": {"type": "Point", "coordinates": [-99.3476846415, 35.8637368014]}, "type": "Feature", "properties": {"collection_times": [{"days": "Mon-Fri", "time": "1:45pm"}, {"days": "Sat", "time": "9:30am"}, {"days": "Sun", "time": "Closed"}], "id": "7365400001", "name": "USPS COLLECTION BOX - PO LOBBY", "address": {"city": "LEEDEY", "state": "OK", "street": "515 S MAIN ST", "postcode": "73654"}}},
{"geometry": {"type": "Point", "coordinates": [-99.3476846415, 35.8637368014]}, "type": "Feature", "properties": {"collection_times": [{"days": "Mon-Fri", "time": "1:45pm"}, {"days": "Sat", "time": "9:30am"}, {"days": "Sun", "time": "Closed"}], "id": "7365400002", "name": "USPS COLLECTION BOX - PO LOBBY", "address": {"city": "LEEDEY", "state": "OK", "street": "515 S MAIN ST", "postcode": "73654"}}},
{"geometry": {"type": "Point", "coordinates": [-99.2537720983, 34.9895698088]}, "type": "Feature", "properties": {"collection_times": [{"days": "Mon-Fri", "time": "3:30pm"}, {"days": "Sat", "time": "9:30am"}, {"days": "Sun", "time": "Closed"}], "id": "7365500000", "name": "USPS COLLECTION BOX - BLUE BOX", "address": {"city": "LONE WOLF", "state": "OK", "street": "1024 MAIN ST", "postcode": "73655"}}},
{"geometry": {"type": "Point", "coordinates": [-99.2537720983, 34.9895698088]}, "type": "Feature", "properties": {"collection_times": [{"days": "Mon-Fri", "time": "3:30pm"}, {"days": "Sat", "time": "9:30am"}, {"days": "Sun", "time": "Closed"}], "id": "7365500004", "name": "USPS COLLECTION BOX - PO LOBBY", "address": {"city": "LONE WOLF", "state": "OK", "street": "1024 MAIN ST", "postcode": "73655"}}},
{"geometry": {"type": "Point", "coordinates": [-98.7170640158, 35.910971267]}, "type": "Feature", "properties": {"collection_times": [{"days": "Mon-Fri", "time": "3:45pm"}, {"days": "Sat", "time": "9:30am"}, {"days": "Sun", "time": "Closed"}], "id": "7365800000", "name": "USPS COLLECTION BOX - BLUE BOX", "address": {"city": "OAKWOOD", "state": "OK", "street": "102 S MISSOURI ST", "postcode": "73658"}}},
{"geometry": {"type": "Point", "coordinates": [-98.7170640158, 35.910971267]}, "type": "Feature", "properties": {"collection_times": [{"days": "Mon-Fri", "time": "9:45am"}, {"days": "Sat", "time": "9:30am"}, {"days": "Sun", "time": "Closed"}], "id": "7365800001", "name": "USPS COLLECTION BOX - PO LOBBY", "address": {"city": "OAKWOOD", "state": "OK", "street": "102 S MISSOURI ST", "postcode": "73658"}}},
{"geometry": {"type": "Point", "coordinates": [-98.7170640158, 35.910971267]}, "type": "Feature", "properties": {"collection_times": [{"days": "Mon-Fri", "time": "9:45am"}, {"days": "Sat", "time": "9:30am"}, {"days": "Sun", "time": "Closed"}], "id": "7365800002", "name": "USPS COLLECTION BOX - PO LOBBY", "address": {"city": "OAKWOOD", "state": "OK", "street": "102 S MISSOURI ST", "postcode": "73658"}}},
{"geometry": {"type": "Point", "coordinates": [-99.9032134875, 35.6571423414]}, "type": "Feature", "properties": {"collection_times": [{"days": "Mon-Fri", "time": "11:45am"}, {"days": "Sat", "time": "9:45am"}, {"days": "Sun", "time": "Closed"}], "id": "7366000001", "name": "USPS COLLECTION BOX - PO LOBBY", "address": {"city": "REYDON", "state": "OK", "street": "202 2ND AVE", "postcode": "73660"}}},
{"geometry": {"type": "Point", "coordinates": [-99.9032134875, 35.6571423414]}, "type": "Feature", "properties": {"collection_times": [{"days": "Mon-Fri", "time": "11:45am"}, {"days": "Sat", "time": "9:45am"}, {"days": "Sun", "time": "Closed"}], "id": "7366000002", "name": "USPS COLLECTION BOX - PO LOBBY", "address": {"city": "REYDON", "state": "OK", "street": "202 2ND AVE", "postcode": "73660"}}},
{"geometry": {"type": "Point", "coordinates": [-99.0606446576, 35.1567157257]}, "type": "Feature", "properties": {"collection_times": [{"days": "Mon-Fri", "time": "4:00pm"}, {"days": "Sat", "time": "10:15am"}, {"days": "Sun", "time": "Closed"}], "id": "7366100000", "name": "USPS COLLECTION BOX - BLUE BOX", "address": {"city": "ROCKY", "state": "OK", "street": "313 MAIN ST", "postcode": "73661"}}},
{"geometry": {"type": "Point", "coordinates": [-99.0606446576, 35.1567157257]}, "type": "Feature", "properties": {"collection_times": [{"days": "Mon-Fri", "time": "4:00pm"}, {"days": "Sat", "time": "10:15am"}, {"days": "Sun", "time": "Closed"}], "id": "7366100001", "name": "USPS COLLECTION BOX - PO LOBBY", "address": {"city": "ROCKY", "state": "OK", "street": "313 MAIN ST", "postcode": "73661"}}},
{"geometry": {"type": "Point", "coordinates": [-99.0606446576, 35.1567157257]}, "type": "Feature", "properties": {"collection_times": [{"days": "Mon-Fri", "time": "4:00pm"}, {"days": "Sat", "time": "10:15am"}, {"days": "Sun", "time": "Closed"}], "id": "7366100002", "name": "USPS COLLECTION BOX - PO LOBBY", "address": {"city": "ROCKY", "state": "OK", "street": "313 MAIN ST", "postcode": "73661"}}},
{"geometry": {"type": "Point", "coordinates": [-99.6401483001, 35.2924483515]}, "type": "Feature", "properties": {"collection_times": [{"days": "Mon-Fri", "time": "4:00pm"}, {"days": "Sat", "time": "12:00pm"}, {"days": "Sun", "time": "Closed"}], "id": "7366200000", "name": "USPS COLLECTION BOX - BLUE BOX", "address": {"city": "SAYRE", "state": "OK", "street": "201 N 4TH ST", "postcode": "73662"}}},
{"geometry": {"type": "Point", "coordinates": [-99.6401483001, 35.2924483515]}, "type": "Feature", "properties": {"collection_times": [{"days": "Mon-Fri", "time": "4:00pm"}, {"days": "Sat", "time": "12:00pm"}, {"days": "Sun", "time": "Closed"}], "id": "7366200002", "name": "USPS COLLECTION BOX - PO LOBBY", "address": {"city": "SAYRE", "state": "OK", "street": "201 N 4TH ST", "postcode": "73662"}}},
{"geometry": {"type": "Point", "coordinates": [-99.6401483001, 35.2924483515]}, "type": "Feature", "properties": {"collection_times": [{"days": "Mon-Fri", "time": "4:00pm"}, {"days": "Sat", "time": "12:00pm"}, {"days": "Sun", "time": "Closed"}], "id": "7366200003", "name": "USPS COLLECTION BOX - BLUE BOX", "address": {"city": "SAYRE", "state": "OK", "street": "201 N 4TH ST", "postcode": "73662"}}},
{"geometry": {"type": "Point", "coordinates": [-99.6401483001, 35.2924483515]}, "type": "Feature", "properties": {"collection_times": [{"days": "Mon-Fri", "time": "4:00pm"}, {"days": "Sat", "time": "12:00pm"}, {"days": "Sun", "time": "Closed"}], "id": "7366200004", "name": "USPS COLLECTION BOX - PO LOBBY", "address": {"city": "SAYRE", "state": "OK", "street": "201 N 4TH ST", "postcode": "73662"}}},
{"geometry": {"type": "Point", "coordinates": [-98.923304176, 36.1472227032]}, "type": "Feature", "properties": {"collection_times": [{"days": "Mon-Fri", "time": "4:15pm"}, {"days": "Sat", "time": "10:30am"}, {"days": "Sun", "time": "Closed"}], "id": "7366300001", "name": "USPS COLLECTION BOX - BLUE BOX", "address": {"city": "SEILING", "state": "OK", "street": "209 N WALNUT ST", "postcode": "73663"}}},
{"geometry": {"type": "Point", "coordinates": [-98.923304176, 36.1472227032]}, "type": "Feature", "properties": {"collection_times": [{"days": "Mon-Fri", "time": "4:15pm"}, {"days": "Sat", "time": "10:30am"}, {"days": "Sun", "time": "Closed"}], "id": "7366300002", "name": "USPS COLLECTION BOX - PO LOBBY", "address": {"city": "SEILING", "state": "OK", "street": "209 N WALNUT ST", "postcode": "73663"}}},
{"geometry": {"type": "Point", "coordinates": [-98.923304176, 36.1472227032]}, "type": "Feature", "properties": {"collection_times": [{"days": "Mon-Fri", "time": "4:15pm"}, {"days": "Sat", "time": "10:30am"}, {"days": "Sun", "time": "Closed"}], "id": "7366300003", "name": "USPS COLLECTION BOX - PO LOBBY", "address": {"city": "SEILING", "state": "OK", "street": "209 N WALNUT ST", "postcode": "73663"}}},
{"geometry": {"type": "Point", "coordinates": [-99.1756594859, 35.1583163236]}, "type": "Feature", "properties": {"collection_times": [{"days": "Mon-Fri", "time": "4:00pm"}, {"days": "Sat", "time": "9:00am"}, {"days": "Sun", "time": "Closed"}], "id": "7366400000", "name": "USPS COLLECTION BOX - BLUE BOX", "address": {"city": "SENTINEL", "state": "OK", "street": "312 E MAIN ST", "postcode": "73664"}}},
{"geometry": {"type": "Point", "coordinates": [-99.1756594859, 35.1583163236]}, "type": "Feature", "properties": {"collection_times": [{"days": "Mon-Fri", "time": "4:00pm"}, {"days": "Sat", "time": "9:00am"}, {"days": "Sun", "time": "Closed"}], "id": "7366400001", "name": "USPS COLLECTION BOX - PO LOBBY", "address": {"city": "SENTINEL", "state": "OK", "street": "312 E MAIN ST", "postcode": "73664"}}},
{"geometry": {"type": "Point", "coordinates": [-98.9639393016, 36.0397081805]}, "type": "Feature", "properties": {"collection_times": [{"days": "Mon-Fri", "time": "3:00pm"}, {"days": "Sat", "time": "9:00am"}, {"days": "Sun", "time": "Closed"}], "id": "7366700001", "name": "USPS COLLECTION BOX - PO LOBBY", "address": {"city": "TALOGA", "state": "OK", "street": "112 S BROADWAY ST", "postcode": "73667"}}},
{"geometry": {"type": "Point", "coordinates": [-98.9639393016, 36.0397081805]}, "type": "Feature", "properties": {"collection_times": [{"days": "Mon-Fri", "time": "3:00pm"}, {"days": "Sat", "time": "9:00am"}, {"days": "Sun", "time": "Closed"}], "id": "7366700003", "name": "USPS COLLECTION BOX - PO LOBBY", "address": {"city": "TALOGA", "state": "OK", "street": "112 S BROADWAY ST", "postcode": "73667"}}},
{"geometry": {"type": "Point", "coordinates": [-98.7476762315, 35.7439394883]}, "type": "Feature", "properties": {"collection_times": [{"days": "Mon-Fri", "time": "4:15pm"}, {"days": "Sat", "time": "8:30am"}, {"days": "Sun", "time": "Closed"}], "id": "7366900000", "name": "USPS COLLECTION BOX - BLUE BOX", "address": {"city": "THOMAS", "state": "OK", "street": "108 N MAIN ST", "postcode": "73669"}}},
{"geometry": {"type": "Point", "coordinates": [-98.7476762315, 35.7439394883]}, "type": "Feature", "properties": {"collection_times": [{"days": "Mon-Fri", "time": "4:15pm"}, {"days": "Sat", "time": "8:30am"}, {"days": "Sun", "time": "Closed"}], "id": "7366900001", "name": "USPS COLLECTION BOX - PO LOBBY", "address": {"city": "THOMAS", "state": "OK", "street": "108 N MAIN ST", "postcode": "73669"}}},
{"geometry": {"type": "Point", "coordinates": [-99.6423047901, 35.0469578021]}, "type": "Feature", "properties": {"collection_times": [{"days": "Mon-Fri", "time": "11:30am"}, {"days": "Sat", "time": "8:00am"}, {"days": "Sun", "time": "Closed"}], "id": "7367300001", "name": "USPS COLLECTION BOX - PO LOBBY", "address": {"city": "WILLOW", "state": "OK", "street": "113 W MAIN ST", "postcode": "73673"}}},
{"geometry": {"type": "Point", "coordinates": [-99.6423047901, 35.0469578021]}, "type": "Feature", "properties": {"collection_times": [{"days": "Mon-Fri", "time": "11:30am"}, {"days": "Sat", "time": "8:00am"}, {"days": "Sun", "time": "Closed"}], "id": "7367300002", "name": "USPS COLLECTION BOX - PO LOBBY", "address": {"city": "WILLOW", "state": "OK", "street": "113 W MAIN ST", "postcode": "73673"}}}
]}
