{"type": "FeatureCollection", "features": [
{"geometry": {"type": "Point", "coordinates": [-97.8650364875, 36.3906123991]}, "type": "Feature", "properties": {"collection_times": [{"days": "Mon-Fri", "time": "2:15pm"}, {"days": "Sat", "time": "9:30am"}, {"days": "Sun", "time": "Closed"}], "id": "7370100033", "name": "USPS COLLECTION BOX - BLUE BOX", "address": {"city": "ENID", "state": "OK", "street": "915 E GARRIOTT RD", "postcode": "73701"}}},
{"geometry": {"type": "Point", "coordinates": [-97.8694475005, 36.3930874557]}, "type": "Feature", "properties": {"collection_times": [{"days": "Mon-Fri", "time": "2:15pm"}, {"days": "Sat", "time": "10:00am"}, {"days": "Sun", "time": "Closed"}], "id": "7370100037", "name": "USPS COLLECTION BOX - BLUE BOX", "address": {"city": "ENID", "state": "OK", "street": "615 E OKLAHOMA AVE", "postcode": "73701"}}},
{"geometry": {"type": "Point", "coordinates": [-97.8799806696, 36.3990467252]}, "type": "Feature", "properties": {"collection_times": [{"days": "Mon-Fri", "time": "2:15pm"}, {"days": "Sat-Sun", "time": "Closed"}], "id": "7370100055", "name": "USPS COLLECTION BOX - BLUE BOX", "address": {"city": "ENID", "state": "OK", "street": "302 N INDEPENDENCE ST", "postcode": "73701"}}},
{"geometry": {"type": "Point", "coordinates": [-97.8786048831, 36.3966184601]}, "type": "Feature", "properties": {"collection_times": [{"days": "Mon-Sat", "time": "5:00pm"}, {"days": "Sun", "time": "Closed"}], "id": "7370100061", "name": "USPS COLLECTION BOX - PO LOBBY", "address": {"city": "ENID", "state": "OK", "street": "115 W BROADWAY AVE", "postcode": "73701"}}},
{"geometry": {"type": "Point", "coordinates": [-97.8784138357, 36.3964369712]}, "type": "Feature", "properties": {"collection_times": [{"days": "Mon-Sat", "time": "5:00pm"}, {"days": "Sun", "time": "Closed"}], "id": "7370100064", "name": "USPS COLLECTION BOX - BLUE BOX", "address": {"city": "ENID", "state": "OK", "street": "118 S GRAND ST", "postcode": "73701"}}},
{"geometry": {"type": "Point", "coordinates": [-97.879834088, 36.3964745054]}, "type": "Feature", "properties": {"collection_times": [{"days": "Mon-Sat", "time": "5:00pm"}, {"days": "Sun", "time": "Closed"}], "id": "7370100065", "name": "USPS COLLECTION BOX - BLUE BOX", "address": {"city": "ENID", "state": "OK", "street": "115 S INDEPENDENCE ST", "postcode": "73701"}}},
{"geometry": {"type": "Point", "coordinates": [-97.9063277956, 36.4199093694]}, "type": "Feature", "properties": {"collection_times": [{"days": "Mon-Fri", "time": "2:30pm"}, {"days": "Sat", "time": "12:15pm"}, {"days": "Sun", "time": "Closed"}], "id": "7370300003", "name": "USPS COLLECTION BOX - BLUE BOX", "address": {"city": "ENID", "state": "OK", "street": "2200 W WILLOW RD", "postcode": "73703"}}},
{"geometry": {"type": "Point", "coordinates": [-97.9072705765, 36.4197970897]}, "type": "Feature", "properties": {"collection_times": [{"days": "Mon-Fri", "time": "2:30pm"}, {"days": "Sat", "time": "1:15pm"}, {"days": "Sun", "time": "Closed"}], "id": "7370300004", "name": "USPS COLLECTION BOX - BLUE BOX", "address": {"city": "ENID", "state": "OK", "street": "2311 W WILLOW RD", "postcode": "73703"}}},
{"geometry": {"type": "Point", "coordinates": [-97.8909780058, 36.419912076]}, "type": "Feature", "properties": {"collection_times": [{"days": "Mon-Fri", "time": "2:30pm"}, {"days": "Sat", "time": "10:30am"}, {"days": "Sun", "time": "Closed"}], "id": "7370300005", "name": "USPS COLLECTION BOX - BLUE BOX", "address": {"city": "ENID", "state": "OK", "street": "1000 W WILLOW RD", "postcode": "73703"}}},
{"geometry": {"type": "Point", "coordinates": [-97.9259248742, 36.3967335109]}, "type": "Feature", "properties": {"collection_times": [{"days": "Mon-Fri", "time": "2:30pm"}, {"days": "Sat", "time": "2:00pm"}, {"days": "Sun", "time": "Closed"}], "id": "7370300011", "name": "USPS COLLECTION BOX - BLUE BOX", "address": {"city": "ENID", "state": "OK", "street": "122 N OAKWOOD RD", "postcode": "73703"}}},
{"geometry": {"type": "Point", "coordinates": [-97.8901979149, 36.3966837658]}, "type": "Feature", "properties": {"collection_times": [{"days": "Mon-Fri", "time": "2:45pm"}, {"days": "Sat-Sun", "time": "Closed"}], "id": "7370300012", "name": "USPS COLLECTION BOX - BLUE BOX", "address": {"city": "ENID", "state": "OK", "street": "102 S VAN BUREN ST", "postcode": "73703"}}},
{"geometry": {"type": "Point", "coordinates": [-97.9458619111, 36.399789509]}, "type": "Feature", "properties": {"collection_times": [{"days": "Mon-Sat", "time": "10:00am"}, {"days": "Sun", "time": "Closed"}], "id": "7370300013", "name": "USPS COLLECTION BOX - BLUE BOX", "address": {"city": "ENID", "state": "OK", "street": "4110 W GARRIOTT RD", "postcode": "73703"}}},
{"geometry": {"type": "Point", "coordinates": [-97.9079547476, 36.390219664]}, "type": "Feature", "properties": {"collection_times": [{"days": "Mon-Fri", "time": "3:00pm"}, {"days": "Sat", "time": "12:45pm"}, {"days": "Sun", "time": "Closed"}], "id": "7370300017", "name": "USPS COLLECTION BOX - BLUE BOX", "address": {"city": "ENID", "state": "OK", "street": "610 S CLEVELAND ST STE 110A", "postcode": "73703"}}},
{"geometry": {"type": "Point", "coordinates": [-97.9259248742, 36.3967335109]}, "type": "Feature", "properties": {"collection_times": [{"days": "Mon-Fri", "time": "2:30pm"}, {"days": "Sat", "time": "2:00pm"}, {"days": "Sun", "time": "Closed"}], "id": "7370300027", "name": "USPS COLLECTION BOX - BLUE BOX", "address": {"city": "ENID", "state": "OK", "street": "122 N OAKWOOD RD", "postcode": "73703"}}},
{"geometry": {"type": "Point", "coordinates": [-97.9458619111, 36.399789509]}, "type": "Feature", "properties": {"collection_times": [{"days": "Mon-Fri", "time": "11:30am"}, {"days": "Sat-Sun", "time": "Closed"}], "id": "7370300033", "name": "USPS COLLECTION BOX - BLUE BOX", "address": {"city": "ENID", "state": "OK", "street": "VANCE AFB", "postcode": "73703"}}},
{"geometry": {"type": "Point", "coordinates": [-97.89367356, 36.4199068311]}, "type": "Feature", "properties": {"collection_times": [{"days": "Mon-Fri", "time": "2:30pm"}, {"days": "Sat", "time": "10:30am"}, {"days": "Sun", "time": "Closed"}], "id": "7370300034", "name": "USPS COLLECTION BOX - BLUE BOX", "address": {"city": "ENID", "state": "OK", "street": "1202 W WILLOW RD", "postcode": "73703"}}},
{"geometry": {"type": "Point", "coordinates": [-97.8909780058, 36.419912076]}, "type": "Feature", "properties": {"collection_times": [{"days": "Mon-Fri", "time": "2:30pm"}, {"days": "Sat", "time": "10:30am"}, {"days": "Sun", "time": "Closed"}], "id": "7370300037", "name": "USPS COLLECTION BOX - BLUE BOX", "address": {"city": "ENID", "state": "OK", "street": "1000 W WILLOW RD", "postcode": "73703"}}},
{"geometry": {"type": "Point", "coordinates": [-98.4507238974, 36.5066423053]}, "type": "Feature", "properties": {"collection_times": [{"days": "Mon-Fri", "time": "11:45am"}, {"days": "Sat", "time": "8:45am"}, {"days": "Sun", "time": "Closed"}], "id": "7371600001", "name": "USPS COLLECTION BOX - PO LOBBY", "address": {"city": "ALINE", "state": "OK", "street": "104 N MAIN ST", "postcode": "73716"}}},
{"geometry": {"type": "Point", "coordinates": [-98.6644611162, 36.8048138604]}, "type": "Feature", "properties": {"collection_times": [{"days": "Mon-Sat", "time": "4:15pm"}, {"days": "Sun", "time": "Closed"}], "id": "7371700018", "name": "USPS COLLECTION BOX - BLUE BOX", "address": {"city": "ALVA", "state": "OK", "street": "408 GOVERNMENT ST", "postcode": "73717"}}},
{"geometry": {"type": "Point", "coordinates": [-98.6644611162, 36.8048138604]}, "type": "Feature", "properties": {"collection_times": [{"days": "Mon-Sat", "time": "4:15pm"}, {"days": "Sun", "time": "Closed"}], "id": "7371700019", "name": "USPS COLLECTION BOX - BLUE BOX", "address": {"city": "ALVA", "state": "OK", "street": "408 GOVERNMENT ST", "postcode": "73717"}}},
{"geometry": {"type": "Point", "coordinates": [-98.6644611162, 36.8048138604]}, "type": "Feature", "properties": {"collection_times": [{"days": "Mon-Sat", "time": "4:15pm"}, {"days": "Sun", "time": "Closed"}], "id": "7371700023", "name": "USPS COLLECTION BOX - PO LOBBY", "address": {"city": "ALVA", "state": "OK", "street": "408 GOVERNMENT ST", "postcode": "73717"}}},
{"geometry": {"type": "Point", "coordinates": [-98.6644611162, 36.8048138604]}, "type": "Feature", "properties": {"collection_times": [{"days": "Mon-Sat", "time": "4:15pm"}, {"days": "Sun", "time": "Closed"}], "id": "7371700024", "name": "USPS COLLECTION BOX - PO LOBBY", "address": {"city": "ALVA", "state": "OK", "street": "408 GOVERNMENT ST", "postcode": "73717"}}},
{"geometry": {"type": "Point", "coordinates": [-98.1871268348, 36.2325957911]}, "type": "Feature", "properties": {"collection_times": [{"days": "Mon-Fri", "time": "11:45am"}, {"days": "Sat", "time": "9:00am"}, {"days": "Sun", "time": "Closed"}], "id": "7371800001", "name": "USPS COLLECTION BOX - PO LOBBY", "address": {"city": "AMES", "state": "OK", "street": "108 E MARIE GAUTIER BLVD", "postcode": "73718"}}},
{"geometry": {"type": "Point", "coordinates": [-98.1871268348, 36.2325957911]}, "type": "Feature", "properties": {"collection_times": [{"days": "Mon-Fri", "time": "11:45am"}, {"days": "Sat", "time": "9:00am"}, {"days": "Sun", "time": "Closed"}], "id": "7371800002", "name": "USPS COLLECTION BOX - PO LOBBY", "address": {"city": "AMES", "state": "OK", "street": "108 E MARIE GAUTIER BLVD", "postcode": "73718"}}},
{"geometry": {"type": "Point", "coordinates": [-98.1959089057, 36.924481753]}, "type": "Feature", "properties": {"collection_times": [{"days": "Mon-Fri", "time": "2:45pm"}, {"days": "Sat", "time": "9:00am"}, {"days": "Sun", "time": "Closed"}], "id": "7371900001", "name": "USPS COLLECTION BOX - PO LOBBY", "address": {"city": "AMORITA", "state": "OK", "street": "305 W CHESTNUT", "postcode": "73719"}}},
{"geometry": {"type": "Point", "coordinates": [-97.8678783705, 36.2031500099]}, "type": "Feature", "properties": {"collection_times": [{"days": "Mon-Fri", "time": "11:00am"}, {"days": "Sat", "time": "9:00am"}, {"days": "Sun", "time": "Closed"}], "id": "7372000000", "name": "USPS COLLECTION BOX - BLUE BOX", "address": {"city": "BISON", "state": "OK", "street": "200 W MAIN ST", "postcode": "73720"}}},
{"geometry": {"type": "Point", "coordinates": [-97.8678783705, 36.2031500099]}, "type": "Feature", "properties": {"collection_times": [{"days": "Mon-Fri", "time": "11:00am"}, {"days": "Sat", "time": "9:00am"}, {"days": "Sun", "time": "Closed"}], "id": "7372000001", "name": "USPS COLLECTION BOX - PO LOBBY", "address": {"city": "BISON", "state": "OK", "street": "200 W MAIN ST", "postcode": "73720"}}},
{"geometry": {"type": "Point", "coordinates": [-98.427820603, 36.9098527493]}, "type": "Feature", "properties": {"collection_times": [{"days": "Mon-Fri", "time": "11:45am"}, {"days": "Sat", "time": "9:30am"}, {"days": "Sun", "time": "Closed"}], "id": "7372200000", "name": "USPS COLLECTION BOX - BLUE BOX", "address": {"city": "BURLINGTON", "state": "OK", "street": "513 MAIN ST", "postcode": "73722"}}},
{"geometry": {"type": "Point", "coordinates": [-98.427820603, 36.9098527493]}, "type": "Feature", "properties": {"collection_times": [{"days": "Mon-Fri", "time": "11:45am"}, {"days": "Sat", "time": "9:30am"}, {"days": "Sun", "time": "Closed"}], "id": "7372200002", "name": "USPS COLLECTION BOX - PO LOBBY", "address": {"city": "BURLINGTON", "state": "OK", "street": "513 MAIN ST", "postcode": "73722"}}},
{"geometry": {"type": "Point", "coordinates": [-98.5896655831, 36.0535347167]}, "type": "Feature", "properties": {"collection_times": [{"days": "Mon-Fri", "time": "3:45pm"}, {"days": "Sat", "time": "9:30am"}, {"days": "Sun", "time": "Closed"}], "id": "7372400000", "name": "USPS COLLECTION BOX - BLUE BOX", "address": {"city": "CANTON", "state": "OK", "street": "202 W MAIN ST", "postcode": "73724"}}},
{"geometry": {"type": "Point", "coordinates": [-98.5896655831, 36.0535347167]}, "type": "Feature", "properties": {"collection_times": [{"days": "Mon-Fri", "time": "3:45pm"}, {"days": "Sat", "time": "9:30am"}, {"days": "Sun", "time": "Closed"}], "id": "7372400002", "name": "USPS COLLECTION BOX - PO LOBBY", "address": {"city": "CANTON", "state": "OK", "street": "202 W MAIN ST", "postcode": "73724"}}},
{"geometry": {"type": "Point", "coordinates": [-98.5896655831, 36.0535347167]}, "type": "Feature", "properties": {"collection_times": [{"days": "Mon-Fri", "time": "3:45pm"}, {"days": "Sat", "time": "9:30am"}, {"days": "Sun", "time": "Closed"}], "id": "7372400003", "name": "USPS COLLECTION BOX - PO LOBBY", "address": {"city": "CANTON", "state": "OK", "street": "202 W MAIN ST", "postcode": "73724"}}},
{"geometry": {"type": "Point", "coordinates": [-98.0212646742, 36.4757522337]}, "type": "Feature", "properties": {"collection_times": [{"days": "Mon-Fri", "time": "4:30pm"}, {"days": "Sat", "time": "9:00am"}, {"days": "Sun", "time": "Closed"}], "id": "7372700001", "name": "USPS COLLECTION BOX - PO LOBBY", "address": {"city": "CARRIER", "state": "OK", "street": "101 E MAIN ST", "postcode": "73727"}}},
{"geometry": {"type": "Point", "coordinates": [-98.0212646742, 36.4757522337]}, "type": "Feature", "properties": {"collection_times": [{"days": "Mon-Fri", "time": "4:30pm"}, {"days": "Sat", "time": "9:00am"}, {"days": "Sun", "time": "Closed"}], "id": "7372700002", "name": "USPS COLLECTION BOX - PO LOBBY", "address": {"city": "CARRIER", "state": "OK", "street": "101 E MAIN ST", "postcode": "73727"}}},
{"geometry": {"type": "Point", "coordinates": [-98.3600793661, 36.7393707875]}, "type": "Feature", "properties": {"collection_times": [{"days": "Mon-Fri", "time": "4:00pm"}, {"days": "Sat", "time": "11:15am"}, {"days": "Sun", "time": "Closed"}], "id": "7372800001", "name": "USPS COLLECTION BOX - BLUE BOX", "address": {"city": "CHEROKEE", "state": "OK", "street": "1780 S GRAND AVE", "postcode": "73728"}}},
{"geometry": {"type": "Point", "coordinates": [-98.3600793661, 36.7393707875]}, "type": "Feature", "properties": {"collection_times": [{"days": "Mon-Fri", "time": "4:00pm"}, {"days": "Sat", "time": "11:15am"}, {"days": "Sun", "time": "Closed"}], "id": "7372800002", "name": "USPS COLLECTION BOX - PO LOBBY", "address": {"city": "CHEROKEE", "state": "OK", "street": "1780 S GRAND AVE", "postcode": "73728"}}},
{"geometry": {"type": "Point", "coordinates": [-98.3600793661, 36.7393707875]}, "type": "Feature", "properties": {"collection_times": [{"days": "Mon-Fri", "time": "4:00pm"}, {"days": "Sat", "time": "11:15am"}, {"days": "Sun", "time": "Closed"}], "id": "7372800005", "name": "USPS COLLECTION BOX - PO LOBBY", "address": {"city": "CHEROKEE", "state": "OK", "street": "1780 S GRAND AVE", "postcode": "73728"}}},
{"geometry": {"type": "Point", "coordinates": [-98.4632990256, 36.4200499033]}, "type": "Feature", "properties": {"collection_times": [{"days": "Mon-Fri", "time": "4:00pm"}, {"days": "Sat", "time": "9:15am"}, {"days": "Sun", "time": "Closed"}], "id": "7372900000", "name": "USPS COLLECTION BOX - BLUE BOX", "address": {"city": "CLEO SPRINGS", "state": "OK", "street": "123 N SQUARE ST", "postcode": "73729"}}},
{"geometry": {"type": "Point", "coordinates": [-98.4632990256, 36.4200499033]}, "type": "Feature", "properties": {"collection_times": [{"days": "Mon-Fri", "time": "4:00pm"}, {"days": "Sat", "time": "9:15am"}, {"days": "Sun", "time": "Closed"}], "id": "7372900001", "name": "USPS COLLECTION BOX - PO LOBBY", "address": {"city": "CLEO SPRINGS", "state": "OK", "street": "123 N SQUARE ST", "postcode": "73729"}}},
{"geometry": {"type": "Point", "coordinates": [-97.589112505, 36.305959062]}, "type": "Feature", "properties": {"collection_times": [{"days": "Mon-Fri", "time": "3:45pm"}, {"days": "Sat", "time": "9:00am"}, {"days": "Sun", "time": "Closed"}], "id": "7373000000", "name": "USPS COLLECTION BOX - BLUE BOX", "address": {"city": "COVINGTON", "state": "OK", "street": "316 W MAIN ST", "postcode": "73730"}}},
{"geometry": {"type": "Point", "coordinates": [-97.589112505, 36.305959062]}, "type": "Feature", "properties": {"collection_times": [{"days": "Mon-Fri", "time": "3:45pm"}, {"days": "Sat", "time": "9:00am"}, {"days": "Sun", "time": "Closed"}], "id": "7373000001", "name": "USPS COLLECTION BOX - PO LOBBY", "address": {"city": "COVINGTON", "state": "OK", "street": "316 W MAIN ST", "postcode": "73730"}}},
{"geometry": {"type": "Point", "coordinates": [-98.563455953, 36.6615178708]}, "type": "Feature", "properties": {"collection_times": [{"days": "Mon-Fri", "time": "11:15am"}, {"days": "Sat", "time": "9:15am"}, {"days": "Sun", "time": "Closed"}], "id": "7373100001", "name": "USPS COLLECTION BOX - PO LOBBY", "address": {"city": "DACOMA", "state": "OK", "street": "1000 MAIN ST", "postcode": "73731"}}},
{"geometry": {"type": "Point", "coordinates": [-97.9111972104, 35.9843059052]}, "type": "Feature", "properties": {"collection_times": [{"days": "Mon-Fri", "time": "4:00pm"}, {"days": "Sat", "time": "9:45am"}, {"days": "Sun", "time": "Closed"}], "id": "7373400000", "name": "USPS COLLECTION BOX - BLUE BOX", "address": {"city": "DOVER", "state": "OK", "street": "120 N CHISHOLM TRL", "postcode": "73734"}}},
{"geometry": {"type": "Point", "coordinates": [-97.9111972104, 35.9843059052]}, "type": "Feature", "properties": {"collection_times": [{"days": "Mon-Fri", "time": "4:00pm"}, {"days": "Sat", "time": "9:45am"}, {"days": "Sun", "time": "Closed"}], "id": "7373400001", "name": "USPS COLLECTION BOX - PO LOBBY", "address": {"city": "DOVER", "state": "OK", "street": "120 N CHISHOLM TRL", "postcode": "73734"}}},
{"geometry": {"type": "Point", "coordinates": [-98.036600352, 36.3010633227]}, "type": "Feature", "properties": {"collection_times": [{"days": "Mon-Fri", "time": "3:45pm"}, {"days": "Sat", "time": "7:30am"}, {"days": "Sun", "time": "Closed"}], "id": "7373500000", "name": "USPS COLLECTION BOX - BLUE BOX", "address": {"city": "DRUMMOND", "state": "OK", "street": "319 S MAIN ST", "postcode": "73735"}}},
{"geometry": {"type": "Point", "coordinates": [-98.036600352, 36.3010633227]}, "type": "Feature", "properties": {"collection_times": [{"days": "Mon-Fri", "time": "11:15am"}, {"days": "Sat", "time": "7:30am"}, {"days": "Sun", "time": "Closed"}], "id": "7373500001", "name": "USPS COLLECTION BOX - PO LOBBY", "address": {"city": "DRUMMOND", "state": "OK", "street": "319 S MAIN ST", "postcode": "73735"}}},
{"geometry": {"type": "Point", "coordinates": [-98.036600352, 36.3010633227]}, "type": "Feature", "properties": {"collection_times": [{"days": "Mon-Fri", "time": "11:15am"}, {"days": "Sat", "time": "7:30am"}, {"days": "Sun", "time": "Closed"}], "id": "7373500002", "name": "USPS COLLECTION BOX - PO LOBBY", "address": {"city": "DRUMMOND", "state": "OK", "street": "319 S MAIN ST", "postcode": "73735"}}},
{"geometry": {"type": "Point", "coordinates": [-97.7065752023, 36.3555911736]}, "type": "Feature", "properties": {"collection_times": [{"days": "Mon-Fri", "time": "10:45am"}, {"days": "Sat", "time": "8:15am"}, {"days": "Sun", "time": "Closed"}], "id": "7373600001", "name": "USPS COLLECTION BOX - PO LOBBY", "address": {"city": "FAIRMONT", "state": "OK", "street": "620 MAIN ST", "postcode": "73736"}}},
{"geometry": {"type": "Point", "coordinates": [-98.4801263804, 36.2691181406]}, "type": "Feature", "properties": {"collection_times": [{"days": "Mon-Fri", "time": "4:15pm"}, {"days": "Sat", "time": "10:30am"}, {"days": "Sun", "time": "Closed"}], "id": "7373700003", "name": "USPS COLLECTION BOX - BLUE BOX", "address": {"city": "FAIRVIEW", "state": "OK", "street": "115 W BROADWAY", "postcode": "73737"}}},
{"geometry": {"type": "Point", "coordinates": [-98.4801263804, 36.2691181406]}, "type": "Feature", "properties": {"collection_times": [{"days": "Mon-Fri", "time": "4:15pm"}, {"days": "Sat", "time": "10:30am"}, {"days": "Sun", "time": "Closed"}], "id": "7373700010", "name": "USPS COLLECTION BOX - PO LOBBY", "address": {"city": "FAIRVIEW", "state": "OK", "street": "115 W BROADWAY", "postcode": "73737"}}},
{"geometry": {"type": "Point", "coordinates": [-98.4801263804, 36.2691181406]}, "type": "Feature", "properties": {"collection_times": [{"days": "Mon-Fri", "time": "4:15pm"}, {"days": "Sat", "time": "10:30am"}, {"days": "Sun", "time": "Closed"}], "id": "7373700011", "name": "USPS COLLECTION BOX - PO LOBBY", "address": {"city": "FAIRVIEW", "state": "OK", "street": "115 W BROADWAY", "postcode": "73737"}}},
{"geometry": {"type": "Point", "coordinates": [-97.5825256396, 36.43999649]}, "type": "Feature", "properties": {"collection_times": [{"days": "Mon-Fri", "time": "4:00pm"}, {"days": "Sat", "time": "9:00am"}, {"days": "Sun", "time": "Closed"}], "id": "7373800000", "name": "USPS COLLECTION BOX - BLUE BOX", "address": {"city": "GARBER", "state": "OK", "street": "104 MAIN ST", "postcode": "73738"}}},
{"geometry": {"type": "Point", "coordinates": [-97.5825256396, 36.43999649]}, "type": "Feature", "properties": {"collection_times": [{"days": "Mon-Fri", "time": "2:45pm"}, {"days": "Sat", "time": "9:00am"}, {"days": "Sun", "time": "Closed"}], "id": "7373800001", "name": "USPS COLLECTION BOX - PO LOBBY", "address": {"city": "GARBER", "state": "OK", "street": "104 MAIN ST", "postcode": "73738"}}},
{"geometry": {"type": "Point", "coordinates": [-98.146925821, 36.532590288]}, "type": "Feature", "properties": {"collection_times": [{"days": "Mon-Fri", "time": "3:00pm"}, {"days": "Sat", "time": "9:30am"}, {"days": "Sun", "time": "Closed"}], "id": "7373900001", "name": "USPS COLLECTION BOX - PO LOBBY", "address": {"city": "GOLTRY", "state": "OK", "street": "201 W MAIN", "postcode": "73739"}}},
{"geometry": {"type": "Point", "coordinates": [-98.146925821, 36.532590288]}, "type": "Feature", "properties": {"collection_times": [{"days": "Mon-Fri", "time": "3:00pm"}, {"days": "Sat", "time": "9:30am"}, {"days": "Sun", "time": "Closed"}], "id": "7373900003", "name": "USPS COLLECTION BOX - PO LOBBY", "address": {"city": "GOLTRY", "state": "OK", "street": "201 W MAIN", "postcode": "73739"}}},
{"geometry": {"type": "Point", "coordinates": [-98.269890887, 36.5451271708]}, "type": "Feature", "properties": {"collection_times": [{"days": "Mon-Fri", "time": "3:00pm"}, {"days": "Sat", "time": "9:00am"}, {"days": "Sun", "time": "Closed"}], "id": "7374100001", "name": "USPS COLLECTION BOX - PO LOBBY", "address": {"city": "HELENA", "state": "OK", "street": "212 N MAIN ST", "postcode": "73741"}}},
{"geometry": {"type": "Point", "coordinates": [-98.269890887, 36.5451271708]}, "type": "Feature", "properties": {"collection_times": [{"days": "Mon-Fri", "time": "3:00pm"}, {"days": "Sat", "time": "9:00am"}, {"days": "Sun", "time": "Closed"}], "id": "7374100002", "name": "USPS COLLECTION BOX - PO LOBBY", "address": {"city": "HELENA", "state": "OK", "street": "212 N MAIN ST", "postcode": "73741"}}},
{"geometry": {"type": "Point", "coordinates": [-97.8989921923, 36.1080249904]}, "type": "Feature", "properties": {"collection_times": [{"days": "Mon-Fri", "time": "4:00pm"}, {"days": "Sat", "time": "11:00am"}, {"days": "Sun", "time": "Closed"}], "id": "7374200001", "name": "USPS COLLECTION BOX - BLUE BOX", "address": {"city": "HENNESSEY", "state": "OK", "street": "221 S MAIN ST", "postcode": "73742"}}},
{"geometry": {"type": "Point", "coordinates": [-97.8989921923, 36.1080249904]}, "type": "Feature", "properties": {"collection_times": [{"days": "Mon-Fri", "time": "4:00pm"}, {"days": "Sat", "time": "11:00am"}, {"days": "Sun", "time": "Closed"}], "id": "7374200002", "name": "USPS COLLECTION BOX - BLUE BOX", "address": {"city": "HENNESSEY", "state": "OK", "street": "221 S MAIN ST", "postcode": "73742"}}},
{"geometry": {"type": "Point", "coordinates": [-97.8989921923, 36.1080249904]}, "type": "Feature", "properties": {"collection_times": [{"days": "Mon-Fri", "time": "4:00pm"}, {"days": "Sat", "time": "11:00am"}, {"days": "Sun", "time": "Closed"}], "id": "7374200006", "name": "USPS COLLECTION BOX - PO LOBBY", "address": {"city": "HENNESSEY", "state": "OK", "street": "221 S MAIN ST", "postcode": "73742"}}},
{"geometry": {"type": "Point", "coordinates": [-97.9919422314, 36.5647881141]}, "type": "Feature", "properties": {"collection_times": [{"days": "Mon-Fri", "time": "10:45am"}, {"days": "Sat", "time": "10:00am"}, {"days": "Sun", "time": "Closed"}], "id": "7374300001", "name": "USPS COLLECTION BOX - PO LOBBY", "address": {"city": "HILLSDALE", "state": "OK", "street": "103 S MAIN ST", "postcode": "73743"}}},
{"geometry": {"type": "Point", "coordinates": [-97.9919422314, 36.5647881141]}, "type": "Feature", "properties": {"collection_times": [{"days": "Mon-Fri", "time": "10:45am"}, {"days": "Sat", "time": "10:00am"}, {"days": "Sun", "time": "Closed"}], "id": "7374300002", "name": "USPS COLLECTION BOX - PO LOBBY", "address": {"city": "HILLSDALE", "state": "OK", "street": "103 S MAIN ST", "postcode": "73743"}}},
{"geometry": {"type": "Point", "coordinates": [-98.3124983251, 35.9710747354]}, "type": "Feature", "properties": {"collection_times": [{"days": "Mon-Fri", "time": "3:15pm"}, {"days": "Sat", "time": "10:00am"}, {"days": "Sun", "time": "Closed"}], "id": "7374400001", "name": "USPS COLLECTION BOX - PO LOBBY", "address": {"city": "HITCHCOCK", "state": "OK", "street": "104 W MAIN ST", "postcode": "73744"}}},
{"geometry": {"type": "Point", "coordinates": [-98.3124983251, 35.9710747354]}, "type": "Feature", "properties": {"collection_times": [{"days": "Mon-Fri", "time": "3:15pm"}, {"days": "Sat", "time": "10:00am"}, {"days": "Sun", "time": "Closed"}], "id": "7374400002", "name": "USPS COLLECTION BOX - PO LOBBY", "address": {"city": "HITCHCOCK", "state": "OK", "street": "104 W MAIN ST", "postcode": "73744"}}},
{"geometry": {"type": "Point", "coordinates": [-98.6662112787, 36.6866246912]}, "type": "Feature", "properties": {"collection_times": [{"days": "Mon-Fri", "time": "2:00pm"}, {"days": "Sat", "time": "9:00am"}, {"days": "Sun", "time": "Closed"}], "id": "7374600001", "name": "USPS COLLECTION BOX - PO LOBBY", "address": {"city": "HOPETON", "state": "OK", "street": "19405 COUNTY ROAD 440", "postcode": "73746"}}},
{"geometry": {"type": "Point", "coordinates": [-98.341702561, 36.2368538838]}, "type": "Feature", "properties": {"collection_times": [{"days": "Mon-Fri", "time": "3:30pm"}, {"days": "Sat", "time": "9:00am"}, {"days": "Sun", "time": "Closed"}], "id": "7374700001", "name": "USPS COLLECTION BOX - PO LOBBY", "address": {"city": "ISABELLA", "state": "OK", "street": "130 W MAIN", "postcode": "73747"}}},
{"geometry": {"type": "Point", "coordinates": [-98.1807015145, 36.6662530896]}, "type": "Feature", "properties": {"collection_times": [{"days": "Mon-Fri", "time": "4:00pm"}, {"days": "Sat", "time": "10:45am"}, {"days": "Sun", "time": "Closed"}], "id": "7374900001", "name": "USPS COLLECTION BOX - PO LOBBY", "address": {"city": "JET", "state": "OK", "street": "418 MAIN ST", "postcode": "73749"}}},
{"geometry": {"type": "Point", "coordinates": [-98.1807015145, 36.6662530896]}, "type": "Feature", "properties": {"collection_times": [{"days": "Mon-Fri", "time": "4:00pm"}, {"days": "Sat", "time": "10:45am"}, {"days": "Sun", "time": "Closed"}], "id": "7374900002", "name": "USPS COLLECTION BOX - PO LOBBY", "address": {"city": "JET", "state": "OK", "street": "418 MAIN ST", "postcode": "73749"}}},
{"geometry": {"type": "Point", "coordinates": [-97.9326105923, 35.8598534902]}, "type": "Feature", "properties": {"collection_times": [{"days": "Mon-Fri", "time": "4:45pm"}, {"days": "Sat", "time": "11:30am"}, {"days": "Sun", "time": "Closed"}], "id": "7375000003", "name": "USPS COLLECTION BOX - BLUE BOX", "address": {"city": "KINGFISHER", "state": "OK", "street": "200 S MAIN ST", "postcode": "73750"}}},
{"geometry": {"type": "Point", "coordinates": [-97.9326105923, 35.8598534902]}, "type": "Feature", "properties": {"collection_times": [{"days": "Mon-Fri", "time": "4:45pm"}, {"days": "Sat", "time": "11:30am"}, {"days": "Sun", "time": "Closed"}], "id": "7375000006", "name": "USPS COLLECTION BOX - PO LOBBY", "address": {"city": "KINGFISHER", "state": "OK", "street": "200 S MAIN ST", "postcode": "73750"}}},
{"geometry": {"type": "Point", "coordinates": [-98.0255452177, 35.9153401809]}, "type": "Feature", "properties": {"collection_times": [{"days": "Mon-Fri", "time": "4:45pm"}, {"days": "Sat", "time": "11:30am"}, {"days": "Sun", "time": "Closed"}], "id": "7375000007", "name": "USPS COLLECTION BOX - PO LOBBY", "address": {"city": "KINGFISHER", "state": "OK", "street": "200 S MAIN ST", "postcode": "73750"}}},
{"geometry": {"type": "Point", "coordinates": [-97.9326105923, 35.8598534902]}, "type": "Feature", "properties": {"collection_times": [{"days": "Mon-Fri", "time": "4:45pm"}, {"days": "Sat", "time": "11:30am"}, {"days": "Sun", "time": "Closed"}], "id": "7375000008", "name": "USPS COLLECTION BOX - PO LOBBY", "address": {"city": "KINGFISHER", "state": "OK", "street": "200 S MAIN ST", "postcode": "73750"}}},
{"geometry": {"type": "Point", "coordinates": [-97.8268484337, 36.5456004125]}, "type": "Feature", "properties": {"collection_times": [{"days": "Mon-Fri", "time": "3:45pm"}, {"days": "Sat", "time": "9:15am"}, {"days": "Sun", "time": "Closed"}], "id": "7375300000", "name": "USPS COLLECTION BOX - BLUE BOX", "address": {"city": "KREMLIN", "state": "OK", "street": "3415 E KEOWEE RD", "postcode": "73753"}}},
{"geometry": {"type": "Point", "coordinates": [-97.8268484337, 36.5456004125]}, "type": "Feature", "properties": {"collection_times": [{"days": "Mon-Fri", "time": "3:45pm"}, {"days": "Sat", "time": "9:15am"}, {"days": "Sun", "time": "Closed"}], "id": "7375300001", "name": "USPS COLLECTION BOX - PO LOBBY", "address": {"city": "KREMLIN", "state": "OK", "street": "3415 E KEOWEE RD", "postcode": "73753"}}},
{"geometry": {"type": "Point", "coordinates": [-97.8268484337, 36.5456004125]}, "type": "Feature", "properties": {"collection_times": [{"days": "Mon-Fri", "time": "3:45pm"}, {"days": "Sat", "time": "9:15am"}, {"days": "Sun", "time": "Closed"}], "id": "7375300002", "name": "USPS COLLECTION BOX - PO LOBBY", "address": {"city": "KREMLIN", "state": "OK", "street": "3415 E KEOWEE RD", "postcode": "73753"}}},
{"geometry": {"type": "Point", "coordinates": [-98.0893402879, 36.3887011561]}, "type": "Feature", "properties": {"collection_times": [{"days": "Mon-Fri", "time": "4:15pm"}, {"days": "Sat", "time": "9:15am"}, {"days": "Sun", "time": "Closed"}], "id": "7375400001", "name": "USPS COLLECTION BOX - PO LOBBY", "address": {"city": "LAHOMA", "state": "OK", "street": "535 MAIN ST", "postcode": "73754"}}},
{"geometry": {"type": "Point", "coordinates": [-98.0893402879, 36.3887011561]}, "type": "Feature", "properties": {"collection_times": [{"days": "Mon-Fri", "time": "4:15pm"}, {"days": "Sat", "time": "9:15am"}, {"days": "Sun", "time": "Closed"}], "id": "7375400002", "name": "USPS COLLECTION BOX - PO LOBBY", "address": {"city": "LAHOMA", "state": "OK", "street": "535 MAIN ST", "postcode": "73754"}}},
{"geometry": {"type": "Point", "coordinates": [-98.556954332, 36.1152829934]}, "type": "Feature", "properties": {"collection_times": [{"days": "Mon-Fri", "time": "3:45pm"}, {"days": "Sat", "time": "8:45am"}, {"days": "Sun", "time": "Closed"}], "id": "7375500000", "name": "USPS COLLECTION BOX - BLUE BOX", "address": {"city": "LONGDALE", "state": "OK", "street": "501 KEN MILLER BLVD", "postcode": "73755"}}},
{"geometry": {"type": "Point", "coordinates": [-98.556954332, 36.1152829934]}, "type": "Feature", "properties": {"collection_times": [{"days": "Mon-Fri", "time": "11:45am"}, {"days": "Sat", "time": "8:45am"}, {"days": "Sun", "time": "Closed"}], "id": "7375500001", "name": "USPS COLLECTION BOX - PO LOBBY", "address": {"city": "LONGDALE", "state": "OK", "street": "501 KEN MILLER BLVD", "postcode": "73755"}}},
{"geometry": {"type": "Point", "coordinates": [-98.1122770388, 35.9637108067]}, "type": "Feature", "properties": {"collection_times": [{"days": "Mon-Fri", "time": "11:45am"}, {"days": "Sat", "time": "10:45am"}, {"days": "Sun", "time": "Closed"}], "id": "7375600000", "name": "USPS COLLECTION BOX - BLUE BOX", "address": {"city": "LOYAL", "state": "OK", "street": "102 E MAIN ST", "postcode": "73756"}}},
{"geometry": {"type": "Point", "coordinates": [-98.1122770388, 35.9637108067]}, "type": "Feature", "properties": {"collection_times": [{"days": "Mon-Fri", "time": "11:45am"}, {"days": "Sat", "time": "10:45am"}, {"days": "Sun", "time": "Closed"}], "id": "7375600001", "name": "USPS COLLECTION BOX - PO LOBBY", "address": {"city": "LOYAL", "state": "OK", "street": "102 E MAIN ST", "postcode": "73756"}}},
{"geometry": {"type": "Point", "coordinates": [-98.0530942391, 36.9483958051]}, "type": "Feature", "properties": {"collection_times": [{"days": "Mon-Fri", "time": "4:00pm"}, {"days": "Sat", "time": "9:30am"}, {"days": "Sun", "time": "Closed"}], "id": "7375800000", "name": "USPS COLLECTION BOX - BLUE BOX", "address": {"city": "MANCHESTER", "state": "OK", "street": "1561 MAIN ST", "postcode": "73758"}}},
{"geometry": {"type": "Point", "coordinates": [-98.0530942391, 36.9483958051]}, "type": "Feature", "properties": {"collection_times": [{"days": "Mon-Fri", "time": "11:15am"}, {"days": "Sat", "time": "9:30am"}, {"days": "Sun", "time": "Closed"}], "id": "7375800001", "name": "USPS COLLECTION BOX - PO LOBBY", "address": {"city": "MANCHESTER", "state": "OK", "street": "1561 MAIN ST", "postcode": "73758"}}},
{"geometry": {"type": "Point", "coordinates": [-98.0530942391, 36.9483958051]}, "type": "Feature", "properties": {"collection_times": [{"days": "Mon-Fri", "time": "11:15am"}, {"days": "Sat", "time": "9:30am"}, {"days": "Sun", "time": "Closed"}], "id": "7375800002", "name": "USPS COLLECTION BOX - PO LOBBY", "address": {"city": "MANCHESTER", "state": "OK", "street": "1561 MAIN ST", "postcode": "73758"}}},
{"geometry": {"type": "Point", "coordinates": [-97.734765581, 36.808060896]}, "type": "Feature", "properties": {"collection_times": [{"days": "Mon-Fri", "time": "1:00pm"}, {"days": "Sat-Sun", "time": "Closed"}], "id": "7375900001", "name": "USPS COLLECTION BOX - BLUE BOX", "address": {"city": "MEDFORD", "state": "OK", "street": "112 E GUTHRIE ST", "postcode": "73759"}}},
{"geometry": {"type": "Point", "coordinates": [-97.7351764541, 36.8069529288]}, "type": "Feature", "properties": {"collection_times": [{"days": "Mon-Fri", "time": "4:00pm"}, {"days": "Sat", "time": "11:45am"}, {"days": "Sun", "time": "Closed"}], "id": "7375900002", "name": "USPS COLLECTION BOX - BLUE BOX", "address": {"city": "MEDFORD", "state": "OK", "street": "115 W CHEROKEE ST", "postcode": "73759"}}},
{"geometry": {"type": "Point", "coordinates": [-97.7351764541, 36.8069529288]}, "type": "Feature", "properties": {"collection_times": [{"days": "Mon-Fri", "time": "4:30pm"}, {"days": "Sat", "time": "11:45am"}, {"days": "Sun", "time": "Closed"}], "id": "7375900003", "name": "USPS COLLECTION BOX - PO LOBBY", "address": {"city": "MEDFORD", "state": "OK", "street": "115 W CHEROKEE ST", "postcode": "73759"}}},
{"geometry": {"type": "Point", "coordinates": [-97.7351764541, 36.8069529288]}, "type": "Feature", "properties": {"collection_times": [{"days": "Mon-Fri", "time": "4:00pm"}, {"days": "Sat", "time": "11:45am"}, {"days": "Sun", "time": "Closed"}], "id": "7375900004", "name": "USPS COLLECTION BOX - PO LOBBY", "address": {"city": "MEDFORD", "state": "OK", "street": "115 W CHEROKEE ST", "postcode": "73759"}}},
{"geometry": {"type": "Point", "coordinates": [-97.7351764541, 36.8069529288]}, "type": "Feature", "properties": {"collection_times": [{"days": "Mon-Fri", "time": "4:30pm"}, {"days": "Sat", "time": "11:45am"}, {"days": "Sun", "time": "Closed"}], "id": "7375900006", "name": "USPS COLLECTION BOX - PO LOBBY", "address": {"city": "MEDFORD", "state": "OK", "street": "115 W CHEROKEE ST", "postcode": "73759"}}},
{"geometry": {"type": "Point", "coordinates": [-98.1788591041, 36.3881342741]}, "type": "Feature", "properties": {"collection_times": [{"days": "Mon-Fri", "time": "4:15pm"}, {"days": "Sat", "time": "10:00am"}, {"days": "Sun", "time": "Closed"}], "id": "7376000000", "name": "USPS COLLECTION BOX - BLUE BOX", "address": {"city": "MENO", "state": "OK", "street": "123 HIGHWAY 60", "postcode": "73760"}}},
{"geometry": {"type": "Point", "coordinates": [-98.1776993652, 36.3909480528]}, "type": "Feature", "properties": {"collection_times": [{"days": "Mon-Fri", "time": "11:45am"}, {"days": "Sat", "time": "10:00am"}, {"days": "Sun", "time": "Closed"}], "id": "7376000001", "name": "USPS COLLECTION BOX - PO LOBBY", "address": {"city": "MENO", "state": "OK", "street": "123 HIGHWAY 60", "postcode": "73760"}}},
{"geometry": {"type": "Point", "coordinates": [-98.1776993652, 36.3909480528]}, "type": "Feature", "properties": {"collection_times": [{"days": "Mon-Fri", "time": "11:45am"}, {"days": "Sat", "time": "10:00am"}, {"days": "Sun", "time": "Closed"}], "id": "7376000002", "name": "USPS COLLECTION BOX - PO LOBBY", "address": {"city": "MENO", "state": "OK", "street": "123 HIGHWAY 60", "postcode": "73760"}}},
{"geometry": {"type": "Point", "coordinates": [-98.0143906346, 36.7154367905]}, "type": "Feature", "properties": {"collection_times": [{"days": "Mon-Fri", "time": "11:30am"}, {"days": "Sat", "time": "9:30am"}, {"days": "Sun", "time": "Closed"}], "id": "7376100001", "name": "USPS COLLECTION BOX - PO LOBBY", "address": {"city": "NASH", "state": "OK", "street": "103 S MAIN ST", "postcode": "73761"}}},
{"geometry": {"type": "Point", "coordinates": [-97.9737799469, 35.7257893822]}, "type": "Feature", "properties": {"collection_times": [{"days": "Mon-Fri", "time": "4:15pm"}, {"days": "Sat", "time": "10:00am"}, {"days": "Sun", "time": "Closed"}], "id": "7376200000", "name": "USPS COLLECTION BOX - BLUE BOX", "address": {"city": "OKARCHE", "state": "OK", "street": "120 W OKLAHOMA ST", "postcode": "73762"}}},
{"geometry": {"type": "Point", "coordinates": [-97.9737799469, 35.7257893822]}, "type": "Feature", "properties": {"collection_times": [{"days": "Mon-Fri", "time": "4:15pm"}, {"days": "Sat", "time": "2:00pm"}, {"days": "Sun", "time": "Closed"}], "id": "7376200001", "name": "USPS COLLECTION BOX - PO LOBBY", "address": {"city": "OKARCHE", "state": "OK", "street": "120 W OKLAHOMA ST", "postcode": "73762"}}},
{"geometry": {"type": "Point", "coordinates": [-98.3286157103, 36.1024263098]}, "type": "Feature", "properties": {"collection_times": [{"days": "Mon-Fri", "time": "3:45pm"}, {"days": "Sat", "time": "10:00am"}, {"days": "Sun", "time": "Closed"}], "id": "7376300000", "name": "USPS COLLECTION BOX - BLUE BOX", "address": {"city": "OKEENE", "state": "OK", "street": "201 N 5TH ST", "postcode": "73763"}}},
{"geometry": {"type": "Point", "coordinates": [-98.315872998, 36.1171312272]}, "type": "Feature", "properties": {"collection_times": [{"days": "Mon-Fri", "time": "4:00pm"}, {"days": "Sat", "time": "10:00am"}, {"days": "Sun", "time": "Closed"}], "id": "7376300001", "name": "USPS COLLECTION BOX - PO LOBBY", "address": {"city": "OKEENE", "state": "OK", "street": "201 N 5TH ST", "postcode": "73763"}}},
{"geometry": {"type": "Point", "coordinates": [-98.315872998, 36.1171312272]}, "type": "Feature", "properties": {"collection_times": [{"days": "Mon-Fri", "time": "4:00pm"}, {"days": "Sat", "time": "10:00am"}, {"days": "Sun", "time": "Closed"}], "id": "7376300002", "name": "USPS COLLECTION BOX - PO LOBBY", "address": {"city": "OKEENE", "state": "OK", "street": "201 N 5TH ST", "postcode": "73763"}}},
{"geometry": {"type": "Point", "coordinates": [-98.315872998, 36.1171312272]}, "type": "Feature", "properties": {"collection_times": [{"days": "Mon-Fri", "time": "3:45pm"}, {"days": "Sat", "time": "10:00am"}, {"days": "Sun", "time": "Closed"}], "id": "7376300004", "name": "USPS COLLECTION BOX - BLUE BOX", "address": {"city": "OKEENE", "state": "OK", "street": "201 N 5TH ST", "postcode": "73763"}}},
{"geometry": {"type": "Point", "coordinates": [-97.7998247037, 36.66925358]}, "type": "Feature", "properties": {"collection_times": [{"days": "Mon-Fri", "time": "2:45pm"}, {"days": "Sat", "time": "10:00am"}, {"days": "Sun", "time": "Closed"}], "id": "7376600001", "name": "USPS COLLECTION BOX - PO LOBBY", "address": {"city": "POND CREEK", "state": "OK", "street": "104 W BROADWAY ST", "postcode": "73766"}}},
{"geometry": {"type": "Point", "coordinates": [-97.7998247037, 36.66925358]}, "type": "Feature", "properties": {"collection_times": [{"days": "Mon-Fri", "time": "2:45pm"}, {"days": "Sat", "time": "10:00am"}, {"days": "Sun", "time": "Closed"}], "id": "7376600002", "name": "USPS COLLECTION BOX - PO LOBBY", "address": {"city": "POND CREEK", "state": "OK", "street": "104 W BROADWAY ST", "postcode": "73766"}}},
{"geometry": {"type": "Point", "coordinates": [-98.2458679616, 36.377394501]}, "type": "Feature", "properties": {"collection_times": [{"days": "Mon-Fri", "time": "4:15pm"}, {"days": "Sat", "time": "9:45am"}, {"days": "Sun", "time": "Closed"}], "id": "7376800000", "name": "USPS COLLECTION BOX - BLUE BOX", "address": {"city": "RINGWOOD", "state": "OK", "street": "124 S MAIN ST", "postcode": "73768"}}},
{"geometry": {"type": "Point", "coordinates": [-98.2458679616, 36.377394501]}, "type": "Feature", "properties": {"collection_times": [{"days": "Mon-Fri", "time": "1:45pm"}, {"days": "Sat", "time": "9:45am"}, {"days": "Sun", "time": "Closed"}], "id": "7376800001", "name": "USPS COLLECTION BOX - PO LOBBY", "address": {"city": "RINGWOOD", "state": "OK", "street": "124 S MAIN ST", "postcode": "73768"}}},
{"geometry": {"type": "Point", "coordinates": [-98.2458679616, 36.377394501]}, "type": "Feature", "properties": {"collection_times": [{"days": "Mon-Fri", "time": "1:45pm"}, {"days": "Sat", "time": "9:45am"}, {"days": "Sun", "time": "Closed"}], "id": "7376800002", "name": "USPS COLLECTION BOX - PO LOBBY", "address": {"city": "RINGWOOD", "state": "OK", "street": "124 S MAIN ST", "postcode": "73768"}}},
{"geometry": {"type": "Point", "coordinates": [-97.9338648024, 36.8762412382]}, "type": "Feature", "properties": {"collection_times": [{"days": "Mon-Fri", "time": "4:30pm"}, {"days": "Sat", "time": "10:00am"}, {"days": "Sun", "time": "Closed"}], "id": "7377100000", "name": "USPS COLLECTION BOX - BLUE BOX", "address": {"city": "WAKITA", "state": "OK", "street": "1742 MAIN ST", "postcode": "73771"}}},
{"geometry": {"type": "Point", "coordinates": [-97.9338648024, 36.8762412382]}, "type": "Feature", "properties": {"collection_times": [{"days": "Mon-Fri", "time": "2:30pm"}, {"days": "Sat", "time": "12:00pm"}, {"days": "Sun", "time": "Closed"}], "id": "7377100001", "name": "USPS COLLECTION BOX - PO LOBBY", "address": {"city": "WAKITA", "state": "OK", "street": "1742 MAIN ST", "postcode": "73771"}}},
{"geometry": {"type": "Point", "coordinates": [-97.9338648024, 36.8762412382]}, "type": "Feature", "properties": {"collection_times": [{"days": "Mon-Fri", "time": "2:30pm"}, {"days": "Sat", "time": "12:00pm"}, {"days": "Sun", "time": "Closed"}], "id": "7377100002", "name": "USPS COLLECTION BOX - PO LOBBY", "address": {"city": "WAKITA", "state": "OK", "street": "1742 MAIN ST", "postcode": "73771"}}},
{"geometry": {"type": "Point", "coordinates": [-98.4131718056, 35.8446785699]}, "type": "Feature", "properties": {"collection_times": [{"days": "Mon-Fri", "time": "4:00pm"}, {"days": "Sat", "time": "12:00pm"}, {"days": "Sun", "time": "Closed"}], "id": "7377200005", "name": "USPS COLLECTION BOX - BLUE BOX", "address": {"city": "WATONGA", "state": "OK", "street": "121 N NOBLE AVE", "postcode": "73772"}}},
{"geometry": {"type": "Point", "coordinates": [-98.4131718056, 35.8446785699]}, "type": "Feature", "properties": {"collection_times": [{"days": "Mon-Fri", "time": "4:00pm"}, {"days": "Sat", "time": "12:00pm"}, {"days": "Sun", "time": "Closed"}], "id": "7377200006", "name": "USPS COLLECTION BOX - PO LOBBY", "address": {"city": "WATONGA", "state": "OK", "street": "121 N NOBLE AVE", "postcode": "73772"}}},
{"geometry": {"type": "Point", "coordinates": [-98.4131718056, 35.8446785699]}, "type": "Feature", "properties": {"collection_times": [{"days": "Mon-Fri", "time": "4:00pm"}, {"days": "Sat", "time": "12:00pm"}, {"days": "Sun", "time": "Closed"}], "id": "7377200007", "name": "USPS COLLECTION BOX - PO LOBBY", "address": {"city": "WATONGA", "state": "OK", "street": "121 N NOBLE AVE", "postcode": "73772"}}},
{"geometry": {"type": "Point", "coordinates": [-98.4131718056, 35.8446785699]}, "type": "Feature", "properties": {"collection_times": [{"days": "Mon-Fri", "time": "4:00pm"}, {"days": "Sat", "time": "12:00pm"}, {"days": "Sun", "time": "Closed"}], "id": "7377200008", "name": "USPS COLLECTION BOX - BLUE BOX", "address": {"city": "WATONGA", "state": "OK", "street": "121 N NOBLE AVE", "postcode": "73772"}}},
{"geometry": {"type": "Point", "coordinates": [-97.8932755861, 36.2801508369]}, "type": "Feature", "properties": {"collection_times": [{"days": "Mon-Fri", "time": "4:30pm"}, {"days": "Sat", "time": "9:30am"}, {"days": "Sun", "time": "Closed"}], "id": "7377300000", "name": "USPS COLLECTION BOX - BLUE BOX", "address": {"city": "WAUKOMIS", "state": "OK", "street": "504 E EUCLID AVE", "postcode": "73773"}}},
{"geometry": {"type": "Point", "coordinates": [-97.8932755861, 36.2801508369]}, "type": "Feature", "properties": {"collection_times": [{"days": "Mon-Fri", "time": "2:00pm"}, {"days": "Sat", "time": "9:30am"}, {"days": "Sun", "time": "Closed"}], "id": "7377300001", "name": "USPS COLLECTION BOX - PO LOBBY", "address": {"city": "WAUKOMIS", "state": "OK", "street": "504 E EUCLID AVE", "postcode": "73773"}}},
{"geometry": {"type": "Point", "coordinates": [-97.8932755861, 36.2801508369]}, "type": "Feature", "properties": {"collection_times": [{"days": "Mon-Fri", "time": "2:00pm"}, {"days": "Sat", "time": "9:30am"}, {"days": "Sun", "time": "Closed"}], "id": "7377300002", "name": "USPS COLLECTION BOX - PO LOBBY", "address": {"city": "WAUKOMIS", "state": "OK", "street": "504 E EUCLID AVE", "postcode": "73773"}}}
]}
