{"type": "FeatureCollection", "features": [
{"geometry": {"type": "Point", "coordinates": [-99.391996979, 36.4368950649]}, "type": "Feature", "properties": {"collection_times": [{"days": "Mon-Fri", "time": "3:00pm"}, {"days": "Sat", "time": "2:15pm"}, {"days": "Sun", "time": "Closed"}], "id": "7380100003", "name": "USPS COLLECTION BOX - BLUE BOX", "address": {"city": "WOODWARD", "state": "OK", "street": "1023 10TH ST", "postcode": "73801"}}},
{"geometry": {"type": "Point", "coordinates": [-99.3894639829, 36.4189257461]}, "type": "Feature", "properties": {"collection_times": [{"days": "Mon-Fri", "time": "3:00pm"}, {"days": "Sat", "time": "11:00am"}, {"days": "Sun", "time": "Closed"}], "id": "7380100005", "name": "USPS COLLECTION BOX - BLUE BOX", "address": {"city": "WOODWARD", "state": "OK", "street": "2821 8TH ST", "postcode": "73801"}}},
{"geometry": {"type": "Point", "coordinates": [-99.3982944447, 36.4371424489]}, "type": "Feature", "properties": {"collection_times": [{"days": "Mon-Fri", "time": "3:00pm"}, {"days": "Sat", "time": "2:00pm"}, {"days": "Sun", "time": "Closed"}], "id": "7380100006", "name": "USPS COLLECTION BOX - BLUE BOX", "address": {"city": "WOODWARD", "state": "OK", "street": "1000 15TH ST", "postcode": "73801"}}},
{"geometry": {"type": "Point", "coordinates": [-99.4262094712, 36.433543038]}, "type": "Feature", "properties": {"collection_times": [{"days": "Mon-Fri", "time": "3:00pm"}, {"days": "Sat", "time": "1:30pm"}, {"days": "Sun", "time": "Closed"}], "id": "7380100011", "name": "USPS COLLECTION BOX - BLUE BOX", "address": {"city": "WOODWARD", "state": "OK", "street": "3401 OKLAHOMA AVE", "postcode": "73801"}}},
{"geometry": {"type": "Point", "coordinates": [-99.3904928395, 36.4258905846]}, "type": "Feature", "properties": {"collection_times": [{"days": "Mon-Fri", "time": "4:45pm"}, {"days": "Sat", "time": "3:30pm"}, {"days": "Sun", "time": "Closed"}], "id": "7380100029", "name": "USPS COLLECTION BOX - PO LOBBY", "address": {"city": "WOODWARD", "state": "OK", "street": "2020 WILLIAMS AVE", "postcode": "73801"}}},
{"geometry": {"type": "Point", "coordinates": [-99.3904928395, 36.4258905846]}, "type": "Feature", "properties": {"collection_times": [{"days": "Mon-Fri", "time": "4:45pm"}, {"days": "Sat", "time": "3:30pm"}, {"days": "Sun", "time": "Closed"}], "id": "7380100030", "name": "USPS COLLECTION BOX - PO LOBBY", "address": {"city": "WOODWARD", "state": "OK", "street": "2020 WILLIAMS AVE", "postcode": "73801"}}},
{"geometry": {"type": "Point", "coordinates": [-99.3904928395, 36.4258905846]}, "type": "Feature", "properties": {"collection_times": [{"days": "Mon-Fri", "time": "4:45pm"}, {"days": "Sat", "time": "3:30pm"}, {"days": "Sun", "time": "Closed"}], "id": "7380100031", "name": "USPS COLLECTION BOX - PO LOBBY", "address": {"city": "WOODWARD", "state": "OK", "street": "2020 WILLIAMS AVE", "postcode": "73801"}}},
{"geometry": {"type": "Point", "coordinates": [-99.3904928395, 36.4258905846]}, "type": "Feature", "properties": {"collection_times": [{"days": "Mon-Fri", "time": "4:45pm"}, {"days": "Sat", "time": "3:30pm"}, {"days": "Sun", "time": "Closed"}], "id": "7380100032", "name": "USPS COLLECTION BOX - BLUE BOX", "address": {"city": "WOODWARD", "state": "OK", "street": "2020 WILLIAMS AVE", "postcode": "73801"}}},
{"geometry": {"type": "Point", "coordinates": [-99.3844197756, 36.4170023838]}, "type": "Feature", "properties": {"collection_times": [{"days": "Mon-Sat", "time": "1:45pm"}, {"days": "Sun", "time": "Closed"}], "id": "7380100034", "name": "USPS COLLECTION BOX - BLUE BOX", "address": {"city": "WOODWARD", "state": "OK", "street": "3215 WILLIAMS AVE", "postcode": "73801"}}},
{"geometry": {"type": "Point", "coordinates": [-99.4433645548, 36.4335050515]}, "type": "Feature", "properties": {"collection_times": [{"days": "Mon-Fri", "time": "11:30am"}, {"days": "Sat", "time": "11:00am"}, {"days": "Sun", "time": "Closed"}], "id": "7380100035", "name": "USPS COLLECTION BOX - BLUE BOX", "address": {"city": "WOODWARD", "state": "OK", "street": "1304 48TH ST", "postcode": "73801"}}},
{"geometry": {"type": "Point", "coordinates": [-99.4223959304, 36.4337674335]}, "type": "Feature", "properties": {"collection_times": [{"days": "Mon-Fri", "time": "3:00pm"}, {"days": "Sat-Sun", "time": "Closed"}], "id": "7380100037", "name": "USPS COLLECTION BOX - BLUE BOX", "address": {"city": "WOODWARD", "state": "OK", "street": "3202 OKLAHOMA AVE", "postcode": "73801"}}},
{"geometry": {"type": "Point", "coordinates": [-99.4063393751, 36.4338022442]}, "type": "Feature", "properties": {"collection_times": [{"days": "Mon-Fri", "time": "12:00pm"}, {"days": "Sat", "time": "2:00pm"}, {"days": "Sun", "time": "Closed"}], "id": "7380100038", "name": "USPS COLLECTION BOX - BLUE BOX", "address": {"city": "WOODWARD", "state": "OK", "street": "2116 OKLAHOMA AVE", "postcode": "73801"}}},
{"geometry": {"type": "Point", "coordinates": [-99.7711641613, 36.134964929]}, "type": "Feature", "properties": {"collection_times": [{"days": "Mon-Fri", "time": "3:30pm"}, {"days": "Sat", "time": "11:15am"}, {"days": "Sun", "time": "Closed"}], "id": "7383200000", "name": "USPS COLLECTION BOX - PO LOBBY", "address": {"city": "ARNETT", "state": "OK", "street": "109 S WASHINGTON", "postcode": "73832"}}},
{"geometry": {"type": "Point", "coordinates": [-99.7711641613, 36.134964929]}, "type": "Feature", "properties": {"collection_times": [{"days": "Mon-Fri", "time": "3:30pm"}, {"days": "Sat", "time": "11:15am"}, {"days": "Sun", "time": "Closed"}], "id": "7383200002", "name": "USPS COLLECTION BOX - PO LOBBY", "address": {"city": "ARNETT", "state": "OK", "street": "109 S WASHINGTON", "postcode": "73832"}}},
{"geometry": {"type": "Point", "coordinates": [-99.7711641613, 36.134964929]}, "type": "Feature", "properties": {"collection_times": [{"days": "Mon-Fri", "time": "3:30pm"}, {"days": "Sat", "time": "11:15am"}, {"days": "Sun", "time": "Closed"}], "id": "7383200003", "name": "USPS COLLECTION BOX - PO LOBBY", "address": {"city": "ARNETT", "state": "OK", "street": "109 S WASHINGTON", "postcode": "73832"}}},
{"geometry": {"type": "Point", "coordinates": [-99.5256071923, 36.8002619181]}, "type": "Feature", "properties": {"collection_times": [{"days": "Mon-Fri", "time": "3:15pm"}, {"days": "Sat", "time": "10:15am"}, {"days": "Sun", "time": "Closed"}], "id": "7383400000", "name": "USPS COLLECTION BOX - BLUE BOX", "address": {"city": "BUFFALO", "state": "OK", "street": "103 E ELM ST", "postcode": "73834"}}},
{"geometry": {"type": "Point", "coordinates": [-99.5256071923, 36.8002619181]}, "type": "Feature", "properties": {"collection_times": [{"days": "Mon-Fri", "time": "3:45pm"}, {"days": "Sat", "time": "10:30am"}, {"days": "Sun", "time": "Closed"}], "id": "7383400001", "name": "USPS COLLECTION BOX - PO LOBBY", "address": {"city": "BUFFALO", "state": "OK", "street": "103 E ELM ST", "postcode": "73834"}}},
{"geometry": {"type": "Point", "coordinates": [-99.5256071923, 36.8002619181]}, "type": "Feature", "properties": {"collection_times": [{"days": "Mon-Fri", "time": "3:45pm"}, {"days": "Sat", "time": "10:30am"}, {"days": "Sun", "time": "Closed"}], "id": "7383400002", "name": "USPS COLLECTION BOX - PO LOBBY", "address": {"city": "BUFFALO", "state": "OK", "street": "103 E ELM ST", "postcode": "73834"}}},
{"geometry": {"type": "Point", "coordinates": [-99.289256244, 36.0163060467]}, "type": "Feature", "properties": {"collection_times": [{"days": "Mon-Fri", "time": "11:45am"}, {"days": "Sat", "time": "9:30am"}, {"days": "Sun", "time": "Closed"}], "id": "7383500001", "name": "USPS COLLECTION BOX - PO LOBBY", "address": {"city": "CAMARGO", "state": "OK", "street": "200 S BROADWAY ST", "postcode": "73835"}}},
{"geometry": {"type": "Point", "coordinates": [-99.289256244, 36.0163060467]}, "type": "Feature", "properties": {"collection_times": [{"days": "Mon-Fri", "time": "11:45am"}, {"days": "Sat", "time": "9:30am"}, {"days": "Sun", "time": "Closed"}], "id": "7383500002", "name": "USPS COLLECTION BOX - PO LOBBY", "address": {"city": "CAMARGO", "state": "OK", "street": "200 S BROADWAY ST", "postcode": "73835"}}},
{"geometry": {"type": "Point", "coordinates": [-99.6234085565, 36.3749371937]}, "type": "Feature", "properties": {"collection_times": [{"days": "Mon-Fri", "time": "4:00pm"}, {"days": "Sat", "time": "9:00am"}, {"days": "Sun", "time": "Closed"}], "id": "7384000000", "name": "USPS COLLECTION BOX - BLUE BOX", "address": {"city": "FARGO", "state": "OK", "street": "218 S MAIN ST", "postcode": "73840"}}},
{"geometry": {"type": "Point", "coordinates": [-99.6234085565, 36.3749371937]}, "type": "Feature", "properties": {"collection_times": [{"days": "Mon-Fri", "time": "11:45am"}, {"days": "Sat", "time": "9:00am"}, {"days": "Sun", "time": "Closed"}], "id": "7384000001", "name": "USPS COLLECTION BOX - PO LOBBY", "address": {"city": "FARGO", "state": "OK", "street": "218 S MAIN ST", "postcode": "73840"}}},
{"geometry": {"type": "Point", "coordinates": [-99.702081478, 36.4514108908]}, "type": "Feature", "properties": {"collection_times": [{"days": "Mon-Fri", "time": "11:45am"}, {"days": "Sat", "time": "9:00am"}, {"days": "Sun", "time": "Closed"}], "id": "7384000002", "name": "USPS COLLECTION BOX - PO LOBBY", "address": {"city": "FARGO", "state": "OK", "street": "218 S MAIN ST", "postcode": "73840"}}},
{"geometry": {"type": "Point", "coordinates": [-99.5710873872, 36.5736689496]}, "type": "Feature", "properties": {"collection_times": [{"days": "Mon-Fri", "time": "4:00pm"}, {"days": "Sat", "time": "9:30am"}, {"days": "Sun", "time": "Closed"}], "id": "7384100000", "name": "USPS COLLECTION BOX - BLUE BOX", "address": {"city": "FT SUPPLY", "state": "OK", "street": "229 BROADWAY ST", "postcode": "73841"}}},
{"geometry": {"type": "Point", "coordinates": [-99.5245416036, 36.5425187298]}, "type": "Feature", "properties": {"collection_times": [{"days": "Mon-Fri", "time": "11:45am"}, {"days": "Sat", "time": "9:30am"}, {"days": "Sun", "time": "Closed"}], "id": "7384100001", "name": "USPS COLLECTION BOX - PO LOBBY", "address": {"city": "FT SUPPLY", "state": "OK", "street": "229 BROADWAY ST", "postcode": "73841"}}},
{"geometry": {"type": "Point", "coordinates": [-99.5710873872, 36.5736689496]}, "type": "Feature", "properties": {"collection_times": [{"days": "Mon-Fri", "time": "11:45am"}, {"days": "Sat", "time": "9:30am"}, {"days": "Sun", "time": "Closed"}], "id": "7384100002", "name": "USPS COLLECTION BOX - PO LOBBY", "address": {"city": "FT SUPPLY", "state": "OK", "street": "229 BROADWAY ST", "postcode": "73841"}}},
{"geometry": {"type": "Point", "coordinates": [-99.1682472715, 36.8412140676]}, "type": "Feature", "properties": {"collection_times": [{"days": "Mon-Fri", "time": "3:30pm"}, {"days": "Sat", "time": "9:45am"}, {"days": "Sun", "time": "Closed"}], "id": "7384200000", "name": "USPS COLLECTION BOX - BLUE BOX", "address": {"city": "FREEDOM", "state": "OK", "street": "1055 MAIN ST", "postcode": "73842"}}},
{"geometry": {"type": "Point", "coordinates": [-99.16771571, 36.8803473069]}, "type": "Feature", "properties": {"collection_times": [{"days": "Mon-Fri", "time": "11:45am"}, {"days": "Sat", "time": "9:45am"}, {"days": "Sun", "time": "Closed"}], "id": "7384200001", "name": "USPS COLLECTION BOX - PO LOBBY", "address": {"city": "FREEDOM", "state": "OK", "street": "1055 MAIN ST", "postcode": "73842"}}},
{"geometry": {"type": "Point", "coordinates": [-99.7559234569, 36.3182262463]}, "type": "Feature", "properties": {"collection_times": [{"days": "Mon-Fri", "time": "4:00pm"}, {"days": "Sat", "time": "10:00am"}, {"days": "Sun", "time": "Closed"}], "id": "7384300000", "name": "USPS COLLECTION BOX - BLUE BOX", "address": {"city": "GAGE", "state": "OK", "street": "403 N MAIN ST", "postcode": "73843"}}},
{"geometry": {"type": "Point", "coordinates": [-99.7559234569, 36.3182262463]}, "type": "Feature", "properties": {"collection_times": [{"days": "Mon-Fri", "time": "2:30pm"}, {"days": "Sat", "time": "10:00am"}, {"days": "Sun", "time": "Closed"}], "id": "7384300001", "name": "USPS COLLECTION BOX - PO LOBBY", "address": {"city": "GAGE", "state": "OK", "street": "403 N MAIN ST", "postcode": "73843"}}},
{"geometry": {"type": "Point", "coordinates": [-99.7559234569, 36.3182262463]}, "type": "Feature", "properties": {"collection_times": [{"days": "Mon-Fri", "time": "2:30pm"}, {"days": "Sat", "time": "10:00am"}, {"days": "Sun", "time": "Closed"}], "id": "7384300002", "name": "USPS COLLECTION BOX - PO LOBBY", "address": {"city": "GAGE", "state": "OK", "street": "403 N MAIN ST", "postcode": "73843"}}},
{"geometry": {"type": "Point", "coordinates": [-100.1625294848, 36.8878035866]}, "type": "Feature", "properties": {"collection_times": [{"days": "Mon-Fri", "time": "11:15am"}, {"days": "Sat", "time": "9:30am"}, {"days": "Sun", "time": "Closed"}], "id": "7384400001", "name": "USPS COLLECTION BOX - PO LOBBY", "address": {"city": "GATE", "state": "OK", "street": "102 E MAIN ST", "postcode": "73844"}}},
{"geometry": {"type": "Point", "coordinates": [-100.1625294848, 36.8878035866]}, "type": "Feature", "properties": {"collection_times": [{"days": "Mon-Fri", "time": "11:15am"}, {"days": "Sat", "time": "9:30am"}, {"days": "Sun", "time": "Closed"}], "id": "7384400002", "name": "USPS COLLECTION BOX - PO LOBBY", "address": {"city": "GATE", "state": "OK", "street": "102 E MAIN ST", "postcode": "73844"}}},
{"geometry": {"type": "Point", "coordinates": [-100.1625294848, 36.8878035866]}, "type": "Feature", "properties": {"collection_times": [{"days": "Mon-Fri", "time": "11:15am"}, {"days": "Sat", "time": "9:30am"}, {"days": "Sun", "time": "Closed"}], "id": "7384400003", "name": "USPS COLLECTION BOX - PO LOBBY", "address": {"city": "GATE", "state": "OK", "street": "102 E MAIN ST", "postcode": "73844"}}},
{"geometry": {"type": "Point", "coordinates": [-100.1625294848, 36.8878035866]}, "type": "Feature", "properties": {"collection_times": [{"days": "Mon-Sat", "time": "1:00pm"}, {"days": "Sun", "time": "Closed"}], "id": "7384400004", "name": "USPS COLLECTION BOX - BLUE BOX", "address": {"city": "GATE", "state": "OK", "street": "501 W MAIN ST", "postcode": "73844"}}},
{"geometry": {"type": "Point", "coordinates": [-99.8951325803, 36.7097682657]}, "type": "Feature", "properties": {"collection_times": [{"days": "Mon-Fri", "time": "3:45pm"}, {"days": "Sat", "time": "10:30am"}, {"days": "Sun", "time": "Closed"}], "id": "7384800000", "name": "USPS COLLECTION BOX - BLUE BOX", "address": {"city": "LAVERNE", "state": "OK", "street": "206 W JANE JAYROE BLVD", "postcode": "73848"}}},
{"geometry": {"type": "Point", "coordinates": [-99.8951325806, 36.7097682653]}, "type": "Feature", "properties": {"collection_times": [{"days": "Mon-Fri", "time": "3:45pm"}, {"days": "Sat", "time": "10:30am"}, {"days": "Sun", "time": "Closed"}], "id": "7384800003", "name": "USPS COLLECTION BOX - PO LOBBY", "address": {"city": "LAVERNE", "state": "OK", "street": "206 W JANE JAYROE BLVD", "postcode": "73848"}}},
{"geometry": {"type": "Point", "coordinates": [-99.684270517, 36.6347248355]}, "type": "Feature", "properties": {"collection_times": [{"days": "Mon-Fri", "time": "3:00pm"}, {"days": "Sat", "time": "9:15am"}, {"days": "Sun", "time": "Closed"}], "id": "7385100000", "name": "USPS COLLECTION BOX - BLUE BOX", "address": {"city": "MAY", "state": "OK", "street": "201 HIGHWAY 270", "postcode": "73851"}}},
{"geometry": {"type": "Point", "coordinates": [-99.684270517, 36.6347248355]}, "type": "Feature", "properties": {"collection_times": [{"days": "Mon-Fri", "time": "3:00pm"}, {"days": "Sat", "time": "9:15am"}, {"days": "Sun", "time": "Closed"}], "id": "7385100001", "name": "USPS COLLECTION BOX - PO LOBBY", "address": {"city": "MAY", "state": "OK", "street": "201 HIGHWAY 270", "postcode": "73851"}}},
{"geometry": {"type": "Point", "coordinates": [-99.2046925934, 36.4380017579]}, "type": "Feature", "properties": {"collection_times": [{"days": "Mon-Fri", "time": "4:00pm"}, {"days": "Sat", "time": "9:00am"}, {"days": "Sun", "time": "Closed"}], "id": "7385200000", "name": "USPS COLLECTION BOX - BLUE BOX", "address": {"city": "MOORELAND", "state": "OK", "street": "302 S MAIN ST", "postcode": "73852"}}},
{"geometry": {"type": "Point", "coordinates": [-99.2046925934, 36.4380017579]}, "type": "Feature", "properties": {"collection_times": [{"days": "Mon-Fri", "time": "4:00pm"}, {"days": "Sat", "time": "9:00am"}, {"days": "Sun", "time": "Closed"}], "id": "7385200001", "name": "USPS COLLECTION BOX - PO LOBBY", "address": {"city": "MOORELAND", "state": "OK", "street": "302 S MAIN ST", "postcode": "73852"}}},
{"geometry": {"type": "Point", "coordinates": [-99.2046925934, 36.4380017579]}, "type": "Feature", "properties": {"collection_times": [{"days": "Mon-Fri", "time": "4:00pm"}, {"days": "Sat", "time": "9:00am"}, {"days": "Sun", "time": "Closed"}], "id": "7385200002", "name": "USPS COLLECTION BOX - PO LOBBY", "address": {"city": "MOORELAND", "state": "OK", "street": "302 S MAIN ST", "postcode": "73852"}}},
{"geometry": {"type": "Point", "coordinates": [-99.1685285205, 36.2328763375]}, "type": "Feature", "properties": {"collection_times": [{"days": "Mon-Fri", "time": "11:15am"}, {"days": "Sat", "time": "8:30am"}, {"days": "Sun", "time": "Closed"}], "id": "7385300001", "name": "USPS COLLECTION BOX - PO LOBBY", "address": {"city": "MUTUAL", "state": "OK", "street": "157 N BROADWAY AVE", "postcode": "73853"}}},
{"geometry": {"type": "Point", "coordinates": [-99.1685285205, 36.2328763375]}, "type": "Feature", "properties": {"collection_times": [{"days": "Mon-Fri", "time": "11:15am"}, {"days": "Sat", "time": "8:30am"}, {"days": "Sun", "time": "Closed"}], "id": "7385300002", "name": "USPS COLLECTION BOX - PO LOBBY", "address": {"city": "MUTUAL", "state": "OK", "street": "157 N BROADWAY AVE", "postcode": "73853"}}},
{"geometry": {"type": "Point", "coordinates": [-99.3392663438, 36.2761369494]}, "type": "Feature", "properties": {"collection_times": [{"days": "Mon-Fri", "time": "3:45pm"}, {"days": "Sat", "time": "8:45am"}, {"days": "Sun", "time": "Closed"}], "id": "7385700001", "name": "USPS COLLECTION BOX - PO LOBBY", "address": {"city": "SHARON", "state": "OK", "street": "114 N MAIN ST", "postcode": "73857"}}},
{"geometry": {"type": "Point", "coordinates": [-99.8815294311, 36.2719733855]}, "type": "Feature", "properties": {"collection_times": [{"days": "Mon-Fri", "time": "3:45pm"}, {"days": "Sat", "time": "11:00am"}, {"days": "Sun", "time": "Closed"}], "id": "7385800000", "name": "USPS COLLECTION BOX - BLUE BOX", "address": {"city": "SHATTUCK", "state": "OK", "street": "507 S MAIN ST", "postcode": "73858"}}},
{"geometry": {"type": "Point", "coordinates": [-99.8815294311, 36.2719733855]}, "type": "Feature", "properties": {"collection_times": [{"days": "Mon-Fri", "time": "3:45pm"}, {"days": "Sat", "time": "11:00am"}, {"days": "Sun", "time": "Closed"}], "id": "7385800001", "name": "USPS COLLECTION BOX - PO LOBBY", "address": {"city": "SHATTUCK", "state": "OK", "street": "507 S MAIN ST", "postcode": "73858"}}},
{"geometry": {"type": "Point", "coordinates": [-99.2985268305, 36.1509114518]}, "type": "Feature", "properties": {"collection_times": [{"days": "Mon-Fri", "time": "3:00pm"}, {"days": "Sat", "time": "10:00am"}, {"days": "Sun", "time": "Closed"}], "id": "7385900000", "name": "USPS COLLECTION BOX - BLUE BOX", "address": {"city": "VICI", "state": "OK", "street": "706 N MAIN ST", "postcode": "73859"}}},
{"geometry": {"type": "Point", "coordinates": [-99.2985268305, 36.1509114518]}, "type": "Feature", "properties": {"collection_times": [{"days": "Mon-Fri", "time": "3:00pm"}, {"days": "Sat", "time": "10:00am"}, {"days": "Sun", "time": "Closed"}], "id": "7385900001", "name": "USPS COLLECTION BOX - PO LOBBY", "address": {"city": "VICI", "state": "OK", "street": "706 N MAIN ST", "postcode": "73859"}}},
{"geometry": {"type": "Point", "coordinates": [-99.2985268305, 36.1509114518]}, "type": "Feature", "properties": {"collection_times": [{"days": "Mon-Fri", "time": "3:00pm"}, {"days": "Sat", "time": "10:00am"}, {"days": "Sun", "time": "Closed"}], "id": "7385900002", "name": "USPS COLLECTION BOX - PO LOBBY", "address": {"city": "VICI", "state": "OK", "street": "706 N MAIN ST", "postcode": "73859"}}},
{"geometry": {"type": "Point", "coordinates": [-98.8811044551, 36.5845901254]}, "type": "Feature", "properties": {"collection_times": [{"days": "Mon-Fri", "time": "2:30pm"}, {"days": "Sat", "time": "10:00am"}, {"days": "Sun", "time": "Closed"}], "id": "7386000001", "name": "USPS COLLECTION BOX - PO LOBBY", "address": {"city": "WAYNOKA", "state": "OK", "street": "1620 SANTA FE ST", "postcode": "73860"}}},
{"geometry": {"type": "Point", "coordinates": [-98.8811044551, 36.5845901254]}, "type": "Feature", "properties": {"collection_times": [{"days": "Mon-Fri", "time": "2:30pm"}, {"days": "Sat", "time": "10:00am"}, {"days": "Sun", "time": "Closed"}], "id": "7386000003", "name": "USPS COLLECTION BOX - PO LOBBY", "address": {"city": "WAYNOKA", "state": "OK", "street": "1620 SANTA FE ST", "postcode": "73860"}}},
{"geometry": {"type": "Point", "coordinates": [-98.8811044551, 36.5845901254]}, "type": "Feature", "properties": {"collection_times": [{"days": "Mon-Fri", "time": "2:30pm"}, {"days": "Sat", "time": "10:00am"}, {"days": "Sun", "time": "Closed"}], "id": "7386000004", "name": "USPS COLLECTION BOX - PO LOBBY", "address": {"city": "WAYNOKA", "state": "OK", "street": "1620 SANTA FE ST", "postcode": "73860"}}},
{"geometry": {"type": "Point", "coordinates": [-98.8811044551, 36.5845901254]}, "type": "Feature", "properties": {"collection_times": [{"days": "Mon-Fri", "time": "3:45pm"}, {"days": "Sat", "time": "10:00am"}, {"days": "Sun", "time": "Closed"}], "id": "7386000005", "name": "USPS COLLECTION BOX - BLUE BOX", "address": {"city": "WAYNOKA", "state": "OK", "street": "1620 SANTA FE ST", "postcode": "73860"}}}
]}
