{"type": "FeatureCollection", "features": [
{"geometry": {"type": "Point", "coordinates": [-101.0741665541, 36.75618231]}, "type": "Feature", "properties": {"collection_times": [{"days": "Mon-Fri", "time": "12:00pm"}, {"days": "Sat", "time": "11:15am"}, {"days": "Sun", "time": "Closed"}], "id": "7390100006", "name": "USPS COLLECTION BOX - PO LOBBY", "address": {"city": "ADAMS", "state": "OK", "street": "17 MAIN ST", "postcode": "73901"}}},
{"geometry": {"type": "Point", "coordinates": [-100.8285798547, 36.6088218194]}, "type": "Feature", "properties": {"collection_times": [{"days": "Mon-Fri", "time": "12:00pm"}, {"days": "Sat", "time": "9:30am"}, {"days": "Sun", "time": "Closed"}], "id": "7393100002", "name": "USPS COLLECTION BOX - PO LOBBY", "address": {"city": "BALKO", "state": "OK", "street": "1 HIGHWAY 83", "postcode": "73931"}}},
{"geometry": {"type": "Point", "coordinates": [-100.5194178174, 36.8162777323]}, "type": "Feature", "properties": {"collection_times": [{"days": "Mon-Fri", "time": "3:30pm"}, {"days": "Sat", "time": "1:00pm"}, {"days": "Sun", "time": "Closed"}], "id": "7393200000", "name": "USPS COLLECTION BOX - BLUE BOX", "address": {"city": "BEAVER", "state": "OK", "street": "16 E 2ND ST", "postcode": "73932"}}},
{"geometry": {"type": "Point", "coordinates": [-100.5194178174, 36.8162777323]}, "type": "Feature", "properties": {"collection_times": [{"days": "Mon-Fri", "time": "3:30pm"}, {"days": "Sat", "time": "1:00pm"}, {"days": "Sun", "time": "Closed"}], "id": "7393200003", "name": "USPS COLLECTION BOX - PO LOBBY", "address": {"city": "BEAVER", "state": "OK", "street": "16 E 2ND ST", "postcode": "73932"}}},
{"geometry": {"type": "Point", "coordinates": [-102.5870522227, 36.7471955979]}, "type": "Feature", "properties": {"collection_times": [{"days": "Mon-Fri", "time": "2:00pm"}, {"days": "Sat", "time": "12:30pm"}, {"days": "Sun", "time": "Closed"}], "id": "7393300000", "name": "USPS COLLECTION BOX - BLUE BOX", "address": {"city": "BOISE CITY", "state": "OK", "street": "210 N CIMARRON", "postcode": "73933"}}},
{"geometry": {"type": "Point", "coordinates": [-102.5870522227, 36.7471955979]}, "type": "Feature", "properties": {"collection_times": [{"days": "Mon-Fri", "time": "2:00pm"}, {"days": "Sat", "time": "12:30pm"}, {"days": "Sun", "time": "Closed"}], "id": "7393300003", "name": "USPS COLLECTION BOX - PO LOBBY", "address": {"city": "BOISE CITY", "state": "OK", "street": "210 N CIMARRON", "postcode": "73933"}}},
{"geometry": {"type": "Point", "coordinates": [-102.5870522227, 36.7471955979]}, "type": "Feature", "properties": {"collection_times": [{"days": "Mon-Fri", "time": "2:00pm"}, {"days": "Sat", "time": "12:30pm"}, {"days": "Sun", "time": "Closed"}], "id": "7393300004", "name": "USPS COLLECTION BOX - PO LOBBY", "address": {"city": "BOISE CITY", "state": "OK", "street": "210 N CIMARRON", "postcode": "73933"}}},
{"geometry": {"type": "Point", "coordinates": [-102.7944019129, 36.5655931448]}, "type": "Feature", "properties": {"collection_times": [{"days": "Mon-Fri", "time": "12:30pm"}, {"days": "Sat", "time": "11:30am"}, {"days": "Sun", "time": "Closed"}], "id": "7393700000", "name": "USPS COLLECTION BOX - PO LOBBY", "address": {"city": "FELT", "state": "OK", "street": "101 LINCOLN ST", "postcode": "73937"}}},
{"geometry": {"type": "Point", "coordinates": [-102.7944019129, 36.5655931448]}, "type": "Feature", "properties": {"collection_times": [{"days": "Mon-Fri", "time": "12:30pm"}, {"days": "Sat", "time": "11:30am"}, {"days": "Sun", "time": "Closed"}], "id": "7393700001", "name": "USPS COLLECTION BOX - BLUE BOX", "address": {"city": "FELT", "state": "OK", "street": "101 LINCOLN ST", "postcode": "73937"}}},
{"geometry": {"type": "Point", "coordinates": [-100.5357409382, 36.90783247]}, "type": "Feature", "properties": {"collection_times": [{"days": "Mon-Fri", "time": "3:45pm"}, {"days": "Sat", "time": "10:15am"}, {"days": "Sun", "time": "Closed"}], "id": "7393800000", "name": "USPS COLLECTION BOX - PO LOBBY", "address": {"city": "FORGAN", "state": "OK", "street": "115 S BROADWAY ST", "postcode": "73938"}}},
{"geometry": {"type": "Point", "coordinates": [-100.5357409382, 36.90783247]}, "type": "Feature", "properties": {"collection_times": [{"days": "Mon-Fri", "time": "3:45pm"}, {"days": "Sat", "time": "10:15am"}, {"days": "Sun", "time": "Closed"}], "id": "7393800001", "name": "USPS COLLECTION BOX - BLUE BOX", "address": {"city": "FORGAN", "state": "OK", "street": "115 S BROADWAY ST", "postcode": "73938"}}},
{"geometry": {"type": "Point", "coordinates": [-101.6332924043, 36.5946498723]}, "type": "Feature", "properties": {"collection_times": [{"days": "Mon-Fri", "time": "4:00pm"}, {"days": "Sat", "time": "10:00am"}, {"days": "Sun", "time": "Closed"}], "id": "7393900000", "name": "USPS COLLECTION BOX - BLUE BOX", "address": {"city": "GOODWELL", "state": "OK", "street": "105 S MAIN ST", "postcode": "73939"}}},
{"geometry": {"type": "Point", "coordinates": [-101.6332924043, 36.5946498723]}, "type": "Feature", "properties": {"collection_times": [{"days": "Mon-Fri", "time": "4:00pm"}, {"days": "Sat", "time": "10:00am"}, {"days": "Sun", "time": "Closed"}], "id": "7393900002", "name": "USPS COLLECTION BOX - PO LOBBY", "address": {"city": "GOODWELL", "state": "OK", "street": "105 S MAIN ST", "postcode": "73939"}}},
{"geometry": {"type": "Point", "coordinates": [-101.4723630414, 36.6993457836]}, "type": "Feature", "properties": {"collection_times": [{"days": "Mon-Sat", "time": "12:15pm"}, {"days": "Sun", "time": "Closed"}], "id": "7394200000", "name": "USPS COLLECTION BOX - BLUE BOX", "address": {"city": "GUYMON", "state": "OK", "street": "601 NE 20TH ST", "postcode": "73942"}}},
{"geometry": {"type": "Point", "coordinates": [-101.482948647, 36.680882783]}, "type": "Feature", "properties": {"collection_times": [{"days": "Mon-Fri", "time": "4:30pm"}, {"days": "Sat", "time": "3:30pm"}, {"days": "Sun", "time": "Closed"}], "id": "7394200004", "name": "USPS COLLECTION BOX - BLUE BOX", "address": {"city": "GUYMON", "state": "OK", "street": "302 N QUINN ST", "postcode": "73942"}}},
{"geometry": {"type": "Point", "coordinates": [-101.482948647, 36.680882783]}, "type": "Feature", "properties": {"collection_times": [{"days": "Mon-Fri", "time": "4:30pm"}, {"days": "Sat", "time": "3:30pm"}, {"days": "Sun", "time": "Closed"}], "id": "7394200005", "name": "USPS COLLECTION BOX - BLUE BOX", "address": {"city": "GUYMON", "state": "OK", "street": "302 N QUINN ST", "postcode": "73942"}}},
{"geometry": {"type": "Point", "coordinates": [-101.482948647, 36.680882783]}, "type": "Feature", "properties": {"collection_times": [{"days": "Mon-Fri", "time": "4:30pm"}, {"days": "Sat", "time": "3:30pm"}, {"days": "Sun", "time": "Closed"}], "id": "7394200010", "name": "USPS COLLECTION BOX - PO LOBBY", "address": {"city": "GUYMON", "state": "OK", "street": "302 N QUINN ST", "postcode": "73942"}}},
{"geometry": {"type": "Point", "coordinates": [-101.482948647, 36.680882783]}, "type": "Feature", "properties": {"collection_times": [{"days": "Mon-Fri", "time": "4:30pm"}, {"days": "Sat", "time": "3:30pm"}, {"days": "Sun", "time": "Closed"}], "id": "7394200011", "name": "USPS COLLECTION BOX - PO LOBBY", "address": {"city": "GUYMON", "state": "OK", "street": "302 N QUINN ST", "postcode": "73942"}}},
{"geometry": {"type": "Point", "coordinates": [-101.482948647, 36.680882783]}, "type": "Feature", "properties": {"collection_times": [{"days": "Mon-Fri", "time": "4:30pm"}, {"days": "Sat", "time": "3:30pm"}, {"days": "Sun", "time": "Closed"}], "id": "7394200012", "name": "USPS COLLECTION BOX - BLUE BOX", "address": {"city": "GUYMON", "state": "OK", "street": "302 N QUINN ST", "postcode": "73942"}}},
{"geometry": {"type": "Point", "coordinates": [-101.4845342695, 36.7021077109]}, "type": "Feature", "properties": {"collection_times": [{"days": "Mon-Fri", "time": "2:15pm"}, {"days": "Sat-Sun", "time": "Closed"}], "id": "7394200013", "name": "USPS COLLECTION BOX - BLUE BOX", "address": {"city": "GUYMON", "state": "OK", "street": "301 NORTHRIDGE CIR", "postcode": "73942"}}},
{"geometry": {"type": "Point", "coordinates": [-101.4832820887, 36.6980074193]}, "type": "Feature", "properties": {"collection_times": [{"days": "Mon-Fri", "time": "2:15pm"}, {"days": "Sat-Sun", "time": "Closed"}], "id": "7394200014", "name": "USPS COLLECTION BOX - BLUE BOX", "address": {"city": "GUYMON", "state": "OK", "street": "1906 N HIGHWAY 64", "postcode": "73942"}}},
{"geometry": {"type": "Point", "coordinates": [-101.4815324641, 36.6907480942]}, "type": "Feature", "properties": {"collection_times": [{"days": "Mon-Sat", "time": "10:45am"}, {"days": "Sun", "time": "Closed"}], "id": "7394200015", "name": "USPS COLLECTION BOX - BLUE BOX", "address": {"city": "GUYMON", "state": "OK", "street": "1301 E HIGHWAY 3", "postcode": "73942"}}},
{"geometry": {"type": "Point", "coordinates": [-101.1918088114, 36.6167207552]}, "type": "Feature", "properties": {"collection_times": [{"days": "Mon-Fri", "time": "1:00pm"}, {"days": "Sat", "time": "9:15am"}, {"days": "Sun", "time": "Closed"}], "id": "7394400000", "name": "USPS COLLECTION BOX - PO LOBBY", "address": {"city": "HARDESTY", "state": "OK", "street": "107 BROADWAY ST", "postcode": "73944"}}},
{"geometry": {"type": "Point", "coordinates": [-101.1560063009, 36.8308798351]}, "type": "Feature", "properties": {"collection_times": [{"days": "Mon-Fri", "time": "4:00pm"}, {"days": "Sat", "time": "9:00am"}, {"days": "Sun", "time": "Closed"}], "id": "7394500001", "name": "USPS COLLECTION BOX - BLUE BOX", "address": {"city": "HOOKER", "state": "OK", "street": "107 S SWEM ST", "postcode": "73945"}}},
{"geometry": {"type": "Point", "coordinates": [-101.1560063009, 36.8308798351]}, "type": "Feature", "properties": {"collection_times": [{"days": "Mon-Fri", "time": "4:00pm"}, {"days": "Sat", "time": "9:00am"}, {"days": "Sun", "time": "Closed"}], "id": "7394500003", "name": "USPS COLLECTION BOX - PO LOBBY", "address": {"city": "HOOKER", "state": "OK", "street": "107 S SWEM ST", "postcode": "73945"}}},
{"geometry": {"type": "Point", "coordinates": [-102.9079578296, 36.8544421338]}, "type": "Feature", "properties": {"collection_times": [{"days": "Mon-Fri", "time": "11:30am"}, {"days": "Sat", "time": "10:30am"}, {"days": "Sun", "time": "Closed"}], "id": "7394600001", "name": "USPS COLLECTION BOX - PO LOBBY", "address": {"city": "KENTON", "state": "OK", "street": "100 NEWBERT", "postcode": "73946"}}},
{"geometry": {"type": "Point", "coordinates": [-102.2173099727, 36.831838865]}, "type": "Feature", "properties": {"collection_times": [{"days": "Mon-Fri", "time": "12:30pm"}, {"days": "Sat", "time": "10:30am"}, {"days": "Sun", "time": "Closed"}], "id": "7394700000", "name": "USPS COLLECTION BOX - PO LOBBY", "address": {"city": "KEYES", "state": "OK", "street": "101 E RAMSEY ST", "postcode": "73947"}}},
{"geometry": {"type": "Point", "coordinates": [-101.7833162753, 36.5048014734]}, "type": "Feature", "properties": {"collection_times": [{"days": "Mon-Fri", "time": "3:45pm"}, {"days": "Sat", "time": "11:00am"}, {"days": "Sun", "time": "Closed"}], "id": "7394900000", "name": "USPS COLLECTION BOX - BLUE BOX", "address": {"city": "TEXHOMA", "state": "OK", "street": "114 S 2ND ST", "postcode": "73949"}}},
{"geometry": {"type": "Point", "coordinates": [-101.7833162753, 36.5048014734]}, "type": "Feature", "properties": {"collection_times": [{"days": "Mon-Fri", "time": "3:45pm"}, {"days": "Sat", "time": "11:00am"}, {"days": "Sun", "time": "Closed"}], "id": "7394900001", "name": "USPS COLLECTION BOX - PO LOBBY", "address": {"city": "TEXHOMA", "state": "OK", "street": "114 S 2ND ST", "postcode": "73949"}}},
{"geometry": {"type": "Point", "coordinates": [-100.8773067356, 36.8640810902]}, "type": "Feature", "properties": {"collection_times": [{"days": "Mon-Fri", "time": "3:45pm"}, {"days": "Sat", "time": "9:00am"}, {"days": "Sun", "time": "Closed"}], "id": "7395000000", "name": "USPS COLLECTION BOX - BLUE BOX", "address": {"city": "TURPIN", "state": "OK", "street": "419 S MAIN ST", "postcode": "73950"}}},
{"geometry": {"type": "Point", "coordinates": [-100.8773067356, 36.8640810902]}, "type": "Feature", "properties": {"collection_times": [{"days": "Mon-Fri", "time": "3:45pm"}, {"days": "Sat", "time": "9:00am"}, {"days": "Sun", "time": "Closed"}], "id": "7395000002", "name": "USPS COLLECTION BOX - PO LOBBY", "address": {"city": "TURPIN", "state": "OK", "street": "419 S MAIN ST", "postcode": "73950"}}},
{"geometry": {"type": "Point", "coordinates": [-101.0266608749, 36.9523725823]}, "type": "Feature", "properties": {"collection_times": [{"days": "Mon-Fri", "time": "4:00pm"}, {"days": "Sat", "time": "10:30am"}, {"days": "Sun", "time": "Closed"}], "id": "7395100000", "name": "USPS COLLECTION BOX - BLUE BOX", "address": {"city": "TYRONE", "state": "OK", "street": "104 W MAIN ST", "postcode": "73951"}}},
{"geometry": {"type": "Point", "coordinates": [-101.0266608749, 36.9523725823]}, "type": "Feature", "properties": {"collection_times": [{"days": "Mon-Fri", "time": "4:00pm"}, {"days": "Sat", "time": "10:30am"}, {"days": "Sun", "time": "Closed"}], "id": "7395100002", "name": "USPS COLLECTION BOX - PO LOBBY", "address": {"city": "TYRONE", "state": "OK", "street": "104 W MAIN ST", "postcode": "73951"}}}
]}
