{"type": "FeatureCollection", "features": [
{"geometry": {"type": "Point", "coordinates": [-96.0609121181, 36.4920922281]}, "type": "Feature", "properties": {"collection_times": [{"days": "Mon-Fri", "time": "1:00pm"}, {"days": "Sat", "time": "9:45am"}, {"days": "Sun", "time": "Closed"}], "id": "7400100000", "name": "USPS COLLECTION BOX - PO LOBBY", "address": {"city": "AVANT", "state": "OK", "street": "514 E 3RD ST", "postcode": "74001"}}},
{"geometry": {"type": "Point", "coordinates": [-96.1620702801, 36.5619041424]}, "type": "Feature", "properties": {"collection_times": [{"days": "Mon-Fri", "time": "4:15pm"}, {"days": "Sat", "time": "10:00am"}, {"days": "Sun", "time": "Closed"}], "id": "7400200000", "name": "USPS COLLECTION BOX - BLUE BOX", "address": {"city": "BARNSDALL", "state": "OK", "street": "520 W MAIN ST", "postcode": "74002"}}},
{"geometry": {"type": "Point", "coordinates": [-96.1620702801, 36.5619041424]}, "type": "Feature", "properties": {"collection_times": [{"days": "Mon-Fri", "time": "4:15pm"}, {"days": "Sat", "time": "10:00am"}, {"days": "Sun", "time": "Closed"}], "id": "7400200002", "name": "USPS COLLECTION BOX - PO LOBBY", "address": {"city": "BARNSDALL", "state": "OK", "street": "520 W MAIN ST", "postcode": "74002"}}},
{"geometry": {"type": "Point", "coordinates": [-96.1620702801, 36.5619041424]}, "type": "Feature", "properties": {"collection_times": [{"days": "Mon-Fri", "time": "4:15pm"}, {"days": "Sat", "time": "10:00am"}, {"days": "Sun", "time": "Closed"}], "id": "7400200003", "name": "USPS COLLECTION BOX - PO LOBBY", "address": {"city": "BARNSDALL", "state": "OK", "street": "520 W MAIN ST", "postcode": "74002"}}},
{"geometry": {"type": "Point", "coordinates": [-95.973585427, 36.7482993966]}, "type": "Feature", "properties": {"collection_times": [{"days": "Mon-Fri", "time": "2:30pm"}, {"days": "Sat", "time": "1:00pm"}, {"days": "Sun", "time": "Closed"}], "id": "7400300001", "name": "USPS COLLECTION BOX - BLUE BOX", "address": {"city": "BARTLESVILLE", "state": "OK", "street": "416 E 5TH ST", "postcode": "74003"}}},
{"geometry": {"type": "Point", "coordinates": [-95.9779291899, 36.7488584238]}, "type": "Feature", "properties": {"collection_times": [{"days": "Mon-Fri", "time": "2:30pm"}, {"days": "Sat", "time": "1:00pm"}, {"days": "Sun", "time": "Closed"}], "id": "7400300011", "name": "USPS COLLECTION BOX - BLUE BOX", "address": {"city": "BARTLESVILLE", "state": "OK", "street": "420 S JOHNSTONE AVE", "postcode": "74003"}}},
{"geometry": {"type": "Point", "coordinates": [-95.977310204, 36.7513146668]}, "type": "Feature", "properties": {"collection_times": [{"days": "Mon-Fri", "time": "2:30pm"}, {"days": "Sat", "time": "1:00pm"}, {"days": "Sun", "time": "Closed"}], "id": "7400300013", "name": "USPS COLLECTION BOX - BLUE BOX", "address": {"city": "BARTLESVILLE", "state": "OK", "street": "100 SE FRANK PHILLIPS BLVD", "postcode": "74003"}}},
{"geometry": {"type": "Point", "coordinates": [-95.9809390812, 36.7479817626]}, "type": "Feature", "properties": {"collection_times": [{"days": "Mon-Fri", "time": "5:00pm"}, {"days": "Sat", "time": "4:00pm"}, {"days": "Sun", "time": "Closed"}], "id": "7400300019", "name": "USPS COLLECTION BOX - BLUE BOX", "address": {"city": "BARTLESVILLE", "state": "OK", "street": "615 SW JENNINGS AVE", "postcode": "74003"}}},
{"geometry": {"type": "Point", "coordinates": [-95.9809390812, 36.7479817626]}, "type": "Feature", "properties": {"collection_times": [{"days": "Mon-Fri", "time": "5:00pm"}, {"days": "Sat", "time": "4:00pm"}, {"days": "Sun", "time": "Closed"}], "id": "7400300026", "name": "USPS COLLECTION BOX - BLUE BOX", "address": {"city": "BARTLESVILLE", "state": "OK", "street": "615 SW JENNINGS AVE", "postcode": "74003"}}},
{"geometry": {"type": "Point", "coordinates": [-95.9809390812, 36.7479817626]}, "type": "Feature", "properties": {"collection_times": [{"days": "Mon-Fri", "time": "4:30pm"}, {"days": "Sat", "time": "4:00pm"}, {"days": "Sun", "time": "Closed"}], "id": "7400300034", "name": "USPS COLLECTION BOX - PO LOBBY", "address": {"city": "BARTLESVILLE", "state": "OK", "street": "615 SW JENNINGS AVE", "postcode": "74003"}}},
{"geometry": {"type": "Point", "coordinates": [-95.9809390812, 36.7479817626]}, "type": "Feature", "properties": {"collection_times": [{"days": "Mon-Fri", "time": "4:30pm"}, {"days": "Sat", "time": "4:00pm"}, {"days": "Sun", "time": "Closed"}], "id": "7400300035", "name": "USPS COLLECTION BOX - PO LOBBY", "address": {"city": "BARTLESVILLE", "state": "OK", "street": "615 SW JENNINGS AVE", "postcode": "74003"}}},
{"geometry": {"type": "Point", "coordinates": [-95.9333643423, 36.7398904732]}, "type": "Feature", "properties": {"collection_times": [{"days": "Mon-Fri", "time": "4:30pm"}, {"days": "Sat", "time": "2:30pm"}, {"days": "Sun", "time": "Closed"}], "id": "7400600002", "name": "USPS COLLECTION BOX - BLUE BOX", "address": {"city": "BARTLESVILLE", "state": "OK", "street": "3900 SE GREEN COUNTRY RD", "postcode": "74006"}}},
{"geometry": {"type": "Point", "coordinates": [-95.9333643423, 36.7398904732]}, "type": "Feature", "properties": {"collection_times": [{"days": "Mon-Fri", "time": "4:30pm"}, {"days": "Sat", "time": "2:30pm"}, {"days": "Sun", "time": "Closed"}], "id": "7400600003", "name": "USPS COLLECTION BOX - BLUE BOX", "address": {"city": "BARTLESVILLE", "state": "OK", "street": "3900 SE GREEN COUNTRY RD", "postcode": "74006"}}},
{"geometry": {"type": "Point", "coordinates": [-95.9504844497, 36.7287113291]}, "type": "Feature", "properties": {"collection_times": [{"days": "Mon-Fri", "time": "2:30pm"}, {"days": "Sat", "time": "1:15pm"}, {"days": "Sun", "time": "Closed"}], "id": "7400600005", "name": "USPS COLLECTION BOX - BLUE BOX", "address": {"city": "BARTLESVILLE", "state": "OK", "street": "1725 SE WASHINGTON BLVD", "postcode": "74006"}}},
{"geometry": {"type": "Point", "coordinates": [-95.9350387658, 36.7152801969]}, "type": "Feature", "properties": {"collection_times": [{"days": "Mon-Fri", "time": "2:30pm"}, {"days": "Sat", "time": "1:15pm"}, {"days": "Sun", "time": "Closed"}], "id": "7400600007", "name": "USPS COLLECTION BOX - BLUE BOX", "address": {"city": "BARTLESVILLE", "state": "OK", "street": "2350 SE WASHINGTON BLVD", "postcode": "74006"}}},
{"geometry": {"type": "Point", "coordinates": [-95.9387952325, 36.7534633856]}, "type": "Feature", "properties": {"collection_times": [{"days": "Mon-Fri", "time": "2:30pm"}, {"days": "Sat", "time": "1:15pm"}, {"days": "Sun", "time": "Closed"}], "id": "7400600011", "name": "USPS COLLECTION BOX - BLUE BOX", "address": {"city": "BARTLESVILLE", "state": "OK", "street": "3500 STATE ST", "postcode": "74006"}}},
{"geometry": {"type": "Point", "coordinates": [-95.9333643423, 36.7398904732]}, "type": "Feature", "properties": {"collection_times": [{"days": "Mon-Fri", "time": "4:30pm"}, {"days": "Sat", "time": "2:30pm"}, {"days": "Sun", "time": "Closed"}], "id": "7400600020", "name": "USPS COLLECTION BOX - PO LOBBY", "address": {"city": "BARTLESVILLE", "state": "OK", "street": "3900 SE GREEN COUNTRY RD", "postcode": "74006"}}},
{"geometry": {"type": "Point", "coordinates": [-95.9333643423, 36.7398904732]}, "type": "Feature", "properties": {"collection_times": [{"days": "Mon-Fri", "time": "4:30pm"}, {"days": "Sat", "time": "2:30pm"}, {"days": "Sun", "time": "Closed"}], "id": "7400600023", "name": "USPS COLLECTION BOX - PO LOBBY", "address": {"city": "BARTLESVILLE", "state": "OK", "street": "3900 SE GREEN COUNTRY RD", "postcode": "74006"}}},
{"geometry": {"type": "Point", "coordinates": [-95.9333643423, 36.7398904732]}, "type": "Feature", "properties": {"collection_times": [{"days": "Mon-Fri", "time": "4:30pm"}, {"days": "Sat", "time": "2:30pm"}, {"days": "Sun", "time": "Closed"}], "id": "7400600024", "name": "USPS COLLECTION BOX - PO LOBBY", "address": {"city": "BARTLESVILLE", "state": "OK", "street": "3900 SE GREEN COUNTRY RD", "postcode": "74006"}}},
{"geometry": {"type": "Point", "coordinates": [-95.9333643423, 36.7398904732]}, "type": "Feature", "properties": {"collection_times": [{"days": "Mon-Fri", "time": "4:30pm"}, {"days": "Sat", "time": "2:30pm"}, {"days": "Sun", "time": "Closed"}], "id": "7400600025", "name": "USPS COLLECTION BOX - PO LOBBY", "address": {"city": "BARTLESVILLE", "state": "OK", "street": "3900 SE GREEN COUNTRY RD", "postcode": "74006"}}},
{"geometry": {"type": "Point", "coordinates": [-95.8836102049, 35.9412489616]}, "type": "Feature", "properties": {"collection_times": [{"days": "Mon-Fri", "time": "4:30pm"}, {"days": "Sat", "time": "2:30pm"}, {"days": "Sun", "time": "Closed"}], "id": "7400800000", "name": "USPS COLLECTION BOX - BLUE BOX", "address": {"city": "BIXBY", "state": "OK", "street": "16 S A AVE", "postcode": "74008"}}},
{"geometry": {"type": "Point", "coordinates": [-95.8836102049, 35.9412489616]}, "type": "Feature", "properties": {"collection_times": [{"days": "Mon-Fri", "time": "4:30pm"}, {"days": "Sat", "time": "2:30pm"}, {"days": "Sun", "time": "Closed"}], "id": "7400800001", "name": "USPS COLLECTION BOX - BLUE BOX", "address": {"city": "BIXBY", "state": "OK", "street": "16 S A AVE", "postcode": "74008"}}},
{"geometry": {"type": "Point", "coordinates": [-95.8865700226, 35.990757026]}, "type": "Feature", "properties": {"collection_times": [{"days": "Mon-Sat", "time": "12:00pm"}, {"days": "Sun", "time": "Closed"}], "id": "7400800002", "name": "USPS COLLECTION BOX - BLUE BOX", "address": {"city": "BIXBY", "state": "OK", "street": "11900 S MEMORIAL DR", "postcode": "74008"}}},
{"geometry": {"type": "Point", "coordinates": [-95.8865700226, 35.990757026]}, "type": "Feature", "properties": {"collection_times": [{"days": "Mon-Sat", "time": "12:00pm"}, {"days": "Sun", "time": "Closed"}], "id": "7400800003", "name": "USPS COLLECTION BOX - BLUE BOX", "address": {"city": "BIXBY", "state": "OK", "street": "11900 S MEMORIAL DR", "postcode": "74008"}}},
{"geometry": {"type": "Point", "coordinates": [-95.88661354, 35.9465222859]}, "type": "Feature", "properties": {"collection_times": [{"days": "Mon-Sat", "time": "12:00pm"}, {"days": "Sun", "time": "Closed"}], "id": "7400800004", "name": "USPS COLLECTION BOX - BLUE BOX", "address": {"city": "BIXBY", "state": "OK", "street": "15000 S MEMORIAL DR", "postcode": "74008"}}},
{"geometry": {"type": "Point", "coordinates": [-95.8836102049, 35.9412489616]}, "type": "Feature", "properties": {"collection_times": [{"days": "Mon-Fri", "time": "4:30pm"}, {"days": "Sat", "time": "2:30pm"}, {"days": "Sun", "time": "Closed"}], "id": "7400800008", "name": "USPS COLLECTION BOX - PO LOBBY", "address": {"city": "BIXBY", "state": "OK", "street": "16 S A AVE", "postcode": "74008"}}},
{"geometry": {"type": "Point", "coordinates": [-96.3915916664, 35.8327524996]}, "type": "Feature", "properties": {"collection_times": [{"days": "Mon-Fri", "time": "4:00pm"}, {"days": "Sat", "time": "3:00pm"}, {"days": "Sun", "time": "Closed"}], "id": "7401000000", "name": "USPS COLLECTION BOX - BLUE BOX", "address": {"city": "BRISTOW", "state": "OK", "street": "124 W 6TH AVE", "postcode": "74010"}}},
{"geometry": {"type": "Point", "coordinates": [-96.3915916664, 35.8327524996]}, "type": "Feature", "properties": {"collection_times": [{"days": "Mon-Fri", "time": "4:00pm"}, {"days": "Sat", "time": "3:00pm"}, {"days": "Sun", "time": "Closed"}], "id": "7401000001", "name": "USPS COLLECTION BOX - BLUE BOX", "address": {"city": "BRISTOW", "state": "OK", "street": "124 W 6TH AVE", "postcode": "74010"}}},
{"geometry": {"type": "Point", "coordinates": [-96.390949731, 35.8377966495]}, "type": "Feature", "properties": {"collection_times": [{"days": "Mon-Sat", "time": "3:00pm"}, {"days": "Sun", "time": "Closed"}], "id": "7401000004", "name": "USPS COLLECTION BOX - BLUE BOX", "address": {"city": "BRISTOW", "state": "OK", "street": "601 N MAIN ST", "postcode": "74010"}}},
{"geometry": {"type": "Point", "coordinates": [-96.3912776866, 35.8337834365]}, "type": "Feature", "properties": {"collection_times": [{"days": "Mon-Sat", "time": "3:00pm"}, {"days": "Sun", "time": "Closed"}], "id": "7401000005", "name": "USPS COLLECTION BOX - BLUE BOX", "address": {"city": "BRISTOW", "state": "OK", "street": "110 W 7TH AVE", "postcode": "74010"}}},
{"geometry": {"type": "Point", "coordinates": [-96.3912776866, 35.8337834365]}, "type": "Feature", "properties": {"collection_times": [{"days": "Mon-Sat", "time": "3:00pm"}, {"days": "Sun", "time": "Closed"}], "id": "7401000006", "name": "USPS COLLECTION BOX - BLUE BOX", "address": {"city": "BRISTOW", "state": "OK", "street": "110 W 7TH AVE", "postcode": "74010"}}},
{"geometry": {"type": "Point", "coordinates": [-96.3795792919, 35.8351932655]}, "type": "Feature", "properties": {"collection_times": [{"days": "Mon-Sat", "time": "10:00am"}, {"days": "Sun", "time": "Closed"}], "id": "7401000007", "name": "USPS COLLECTION BOX - BLUE BOX", "address": {"city": "BRISTOW", "state": "OK", "street": "711 S MUTTELOKE DR", "postcode": "74010"}}},
{"geometry": {"type": "Point", "coordinates": [-96.3915916664, 35.8327524996]}, "type": "Feature", "properties": {"collection_times": [{"days": "Mon-Fri", "time": "4:00pm"}, {"days": "Sat", "time": "12:00pm"}, {"days": "Sun", "time": "Closed"}], "id": "7401000011", "name": "USPS COLLECTION BOX - PO LOBBY", "address": {"city": "BRISTOW", "state": "OK", "street": "124 W 6TH AVE", "postcode": "74010"}}},
{"geometry": {"type": "Point", "coordinates": [-96.3915916664, 35.8327524996]}, "type": "Feature", "properties": {"collection_times": [{"days": "Mon-Fri", "time": "4:00pm"}, {"days": "Sat", "time": "12:00pm"}, {"days": "Sun", "time": "Closed"}], "id": "7401000013", "name": "USPS COLLECTION BOX - PO LOBBY", "address": {"city": "BRISTOW", "state": "OK", "street": "124 W 6TH AVE", "postcode": "74010"}}},
{"geometry": {"type": "Point", "coordinates": [-95.77948723, 35.99393012]}, "type": "Feature", "properties": {"collection_times": [{"days": "Mon-Sat", "time": "2:00pm"}, {"days": "Sun", "time": "Closed"}], "id": "7401100003", "name": "USPS COLLECTION BOX - BLUE BOX", "address": {"city": "BROKEN ARROW", "state": "OK", "street": "11715 S LYNN LANE RD", "postcode": "74011"}}},
{"geometry": {"type": "Point", "coordinates": [-95.8158938872, 36.0754861063]}, "type": "Feature", "properties": {"collection_times": [{"days": "Mon-Fri", "time": "4:00pm"}, {"days": "Sat", "time": "12:15pm"}, {"days": "Sun", "time": "Closed"}], "id": "7401200000", "name": "USPS COLLECTION BOX - BLUE BOX", "address": {"city": "BROKEN ARROW", "state": "OK", "street": "2201 W ALBANY ST", "postcode": "74012"}}},
{"geometry": {"type": "Point", "coordinates": [-95.8129660637, 36.0600733339]}, "type": "Feature", "properties": {"collection_times": [{"days": "Mon-Fri", "time": "3:45pm"}, {"days": "Sat", "time": "12:00pm"}, {"days": "Sun", "time": "Closed"}], "id": "7401200001", "name": "USPS COLLECTION BOX - BLUE BOX", "address": {"city": "BROKEN ARROW", "state": "OK", "street": "807 N SYCAMORE AVE", "postcode": "74012"}}},
{"geometry": {"type": "Point", "coordinates": [-95.8153444591, 36.0464040934]}, "type": "Feature", "properties": {"collection_times": [{"days": "Mon-Fri", "time": "4:15pm"}, {"days": "Sat", "time": "12:15pm"}, {"days": "Sun", "time": "Closed"}], "id": "7401200004", "name": "USPS COLLECTION BOX - BLUE BOX", "address": {"city": "BROKEN ARROW", "state": "OK", "street": "708 S ASPEN AVE", "postcode": "74012"}}},
{"geometry": {"type": "Point", "coordinates": [-95.7985789168, 36.0319295572]}, "type": "Feature", "properties": {"collection_times": [{"days": "Mon-Fri", "time": "4:30pm"}, {"days": "Sat", "time": "12:30pm"}, {"days": "Sun", "time": "Closed"}], "id": "7401200005", "name": "USPS COLLECTION BOX - BLUE BOX", "address": {"city": "BROKEN ARROW", "state": "OK", "street": "709 W WASHINGTON ST", "postcode": "74012"}}},
{"geometry": {"type": "Point", "coordinates": [-95.7974622035, 36.0427784739]}, "type": "Feature", "properties": {"collection_times": [{"days": "Mon-Fri", "time": "3:45pm"}, {"days": "Sat", "time": "12:00pm"}, {"days": "Sun", "time": "Closed"}], "id": "7401200006", "name": "USPS COLLECTION BOX - BLUE BOX", "address": {"city": "BROKEN ARROW", "state": "OK", "street": "1009 N ELM PL", "postcode": "74012"}}},
{"geometry": {"type": "Point", "coordinates": [-95.8158938872, 36.0754861063]}, "type": "Feature", "properties": {"collection_times": [{"days": "Mon-Fri", "time": "4:00pm"}, {"days": "Sat", "time": "12:15pm"}, {"days": "Sun", "time": "Closed"}], "id": "7401200009", "name": "USPS COLLECTION BOX - BLUE BOX", "address": {"city": "BROKEN ARROW", "state": "OK", "street": "2201 W ALBANY ST", "postcode": "74012"}}},
{"geometry": {"type": "Point", "coordinates": [-95.7975038395, 36.0191095208]}, "type": "Feature", "properties": {"collection_times": [{"days": "Mon-Fri", "time": "4:30pm"}, {"days": "Sat", "time": "12:30pm"}, {"days": "Sun", "time": "Closed"}], "id": "7401200027", "name": "USPS COLLECTION BOX - BLUE BOX", "address": {"city": "BROKEN ARROW", "state": "OK", "street": "3312 S ELM PL", "postcode": "74012"}}},
{"geometry": {"type": "Point", "coordinates": [-95.7907494778, 36.0353480402]}, "type": "Feature", "properties": {"collection_times": [{"days": "Mon-Fri", "time": "5:00pm"}, {"days": "Sat", "time": "3:30pm"}, {"days": "Sun", "time": "Closed"}], "id": "7401200028", "name": "USPS COLLECTION BOX - BLUE BOX", "address": {"city": "BROKEN ARROW", "state": "OK", "street": "1701 S MAIN ST", "postcode": "74012"}}},
{"geometry": {"type": "Point", "coordinates": [-95.7907494778, 36.0353480402]}, "type": "Feature", "properties": {"collection_times": [{"days": "Mon-Fri", "time": "5:00pm"}, {"days": "Sat", "time": "3:30pm"}, {"days": "Sun", "time": "Closed"}], "id": "7401200033", "name": "USPS COLLECTION BOX - PO LOBBY", "address": {"city": "BROKEN ARROW", "state": "OK", "street": "1701 S MAIN ST", "postcode": "74012"}}},
{"geometry": {"type": "Point", "coordinates": [-95.7642778387, 36.0609593702]}, "type": "Feature", "properties": {"collection_times": [{"days": "Mon-Sat", "time": "11:00am"}, {"days": "Sun", "time": "Closed"}], "id": "7401200034", "name": "USPS COLLECTION BOX - BLUE BOX", "address": {"city": "BROKEN ARROW", "state": "OK", "street": "2351 E KENOSHA ST", "postcode": "74012"}}},
{"geometry": {"type": "Point", "coordinates": [-95.8499323484, 36.0373900958]}, "type": "Feature", "properties": {"collection_times": [{"days": "Mon-Sat", "time": "10:30am"}, {"days": "Sun", "time": "Closed"}], "id": "7401200035", "name": "USPS COLLECTION BOX - BLUE BOX", "address": {"city": "BROKEN ARROW", "state": "OK", "street": "1621 S EUCALYPTUS AVE", "postcode": "74012"}}},
{"geometry": {"type": "Point", "coordinates": [-95.7907494778, 36.0353480402]}, "type": "Feature", "properties": {"collection_times": [{"days": "Mon-Fri", "time": "5:00pm"}, {"days": "Sat", "time": "3:30pm"}, {"days": "Sun", "time": "Closed"}], "id": "7401200040", "name": "USPS COLLECTION BOX - BLUE BOX", "address": {"city": "BROKEN ARROW", "state": "OK", "street": "1701 S MAIN ST", "postcode": "74012"}}},
{"geometry": {"type": "Point", "coordinates": [-95.8502706747, 36.0609226985]}, "type": "Feature", "properties": {"collection_times": [{"days": "Mon-Fri", "time": "4:15pm"}, {"days": "Sat-Sun", "time": "Closed"}], "id": "7401200041", "name": "USPS COLLECTION BOX - BLUE BOX", "address": {"city": "BROKEN ARROW", "state": "OK", "street": "5000 W KENOSHA ST", "postcode": "74012"}}},
{"geometry": {"type": "Point", "coordinates": [-95.7907494778, 36.0353480402]}, "type": "Feature", "properties": {"collection_times": [{"days": "Mon-Fri", "time": "5:00pm"}, {"days": "Sat", "time": "3:30pm"}, {"days": "Sun", "time": "Closed"}], "id": "7401200043", "name": "USPS COLLECTION BOX - APC", "address": {"city": "BROKEN ARROW", "state": "OK", "street": "1701 S MAIN ST", "postcode": "74012"}}},
{"geometry": {"type": "Point", "coordinates": [-95.7561686549, 36.0609558213]}, "type": "Feature", "properties": {"collection_times": [{"days": "Mon-Fri", "time": "4:00pm"}, {"days": "Sat", "time": "12:00pm"}, {"days": "Sun", "time": "Closed"}], "id": "7401400000", "name": "USPS COLLECTION BOX - PO LOBBY", "address": {"city": "BROKEN ARROW", "state": "OK", "street": "2801 E KENOSHA ST", "postcode": "74014"}}},
{"geometry": {"type": "Point", "coordinates": [-95.7561686549, 36.0609558213]}, "type": "Feature", "properties": {"collection_times": [{"days": "Mon-Fri", "time": "4:00pm"}, {"days": "Sat", "time": "12:00pm"}, {"days": "Sun", "time": "Closed"}], "id": "7401400001", "name": "USPS COLLECTION BOX - PO LOBBY", "address": {"city": "BROKEN ARROW", "state": "OK", "street": "2801 E KENOSHA ST", "postcode": "74014"}}},
{"geometry": {"type": "Point", "coordinates": [-95.7561686549, 36.0609558213]}, "type": "Feature", "properties": {"collection_times": [{"days": "Mon-Fri", "time": "4:00pm"}, {"days": "Sat", "time": "12:00pm"}, {"days": "Sun", "time": "Closed"}], "id": "7401400002", "name": "USPS COLLECTION BOX - PO LOBBY", "address": {"city": "BROKEN ARROW", "state": "OK", "street": "2801 E KENOSHA ST", "postcode": "74014"}}},
{"geometry": {"type": "Point", "coordinates": [-95.7561686549, 36.0609558213]}, "type": "Feature", "properties": {"collection_times": [{"days": "Mon-Fri", "time": "4:00pm"}, {"days": "Sat", "time": "12:00pm"}, {"days": "Sun", "time": "Closed"}], "id": "7401400003", "name": "USPS COLLECTION BOX - BLUE BOX", "address": {"city": "BROKEN ARROW", "state": "OK", "street": "2801 E KENOSHA ST", "postcode": "74014"}}},
{"geometry": {"type": "Point", "coordinates": [-95.7561686549, 36.0609558213]}, "type": "Feature", "properties": {"collection_times": [{"days": "Mon-Fri", "time": "4:00pm"}, {"days": "Sat", "time": "12:00pm"}, {"days": "Sun", "time": "Closed"}], "id": "7401400004", "name": "USPS COLLECTION BOX - BLUE BOX", "address": {"city": "BROKEN ARROW", "state": "OK", "street": "2801 E KENOSHA ST", "postcode": "74014"}}},
{"geometry": {"type": "Point", "coordinates": [-95.7568997236, 36.1713400883]}, "type": "Feature", "properties": {"collection_times": [{"days": "Mon-Fri", "time": "4:30pm"}, {"days": "Sat", "time": "10:00am"}, {"days": "Sun", "time": "Closed"}], "id": "7401500000", "name": "USPS COLLECTION BOX - BLUE BOX", "address": {"city": "CATOOSA", "state": "OK", "street": "1805 S CHEROKEE ST", "postcode": "74015"}}},
{"geometry": {"type": "Point", "coordinates": [-95.7568997236, 36.1713400883]}, "type": "Feature", "properties": {"collection_times": [{"days": "Mon-Fri", "time": "4:30pm"}, {"days": "Sat", "time": "10:00am"}, {"days": "Sun", "time": "Closed"}], "id": "7401500001", "name": "USPS COLLECTION BOX - BLUE BOX", "address": {"city": "CATOOSA", "state": "OK", "street": "1805 S CHEROKEE ST", "postcode": "74015"}}},
{"geometry": {"type": "Point", "coordinates": [-95.7568997236, 36.1713400883]}, "type": "Feature", "properties": {"collection_times": [{"days": "Mon-Fri", "time": "4:30pm"}, {"days": "Sat", "time": "10:00am"}, {"days": "Sun", "time": "Closed"}], "id": "7401500003", "name": "USPS COLLECTION BOX - PO LOBBY", "address": {"city": "CATOOSA", "state": "OK", "street": "1805 S CHEROKEE ST", "postcode": "74015"}}},
{"geometry": {"type": "Point", "coordinates": [-95.7086278873, 36.1788440492]}, "type": "Feature", "properties": {"collection_times": [{"days": "Mon-Fri", "time": "4:30pm"}, {"days": "Sat-Sun", "time": "Closed"}], "id": "7401500005", "name": "USPS COLLECTION BOX - BLUE BOX", "address": {"city": "CATOOSA", "state": "OK", "street": "5350 CIMARRON RD", "postcode": "74015"}}},
{"geometry": {"type": "Point", "coordinates": [-95.4336569772, 36.5364654095]}, "type": "Feature", "properties": {"collection_times": [{"days": "Mon-Fri", "time": "4:15pm"}, {"days": "Sat", "time": "12:00pm"}, {"days": "Sun", "time": "Closed"}], "id": "7401600000", "name": "USPS COLLECTION BOX - BLUE BOX", "address": {"city": "CHELSEA", "state": "OK", "street": "408 W 6TH ST", "postcode": "74016"}}},
{"geometry": {"type": "Point", "coordinates": [-95.4308064383, 36.5328405184]}, "type": "Feature", "properties": {"collection_times": [{"days": "Mon-Sat", "time": "12:00pm"}, {"days": "Sun", "time": "Closed"}], "id": "7401600001", "name": "USPS COLLECTION BOX - BLUE BOX", "address": {"city": "CHELSEA", "state": "OK", "street": "720 WALNUT ST", "postcode": "74016"}}},
{"geometry": {"type": "Point", "coordinates": [-95.4336569772, 36.5364654095]}, "type": "Feature", "properties": {"collection_times": [{"days": "Mon-Fri", "time": "4:15pm"}, {"days": "Sat", "time": "12:00pm"}, {"days": "Sun", "time": "Closed"}], "id": "7401600002", "name": "USPS COLLECTION BOX - BLUE BOX", "address": {"city": "CHELSEA", "state": "OK", "street": "408 W 6TH ST", "postcode": "74016"}}},
{"geometry": {"type": "Point", "coordinates": [-95.4336569772, 36.5364654095]}, "type": "Feature", "properties": {"collection_times": [{"days": "Mon-Fri", "time": "4:15pm"}, {"days": "Sat", "time": "12:00pm"}, {"days": "Sun", "time": "Closed"}], "id": "7401600003", "name": "USPS COLLECTION BOX - PO LOBBY", "address": {"city": "CHELSEA", "state": "OK", "street": "408 W 6TH ST", "postcode": "74016"}}},
{"geometry": {"type": "Point", "coordinates": [-95.4336569772, 36.5364654095]}, "type": "Feature", "properties": {"collection_times": [{"days": "Mon-Fri", "time": "4:15pm"}, {"days": "Sat", "time": "12:00pm"}, {"days": "Sun", "time": "Closed"}], "id": "7401600004", "name": "USPS COLLECTION BOX - PO LOBBY", "address": {"city": "CHELSEA", "state": "OK", "street": "408 W 6TH ST", "postcode": "74016"}}},
{"geometry": {"type": "Point", "coordinates": [-95.6217527366, 36.3148989416]}, "type": "Feature", "properties": {"collection_times": [{"days": "Mon-Fri", "time": "4:00pm"}, {"days": "Sat", "time": "3:00pm"}, {"days": "Sun", "time": "Closed"}], "id": "7401700003", "name": "USPS COLLECTION BOX - BLUE BOX", "address": {"city": "CLAREMORE", "state": "OK", "street": "1025 W WILL ROGERS BLVD", "postcode": "74017"}}},
{"geometry": {"type": "Point", "coordinates": [-95.6156286787, 36.3111239334]}, "type": "Feature", "properties": {"collection_times": [{"days": "Mon-Fri", "time": "4:15pm"}, {"days": "Sat", "time": "3:15pm"}, {"days": "Sun", "time": "Closed"}], "id": "7401700004", "name": "USPS COLLECTION BOX - BLUE BOX", "address": {"city": "CLAREMORE", "state": "OK", "street": "219 S MISSOURI AVE", "postcode": "74017"}}},
{"geometry": {"type": "Point", "coordinates": [-95.6103070609, 36.3172574759]}, "type": "Feature", "properties": {"collection_times": [{"days": "Mon-Fri", "time": "4:30pm"}, {"days": "Sat", "time": "3:15pm"}, {"days": "Sun", "time": "Closed"}], "id": "7401700005", "name": "USPS COLLECTION BOX - PO LOBBY", "address": {"city": "CLAREMORE", "state": "OK", "street": "400 W 9TH ST", "postcode": "74017"}}},
{"geometry": {"type": "Point", "coordinates": [-95.6103070609, 36.3172574759]}, "type": "Feature", "properties": {"collection_times": [{"days": "Mon-Fri", "time": "4:30pm"}, {"days": "Sat", "time": "3:15pm"}, {"days": "Sun", "time": "Closed"}], "id": "7401700006", "name": "USPS COLLECTION BOX - PO LOBBY", "address": {"city": "CLAREMORE", "state": "OK", "street": "400 W 9TH ST", "postcode": "74017"}}},
{"geometry": {"type": "Point", "coordinates": [-95.6295045135, 36.2947961146]}, "type": "Feature", "properties": {"collection_times": [{"days": "Mon-Fri", "time": "4:00pm"}, {"days": "Sat", "time": "3:00pm"}, {"days": "Sun", "time": "Closed"}], "id": "7401700010", "name": "USPS COLLECTION BOX - BLUE BOX", "address": {"city": "CLAREMORE", "state": "OK", "street": "1500 S LYNN RIGGS BLVD", "postcode": "74017"}}},
{"geometry": {"type": "Point", "coordinates": [-95.6181064576, 36.309170177]}, "type": "Feature", "properties": {"collection_times": [{"days": "Mon-Fri", "time": "4:15pm"}, {"days": "Sat", "time": "3:15pm"}, {"days": "Sun", "time": "Closed"}], "id": "7401700015", "name": "USPS COLLECTION BOX - BLUE BOX", "address": {"city": "CLAREMORE", "state": "OK", "street": "436 S LYNN RIGGS BLVD", "postcode": "74017"}}},
{"geometry": {"type": "Point", "coordinates": [-95.612645717, 36.3111426648]}, "type": "Feature", "properties": {"collection_times": [{"days": "Mon-Fri", "time": "4:30pm"}, {"days": "Sat", "time": "3:15pm"}, {"days": "Sun", "time": "Closed"}], "id": "7401700019", "name": "USPS COLLECTION BOX - BLUE BOX", "address": {"city": "CLAREMORE", "state": "OK", "street": "104 S MUSKOGEE AVE", "postcode": "74017"}}},
{"geometry": {"type": "Point", "coordinates": [-96.4640586832, 36.3099856256]}, "type": "Feature", "properties": {"collection_times": [{"days": "Mon-Fri", "time": "3:45pm"}, {"days": "Sat", "time": "11:00am"}, {"days": "Sun", "time": "Closed"}], "id": "7402000003", "name": "USPS COLLECTION BOX - BLUE BOX", "address": {"city": "CLEVELAND", "state": "OK", "street": "105 W PAWNEE ST", "postcode": "74020"}}},
{"geometry": {"type": "Point", "coordinates": [-96.4640586832, 36.3099856256]}, "type": "Feature", "properties": {"collection_times": [{"days": "Mon-Fri", "time": "3:45pm"}, {"days": "Sat", "time": "11:00am"}, {"days": "Sun", "time": "Closed"}], "id": "7402000004", "name": "USPS COLLECTION BOX - BLUE BOX", "address": {"city": "CLEVELAND", "state": "OK", "street": "105 W PAWNEE ST", "postcode": "74020"}}},
{"geometry": {"type": "Point", "coordinates": [-96.464052126, 36.310089243]}, "type": "Feature", "properties": {"collection_times": [{"days": "Mon-Fri", "time": "3:45pm"}, {"days": "Sat", "time": "11:00am"}, {"days": "Sun", "time": "Closed"}], "id": "7402000007", "name": "USPS COLLECTION BOX - PO LOBBY", "address": {"city": "CLEVELAND", "state": "OK", "street": "105 W PAWNEE ST", "postcode": "74020"}}},
{"geometry": {"type": "Point", "coordinates": [-96.5456782812, 36.2590891692]}, "type": "Feature", "properties": {"collection_times": [{"days": "Mon-Fri", "time": "9:00am"}, {"days": "Sat", "time": "8:30am"}, {"days": "Sun", "time": "Closed"}], "id": "7402000008", "name": "USPS COLLECTION BOX - BLUE BOX", "address": {"city": "CLEVELAND", "state": "OK", "street": "1091 E PENINSULA DR", "postcode": "74020"}}},
{"geometry": {"type": "Point", "coordinates": [-95.8378543374, 36.3653122357]}, "type": "Feature", "properties": {"collection_times": [{"days": "Mon-Fri", "time": "4:30pm"}, {"days": "Sat", "time": "3:00pm"}, {"days": "Sun", "time": "Closed"}], "id": "7402100001", "name": "USPS COLLECTION BOX - BLUE BOX", "address": {"city": "COLLINSVILLE", "state": "OK", "street": "118 S 11TH ST", "postcode": "74021"}}},
{"geometry": {"type": "Point", "coordinates": [-95.8378543374, 36.3653122357]}, "type": "Feature", "properties": {"collection_times": [{"days": "Mon-Fri", "time": "4:30pm"}, {"days": "Sat", "time": "3:00pm"}, {"days": "Sun", "time": "Closed"}], "id": "7402100002", "name": "USPS COLLECTION BOX - PO LOBBY", "address": {"city": "COLLINSVILLE", "state": "OK", "street": "118 S 11TH ST", "postcode": "74021"}}},
{"geometry": {"type": "Point", "coordinates": [-95.8378543374, 36.3653122357]}, "type": "Feature", "properties": {"collection_times": [{"days": "Mon-Fri", "time": "4:30pm"}, {"days": "Sat", "time": "3:00pm"}, {"days": "Sun", "time": "Closed"}], "id": "7402100003", "name": "USPS COLLECTION BOX - PO LOBBY", "address": {"city": "COLLINSVILLE", "state": "OK", "street": "118 S 11TH ST", "postcode": "74021"}}},
{"geometry": {"type": "Point", "coordinates": [-95.9260409729, 36.8963641936]}, "type": "Feature", "properties": {"collection_times": [{"days": "Mon-Fri", "time": "2:00pm"}, {"days": "Sat", "time": "9:00am"}, {"days": "Sun", "time": "Closed"}], "id": "7402200001", "name": "USPS COLLECTION BOX - PO LOBBY", "address": {"city": "COPAN", "state": "OK", "street": "207 S CANEY ST", "postcode": "74022"}}},
{"geometry": {"type": "Point", "coordinates": [-95.9260409729, 36.8963641936]}, "type": "Feature", "properties": {"collection_times": [{"days": "Mon-Fri", "time": "2:00pm"}, {"days": "Sat", "time": "9:00am"}, {"days": "Sun", "time": "Closed"}], "id": "7402200002", "name": "USPS COLLECTION BOX - PO LOBBY", "address": {"city": "COPAN", "state": "OK", "street": "207 S CANEY ST", "postcode": "74022"}}},
{"geometry": {"type": "Point", "coordinates": [-96.7726276276, 35.9798385806]}, "type": "Feature", "properties": {"collection_times": [{"days": "Mon-Fri", "time": "5:00pm"}, {"days": "Sat", "time": "3:00pm"}, {"days": "Sun", "time": "Closed"}], "id": "7402300001", "name": "USPS COLLECTION BOX - BLUE BOX", "address": {"city": "CUSHING", "state": "OK", "street": "116 S CLEVELAND AVE", "postcode": "74023"}}},
{"geometry": {"type": "Point", "coordinates": [-96.7726276276, 35.9798385806]}, "type": "Feature", "properties": {"collection_times": [{"days": "Mon-Fri", "time": "5:00pm"}, {"days": "Sat", "time": "3:00pm"}, {"days": "Sun", "time": "Closed"}], "id": "7402300002", "name": "USPS COLLECTION BOX - BLUE BOX", "address": {"city": "CUSHING", "state": "OK", "street": "116 S CLEVELAND AVE", "postcode": "74023"}}},
{"geometry": {"type": "Point", "coordinates": [-96.7726276276, 35.9798385806]}, "type": "Feature", "properties": {"collection_times": [{"days": "Mon-Fri", "time": "5:00pm"}, {"days": "Sat", "time": "3:00pm"}, {"days": "Sun", "time": "Closed"}], "id": "7402300003", "name": "USPS COLLECTION BOX - BLUE BOX", "address": {"city": "CUSHING", "state": "OK", "street": "116 S CLEVELAND AVE", "postcode": "74023"}}},
{"geometry": {"type": "Point", "coordinates": [-96.7726276276, 35.9798385806]}, "type": "Feature", "properties": {"collection_times": [{"days": "Mon-Fri", "time": "4:30pm"}, {"days": "Sat", "time": "3:00pm"}, {"days": "Sun", "time": "Closed"}], "id": "7402300013", "name": "USPS COLLECTION BOX - PO LOBBY", "address": {"city": "CUSHING", "state": "OK", "street": "116 S CLEVELAND AVE", "postcode": "74023"}}},
{"geometry": {"type": "Point", "coordinates": [-96.7726276276, 35.9798385806]}, "type": "Feature", "properties": {"collection_times": [{"days": "Mon-Fri", "time": "4:30pm"}, {"days": "Sat", "time": "3:00pm"}, {"days": "Sun", "time": "Closed"}], "id": "7402300014", "name": "USPS COLLECTION BOX - PO LOBBY", "address": {"city": "CUSHING", "state": "OK", "street": "116 S CLEVELAND AVE", "postcode": "74023"}}},
{"geometry": {"type": "Point", "coordinates": [-96.7282376977, 35.985705111]}, "type": "Feature", "properties": {"collection_times": [{"days": "Mon-Sat", "time": "10:00am"}, {"days": "Sun", "time": "Closed"}], "id": "7402300015", "name": "USPS COLLECTION BOX - BLUE BOX", "address": {"city": "CUSHING", "state": "OK", "street": "2200 E MAIN ST", "postcode": "74023"}}},
{"geometry": {"type": "Point", "coordinates": [-96.765270678, 35.7071064233]}, "type": "Feature", "properties": {"collection_times": [{"days": "Mon-Fri", "time": "4:00pm"}, {"days": "Sat", "time": "11:30am"}, {"days": "Sun", "time": "Closed"}], "id": "7402600000", "name": "USPS COLLECTION BOX - BLUE BOX", "address": {"city": "DAVENPORT", "state": "OK", "street": "313 BROADWAY ST", "postcode": "74026"}}},
{"geometry": {"type": "Point", "coordinates": [-96.765270678, 35.7071064233]}, "type": "Feature", "properties": {"collection_times": [{"days": "Mon-Fri", "time": "4:15pm"}, {"days": "Sat", "time": "11:30am"}, {"days": "Sun", "time": "Closed"}], "id": "7402600001", "name": "USPS COLLECTION BOX - PO LOBBY", "address": {"city": "DAVENPORT", "state": "OK", "street": "313 BROADWAY ST", "postcode": "74026"}}},
{"geometry": {"type": "Point", "coordinates": [-96.765270678, 35.7071064233]}, "type": "Feature", "properties": {"collection_times": [{"days": "Mon-Fri", "time": "4:15pm"}, {"days": "Sat", "time": "11:30am"}, {"days": "Sun", "time": "Closed"}], "id": "7402600002", "name": "USPS COLLECTION BOX - PO LOBBY", "address": {"city": "DAVENPORT", "state": "OK", "street": "313 BROADWAY ST", "postcode": "74026"}}},
{"geometry": {"type": "Point", "coordinates": [-95.6456280493, 36.7786739795]}, "type": "Feature", "properties": {"collection_times": [{"days": "Mon-Fri", "time": "11:15am"}, {"days": "Sat", "time": "9:15am"}, {"days": "Sun", "time": "Closed"}], "id": "7402700001", "name": "USPS COLLECTION BOX - PO LOBBY", "address": {"city": "DELAWARE", "state": "OK", "street": "117 ELEVATOR", "postcode": "74027"}}},
{"geometry": {"type": "Point", "coordinates": [-95.6456280493, 36.7786739795]}, "type": "Feature", "properties": {"collection_times": [{"days": "Mon-Fri", "time": "11:15am"}, {"days": "Sat", "time": "9:15am"}, {"days": "Sun", "time": "Closed"}], "id": "7402700003", "name": "USPS COLLECTION BOX - PO LOBBY", "address": {"city": "DELAWARE", "state": "OK", "street": "117 ELEVATOR", "postcode": "74027"}}},
{"geometry": {"type": "Point", "coordinates": [-95.6392837085, 36.7769720418]}, "type": "Feature", "properties": {"collection_times": [{"days": "Mon-Sat", "time": "1:30pm"}, {"days": "Sun", "time": "Closed"}], "id": "7402700004", "name": "USPS COLLECTION BOX - BLUE BOX", "address": {"city": "DELAWARE", "state": "OK", "street": "122 E CHEROKEE", "postcode": "74027"}}},
{"geometry": {"type": "Point", "coordinates": [-96.5075816985, 35.8030236418]}, "type": "Feature", "properties": {"collection_times": [{"days": "Mon-Fri", "time": "4:00pm"}, {"days": "Sat", "time": "10:00am"}, {"days": "Sun", "time": "Closed"}], "id": "7402800001", "name": "USPS COLLECTION BOX - PO LOBBY", "address": {"city": "DEPEW", "state": "OK", "street": "316 W MAIN ST", "postcode": "74028"}}},
{"geometry": {"type": "Point", "coordinates": [-95.9368612914, 36.7992268693]}, "type": "Feature", "properties": {"collection_times": [{"days": "Mon-Fri", "time": "4:00pm"}, {"days": "Sat", "time": "10:00am"}, {"days": "Sun", "time": "Closed"}], "id": "7402900000", "name": "USPS COLLECTION BOX - BLUE BOX", "address": {"city": "DEWEY", "state": "OK", "street": "800 N SHAWNEE AVE", "postcode": "74029"}}},
{"geometry": {"type": "Point", "coordinates": [-95.9368612914, 36.7992268693]}, "type": "Feature", "properties": {"collection_times": [{"days": "Mon-Fri", "time": "4:00pm"}, {"days": "Sat", "time": "10:00am"}, {"days": "Sun", "time": "Closed"}], "id": "7402900008", "name": "USPS COLLECTION BOX - PO LOBBY", "address": {"city": "DEWEY", "state": "OK", "street": "800 N SHAWNEE AVE", "postcode": "74029"}}},
{"geometry": {"type": "Point", "coordinates": [-95.9368612914, 36.7992268693]}, "type": "Feature", "properties": {"collection_times": [{"days": "Mon-Fri", "time": "4:00pm"}, {"days": "Sat", "time": "10:00am"}, {"days": "Sun", "time": "Closed"}], "id": "7402900009", "name": "USPS COLLECTION BOX - PO LOBBY", "address": {"city": "DEWEY", "state": "OK", "street": "800 N SHAWNEE AVE", "postcode": "74029"}}},
{"geometry": {"type": "Point", "coordinates": [-95.9005523761, 36.8298980727]}, "type": "Feature", "properties": {"collection_times": [{"days": "Mon-Fri", "time": "4:00pm"}, {"days": "Sat", "time": "10:00am"}, {"days": "Sun", "time": "Closed"}], "id": "7402900010", "name": "USPS COLLECTION BOX - PO LOBBY", "address": {"city": "DEWEY", "state": "OK", "street": "800 N SHAWNEE AVE", "postcode": "74029"}}},
{"geometry": {"type": "Point", "coordinates": [-95.9368612914, 36.7992268693]}, "type": "Feature", "properties": {"collection_times": [{"days": "Mon-Fri", "time": "4:00pm"}, {"days": "Sat", "time": "10:00am"}, {"days": "Sun", "time": "Closed"}], "id": "7402900011", "name": "USPS COLLECTION BOX - BLUE BOX", "address": {"city": "DEWEY", "state": "OK", "street": "800 N SHAWNEE AVE", "postcode": "74029"}}},
{"geometry": {"type": "Point", "coordinates": [-96.5995657326, 35.9886865584]}, "type": "Feature", "properties": {"collection_times": [{"days": "Mon-Fri", "time": "4:15pm"}, {"days": "Sat", "time": "3:30pm"}, {"days": "Sun", "time": "Closed"}], "id": "7403000000", "name": "USPS COLLECTION BOX - BLUE BOX", "address": {"city": "DRUMRIGHT", "state": "OK", "street": "118 N OHIO AVE", "postcode": "74030"}}},
{"geometry": {"type": "Point", "coordinates": [-96.5840769755, 36.0052828507]}, "type": "Feature", "properties": {"collection_times": [{"days": "Mon-Sat", "time": "9:00am"}, {"days": "Sun", "time": "Closed"}], "id": "7403000002", "name": "USPS COLLECTION BOX - BLUE BOX", "address": {"city": "DRUMRIGHT", "state": "OK", "street": "715 E WALNUT ST", "postcode": "74030"}}},
{"geometry": {"type": "Point", "coordinates": [-96.5995657326, 35.9886865584]}, "type": "Feature", "properties": {"collection_times": [{"days": "Mon-Fri", "time": "4:15pm"}, {"days": "Sat", "time": "3:30pm"}, {"days": "Sun", "time": "Closed"}], "id": "7403000004", "name": "USPS COLLECTION BOX - BLUE BOX", "address": {"city": "DRUMRIGHT", "state": "OK", "street": "118 N OHIO AVE", "postcode": "74030"}}},
{"geometry": {"type": "Point", "coordinates": [-96.5995657326, 35.9886865584]}, "type": "Feature", "properties": {"collection_times": [{"days": "Mon-Sat", "time": "3:30pm"}, {"days": "Sun", "time": "Closed"}], "id": "7403000005", "name": "USPS COLLECTION BOX - PO LOBBY", "address": {"city": "DRUMRIGHT", "state": "OK", "street": "118 N OHIO AVE", "postcode": "74030"}}},
{"geometry": {"type": "Point", "coordinates": [-96.5995657326, 35.9886865584]}, "type": "Feature", "properties": {"collection_times": [{"days": "Mon-Sat", "time": "3:30pm"}, {"days": "Sun", "time": "Closed"}], "id": "7403000006", "name": "USPS COLLECTION BOX - PO LOBBY", "address": {"city": "DRUMRIGHT", "state": "OK", "street": "118 N OHIO AVE", "postcode": "74030"}}},
{"geometry": {"type": "Point", "coordinates": [-95.520104511, 36.4355009403]}, "type": "Feature", "properties": {"collection_times": [{"days": "Mon-Fri", "time": "4:00pm"}, {"days": "Sat", "time": "12:00pm"}, {"days": "Sun", "time": "Closed"}], "id": "7403100001", "name": "USPS COLLECTION BOX - PO LOBBY", "address": {"city": "FOYIL", "state": "OK", "street": "17172 E 3RD ST", "postcode": "74031"}}},
{"geometry": {"type": "Point", "coordinates": [-95.520104511, 36.4355009403]}, "type": "Feature", "properties": {"collection_times": [{"days": "Mon-Fri", "time": "4:00pm"}, {"days": "Sat", "time": "12:00pm"}, {"days": "Sun", "time": "Closed"}], "id": "7403100002", "name": "USPS COLLECTION BOX - PO LOBBY", "address": {"city": "FOYIL", "state": "OK", "street": "17172 E 3RD ST", "postcode": "74031"}}},
{"geometry": {"type": "Point", "coordinates": [-96.9283729373, 36.2276196098]}, "type": "Feature", "properties": {"collection_times": [{"days": "Mon-Fri", "time": "4:15pm"}, {"days": "Sat", "time": "12:30pm"}, {"days": "Sun", "time": "Closed"}], "id": "7403200000", "name": "USPS COLLECTION BOX - BLUE BOX", "address": {"city": "GLENCOE", "state": "OK", "street": "313 W MAIN ST", "postcode": "74032"}}},
{"geometry": {"type": "Point", "coordinates": [-96.9283729373, 36.2276196098]}, "type": "Feature", "properties": {"collection_times": [{"days": "Mon-Fri", "time": "4:15pm"}, {"days": "Sat", "time": "12:30pm"}, {"days": "Sun", "time": "Closed"}], "id": "7403200001", "name": "USPS COLLECTION BOX - PO LOBBY", "address": {"city": "GLENCOE", "state": "OK", "street": "313 W MAIN ST", "postcode": "74032"}}},
{"geometry": {"type": "Point", "coordinates": [-96.9283729373, 36.2276196098]}, "type": "Feature", "properties": {"collection_times": [{"days": "Mon-Fri", "time": "4:15pm"}, {"days": "Sat", "time": "12:30pm"}, {"days": "Sun", "time": "Closed"}], "id": "7403200002", "name": "USPS COLLECTION BOX - PO LOBBY", "address": {"city": "GLENCOE", "state": "OK", "street": "313 W MAIN ST", "postcode": "74032"}}},
{"geometry": {"type": "Point", "coordinates": [-96.0079851298, 35.9586381516]}, "type": "Feature", "properties": {"collection_times": [{"days": "Mon-Fri", "time": "4:15pm"}, {"days": "Sat", "time": "10:30am"}, {"days": "Sun", "time": "Closed"}], "id": "7403300000", "name": "USPS COLLECTION BOX - BLUE BOX", "address": {"city": "GLENPOOL", "state": "OK", "street": "14169 S BROADWAY ST", "postcode": "74033"}}},
{"geometry": {"type": "Point", "coordinates": [-96.0079851298, 35.9586381516]}, "type": "Feature", "properties": {"collection_times": [{"days": "Mon-Fri", "time": "4:15pm"}, {"days": "Sat", "time": "10:30am"}, {"days": "Sun", "time": "Closed"}], "id": "7403300001", "name": "USPS COLLECTION BOX - PO LOBBY", "address": {"city": "GLENPOOL", "state": "OK", "street": "14169 S BROADWAY ST", "postcode": "74033"}}},
{"geometry": {"type": "Point", "coordinates": [-96.0079851298, 35.9586381516]}, "type": "Feature", "properties": {"collection_times": [{"days": "Mon-Fri", "time": "4:15pm"}, {"days": "Sat", "time": "10:30am"}, {"days": "Sun", "time": "Closed"}], "id": "7403300002", "name": "USPS COLLECTION BOX - PO LOBBY", "address": {"city": "GLENPOOL", "state": "OK", "street": "14169 S BROADWAY ST", "postcode": "74033"}}},
{"geometry": {"type": "Point", "coordinates": [-96.5680513828, 36.2318271464]}, "type": "Feature", "properties": {"collection_times": [{"days": "Mon-Fri", "time": "4:00pm"}, {"days": "Sat", "time": "9:15am"}, {"days": "Sun", "time": "Closed"}], "id": "7403400000", "name": "USPS COLLECTION BOX - BLUE BOX", "address": {"city": "HALLETT", "state": "OK", "street": "501 5TH AVE", "postcode": "74034"}}},
{"geometry": {"type": "Point", "coordinates": [-96.5680513828, 36.2318271464]}, "type": "Feature", "properties": {"collection_times": [{"days": "Mon-Fri", "time": "4:00pm"}, {"days": "Sat", "time": "9:15am"}, {"days": "Sun", "time": "Closed"}], "id": "7403400001", "name": "USPS COLLECTION BOX - PO LOBBY", "address": {"city": "HALLETT", "state": "OK", "street": "501 5TH AVE", "postcode": "74034"}}},
{"geometry": {"type": "Point", "coordinates": [-96.3974286963, 36.4144701267]}, "type": "Feature", "properties": {"collection_times": [{"days": "Mon-Fri", "time": "4:45pm"}, {"days": "Sat", "time": "10:15am"}, {"days": "Sun", "time": "Closed"}], "id": "7403500005", "name": "USPS COLLECTION BOX - PO LOBBY", "address": {"city": "HOMINY", "state": "OK", "street": "402 W 1ST ST", "postcode": "74035"}}},
{"geometry": {"type": "Point", "coordinates": [-96.3974286963, 36.4144701267]}, "type": "Feature", "properties": {"collection_times": [{"days": "Mon-Fri", "time": "5:00pm"}, {"days": "Sat", "time": "10:15am"}, {"days": "Sun", "time": "Closed"}], "id": "7403500006", "name": "USPS COLLECTION BOX - BLUE BOX", "address": {"city": "HOMINY", "state": "OK", "street": "402 W 1ST ST", "postcode": "74035"}}},
{"geometry": {"type": "Point", "coordinates": [-96.3974286963, 36.4144701267]}, "type": "Feature", "properties": {"collection_times": [{"days": "Mon-Fri", "time": "5:00pm"}, {"days": "Sat", "time": "10:15am"}, {"days": "Sun", "time": "Closed"}], "id": "7403500007", "name": "USPS COLLECTION BOX - BLUE BOX", "address": {"city": "HOMINY", "state": "OK", "street": "402 W 1ST ST", "postcode": "74035"}}},
{"geometry": {"type": "Point", "coordinates": [-96.3974286963, 36.4144701267]}, "type": "Feature", "properties": {"collection_times": [{"days": "Mon-Fri", "time": "4:45pm"}, {"days": "Sat", "time": "10:15am"}, {"days": "Sun", "time": "Closed"}], "id": "7403500008", "name": "USPS COLLECTION BOX - PO LOBBY", "address": {"city": "HOMINY", "state": "OK", "street": "402 W 1ST ST", "postcode": "74035"}}},
{"geometry": {"type": "Point", "coordinates": [-95.5080794208, 36.148877538]}, "type": "Feature", "properties": {"collection_times": [{"days": "Mon-Fri", "time": "4:00pm"}, {"days": "Sat", "time": "11:30am"}, {"days": "Sun", "time": "Closed"}], "id": "7403600000", "name": "USPS COLLECTION BOX - BLUE BOX", "address": {"city": "INOLA", "state": "OK", "street": "25 2ND ST SW", "postcode": "74036"}}},
{"geometry": {"type": "Point", "coordinates": [-95.5080794208, 36.148877538]}, "type": "Feature", "properties": {"collection_times": [{"days": "Mon-Fri", "time": "4:00pm"}, {"days": "Sat", "time": "11:30am"}, {"days": "Sun", "time": "Closed"}], "id": "7403600001", "name": "USPS COLLECTION BOX - PO LOBBY", "address": {"city": "INOLA", "state": "OK", "street": "25 2ND ST SW", "postcode": "74036"}}},
{"geometry": {"type": "Point", "coordinates": [-95.9776143287, 36.0226378771]}, "type": "Feature", "properties": {"collection_times": [{"days": "Mon-Fri", "time": "12:00pm"}, {"days": "Sat", "time": "1:00pm"}, {"days": "Sun", "time": "Closed"}], "id": "7403700000", "name": "USPS COLLECTION BOX - BLUE BOX", "address": {"city": "JENKS", "state": "OK", "street": "702 W MAIN ST", "postcode": "74037"}}},
{"geometry": {"type": "Point", "coordinates": [-95.9751217547, 36.0226716007]}, "type": "Feature", "properties": {"collection_times": [{"days": "Mon-Sat", "time": "10:30am"}, {"days": "Sun", "time": "Closed"}], "id": "7403700001", "name": "USPS COLLECTION BOX - BLUE BOX", "address": {"city": "JENKS", "state": "OK", "street": "12141 S ELM ST", "postcode": "74037"}}},
{"geometry": {"type": "Point", "coordinates": [-95.9670498325, 36.0236504382]}, "type": "Feature", "properties": {"collection_times": [{"days": "Mon-Fri", "time": "5:00pm"}, {"days": "Sat", "time": "2:30pm"}, {"days": "Sun", "time": "Closed"}], "id": "7403700004", "name": "USPS COLLECTION BOX - BLUE BOX", "address": {"city": "JENKS", "state": "OK", "street": "303 E A ST", "postcode": "74037"}}},
{"geometry": {"type": "Point", "coordinates": [-95.9670498325, 36.0236504382]}, "type": "Feature", "properties": {"collection_times": [{"days": "Mon-Fri", "time": "5:00pm"}, {"days": "Sat", "time": "2:30pm"}, {"days": "Sun", "time": "Closed"}], "id": "7403700005", "name": "USPS COLLECTION BOX - PO LOBBY", "address": {"city": "JENKS", "state": "OK", "street": "303 E A ST", "postcode": "74037"}}},
{"geometry": {"type": "Point", "coordinates": [-95.9670498325, 36.0236504382]}, "type": "Feature", "properties": {"collection_times": [{"days": "Mon-Fri", "time": "5:00pm"}, {"days": "Sat", "time": "2:30pm"}, {"days": "Sun", "time": "Closed"}], "id": "7403700006", "name": "USPS COLLECTION BOX - PO LOBBY", "address": {"city": "JENKS", "state": "OK", "street": "303 E A ST", "postcode": "74037"}}},
{"geometry": {"type": "Point", "coordinates": [-95.9670498325, 36.0236504382]}, "type": "Feature", "properties": {"collection_times": [{"days": "Mon-Fri", "time": "5:00pm"}, {"days": "Sat", "time": "2:30pm"}, {"days": "Sun", "time": "Closed"}], "id": "7403700007", "name": "USPS COLLECTION BOX - PO LOBBY", "address": {"city": "JENKS", "state": "OK", "street": "303 E A ST", "postcode": "74037"}}},
{"geometry": {"type": "Point", "coordinates": [-96.5699380807, 36.1743926896]}, "type": "Feature", "properties": {"collection_times": [{"days": "Mon-Fri", "time": "3:30pm"}, {"days": "Sat", "time": "10:45am"}, {"days": "Sun", "time": "Closed"}], "id": "7403800001", "name": "USPS COLLECTION BOX - PO LOBBY", "address": {"city": "JENNINGS", "state": "OK", "street": "718 N MAIN ST", "postcode": "74038"}}},
{"geometry": {"type": "Point", "coordinates": [-96.5699380807, 36.1743926896]}, "type": "Feature", "properties": {"collection_times": [{"days": "Mon-Fri", "time": "3:30pm"}, {"days": "Sat", "time": "10:45am"}, {"days": "Sun", "time": "Closed"}], "id": "7403800002", "name": "USPS COLLECTION BOX - PO LOBBY", "address": {"city": "JENNINGS", "state": "OK", "street": "718 N MAIN ST", "postcode": "74038"}}},
{"geometry": {"type": "Point", "coordinates": [-96.2141736945, 35.9436618911]}, "type": "Feature", "properties": {"collection_times": [{"days": "Mon-Fri", "time": "3:45pm"}, {"days": "Sat", "time": "9:00am"}, {"days": "Sun", "time": "Closed"}], "id": "7403900000", "name": "USPS COLLECTION BOX - BLUE BOX", "address": {"city": "KELLYVILLE", "state": "OK", "street": "218 E BUFFALO ST", "postcode": "74039"}}},
{"geometry": {"type": "Point", "coordinates": [-96.2141736945, 35.9436618911]}, "type": "Feature", "properties": {"collection_times": [{"days": "Mon-Fri", "time": "4:00pm"}, {"days": "Sat", "time": "9:00am"}, {"days": "Sun", "time": "Closed"}], "id": "7403900001", "name": "USPS COLLECTION BOX - PO LOBBY", "address": {"city": "KELLYVILLE", "state": "OK", "street": "218 E BUFFALO ST", "postcode": "74039"}}},
{"geometry": {"type": "Point", "coordinates": [-96.2141736945, 35.9436618911]}, "type": "Feature", "properties": {"collection_times": [{"days": "Mon-Fri", "time": "4:00pm"}, {"days": "Sat", "time": "9:00am"}, {"days": "Sun", "time": "Closed"}], "id": "7403900002", "name": "USPS COLLECTION BOX - PO LOBBY", "address": {"city": "KELLYVILLE", "state": "OK", "street": "218 E BUFFALO ST", "postcode": "74039"}}},
{"geometry": {"type": "Point", "coordinates": [-96.0591036849, 35.944752536]}, "type": "Feature", "properties": {"collection_times": [{"days": "Mon-Fri", "time": "4:00pm"}, {"days": "Sat", "time": "10:00am"}, {"days": "Sun", "time": "Closed"}], "id": "7404100000", "name": "USPS COLLECTION BOX - BLUE BOX", "address": {"city": "KIEFER", "state": "OK", "street": "417 E INDIANA", "postcode": "74041"}}},
{"geometry": {"type": "Point", "coordinates": [-96.0591036849, 35.944752536]}, "type": "Feature", "properties": {"collection_times": [{"days": "Mon-Fri", "time": "4:00pm"}, {"days": "Sat", "time": "10:00am"}, {"days": "Sun", "time": "Closed"}], "id": "7404100001", "name": "USPS COLLECTION BOX - PO LOBBY", "address": {"city": "KIEFER", "state": "OK", "street": "417 E INDIANA", "postcode": "74041"}}},
{"geometry": {"type": "Point", "coordinates": [-96.0591036849, 35.944752536]}, "type": "Feature", "properties": {"collection_times": [{"days": "Mon-Fri", "time": "4:00pm"}, {"days": "Sat", "time": "10:00am"}, {"days": "Sun", "time": "Closed"}], "id": "7404100002", "name": "USPS COLLECTION BOX - PO LOBBY", "address": {"city": "KIEFER", "state": "OK", "street": "417 E INDIANA", "postcode": "74041"}}},
{"geometry": {"type": "Point", "coordinates": [-95.6358490447, 36.8514900518]}, "type": "Feature", "properties": {"collection_times": [{"days": "Mon-Fri", "time": "12:30pm"}, {"days": "Sat", "time": "9:00am"}, {"days": "Sun", "time": "Closed"}], "id": "7404200001", "name": "USPS COLLECTION BOX - PO LOBBY", "address": {"city": "LENAPAH", "state": "OK", "street": "400 SHAWNEE", "postcode": "74042"}}},
{"geometry": {"type": "Point", "coordinates": [-95.6358490447, 36.8514900518]}, "type": "Feature", "properties": {"collection_times": [{"days": "Mon-Fri", "time": "12:30pm"}, {"days": "Sat", "time": "9:00am"}, {"days": "Sun", "time": "Closed"}], "id": "7404200003", "name": "USPS COLLECTION BOX - PO LOBBY", "address": {"city": "LENAPAH", "state": "OK", "street": "400 SHAWNEE", "postcode": "74042"}}},
{"geometry": {"type": "Point", "coordinates": [-95.7991964149, 35.9207221145]}, "type": "Feature", "properties": {"collection_times": [{"days": "Mon-Fri", "time": "2:00pm"}, {"days": "Sat", "time": "10:00am"}, {"days": "Sun", "time": "Closed"}], "id": "7404300001", "name": "USPS COLLECTION BOX - PO LOBBY", "address": {"city": "LEONARD", "state": "OK", "street": "15801 E 167TH ST S", "postcode": "74043"}}},
{"geometry": {"type": "Point", "coordinates": [-96.3608182236, 36.1271512081]}, "type": "Feature", "properties": {"collection_times": [{"days": "Mon-Fri", "time": "4:30pm"}, {"days": "Sat", "time": "11:00am"}, {"days": "Sun", "time": "Closed"}], "id": "7404400000", "name": "USPS COLLECTION BOX - BLUE BOX", "address": {"city": "MANNFORD", "state": "OK", "street": "165 COONROD AVE", "postcode": "74044"}}},
{"geometry": {"type": "Point", "coordinates": [-96.3608182236, 36.1271512081]}, "type": "Feature", "properties": {"collection_times": [{"days": "Mon-Fri", "time": "4:30pm"}, {"days": "Sat", "time": "11:00am"}, {"days": "Sun", "time": "Closed"}], "id": "7404400002", "name": "USPS COLLECTION BOX - PO LOBBY", "address": {"city": "MANNFORD", "state": "OK", "street": "165 COONROD AVE", "postcode": "74044"}}},
{"geometry": {"type": "Point", "coordinates": [-96.3608182236, 36.1271512081]}, "type": "Feature", "properties": {"collection_times": [{"days": "Mon-Fri", "time": "4:30pm"}, {"days": "Sat", "time": "11:00am"}, {"days": "Sun", "time": "Closed"}], "id": "7404400003", "name": "USPS COLLECTION BOX - PO LOBBY", "address": {"city": "MANNFORD", "state": "OK", "street": "165 COONROD AVE", "postcode": "74044"}}},
{"geometry": {"type": "Point", "coordinates": [-96.3608182236, 36.1271512081]}, "type": "Feature", "properties": {"collection_times": [{"days": "Mon-Fri", "time": "4:30pm"}, {"days": "Sat", "time": "11:00am"}, {"days": "Sun", "time": "Closed"}], "id": "7404400004", "name": "USPS COLLECTION BOX - BLUE BOX", "address": {"city": "MANNFORD", "state": "OK", "street": "165 COONROD AVE", "postcode": "74044"}}},
{"geometry": {"type": "Point", "coordinates": [-96.6768863564, 36.2176065092]}, "type": "Feature", "properties": {"collection_times": [{"days": "Mon-Sat", "time": "11:00am"}, {"days": "Sun", "time": "Closed"}], "id": "7404500001", "name": "USPS COLLECTION BOX - PO LOBBY", "address": {"city": "MARAMEC", "state": "OK", "street": "420 2ND ST", "postcode": "74045"}}},
{"geometry": {"type": "Point", "coordinates": [-96.6768863564, 36.2176065092]}, "type": "Feature", "properties": {"collection_times": [{"days": "Mon-Sat", "time": "11:00am"}, {"days": "Sun", "time": "Closed"}], "id": "7404500002", "name": "USPS COLLECTION BOX - PO LOBBY", "address": {"city": "MARAMEC", "state": "OK", "street": "420 2ND ST", "postcode": "74045"}}},
{"geometry": {"type": "Point", "coordinates": [-96.5655493804, 35.7530382258]}, "type": "Feature", "properties": {"collection_times": [{"days": "Mon-Sat", "time": "9:30am"}, {"days": "Sun", "time": "Closed"}], "id": "7404600001", "name": "USPS COLLECTION BOX - PO LOBBY", "address": {"city": "MILFAY", "state": "OK", "street": "28110 S 513TH WEST AVE", "postcode": "74046"}}},
{"geometry": {"type": "Point", "coordinates": [-96.0619241077, 35.8755978395]}, "type": "Feature", "properties": {"collection_times": [{"days": "Mon-Fri", "time": "4:30pm"}, {"days": "Sat", "time": "11:00am"}, {"days": "Sun", "time": "Closed"}], "id": "7404700000", "name": "USPS COLLECTION BOX - BLUE BOX", "address": {"city": "MOUNDS", "state": "OK", "street": "1201 ROCKWOOD", "postcode": "74047"}}},
{"geometry": {"type": "Point", "coordinates": [-96.0619241077, 35.8755978395]}, "type": "Feature", "properties": {"collection_times": [{"days": "Mon-Fri", "time": "4:30pm"}, {"days": "Sat", "time": "11:00am"}, {"days": "Sun", "time": "Closed"}], "id": "7404700001", "name": "USPS COLLECTION BOX - PO LOBBY", "address": {"city": "MOUNDS", "state": "OK", "street": "1201 ROCKWOOD", "postcode": "74047"}}},
{"geometry": {"type": "Point", "coordinates": [-96.0619241077, 35.8755978395]}, "type": "Feature", "properties": {"collection_times": [{"days": "Mon-Fri", "time": "4:30pm"}, {"days": "Sat", "time": "11:00am"}, {"days": "Sun", "time": "Closed"}], "id": "7404700002", "name": "USPS COLLECTION BOX - PO LOBBY", "address": {"city": "MOUNDS", "state": "OK", "street": "1201 ROCKWOOD", "postcode": "74047"}}},
{"geometry": {"type": "Point", "coordinates": [-95.639321411, 36.7004782564]}, "type": "Feature", "properties": {"collection_times": [{"days": "Mon-Fri", "time": "4:45pm"}, {"days": "Sat", "time": "2:45pm"}, {"days": "Sun", "time": "Closed"}], "id": "7404800000", "name": "USPS COLLECTION BOX - BLUE BOX", "address": {"city": "NOWATA", "state": "OK", "street": "109 N PINE ST", "postcode": "74048"}}},
{"geometry": {"type": "Point", "coordinates": [-95.639321411, 36.7004782564]}, "type": "Feature", "properties": {"collection_times": [{"days": "Mon-Fri", "time": "4:45pm"}, {"days": "Sat", "time": "2:45pm"}, {"days": "Sun", "time": "Closed"}], "id": "7404800001", "name": "USPS COLLECTION BOX - BLUE BOX", "address": {"city": "NOWATA", "state": "OK", "street": "109 N PINE ST", "postcode": "74048"}}},
{"geometry": {"type": "Point", "coordinates": [-95.639321411, 36.7004782564]}, "type": "Feature", "properties": {"collection_times": [{"days": "Mon-Fri", "time": "5:00pm"}, {"days": "Sat", "time": "3:00pm"}, {"days": "Sun", "time": "Closed"}], "id": "7404800002", "name": "USPS COLLECTION BOX - PO LOBBY", "address": {"city": "NOWATA", "state": "OK", "street": "109 N PINE ST", "postcode": "74048"}}},
{"geometry": {"type": "Point", "coordinates": [-95.639321411, 36.7004782564]}, "type": "Feature", "properties": {"collection_times": [{"days": "Mon-Fri", "time": "5:00pm"}, {"days": "Sat", "time": "3:00pm"}, {"days": "Sun", "time": "Closed"}], "id": "7404800003", "name": "USPS COLLECTION BOX - PO LOBBY", "address": {"city": "NOWATA", "state": "OK", "street": "109 N PINE ST", "postcode": "74048"}}},
{"geometry": {"type": "Point", "coordinates": [-96.0643811244, 36.0764527861]}, "type": "Feature", "properties": {"collection_times": [{"days": "Mon-Fri", "time": "4:00pm"}, {"days": "Sat", "time": "11:00am"}, {"days": "Sun", "time": "Closed"}], "id": "7405000000", "name": "USPS COLLECTION BOX - BLUE BOX", "address": {"city": "OAKHURST", "state": "OK", "street": "6403 W 60TH ST", "postcode": "74050"}}},
{"geometry": {"type": "Point", "coordinates": [-96.0643811244, 36.0764527861]}, "type": "Feature", "properties": {"collection_times": [{"days": "Mon-Fri", "time": "4:00pm"}, {"days": "Sat", "time": "11:00am"}, {"days": "Sun", "time": "Closed"}], "id": "7405000001", "name": "USPS COLLECTION BOX - PO LOBBY", "address": {"city": "OAKHURST", "state": "OK", "street": "6403 W 60TH ST", "postcode": "74050"}}},
{"geometry": {"type": "Point", "coordinates": [-96.0643811244, 36.0764527861]}, "type": "Feature", "properties": {"collection_times": [{"days": "Mon-Fri", "time": "4:00pm"}, {"days": "Sat", "time": "11:00am"}, {"days": "Sun", "time": "Closed"}], "id": "7405000002", "name": "USPS COLLECTION BOX - PO LOBBY", "address": {"city": "OAKHURST", "state": "OK", "street": "6403 W 60TH ST", "postcode": "74050"}}},
{"geometry": {"type": "Point", "coordinates": [-95.9797782486, 36.603403667]}, "type": "Feature", "properties": {"collection_times": [{"days": "Mon-Fri", "time": "3:45pm"}, {"days": "Sat", "time": "10:30am"}, {"days": "Sun", "time": "Closed"}], "id": "7405100000", "name": "USPS COLLECTION BOX - BLUE BOX", "address": {"city": "OCHELATA", "state": "OK", "street": "300 N OCHELATA ST", "postcode": "74051"}}},
{"geometry": {"type": "Point", "coordinates": [-95.9797782486, 36.603403667]}, "type": "Feature", "properties": {"collection_times": [{"days": "Mon-Fri", "time": "3:45pm"}, {"days": "Sat", "time": "10:30am"}, {"days": "Sun", "time": "Closed"}], "id": "7405100001", "name": "USPS COLLECTION BOX - PO LOBBY", "address": {"city": "OCHELATA", "state": "OK", "street": "300 N OCHELATA ST", "postcode": "74051"}}},
{"geometry": {"type": "Point", "coordinates": [-95.9797782486, 36.603403667]}, "type": "Feature", "properties": {"collection_times": [{"days": "Mon-Fri", "time": "3:45pm"}, {"days": "Sat", "time": "10:30am"}, {"days": "Sun", "time": "Closed"}], "id": "7405100002", "name": "USPS COLLECTION BOX - PO LOBBY", "address": {"city": "OCHELATA", "state": "OK", "street": "300 N OCHELATA ST", "postcode": "74051"}}},
{"geometry": {"type": "Point", "coordinates": [-96.5857012561, 36.0863806904]}, "type": "Feature", "properties": {"collection_times": [{"days": "Mon-Fri", "time": "4:00pm"}, {"days": "Sat", "time": "10:00am"}, {"days": "Sun", "time": "Closed"}], "id": "7405200001", "name": "USPS COLLECTION BOX - PO LOBBY", "address": {"city": "OILTON", "state": "OK", "street": "101 E MAIN ST", "postcode": "74052"}}},
{"geometry": {"type": "Point", "coordinates": [-96.5857012561, 36.0863806904]}, "type": "Feature", "properties": {"collection_times": [{"days": "Mon-Fri", "time": "4:00pm"}, {"days": "Sat", "time": "10:00am"}, {"days": "Sun", "time": "Closed"}], "id": "7405200003", "name": "USPS COLLECTION BOX - PO LOBBY", "address": {"city": "OILTON", "state": "OK", "street": "101 E MAIN ST", "postcode": "74052"}}},
{"geometry": {"type": "Point", "coordinates": [-95.7090556788, 36.4472559357]}, "type": "Feature", "properties": {"collection_times": [{"days": "Mon-Fri", "time": "4:30pm"}, {"days": "Sat", "time": "9:30am"}, {"days": "Sun", "time": "Closed"}], "id": "7405300000", "name": "USPS COLLECTION BOX - BLUE BOX", "address": {"city": "OOLOGAH", "state": "OK", "street": "150 W COOWEESCOOWEE AVE", "postcode": "74053"}}},
{"geometry": {"type": "Point", "coordinates": [-95.7090556788, 36.4472559357]}, "type": "Feature", "properties": {"collection_times": [{"days": "Mon-Fri", "time": "4:30pm"}, {"days": "Sat", "time": "9:30am"}, {"days": "Sun", "time": "Closed"}], "id": "7405300001", "name": "USPS COLLECTION BOX - PO LOBBY", "address": {"city": "OOLOGAH", "state": "OK", "street": "150 W COOWEESCOOWEE AVE", "postcode": "74053"}}},
{"geometry": {"type": "Point", "coordinates": [-96.3819399125, 36.294314692]}, "type": "Feature", "properties": {"collection_times": [{"days": "Mon-Fri", "time": "11:15am"}, {"days": "Sat", "time": "10:00am"}, {"days": "Sun", "time": "Closed"}], "id": "7405400000", "name": "USPS COLLECTION BOX - PO LOBBY", "address": {"city": "OSAGE", "state": "OK", "street": "101 S BROADWAY", "postcode": "74054"}}},
{"geometry": {"type": "Point", "coordinates": [-96.3819399125, 36.294314692]}, "type": "Feature", "properties": {"collection_times": [{"days": "Mon-Fri", "time": "11:15am"}, {"days": "Sat", "time": "10:00am"}, {"days": "Sun", "time": "Closed"}], "id": "7405400001", "name": "USPS COLLECTION BOX - PO LOBBY", "address": {"city": "OSAGE", "state": "OK", "street": "101 S BROADWAY", "postcode": "74054"}}},
{"geometry": {"type": "Point", "coordinates": [-95.8513652262, 36.278809843]}, "type": "Feature", "properties": {"collection_times": [{"days": "Mon-Fri", "time": "5:00pm"}, {"days": "Sat", "time": "3:00pm"}, {"days": "Sun", "time": "Closed"}], "id": "7405500005", "name": "USPS COLLECTION BOX - BLUE BOX", "address": {"city": "OWASSO", "state": "OK", "street": "1233 N CEDAR ST", "postcode": "74055"}}},
{"geometry": {"type": "Point", "coordinates": [-95.8513652262, 36.278809843]}, "type": "Feature", "properties": {"collection_times": [{"days": "Mon-Fri", "time": "4:45pm"}, {"days": "Sat", "time": "3:00pm"}, {"days": "Sun", "time": "Closed"}], "id": "7405500006", "name": "USPS COLLECTION BOX - PO LOBBY", "address": {"city": "OWASSO", "state": "OK", "street": "1233 N CEDAR ST", "postcode": "74055"}}},
{"geometry": {"type": "Point", "coordinates": [-95.8513652262, 36.278809843]}, "type": "Feature", "properties": {"collection_times": [{"days": "Mon-Fri", "time": "4:45pm"}, {"days": "Sat", "time": "3:00pm"}, {"days": "Sun", "time": "Closed"}], "id": "7405500007", "name": "USPS COLLECTION BOX - PO LOBBY", "address": {"city": "OWASSO", "state": "OK", "street": "1233 N CEDAR ST", "postcode": "74055"}}},
{"geometry": {"type": "Point", "coordinates": [-95.8513652262, 36.278809843]}, "type": "Feature", "properties": {"collection_times": [{"days": "Mon-Fri", "time": "4:45pm"}, {"days": "Sat", "time": "3:00pm"}, {"days": "Sun", "time": "Closed"}], "id": "7405500008", "name": "USPS COLLECTION BOX - APC", "address": {"city": "OWASSO", "state": "OK", "street": "1233 N CEDAR ST", "postcode": "74055"}}},
{"geometry": {"type": "Point", "coordinates": [-95.8594102157, 36.2640379357]}, "type": "Feature", "properties": {"collection_times": [{"days": "Mon-Fri", "time": "4:15pm"}, {"days": "Sat", "time": "12:00pm"}, {"days": "Sun", "time": "Closed"}], "id": "7405500009", "name": "USPS COLLECTION BOX - BLUE BOX", "address": {"city": "OWASSO", "state": "OK", "street": "401 E 2ND AVE", "postcode": "74055"}}},
{"geometry": {"type": "Point", "coordinates": [-95.832305704, 36.2784983196]}, "type": "Feature", "properties": {"collection_times": [{"days": "Mon-Fri", "time": "4:15pm"}, {"days": "Sat", "time": "12:00pm"}, {"days": "Sun", "time": "Closed"}], "id": "7405500010", "name": "USPS COLLECTION BOX - BLUE BOX", "address": {"city": "OWASSO", "state": "OK", "street": "12720 E 86TH ST N", "postcode": "74055"}}},
{"geometry": {"type": "Point", "coordinates": [-95.834802708, 36.2987088703]}, "type": "Feature", "properties": {"collection_times": [{"days": "Mon-Fri", "time": "4:30pm"}, {"days": "Sat", "time": "12:15pm"}, {"days": "Sun", "time": "Closed"}], "id": "7405500011", "name": "USPS COLLECTION BOX - BLUE BOX", "address": {"city": "OWASSO", "state": "OK", "street": "12451 E 100TH ST N", "postcode": "74055"}}},
{"geometry": {"type": "Point", "coordinates": [-96.3401371371, 36.663497195]}, "type": "Feature", "properties": {"collection_times": [{"days": "Mon-Fri", "time": "4:00pm"}, {"days": "Sat-Sun", "time": "Closed"}], "id": "7405600002", "name": "USPS COLLECTION BOX - BLUE BOX", "address": {"city": "PAWHUSKA", "state": "OK", "street": "100 W MAIN ST", "postcode": "74056"}}},
{"geometry": {"type": "Point", "coordinates": [-96.3391292827, 36.6643739232]}, "type": "Feature", "properties": {"collection_times": [{"days": "Mon-Fri", "time": "4:30pm"}, {"days": "Sat", "time": "2:00pm"}, {"days": "Sun", "time": "Closed"}], "id": "7405600005", "name": "USPS COLLECTION BOX - BLUE BOX", "address": {"city": "PAWHUSKA", "state": "OK", "street": "137 E 6TH ST", "postcode": "74056"}}},
{"geometry": {"type": "Point", "coordinates": [-96.3409533468, 36.6635703409]}, "type": "Feature", "properties": {"collection_times": [{"days": "Mon-Fri", "time": "4:00pm"}, {"days": "Sat-Sun", "time": "Closed"}], "id": "7405600006", "name": "USPS COLLECTION BOX - BLUE BOX", "address": {"city": "PAWHUSKA", "state": "OK", "street": "600 GRANDVIEW AVE", "postcode": "74056"}}},
{"geometry": {"type": "Point", "coordinates": [-96.3391292827, 36.6643739232]}, "type": "Feature", "properties": {"collection_times": [{"days": "Mon-Fri", "time": "4:30pm"}, {"days": "Sat", "time": "2:00pm"}, {"days": "Sun", "time": "Closed"}], "id": "7405600007", "name": "USPS COLLECTION BOX - BLUE BOX", "address": {"city": "PAWHUSKA", "state": "OK", "street": "137 E 6TH ST", "postcode": "74056"}}},
{"geometry": {"type": "Point", "coordinates": [-96.3391292827, 36.6643739232]}, "type": "Feature", "properties": {"collection_times": [{"days": "Mon-Fri", "time": "4:30pm"}, {"days": "Sat", "time": "2:00pm"}, {"days": "Sun", "time": "Closed"}], "id": "7405600008", "name": "USPS COLLECTION BOX - PO LOBBY", "address": {"city": "PAWHUSKA", "state": "OK", "street": "137 E 6TH ST", "postcode": "74056"}}},
{"geometry": {"type": "Point", "coordinates": [-96.3391292827, 36.6643739232]}, "type": "Feature", "properties": {"collection_times": [{"days": "Mon-Fri", "time": "4:30pm"}, {"days": "Sat", "time": "2:00pm"}, {"days": "Sun", "time": "Closed"}], "id": "7405600009", "name": "USPS COLLECTION BOX - PO LOBBY", "address": {"city": "PAWHUSKA", "state": "OK", "street": "137 E 6TH ST", "postcode": "74056"}}},
{"geometry": {"type": "Point", "coordinates": [-96.8049213294, 36.3391194354]}, "type": "Feature", "properties": {"collection_times": [{"days": "Mon-Fri", "time": "4:15pm"}, {"days": "Sat", "time": "12:00pm"}, {"days": "Sun", "time": "Closed"}], "id": "7405800003", "name": "USPS COLLECTION BOX - BLUE BOX", "address": {"city": "PAWNEE", "state": "OK", "street": "658 ILLINOIS ST", "postcode": "74058"}}},
{"geometry": {"type": "Point", "coordinates": [-96.8049213294, 36.3391194354]}, "type": "Feature", "properties": {"collection_times": [{"days": "Mon-Fri", "time": "4:15pm"}, {"days": "Sat", "time": "12:00pm"}, {"days": "Sun", "time": "Closed"}], "id": "7405800005", "name": "USPS COLLECTION BOX - PO LOBBY", "address": {"city": "PAWNEE", "state": "OK", "street": "658 ILLINOIS ST", "postcode": "74058"}}},
{"geometry": {"type": "Point", "coordinates": [-96.8049213294, 36.3391194354]}, "type": "Feature", "properties": {"collection_times": [{"days": "Mon-Fri", "time": "4:15pm"}, {"days": "Sat", "time": "12:00pm"}, {"days": "Sun", "time": "Closed"}], "id": "7405800006", "name": "USPS COLLECTION BOX - PO LOBBY", "address": {"city": "PAWNEE", "state": "OK", "street": "658 ILLINOIS ST", "postcode": "74058"}}},
{"geometry": {"type": "Point", "coordinates": [-97.0339217852, 35.9729679851]}, "type": "Feature", "properties": {"collection_times": [{"days": "Mon-Fri", "time": "4:30pm"}, {"days": "Sat", "time": "12:00pm"}, {"days": "Sun", "time": "Closed"}], "id": "7405900000", "name": "USPS COLLECTION BOX - BLUE BOX", "address": {"city": "PERKINS", "state": "OK", "street": "114 W STUMBO AVE", "postcode": "74059"}}},
{"geometry": {"type": "Point", "coordinates": [-97.0339217852, 35.9729679851]}, "type": "Feature", "properties": {"collection_times": [{"days": "Mon-Fri", "time": "4:30pm"}, {"days": "Sat", "time": "12:15pm"}, {"days": "Sun", "time": "Closed"}], "id": "7405900001", "name": "USPS COLLECTION BOX - PO LOBBY", "address": {"city": "PERKINS", "state": "OK", "street": "114 W STUMBO AVE", "postcode": "74059"}}},
{"geometry": {"type": "Point", "coordinates": [-97.0339217852, 35.9729679851]}, "type": "Feature", "properties": {"collection_times": [{"days": "Mon-Fri", "time": "4:30pm"}, {"days": "Sat", "time": "12:15pm"}, {"days": "Sun", "time": "Closed"}], "id": "7405900002", "name": "USPS COLLECTION BOX - PO LOBBY", "address": {"city": "PERKINS", "state": "OK", "street": "114 W STUMBO AVE", "postcode": "74059"}}},
{"geometry": {"type": "Point", "coordinates": [-96.2687812249, 36.253014416]}, "type": "Feature", "properties": {"collection_times": [{"days": "Mon-Fri", "time": "1:30pm"}, {"days": "Sat", "time": "11:30am"}, {"days": "Sun", "time": "Closed"}], "id": "7406000001", "name": "USPS COLLECTION BOX - PO LOBBY", "address": {"city": "PRUE", "state": "OK", "street": "101 BROADWAY", "postcode": "74060"}}},
{"geometry": {"type": "Point", "coordinates": [-96.2687812249, 36.253014416]}, "type": "Feature", "properties": {"collection_times": [{"days": "Mon-Fri", "time": "1:30pm"}, {"days": "Sat", "time": "11:30am"}, {"days": "Sun", "time": "Closed"}], "id": "7406000002", "name": "USPS COLLECTION BOX - PO LOBBY", "address": {"city": "PRUE", "state": "OK", "street": "101 BROADWAY", "postcode": "74060"}}},
{"geometry": {"type": "Point", "coordinates": [-95.9314591758, 36.5323980064]}, "type": "Feature", "properties": {"collection_times": [{"days": "Mon-Fri", "time": "4:00pm"}, {"days": "Sat", "time": "10:30am"}, {"days": "Sun", "time": "Closed"}], "id": "7406100000", "name": "USPS COLLECTION BOX - BLUE BOX", "address": {"city": "RAMONA", "state": "OK", "street": "585 WYANDOTTE AVE", "postcode": "74061"}}},
{"geometry": {"type": "Point", "coordinates": [-95.9314591758, 36.5323980064]}, "type": "Feature", "properties": {"collection_times": [{"days": "Mon-Fri", "time": "3:15pm"}, {"days": "Sat", "time": "10:30am"}, {"days": "Sun", "time": "Closed"}], "id": "7406100001", "name": "USPS COLLECTION BOX - PO LOBBY", "address": {"city": "RAMONA", "state": "OK", "street": "585 WYANDOTTE AVE", "postcode": "74061"}}},
{"geometry": {"type": "Point", "coordinates": [-95.9314591758, 36.5323980064]}, "type": "Feature", "properties": {"collection_times": [{"days": "Mon-Fri", "time": "3:15pm"}, {"days": "Sat", "time": "10:30am"}, {"days": "Sun", "time": "Closed"}], "id": "7406100002", "name": "USPS COLLECTION BOX - PO LOBBY", "address": {"city": "RAMONA", "state": "OK", "street": "585 WYANDOTTE AVE", "postcode": "74061"}}},
{"geometry": {"type": "Point", "coordinates": [-96.907646099, 36.0189912134]}, "type": "Feature", "properties": {"collection_times": [{"days": "Mon-Sat", "time": "12:30pm"}, {"days": "Sun", "time": "Closed"}], "id": "7406200001", "name": "USPS COLLECTION BOX - PO LOBBY", "address": {"city": "RIPLEY", "state": "OK", "street": "107 E MAIN ST", "postcode": "74062"}}},
{"geometry": {"type": "Point", "coordinates": [-96.907646099, 36.0189912134]}, "type": "Feature", "properties": {"collection_times": [{"days": "Mon-Sat", "time": "12:30pm"}, {"days": "Sun", "time": "Closed"}], "id": "7406200002", "name": "USPS COLLECTION BOX - PO LOBBY", "address": {"city": "RIPLEY", "state": "OK", "street": "107 E MAIN ST", "postcode": "74062"}}},
{"geometry": {"type": "Point", "coordinates": [-96.1190677639, 36.1047370249]}, "type": "Feature", "properties": {"collection_times": [{"days": "Mon-Sat", "time": "9:30am"}, {"days": "Sun", "time": "Closed"}], "id": "7406300001", "name": "USPS COLLECTION BOX - BLUE BOX", "address": {"city": "SAND SPRINGS", "state": "OK", "street": "7 W 41ST ST", "postcode": "74063"}}},
{"geometry": {"type": "Point", "coordinates": [-96.117509527, 36.1071334166]}, "type": "Feature", "properties": {"collection_times": [{"days": "Mon-Sat", "time": "10:15am"}, {"days": "Sun", "time": "Closed"}], "id": "7406300003", "name": "USPS COLLECTION BOX - BLUE BOX", "address": {"city": "SAND SPRINGS", "state": "OK", "street": "3900 S HIGHWAY 97", "postcode": "74063"}}},
{"geometry": {"type": "Point", "coordinates": [-96.1353661512, 36.1047347667]}, "type": "Feature", "properties": {"collection_times": [{"days": "Mon-Sat", "time": "8:30am"}, {"days": "Sun", "time": "Closed"}], "id": "7406300005", "name": "USPS COLLECTION BOX - BLUE BOX", "address": {"city": "SAND SPRINGS", "state": "OK", "street": "700 W 41ST ST", "postcode": "74063"}}},
{"geometry": {"type": "Point", "coordinates": [-96.1012062259, 36.1359620089]}, "type": "Feature", "properties": {"collection_times": [{"days": "Mon-Sat", "time": "10:15am"}, {"days": "Sun", "time": "Closed"}], "id": "7406300009", "name": "USPS COLLECTION BOX - BLUE BOX", "address": {"city": "SAND SPRINGS", "state": "OK", "street": "105 S ADAMS RD", "postcode": "74063"}}},
{"geometry": {"type": "Point", "coordinates": [-96.1332699479, 36.1047347667]}, "type": "Feature", "properties": {"collection_times": [{"days": "Mon-Fri", "time": "2:00pm"}, {"days": "Sat", "time": "10:00am"}, {"days": "Sun", "time": "Closed"}], "id": "7406300011", "name": "USPS COLLECTION BOX - BLUE BOX", "address": {"city": "SAND SPRINGS", "state": "OK", "street": "606 W 41ST ST", "postcode": "74063"}}},
{"geometry": {"type": "Point", "coordinates": [-96.1123919051, 36.1384609268]}, "type": "Feature", "properties": {"collection_times": [{"days": "Mon-Fri", "time": "5:00pm"}, {"days": "Sat", "time": "3:30pm"}, {"days": "Sun", "time": "Closed"}], "id": "7406300015", "name": "USPS COLLECTION BOX - BLUE BOX", "address": {"city": "SAND SPRINGS", "state": "OK", "street": "114 W 2ND ST", "postcode": "74063"}}},
{"geometry": {"type": "Point", "coordinates": [-96.1123919051, 36.1384609268]}, "type": "Feature", "properties": {"collection_times": [{"days": "Mon-Fri", "time": "5:00pm"}, {"days": "Sat", "time": "3:30pm"}, {"days": "Sun", "time": "Closed"}], "id": "7406300016", "name": "USPS COLLECTION BOX - BLUE BOX", "address": {"city": "SAND SPRINGS", "state": "OK", "street": "114 W 2ND ST", "postcode": "74063"}}},
{"geometry": {"type": "Point", "coordinates": [-96.1123919051, 36.1384609268]}, "type": "Feature", "properties": {"collection_times": [{"days": "Mon-Fri", "time": "5:00pm"}, {"days": "Sat", "time": "3:30pm"}, {"days": "Sun", "time": "Closed"}], "id": "7406300024", "name": "USPS COLLECTION BOX - PO LOBBY", "address": {"city": "SAND SPRINGS", "state": "OK", "street": "114 W 2ND ST", "postcode": "74063"}}},
{"geometry": {"type": "Point", "coordinates": [-96.1123919051, 36.1384609268]}, "type": "Feature", "properties": {"collection_times": [{"days": "Mon-Fri", "time": "5:00pm"}, {"days": "Sat", "time": "3:30pm"}, {"days": "Sun", "time": "Closed"}], "id": "7406300025", "name": "USPS COLLECTION BOX - PO LOBBY", "address": {"city": "SAND SPRINGS", "state": "OK", "street": "114 W 2ND ST", "postcode": "74063"}}},
{"geometry": {"type": "Point", "coordinates": [-96.0988221828, 35.989240117]}, "type": "Feature", "properties": {"collection_times": [{"days": "Mon-Fri", "time": "2:30pm"}, {"days": "Sat", "time": "2:00pm"}, {"days": "Sun", "time": "Closed"}], "id": "7406600005", "name": "USPS COLLECTION BOX - BLUE BOX", "address": {"city": "SAPULPA", "state": "OK", "street": "735 S MISSION ST", "postcode": "74066"}}},
{"geometry": {"type": "Point", "coordinates": [-96.0987885448, 36.0018257505]}, "type": "Feature", "properties": {"collection_times": [{"days": "Mon-Fri", "time": "2:30pm"}, {"days": "Sat", "time": "2:00pm"}, {"days": "Sun", "time": "Closed"}], "id": "7406600006", "name": "USPS COLLECTION BOX - BLUE BOX", "address": {"city": "SAPULPA", "state": "OK", "street": "309 N MISSION ST", "postcode": "74066"}}},
{"geometry": {"type": "Point", "coordinates": [-96.1088674524, 35.999782569]}, "type": "Feature", "properties": {"collection_times": [{"days": "Mon-Fri", "time": "2:45pm"}, {"days": "Sat", "time": "2:00pm"}, {"days": "Sun", "time": "Closed"}], "id": "7406600008", "name": "USPS COLLECTION BOX - BLUE BOX", "address": {"city": "SAPULPA", "state": "OK", "street": "400 E HOBSON AVE", "postcode": "74066"}}},
{"geometry": {"type": "Point", "coordinates": [-96.1101040955, 35.9976893733]}, "type": "Feature", "properties": {"collection_times": [{"days": "Mon-Fri", "time": "2:45pm"}, {"days": "Sat", "time": "2:00pm"}, {"days": "Sun", "time": "Closed"}], "id": "7406600009", "name": "USPS COLLECTION BOX - BLUE BOX", "address": {"city": "SAPULPA", "state": "OK", "street": "301 E LEE AVE", "postcode": "74066"}}},
{"geometry": {"type": "Point", "coordinates": [-96.11150733, 35.9976403248]}, "type": "Feature", "properties": {"collection_times": [{"days": "Mon-Fri", "time": "2:45pm"}, {"days": "Sat", "time": "2:00pm"}, {"days": "Sun", "time": "Closed"}], "id": "7406600010", "name": "USPS COLLECTION BOX - BLUE BOX", "address": {"city": "SAPULPA", "state": "OK", "street": "201 E LEE AVE", "postcode": "74066"}}},
{"geometry": {"type": "Point", "coordinates": [-96.1140184737, 35.9939423789]}, "type": "Feature", "properties": {"collection_times": [{"days": "Mon-Fri", "time": "5:00pm"}, {"days": "Sat", "time": "2:15pm"}, {"days": "Sun", "time": "Closed"}], "id": "7406600014", "name": "USPS COLLECTION BOX - PO LOBBY", "address": {"city": "SAPULPA", "state": "OK", "street": "410 S MAIN ST", "postcode": "74066"}}},
{"geometry": {"type": "Point", "coordinates": [-96.1140184737, 35.9939423789]}, "type": "Feature", "properties": {"collection_times": [{"days": "Mon-Fri", "time": "5:00pm"}, {"days": "Sat", "time": "2:15pm"}, {"days": "Sun", "time": "Closed"}], "id": "7406600015", "name": "USPS COLLECTION BOX - PO LOBBY", "address": {"city": "SAPULPA", "state": "OK", "street": "410 S MAIN ST", "postcode": "74066"}}},
{"geometry": {"type": "Point", "coordinates": [-96.1140184737, 35.9939423789]}, "type": "Feature", "properties": {"collection_times": [{"days": "Mon-Fri", "time": "5:00pm"}, {"days": "Sat", "time": "2:15pm"}, {"days": "Sun", "time": "Closed"}], "id": "7406600017", "name": "USPS COLLECTION BOX - BLUE BOX", "address": {"city": "SAPULPA", "state": "OK", "street": "410 S MAIN ST", "postcode": "74066"}}},
{"geometry": {"type": "Point", "coordinates": [-96.1140184737, 35.9939423789]}, "type": "Feature", "properties": {"collection_times": [{"days": "Mon-Fri", "time": "5:00pm"}, {"days": "Sat", "time": "2:15pm"}, {"days": "Sun", "time": "Closed"}], "id": "7406600018", "name": "USPS COLLECTION BOX - BLUE BOX", "address": {"city": "SAPULPA", "state": "OK", "street": "410 S MAIN ST", "postcode": "74066"}}},
{"geometry": {"type": "Point", "coordinates": [-96.1105405743, 35.9987097036]}, "type": "Feature", "properties": {"collection_times": [{"days": "Mon-Fri", "time": "2:45pm"}, {"days": "Sat", "time": "2:15pm"}, {"days": "Sun", "time": "Closed"}], "id": "7406600020", "name": "USPS COLLECTION BOX - BLUE BOX", "address": {"city": "SAPULPA", "state": "OK", "street": "222 E DEWEY AVE", "postcode": "74066"}}},
{"geometry": {"type": "Point", "coordinates": [-96.5838028188, 35.910236176]}, "type": "Feature", "properties": {"collection_times": [{"days": "Mon-Fri", "time": "11:00am"}, {"days": "Sat", "time": "9:45am"}, {"days": "Sun", "time": "Closed"}], "id": "7406800001", "name": "USPS COLLECTION BOX - PO LOBBY", "address": {"city": "SHAMROCK", "state": "OK", "street": "108 E TIPPERARY RD", "postcode": "74068"}}},
{"geometry": {"type": "Point", "coordinates": [-95.9987229316, 36.3695989723]}, "type": "Feature", "properties": {"collection_times": [{"days": "Mon-Fri", "time": "5:00pm"}, {"days": "Sat", "time": "2:30pm"}, {"days": "Sun", "time": "Closed"}], "id": "7407000001", "name": "USPS COLLECTION BOX - BLUE BOX", "address": {"city": "SKIATOOK", "state": "OK", "street": "303 E 2ND ST", "postcode": "74070"}}},
{"geometry": {"type": "Point", "coordinates": [-95.9987229316, 36.3695989723]}, "type": "Feature", "properties": {"collection_times": [{"days": "Mon-Fri", "time": "4:30pm"}, {"days": "Sat", "time": "2:30pm"}, {"days": "Sun", "time": "Closed"}], "id": "7407000003", "name": "USPS COLLECTION BOX - PO LOBBY", "address": {"city": "SKIATOOK", "state": "OK", "street": "303 E 2ND ST", "postcode": "74070"}}},
{"geometry": {"type": "Point", "coordinates": [-96.2660493206, 35.7796978358]}, "type": "Feature", "properties": {"collection_times": [{"days": "Mon-Sat", "time": "12:00pm"}, {"days": "Sun", "time": "Closed"}], "id": "7407100001", "name": "USPS COLLECTION BOX - PO LOBBY", "address": {"city": "SLICK", "state": "OK", "street": "104 N COLUMBIA", "postcode": "74071"}}},
{"geometry": {"type": "Point", "coordinates": [-96.2660493206, 35.7796978358]}, "type": "Feature", "properties": {"collection_times": [{"days": "Mon-Sat", "time": "12:00pm"}, {"days": "Sun", "time": "Closed"}], "id": "7407100002", "name": "USPS COLLECTION BOX - PO LOBBY", "address": {"city": "SLICK", "state": "OK", "street": "104 N COLUMBIA", "postcode": "74071"}}},
{"geometry": {"type": "Point", "coordinates": [-95.6204091726, 36.9946614225]}, "type": "Feature", "properties": {"collection_times": [{"days": "Mon-Fri", "time": "4:00pm"}, {"days": "Sat", "time": "11:00am"}, {"days": "Sun", "time": "Closed"}], "id": "7407200001", "name": "USPS COLLECTION BOX - PO LOBBY", "address": {"city": "S COFFEYVILLE", "state": "OK", "street": "501 WILLOW ST", "postcode": "74072"}}},
{"geometry": {"type": "Point", "coordinates": [-95.6204091726, 36.9946614225]}, "type": "Feature", "properties": {"collection_times": [{"days": "Mon-Fri", "time": "4:00pm"}, {"days": "Sat", "time": "11:00am"}, {"days": "Sun", "time": "Closed"}], "id": "7407200002", "name": "USPS COLLECTION BOX - PO LOBBY", "address": {"city": "S COFFEYVILLE", "state": "OK", "street": "501 WILLOW ST", "postcode": "74072"}}},
{"geometry": {"type": "Point", "coordinates": [-95.9916425517, 36.2985708738]}, "type": "Feature", "properties": {"collection_times": [{"days": "Mon-Fri", "time": "4:30pm"}, {"days": "Sat", "time": "11:00am"}, {"days": "Sun", "time": "Closed"}], "id": "7407300000", "name": "USPS COLLECTION BOX - BLUE BOX", "address": {"city": "SPERRY", "state": "OK", "street": "117 N CINCINNATI AVE", "postcode": "74073"}}},
{"geometry": {"type": "Point", "coordinates": [-95.9916425517, 36.2985708738]}, "type": "Feature", "properties": {"collection_times": [{"days": "Mon-Fri", "time": "4:30pm"}, {"days": "Sat", "time": "11:00am"}, {"days": "Sun", "time": "Closed"}], "id": "7407300001", "name": "USPS COLLECTION BOX - PO LOBBY", "address": {"city": "SPERRY", "state": "OK", "street": "117 N CINCINNATI AVE", "postcode": "74073"}}},
{"geometry": {"type": "Point", "coordinates": [-95.9916425517, 36.2985708738]}, "type": "Feature", "properties": {"collection_times": [{"days": "Mon-Fri", "time": "4:30pm"}, {"days": "Sat", "time": "11:00am"}, {"days": "Sun", "time": "Closed"}], "id": "7407300002", "name": "USPS COLLECTION BOX - PO LOBBY", "address": {"city": "SPERRY", "state": "OK", "street": "117 N CINCINNATI AVE", "postcode": "74073"}}},
{"geometry": {"type": "Point", "coordinates": [-97.0585280521, 36.1155532166]}, "type": "Feature", "properties": {"collection_times": [{"days": "Mon-Fri", "time": "3:00pm"}, {"days": "Sat-Sun", "time": "Closed"}], "id": "7407400000", "name": "USPS COLLECTION BOX - BLUE BOX", "address": {"city": "STILLWATER", "state": "OK", "street": "608 S MAIN ST", "postcode": "74074"}}},
{"geometry": {"type": "Point", "coordinates": [-97.051493363, 36.1217128435]}, "type": "Feature", "properties": {"collection_times": [{"days": "Mon-Sat", "time": "3:30pm"}, {"days": "Sun", "time": "Closed"}], "id": "7407400002", "name": "USPS COLLECTION BOX - BLUE BOX", "address": {"city": "STILLWATER", "state": "OK", "street": "211 N PERKINS RD", "postcode": "74074"}}},
{"geometry": {"type": "Point", "coordinates": [-97.072125418, 36.1268231792]}, "type": "Feature", "properties": {"collection_times": [{"days": "Mon-Sat", "time": "3:15pm"}, {"days": "Sun", "time": "Closed"}], "id": "7407400003", "name": "USPS COLLECTION BOX - BLUE BOX", "address": {"city": "STILLWATER", "state": "OK", "street": "1118 W HALL OF FAME AVE", "postcode": "74074"}}},
{"geometry": {"type": "Point", "coordinates": [-97.0513622195, 36.1169882329]}, "type": "Feature", "properties": {"collection_times": [{"days": "Mon-Sat", "time": "3:30pm"}, {"days": "Sun", "time": "Closed"}], "id": "7407400006", "name": "USPS COLLECTION BOX - BLUE BOX", "address": {"city": "STILLWATER", "state": "OK", "street": "521 N PERKINS RD", "postcode": "74074"}}},
{"geometry": {"type": "Point", "coordinates": [-97.0657288921, 36.1378703797]}, "type": "Feature", "properties": {"collection_times": [{"days": "Mon-Sat", "time": "3:30pm"}, {"days": "Sun", "time": "Closed"}], "id": "7407400007", "name": "USPS COLLECTION BOX - BLUE BOX", "address": {"city": "STILLWATER", "state": "OK", "street": "1600 N BOOMER RD", "postcode": "74074"}}},
{"geometry": {"type": "Point", "coordinates": [-97.0753042005, 36.1158326321]}, "type": "Feature", "properties": {"collection_times": [{"days": "Mon-Fri", "time": "3:15pm"}, {"days": "Sat", "time": "3:00pm"}, {"days": "Sun", "time": "Closed"}], "id": "7407400012", "name": "USPS COLLECTION BOX - BLUE BOX", "address": {"city": "STILLWATER", "state": "OK", "street": "1323 W 6TH AVE", "postcode": "74074"}}},
{"geometry": {"type": "Point", "coordinates": [-97.0598702884, 36.116941837]}, "type": "Feature", "properties": {"collection_times": [{"days": "Mon-Sat", "time": "3:00pm"}, {"days": "Sun", "time": "Closed"}], "id": "7407400015", "name": "USPS COLLECTION BOX - BLUE BOX", "address": {"city": "STILLWATER", "state": "OK", "street": "606 S HUSBAND ST", "postcode": "74074"}}},
{"geometry": {"type": "Point", "coordinates": [-97.0513797248, 36.1230318061]}, "type": "Feature", "properties": {"collection_times": [{"days": "Mon-Sat", "time": "3:45pm"}, {"days": "Sun", "time": "Closed"}], "id": "7407400017", "name": "USPS COLLECTION BOX - BLUE BOX", "address": {"city": "STILLWATER", "state": "OK", "street": "120 N PERKINS RD", "postcode": "74074"}}},
{"geometry": {"type": "Point", "coordinates": [-97.0573027494, 36.1133713264]}, "type": "Feature", "properties": {"collection_times": [{"days": "Mon-Sat", "time": "5:00pm"}, {"days": "Sun", "time": "Closed"}], "id": "7407400018", "name": "USPS COLLECTION BOX - BLUE BOX", "address": {"city": "STILLWATER", "state": "OK", "street": "809 S LEWIS ST", "postcode": "74074"}}},
{"geometry": {"type": "Point", "coordinates": [-97.0753042005, 36.1158326321]}, "type": "Feature", "properties": {"collection_times": [{"days": "Mon-Fri", "time": "3:15pm"}, {"days": "Sat", "time": "3:00pm"}, {"days": "Sun", "time": "Closed"}], "id": "7407400019", "name": "USPS COLLECTION BOX - BLUE BOX", "address": {"city": "STILLWATER", "state": "OK", "street": "1323 W 6TH AVE", "postcode": "74074"}}},
{"geometry": {"type": "Point", "coordinates": [-97.0598702884, 36.116941837]}, "type": "Feature", "properties": {"collection_times": [{"days": "Mon-Sat", "time": "3:00pm"}, {"days": "Sun", "time": "Closed"}], "id": "7407400020", "name": "USPS COLLECTION BOX - BLUE BOX", "address": {"city": "STILLWATER", "state": "OK", "street": "606 S HUSBAND ST", "postcode": "74074"}}},
{"geometry": {"type": "Point", "coordinates": [-97.0872336187, 36.1148442551]}, "type": "Feature", "properties": {"collection_times": [{"days": "Mon-Sat", "time": "3:15pm"}, {"days": "Sun", "time": "Closed"}], "id": "7407400021", "name": "USPS COLLECTION BOX - BLUE BOX", "address": {"city": "STILLWATER", "state": "OK", "street": "700 S WESTERN RD", "postcode": "74074"}}},
{"geometry": {"type": "Point", "coordinates": [-97.0573027494, 36.1133713264]}, "type": "Feature", "properties": {"collection_times": [{"days": "Mon-Sat", "time": "5:00pm"}, {"days": "Sun", "time": "Closed"}], "id": "7407400023", "name": "USPS COLLECTION BOX - BLUE BOX", "address": {"city": "STILLWATER", "state": "OK", "street": "809 S LEWIS ST", "postcode": "74074"}}},
{"geometry": {"type": "Point", "coordinates": [-97.0573027494, 36.1133713264]}, "type": "Feature", "properties": {"collection_times": [{"days": "Mon-Sat", "time": "5:00pm"}, {"days": "Sun", "time": "Closed"}], "id": "7407400024", "name": "USPS COLLECTION BOX - BLUE BOX", "address": {"city": "STILLWATER", "state": "OK", "street": "809 S LEWIS ST", "postcode": "74074"}}},
{"geometry": {"type": "Point", "coordinates": [-97.0573027494, 36.1133713264]}, "type": "Feature", "properties": {"collection_times": [{"days": "Mon-Sat", "time": "5:00pm"}, {"days": "Sun", "time": "Closed"}], "id": "7407400025", "name": "USPS COLLECTION BOX - BLUE BOX", "address": {"city": "STILLWATER", "state": "OK", "street": "809 S LEWIS ST", "postcode": "74074"}}},
{"geometry": {"type": "Point", "coordinates": [-97.0573027494, 36.1133713264]}, "type": "Feature", "properties": {"collection_times": [{"days": "Mon-Sat", "time": "5:00pm"}, {"days": "Sun", "time": "Closed"}], "id": "7407400026", "name": "USPS COLLECTION BOX - PO LOBBY", "address": {"city": "STILLWATER", "state": "OK", "street": "809 S LEWIS ST", "postcode": "74074"}}},
{"geometry": {"type": "Point", "coordinates": [-97.0573027494, 36.1133713264]}, "type": "Feature", "properties": {"collection_times": [{"days": "Mon-Sat", "time": "5:00pm"}, {"days": "Sun", "time": "Closed"}], "id": "7407400028", "name": "USPS COLLECTION BOX - PO LOBBY", "address": {"city": "STILLWATER", "state": "OK", "street": "809 S LEWIS ST", "postcode": "74074"}}},
{"geometry": {"type": "Point", "coordinates": [-97.0573027494, 36.1133713264]}, "type": "Feature", "properties": {"collection_times": [{"days": "Mon-Sat", "time": "5:00pm"}, {"days": "Sun", "time": "Closed"}], "id": "7407400029", "name": "USPS COLLECTION BOX - PO LOBBY", "address": {"city": "STILLWATER", "state": "OK", "street": "809 S LEWIS ST", "postcode": "74074"}}},
{"geometry": {"type": "Point", "coordinates": [-97.0765305892, 36.1202066449]}, "type": "Feature", "properties": {"collection_times": [{"days": "Mon-Fri", "time": "3:30pm"}, {"days": "Sat", "time": "3:15pm"}, {"days": "Sun", "time": "Closed"}], "id": "7407400030", "name": "USPS COLLECTION BOX - BLUE BOX", "address": {"city": "STILLWATER", "state": "OK", "street": "1 UNIVERSITY CIR", "postcode": "74074"}}},
{"geometry": {"type": "Point", "coordinates": [-97.0573027494, 36.1133713264]}, "type": "Feature", "properties": {"collection_times": [{"days": "Mon-Sat", "time": "5:00pm"}, {"days": "Sun", "time": "Closed"}], "id": "7407400031", "name": "USPS COLLECTION BOX - PO LOBBY", "address": {"city": "STILLWATER", "state": "OK", "street": "809 S LEWIS ST", "postcode": "74074"}}},
{"geometry": {"type": "Point", "coordinates": [-97.06155876, 36.1156239221]}, "type": "Feature", "properties": {"collection_times": [{"days": "Mon-Sat", "time": "3:00pm"}, {"days": "Sun", "time": "Closed"}], "id": "7407400032", "name": "USPS COLLECTION BOX - BLUE BOX", "address": {"city": "STILLWATER", "state": "OK", "street": "315 W 6TH AVE", "postcode": "74074"}}},
{"geometry": {"type": "Point", "coordinates": [-97.06155876, 36.1156239221]}, "type": "Feature", "properties": {"collection_times": [{"days": "Mon-Sat", "time": "3:00pm"}, {"days": "Sun", "time": "Closed"}], "id": "7407400033", "name": "USPS COLLECTION BOX - BLUE BOX", "address": {"city": "STILLWATER", "state": "OK", "street": "315 W 6TH AVE", "postcode": "74074"}}},
{"geometry": {"type": "Point", "coordinates": [-97.0872336187, 36.1148442551]}, "type": "Feature", "properties": {"collection_times": [{"days": "Mon-Sat", "time": "3:15pm"}, {"days": "Sun", "time": "Closed"}], "id": "7407400034", "name": "USPS COLLECTION BOX - BLUE BOX", "address": {"city": "STILLWATER", "state": "OK", "street": "700 S WESTERN RD", "postcode": "74074"}}},
{"geometry": {"type": "Point", "coordinates": [-97.0573027494, 36.1133713264]}, "type": "Feature", "properties": {"collection_times": [{"days": "Mon-Sat", "time": "5:00pm"}, {"days": "Sun", "time": "Closed"}], "id": "7407400035", "name": "USPS COLLECTION BOX - APC", "address": {"city": "STILLWATER", "state": "OK", "street": "809 S LEWIS ST", "postcode": "74074"}}},
{"geometry": {"type": "Point", "coordinates": [-96.6602610799, 35.7490235818]}, "type": "Feature", "properties": {"collection_times": [{"days": "Mon-Fri", "time": "4:15pm"}, {"days": "Sat", "time": "11:00am"}, {"days": "Sun", "time": "Closed"}], "id": "7407900002", "name": "USPS COLLECTION BOX - BLUE BOX", "address": {"city": "STROUD", "state": "OK", "street": "601 W MAIN ST", "postcode": "74079"}}},
{"geometry": {"type": "Point", "coordinates": [-96.6602610799, 35.7490235818]}, "type": "Feature", "properties": {"collection_times": [{"days": "Mon-Fri", "time": "4:15pm"}, {"days": "Sat", "time": "11:00am"}, {"days": "Sun", "time": "Closed"}], "id": "7407900003", "name": "USPS COLLECTION BOX - BLUE BOX", "address": {"city": "STROUD", "state": "OK", "street": "601 W MAIN ST", "postcode": "74079"}}},
{"geometry": {"type": "Point", "coordinates": [-96.6602610799, 35.7490235818]}, "type": "Feature", "properties": {"collection_times": [{"days": "Mon-Fri", "time": "4:15pm"}, {"days": "Sat", "time": "11:00am"}, {"days": "Sun", "time": "Closed"}], "id": "7407900005", "name": "USPS COLLECTION BOX - BLUE BOX", "address": {"city": "STROUD", "state": "OK", "street": "601 W MAIN ST", "postcode": "74079"}}},
{"geometry": {"type": "Point", "coordinates": [-96.6602610799, 35.7490235818]}, "type": "Feature", "properties": {"collection_times": [{"days": "Mon-Fri", "time": "4:15pm"}, {"days": "Sat", "time": "11:00am"}, {"days": "Sun", "time": "Closed"}], "id": "7407900006", "name": "USPS COLLECTION BOX - PO LOBBY", "address": {"city": "STROUD", "state": "OK", "street": "601 W MAIN ST", "postcode": "74079"}}},
{"geometry": {"type": "Point", "coordinates": [-96.6602610799, 35.7490235818]}, "type": "Feature", "properties": {"collection_times": [{"days": "Mon-Fri", "time": "4:15pm"}, {"days": "Sat", "time": "11:00am"}, {"days": "Sun", "time": "Closed"}], "id": "7407900007", "name": "USPS COLLECTION BOX - PO LOBBY", "address": {"city": "STROUD", "state": "OK", "street": "601 W MAIN ST", "postcode": "74079"}}},
{"geometry": {"type": "Point", "coordinates": [-95.7023360778, 36.5311891154]}, "type": "Feature", "properties": {"collection_times": [{"days": "Mon-Fri", "time": "3:30pm"}, {"days": "Sat", "time": "10:00am"}, {"days": "Sun", "time": "Closed"}], "id": "7408000000", "name": "USPS COLLECTION BOX - BLUE BOX", "address": {"city": "TALALA", "state": "OK", "street": "112 N PINE ST", "postcode": "74080"}}},
{"geometry": {"type": "Point", "coordinates": [-95.7023360778, 36.5311891154]}, "type": "Feature", "properties": {"collection_times": [{"days": "Mon-Fri", "time": "3:30pm"}, {"days": "Sat", "time": "10:00am"}, {"days": "Sun", "time": "Closed"}], "id": "7408000001", "name": "USPS COLLECTION BOX - PO LOBBY", "address": {"city": "TALALA", "state": "OK", "street": "112 N PINE ST", "postcode": "74080"}}},
{"geometry": {"type": "Point", "coordinates": [-95.7023360778, 36.5311891154]}, "type": "Feature", "properties": {"collection_times": [{"days": "Mon-Fri", "time": "3:30pm"}, {"days": "Sat", "time": "10:00am"}, {"days": "Sun", "time": "Closed"}], "id": "7408000002", "name": "USPS COLLECTION BOX - PO LOBBY", "address": {"city": "TALALA", "state": "OK", "street": "112 N PINE ST", "postcode": "74080"}}},
{"geometry": {"type": "Point", "coordinates": [-96.4919241139, 36.1881001958]}, "type": "Feature", "properties": {"collection_times": [{"days": "Mon-Fri", "time": "4:00pm"}, {"days": "Sat", "time": "9:30am"}, {"days": "Sun", "time": "Closed"}], "id": "7408100000", "name": "USPS COLLECTION BOX - BLUE BOX", "address": {"city": "TERLTON", "state": "OK", "street": "104 E MAIN ST", "postcode": "74081"}}},
{"geometry": {"type": "Point", "coordinates": [-96.4919241139, 36.1881001958]}, "type": "Feature", "properties": {"collection_times": [{"days": "Mon-Fri", "time": "4:00pm"}, {"days": "Sat", "time": "9:30am"}, {"days": "Sun", "time": "Closed"}], "id": "7408100002", "name": "USPS COLLECTION BOX - PO LOBBY", "address": {"city": "TERLTON", "state": "OK", "street": "104 E MAIN ST", "postcode": "74081"}}},
{"geometry": {"type": "Point", "coordinates": [-95.7322690622, 36.9271539314]}, "type": "Feature", "properties": {"collection_times": [{"days": "Mon-Fri", "time": "11:30am"}, {"days": "Sat", "time": "9:30am"}, {"days": "Sun", "time": "Closed"}], "id": "7408300001", "name": "USPS COLLECTION BOX - PO LOBBY", "address": {"city": "WANN", "state": "OK", "street": "110 W MAIN ST", "postcode": "74083"}}},
{"geometry": {"type": "Point", "coordinates": [-95.7322690622, 36.9271539314]}, "type": "Feature", "properties": {"collection_times": [{"days": "Mon-Fri", "time": "11:30am"}, {"days": "Sat", "time": "9:30am"}, {"days": "Sun", "time": "Closed"}], "id": "7408300002", "name": "USPS COLLECTION BOX - PO LOBBY", "address": {"city": "WANN", "state": "OK", "street": "110 W MAIN ST", "postcode": "74083"}}},
{"geometry": {"type": "Point", "coordinates": [-96.4050262481, 36.5383728791]}, "type": "Feature", "properties": {"collection_times": [{"days": "Mon-Fri", "time": "12:00pm"}, {"days": "Sat", "time": "9:30am"}, {"days": "Sun", "time": "Closed"}], "id": "7408400001", "name": "USPS COLLECTION BOX - PO LOBBY", "address": {"city": "WYNONA", "state": "OK", "street": "202 W 4TH ST", "postcode": "74084"}}},
{"geometry": {"type": "Point", "coordinates": [-96.4050262481, 36.5383728791]}, "type": "Feature", "properties": {"collection_times": [{"days": "Mon-Fri", "time": "12:00pm"}, {"days": "Sat", "time": "9:30am"}, {"days": "Sun", "time": "Closed"}], "id": "7408400002", "name": "USPS COLLECTION BOX - PO LOBBY", "address": {"city": "WYNONA", "state": "OK", "street": "202 W 4TH ST", "postcode": "74084"}}},
{"geometry": {"type": "Point", "coordinates": [-96.7009494615, 36.1140690959]}, "type": "Feature", "properties": {"collection_times": [{"days": "Mon-Fri", "time": "4:15pm"}, {"days": "Sat", "time": "10:15am"}, {"days": "Sun", "time": "Closed"}], "id": "7408500001", "name": "USPS COLLECTION BOX - BLUE BOX", "address": {"city": "YALE", "state": "OK", "street": "209 W BROADWAY AVE", "postcode": "74085"}}},
{"geometry": {"type": "Point", "coordinates": [-96.7009494615, 36.1140690959]}, "type": "Feature", "properties": {"collection_times": [{"days": "Mon-Fri", "time": "4:15pm"}, {"days": "Sat", "time": "10:15am"}, {"days": "Sun", "time": "Closed"}], "id": "7408500003", "name": "USPS COLLECTION BOX - PO LOBBY", "address": {"city": "YALE", "state": "OK", "street": "209 W BROADWAY AVE", "postcode": "74085"}}},
{"geometry": {"type": "Point", "coordinates": [-96.7009494615, 36.1140690959]}, "type": "Feature", "properties": {"collection_times": [{"days": "Mon-Fri", "time": "4:15pm"}, {"days": "Sat", "time": "10:15am"}, {"days": "Sun", "time": "Closed"}], "id": "7408500004", "name": "USPS COLLECTION BOX - PO LOBBY", "address": {"city": "YALE", "state": "OK", "street": "209 W BROADWAY AVE", "postcode": "74085"}}}
]}
