{"type": "FeatureCollection", "features": [
{"geometry": {"type": "Point", "coordinates": [-95.9916717019, 36.1517832745]}, "type": "Feature", "properties": {"collection_times": [{"days": "Mon-Fri", "time": "4:15pm"}, {"days": "Sat-Sun", "time": "Closed"}], "id": "7410300001", "name": "USPS COLLECTION BOX - BLUE BOX", "address": {"city": "TULSA", "state": "OK", "street": "420 S BOULDER AVE", "postcode": "74103"}}},
{"geometry": {"type": "Point", "coordinates": [-95.9899553091, 36.1510177784]}, "type": "Feature", "properties": {"collection_times": [{"days": "Mon-Fri", "time": "4:15pm"}, {"days": "Sat-Sun", "time": "Closed"}], "id": "7410300020", "name": "USPS COLLECTION BOX - BLUE BOX", "address": {"city": "TULSA", "state": "OK", "street": "508 S MAIN ST", "postcode": "74103"}}},
{"geometry": {"type": "Point", "coordinates": [-95.9945971136, 36.1511172773]}, "type": "Feature", "properties": {"collection_times": [{"days": "Mon-Fri", "time": "5:45pm"}, {"days": "Sat", "time": "5:00pm"}, {"days": "Sun", "time": "Closed"}], "id": "7410300031", "name": "USPS COLLECTION BOX - BLUE BOX", "address": {"city": "TULSA", "state": "OK", "street": "333 W 4TH ST", "postcode": "74103"}}},
{"geometry": {"type": "Point", "coordinates": [-95.9945971136, 36.1511172773]}, "type": "Feature", "properties": {"collection_times": [{"days": "Mon-Fri", "time": "5:45pm"}, {"days": "Sat", "time": "5:00pm"}, {"days": "Sun", "time": "Closed"}], "id": "7410300032", "name": "USPS COLLECTION BOX - BLUE BOX", "address": {"city": "TULSA", "state": "OK", "street": "333 W 4TH ST", "postcode": "74103"}}},
{"geometry": {"type": "Point", "coordinates": [-95.9915485754, 36.1531911367]}, "type": "Feature", "properties": {"collection_times": [{"days": "Mon-Fri", "time": "4:00pm"}, {"days": "Sat-Sun", "time": "Closed"}], "id": "7410300065", "name": "USPS COLLECTION BOX - EXPRESS", "address": {"city": "TULSA", "state": "OK", "street": "100 W 5TH ST", "postcode": "74103"}}},
{"geometry": {"type": "Point", "coordinates": [-95.9945971136, 36.1511172773]}, "type": "Feature", "properties": {"collection_times": [{"days": "Mon-Fri", "time": "5:45pm"}, {"days": "Sat", "time": "5:00pm"}, {"days": "Sun", "time": "Closed"}], "id": "7410300099", "name": "USPS COLLECTION BOX - PO LOBBY", "address": {"city": "TULSA", "state": "OK", "street": "333 W 4TH ST", "postcode": "74103"}}},
{"geometry": {"type": "Point", "coordinates": [-95.9945971136, 36.1511172773]}, "type": "Feature", "properties": {"collection_times": [{"days": "Mon-Fri", "time": "5:45pm"}, {"days": "Sat", "time": "5:00pm"}, {"days": "Sun", "time": "Closed"}], "id": "7410300100", "name": "USPS COLLECTION BOX - PO LOBBY", "address": {"city": "TULSA", "state": "OK", "street": "333 W 4TH ST", "postcode": "74103"}}},
{"geometry": {"type": "Point", "coordinates": [-95.9947163236, 36.1557071685]}, "type": "Feature", "properties": {"collection_times": [{"days": "Mon-Fri", "time": "5:45pm"}, {"days": "Sat", "time": "5:00pm"}, {"days": "Sun", "time": "Closed"}], "id": "7410300102", "name": "USPS COLLECTION BOX - PO LOBBY", "address": {"city": "TULSA", "state": "OK", "street": "333 W 4TH ST", "postcode": "74103"}}},
{"geometry": {"type": "Point", "coordinates": [-95.9947163236, 36.1557071685]}, "type": "Feature", "properties": {"collection_times": [{"days": "Mon-Fri", "time": "5:45pm"}, {"days": "Sat", "time": "5:00pm"}, {"days": "Sun", "time": "Closed"}], "id": "7410300105", "name": "USPS COLLECTION BOX - PO LOBBY", "address": {"city": "TULSA", "state": "OK", "street": "333 W 4TH ST", "postcode": "74103"}}},
{"geometry": {"type": "Point", "coordinates": [-95.9913065249, 36.1510847042]}, "type": "Feature", "properties": {"collection_times": [{"days": "Mon-Fri", "time": "4:00pm"}, {"days": "Sat-Sun", "time": "Closed"}], "id": "7410300121", "name": "USPS COLLECTION BOX - BLUE BOX", "address": {"city": "TULSA", "state": "OK", "street": "100 W 5TH ST", "postcode": "74103"}}},
{"geometry": {"type": "Point", "coordinates": [-95.9945971136, 36.1511172773]}, "type": "Feature", "properties": {"collection_times": [{"days": "Mon-Fri", "time": "5:45pm"}, {"days": "Sat", "time": "5:00pm"}, {"days": "Sun", "time": "Closed"}], "id": "7410300122", "name": "USPS COLLECTION BOX - BLUE BOX", "address": {"city": "TULSA", "state": "OK", "street": "333 W 4TH ST", "postcode": "74103"}}},
{"geometry": {"type": "Point", "coordinates": [-95.9945971136, 36.1511172773]}, "type": "Feature", "properties": {"collection_times": [{"days": "Mon-Fri", "time": "5:45pm"}, {"days": "Sat", "time": "5:00pm"}, {"days": "Sun", "time": "Closed"}], "id": "7410300123", "name": "USPS COLLECTION BOX - BLUE BOX", "address": {"city": "TULSA", "state": "OK", "street": "333 W 4TH ST", "postcode": "74103"}}},
{"geometry": {"type": "Point", "coordinates": [-95.9671150805, 36.1462341502]}, "type": "Feature", "properties": {"collection_times": [{"days": "Mon-Fri", "time": "2:30pm"}, {"days": "Sat-Sun", "time": "Closed"}], "id": "7410400000", "name": "USPS COLLECTION BOX - BLUE BOX", "address": {"city": "TULSA", "state": "OK", "street": "1145 S UTICA AVE", "postcode": "74104"}}},
{"geometry": {"type": "Point", "coordinates": [-95.9671269101, 36.146932096]}, "type": "Feature", "properties": {"collection_times": [{"days": "Mon-Fri", "time": "2:30pm"}, {"days": "Sat-Sun", "time": "Closed"}], "id": "7410400003", "name": "USPS COLLECTION BOX - BLUE BOX", "address": {"city": "TULSA", "state": "OK", "street": "1120 S UTICA AVE", "postcode": "74104"}}},
{"geometry": {"type": "Point", "coordinates": [-95.9600360668, 36.1416987006]}, "type": "Feature", "properties": {"collection_times": [{"days": "Mon-Fri", "time": "5:00pm"}, {"days": "Sat", "time": "4:15pm"}, {"days": "Sun", "time": "Closed"}], "id": "7410400009", "name": "USPS COLLECTION BOX - BLUE BOX", "address": {"city": "TULSA", "state": "OK", "street": "1423 TERRACE DR", "postcode": "74104"}}},
{"geometry": {"type": "Point", "coordinates": [-95.9600360668, 36.1416987006]}, "type": "Feature", "properties": {"collection_times": [{"days": "Mon-Fri", "time": "5:00pm"}, {"days": "Sat", "time": "4:15pm"}, {"days": "Sun", "time": "Closed"}], "id": "7410400015", "name": "USPS COLLECTION BOX - BLUE BOX", "address": {"city": "TULSA", "state": "OK", "street": "1423 TERRACE DR", "postcode": "74104"}}},
{"geometry": {"type": "Point", "coordinates": [-95.9582166897, 36.1335808515]}, "type": "Feature", "properties": {"collection_times": [{"days": "Mon-Fri", "time": "2:15pm"}, {"days": "Sat-Sun", "time": "Closed"}], "id": "7410400017", "name": "USPS COLLECTION BOX - BLUE BOX", "address": {"city": "TULSA", "state": "OK", "street": "2021 S LEWIS AVE", "postcode": "74104"}}},
{"geometry": {"type": "Point", "coordinates": [-95.966180543, 36.1351190677]}, "type": "Feature", "properties": {"collection_times": [{"days": "Mon-Fri", "time": "2:30pm"}, {"days": "Sat-Sun", "time": "Closed"}], "id": "7410400044", "name": "USPS COLLECTION BOX - BLUE BOX", "address": {"city": "TULSA", "state": "OK", "street": "1725 E 19TH ST", "postcode": "74104"}}},
{"geometry": {"type": "Point", "coordinates": [-95.9599319797, 36.1418682025]}, "type": "Feature", "properties": {"collection_times": [{"days": "Mon-Fri", "time": "5:00pm"}, {"days": "Sat", "time": "4:15pm"}, {"days": "Sun", "time": "Closed"}], "id": "7410400051", "name": "USPS COLLECTION BOX - APC", "address": {"city": "TULSA", "state": "OK", "street": "1423 TERRACE DR", "postcode": "74104"}}},
{"geometry": {"type": "Point", "coordinates": [-95.9599319797, 36.1418682025]}, "type": "Feature", "properties": {"collection_times": [{"days": "Mon-Fri", "time": "5:00pm"}, {"days": "Sat", "time": "4:15pm"}, {"days": "Sun", "time": "Closed"}], "id": "7410400054", "name": "USPS COLLECTION BOX - PO LOBBY", "address": {"city": "TULSA", "state": "OK", "street": "1423 TERRACE DR", "postcode": "74104"}}},
{"geometry": {"type": "Point", "coordinates": [-95.9599319797, 36.1418682025]}, "type": "Feature", "properties": {"collection_times": [{"days": "Mon-Fri", "time": "5:00pm"}, {"days": "Sat", "time": "4:15pm"}, {"days": "Sun", "time": "Closed"}], "id": "7410400055", "name": "USPS COLLECTION BOX - PO LOBBY", "address": {"city": "TULSA", "state": "OK", "street": "1423 TERRACE DR", "postcode": "74104"}}},
{"geometry": {"type": "Point", "coordinates": [-95.9757097518, 36.0886782926]}, "type": "Feature", "properties": {"collection_times": [{"days": "Mon-Fri", "time": "3:00pm"}, {"days": "Sat-Sun", "time": "Closed"}], "id": "7410500001", "name": "USPS COLLECTION BOX - BLUE BOX", "address": {"city": "TULSA", "state": "OK", "street": "5119 S PEORIA AVE", "postcode": "74105"}}},
{"geometry": {"type": "Point", "coordinates": [-95.9579940752, 36.0891104213]}, "type": "Feature", "properties": {"collection_times": [{"days": "Mon-Fri", "time": "3:00pm"}, {"days": "Sat-Sun", "time": "Closed"}], "id": "7410500007", "name": "USPS COLLECTION BOX - BLUE BOX", "address": {"city": "TULSA", "state": "OK", "street": "5104 S LEWIS AVE", "postcode": "74105"}}},
{"geometry": {"type": "Point", "coordinates": [-95.9497535342, 36.0897740985]}, "type": "Feature", "properties": {"collection_times": [{"days": "Mon-Fri", "time": "3:00pm"}, {"days": "Sat-Sun", "time": "Closed"}], "id": "7410500010", "name": "USPS COLLECTION BOX - BLUE BOX", "address": {"city": "TULSA", "state": "OK", "street": "2738 E 51ST ST", "postcode": "74105"}}},
{"geometry": {"type": "Point", "coordinates": [-95.9455881254, 36.0909029302]}, "type": "Feature", "properties": {"collection_times": [{"days": "Mon-Fri", "time": "2:30pm"}, {"days": "Sat-Sun", "time": "Closed"}], "id": "7410500011", "name": "USPS COLLECTION BOX - BLUE BOX", "address": {"city": "TULSA", "state": "OK", "street": "3000 E SKELLY DR", "postcode": "74105"}}},
{"geometry": {"type": "Point", "coordinates": [-95.9598866705, 36.0922194037]}, "type": "Feature", "properties": {"collection_times": [{"days": "Mon-Fri", "time": "2:45pm"}, {"days": "Sat-Sun", "time": "Closed"}], "id": "7410500024", "name": "USPS COLLECTION BOX - BLUE BOX", "address": {"city": "TULSA", "state": "OK", "street": "2241 E 49TH ST", "postcode": "74105"}}},
{"geometry": {"type": "Point", "coordinates": [-95.9598866705, 36.0922194037]}, "type": "Feature", "properties": {"collection_times": [{"days": "Mon-Fri", "time": "2:45pm"}, {"days": "Sat-Sun", "time": "Closed"}], "id": "7410500025", "name": "USPS COLLECTION BOX - BLUE BOX", "address": {"city": "TULSA", "state": "OK", "street": "2241 E 49TH ST", "postcode": "74105"}}},
{"geometry": {"type": "Point", "coordinates": [-95.9755162384, 36.115245282]}, "type": "Feature", "properties": {"collection_times": [{"days": "Mon-Fri", "time": "2:45pm"}, {"days": "Sat-Sun", "time": "Closed"}], "id": "7410500027", "name": "USPS COLLECTION BOX - BLUE BOX", "address": {"city": "TULSA", "state": "OK", "street": "1303 E 33RD ST", "postcode": "74105"}}},
{"geometry": {"type": "Point", "coordinates": [-95.9757251365, 36.1085551795]}, "type": "Feature", "properties": {"collection_times": [{"days": "Mon-Fri", "time": "3:00pm"}, {"days": "Sat-Sun", "time": "Closed"}], "id": "7410500029", "name": "USPS COLLECTION BOX - BLUE BOX", "address": {"city": "TULSA", "state": "OK", "street": "3750 S PEORIA AVE", "postcode": "74105"}}},
{"geometry": {"type": "Point", "coordinates": [-95.9756866743, 36.0940603861]}, "type": "Feature", "properties": {"collection_times": [{"days": "Mon-Fri", "time": "2:45pm"}, {"days": "Sat-Sun", "time": "Closed"}], "id": "7410500034", "name": "USPS COLLECTION BOX - BLUE BOX", "address": {"city": "TULSA", "state": "OK", "street": "4835 S PEORIA AVE", "postcode": "74105"}}},
{"geometry": {"type": "Point", "coordinates": [-95.972757005, 36.1043353014]}, "type": "Feature", "properties": {"collection_times": [{"days": "Mon-Fri", "time": "2:45pm"}, {"days": "Sat-Sun", "time": "Closed"}], "id": "7410500038", "name": "USPS COLLECTION BOX - BLUE BOX", "address": {"city": "TULSA", "state": "OK", "street": "1417 E 41ST ST", "postcode": "74105"}}},
{"geometry": {"type": "Point", "coordinates": [-95.987256785, 36.164387319]}, "type": "Feature", "properties": {"collection_times": [{"days": "Mon-Fri", "time": "2:00pm"}, {"days": "Sat-Sun", "time": "Closed"}], "id": "7410600016", "name": "USPS COLLECTION BOX - BLUE BOX", "address": {"city": "TULSA", "state": "OK", "street": "701 N GREENWOOD AVE", "postcode": "74106"}}},
{"geometry": {"type": "Point", "coordinates": [-95.9855018117, 36.1914539396]}, "type": "Feature", "properties": {"collection_times": [{"days": "Mon-Sat", "time": "5:00pm"}, {"days": "Sun", "time": "Closed"}], "id": "7410600017", "name": "USPS COLLECTION BOX - PO LOBBY", "address": {"city": "TULSA", "state": "OK", "street": "626 E APACHE ST", "postcode": "74106"}}},
{"geometry": {"type": "Point", "coordinates": [-95.9855306597, 36.1914326208]}, "type": "Feature", "properties": {"collection_times": [{"days": "Mon-Sat", "time": "5:00pm"}, {"days": "Sun", "time": "Closed"}], "id": "7410600020", "name": "USPS COLLECTION BOX - BLUE BOX", "address": {"city": "TULSA", "state": "OK", "street": "626 E APACHE ST", "postcode": "74106"}}},
{"geometry": {"type": "Point", "coordinates": [-95.9855306597, 36.1914326208]}, "type": "Feature", "properties": {"collection_times": [{"days": "Mon-Sat", "time": "5:00pm"}, {"days": "Sun", "time": "Closed"}], "id": "7410600021", "name": "USPS COLLECTION BOX - BLUE BOX", "address": {"city": "TULSA", "state": "OK", "street": "626 E APACHE ST", "postcode": "74106"}}},
{"geometry": {"type": "Point", "coordinates": [-96.0070240213, 36.1269105781]}, "type": "Feature", "properties": {"collection_times": [{"days": "Mon-Fri", "time": "2:30pm"}, {"days": "Sat-Sun", "time": "Closed"}], "id": "7410700008", "name": "USPS COLLECTION BOX - BLUE BOX", "address": {"city": "TULSA", "state": "OK", "street": "2420 SOUTHWEST BLVD", "postcode": "74107"}}},
{"geometry": {"type": "Point", "coordinates": [-96.0116342528, 36.091101318]}, "type": "Feature", "properties": {"collection_times": [{"days": "Mon-Fri", "time": "2:30pm"}, {"days": "Sat-Sun", "time": "Closed"}], "id": "7410700010", "name": "USPS COLLECTION BOX - BLUE BOX", "address": {"city": "TULSA", "state": "OK", "street": "4963 S UNION AVE", "postcode": "74107"}}},
{"geometry": {"type": "Point", "coordinates": [-96.0309667864, 36.1014651223]}, "type": "Feature", "properties": {"collection_times": [{"days": "Mon-Fri", "time": "5:00pm"}, {"days": "Sat", "time": "4:30pm"}, {"days": "Sun", "time": "Closed"}], "id": "7410700017", "name": "USPS COLLECTION BOX - BLUE BOX", "address": {"city": "TULSA", "state": "OK", "street": "3408 W 42ND PL", "postcode": "74107"}}},
{"geometry": {"type": "Point", "coordinates": [-96.0313615819, 36.101526582]}, "type": "Feature", "properties": {"collection_times": [{"days": "Mon-Fri", "time": "5:00pm"}, {"days": "Sat", "time": "4:30pm"}, {"days": "Sun", "time": "Closed"}], "id": "7410700029", "name": "USPS COLLECTION BOX - PO LOBBY", "address": {"city": "TULSA", "state": "OK", "street": "3408 W 42ND PL", "postcode": "74107"}}},
{"geometry": {"type": "Point", "coordinates": [-96.0313615819, 36.101526582]}, "type": "Feature", "properties": {"collection_times": [{"days": "Mon-Fri", "time": "5:00pm"}, {"days": "Sat", "time": "4:30pm"}, {"days": "Sun", "time": "Closed"}], "id": "7410700030", "name": "USPS COLLECTION BOX - PO LOBBY", "address": {"city": "TULSA", "state": "OK", "street": "3408 W 42ND PL", "postcode": "74107"}}},
{"geometry": {"type": "Point", "coordinates": [-96.0624532924, 36.1045100045]}, "type": "Feature", "properties": {"collection_times": [{"days": "Mon-Fri", "time": "2:30pm"}, {"days": "Sat-Sun", "time": "Closed"}], "id": "7410700033", "name": "USPS COLLECTION BOX - BLUE BOX", "address": {"city": "TULSA", "state": "OK", "street": "6136 W 41ST ST", "postcode": "74107"}}},
{"geometry": {"type": "Point", "coordinates": [-95.9582916797, 36.1781410843]}, "type": "Feature", "properties": {"collection_times": [{"days": "Mon-Fri", "time": "2:00pm"}, {"days": "Sat-Sun", "time": "Closed"}], "id": "7411000006", "name": "USPS COLLECTION BOX - BLUE BOX", "address": {"city": "TULSA", "state": "OK", "street": "1544 N LEWIS AVE", "postcode": "74110"}}},
{"geometry": {"type": "Point", "coordinates": [-95.9404250204, 36.1432604975]}, "type": "Feature", "properties": {"collection_times": [{"days": "Mon-Fri", "time": "2:15pm"}, {"days": "Sat-Sun", "time": "Closed"}], "id": "7411200000", "name": "USPS COLLECTION BOX - BLUE BOX", "address": {"city": "TULSA", "state": "OK", "street": "1330 S HARVARD AVE", "postcode": "74112"}}},
{"geometry": {"type": "Point", "coordinates": [-95.8865768134, 36.1402010066]}, "type": "Feature", "properties": {"collection_times": [{"days": "Mon-Fri", "time": "2:45pm"}, {"days": "Sat-Sun", "time": "Closed"}], "id": "7411200002", "name": "USPS COLLECTION BOX - BLUE BOX", "address": {"city": "TULSA", "state": "OK", "street": "1501 S MEMORIAL DR", "postcode": "74112"}}},
{"geometry": {"type": "Point", "coordinates": [-95.922466682, 36.137380448]}, "type": "Feature", "properties": {"collection_times": [{"days": "Mon-Fri", "time": "3:00pm"}, {"days": "Sat-Sun", "time": "Closed"}], "id": "7411200003", "name": "USPS COLLECTION BOX - BLUE BOX", "address": {"city": "TULSA", "state": "OK", "street": "1701 S YALE AVE", "postcode": "74112"}}},
{"geometry": {"type": "Point", "coordinates": [-95.9523973324, 36.1333195544]}, "type": "Feature", "properties": {"collection_times": [{"days": "Mon-Fri", "time": "2:15pm"}, {"days": "Sat-Sun", "time": "Closed"}], "id": "7411400004", "name": "USPS COLLECTION BOX - BLUE BOX", "address": {"city": "TULSA", "state": "OK", "street": "2651 E 21ST ST", "postcode": "74114"}}},
{"geometry": {"type": "Point", "coordinates": [-95.9502000215, 36.1333424448]}, "type": "Feature", "properties": {"collection_times": [{"days": "Mon-Fri", "time": "2:15pm"}, {"days": "Sat-Sun", "time": "Closed"}], "id": "7411400012", "name": "USPS COLLECTION BOX - BLUE BOX", "address": {"city": "TULSA", "state": "OK", "street": "2727 E 21ST ST", "postcode": "74114"}}},
{"geometry": {"type": "Point", "coordinates": [-95.9646037723, 36.1319329594]}, "type": "Feature", "properties": {"collection_times": [{"days": "Mon-Fri", "time": "5:00pm"}, {"days": "Sat", "time": "2:00pm"}, {"days": "Sun", "time": "Closed"}], "id": "7411400017", "name": "USPS COLLECTION BOX - BLUE BOX", "address": {"city": "TULSA", "state": "OK", "street": "2032 UTICA SQ", "postcode": "74114"}}},
{"geometry": {"type": "Point", "coordinates": [-95.9639428108, 36.1319370697]}, "type": "Feature", "properties": {"collection_times": [{"days": "Mon-Fri", "time": "5:00pm"}, {"days": "Sat", "time": "2:00pm"}, {"days": "Sun", "time": "Closed"}], "id": "7411400018", "name": "USPS COLLECTION BOX - BLUE BOX", "address": {"city": "TULSA", "state": "OK", "street": "2032 UTICA SQ", "postcode": "74114"}}},
{"geometry": {"type": "Point", "coordinates": [-95.9646037723, 36.1319329594]}, "type": "Feature", "properties": {"collection_times": [{"days": "Mon-Fri", "time": "5:00pm"}, {"days": "Sat", "time": "2:00pm"}, {"days": "Sun", "time": "Closed"}], "id": "7411400019", "name": "USPS COLLECTION BOX - BLUE BOX", "address": {"city": "TULSA", "state": "OK", "street": "2032 UTICA SQ", "postcode": "74114"}}},
{"geometry": {"type": "Point", "coordinates": [-95.8872144832, 36.1607242145]}, "type": "Feature", "properties": {"collection_times": [{"days": "Mon-Fri", "time": "2:45pm"}, {"days": "Sat-Sun", "time": "Closed"}], "id": "7411500003", "name": "USPS COLLECTION BOX - BLUE BOX", "address": {"city": "TULSA", "state": "OK", "street": "7878 E ADMIRAL PL", "postcode": "74115"}}},
{"geometry": {"type": "Point", "coordinates": [-95.940277, 36.177850812]}, "type": "Feature", "properties": {"collection_times": [{"days": "Mon-Fri", "time": "2:00pm"}, {"days": "Sat-Sun", "time": "Closed"}], "id": "7411500008", "name": "USPS COLLECTION BOX - BLUE BOX", "address": {"city": "TULSA", "state": "OK", "street": "1515 N HARVARD AVE", "postcode": "74115"}}},
{"geometry": {"type": "Point", "coordinates": [-95.917575018, 36.1662489101]}, "type": "Feature", "properties": {"collection_times": [{"days": "Mon-Fri", "time": "5:00pm"}, {"days": "Sat", "time": "4:00pm"}, {"days": "Sun", "time": "Closed"}], "id": "7411500011", "name": "USPS COLLECTION BOX - BLUE BOX", "address": {"city": "TULSA", "state": "OK", "street": "5313 E INDEPENDENCE ST", "postcode": "74115"}}},
{"geometry": {"type": "Point", "coordinates": [-95.9045265517, 36.1917635237]}, "type": "Feature", "properties": {"collection_times": [{"days": "Mon-Fri", "time": "2:30pm"}, {"days": "Sat-Sun", "time": "Closed"}], "id": "7411500018", "name": "USPS COLLECTION BOX - BLUE BOX", "address": {"city": "TULSA", "state": "OK", "street": "2601 N SHERIDAN RD", "postcode": "74115"}}},
{"geometry": {"type": "Point", "coordinates": [-95.8558776606, 36.1789259809]}, "type": "Feature", "properties": {"collection_times": [{"days": "Mon-Fri", "time": "2:00pm"}, {"days": "Sat-Sun", "time": "Closed"}], "id": "7411600009", "name": "USPS COLLECTION BOX - BLUE BOX", "address": {"city": "TULSA", "state": "OK", "street": "1801 N 109TH EAST AVE", "postcode": "74116"}}},
{"geometry": {"type": "Point", "coordinates": [-95.8688628873, 36.2095708833]}, "type": "Feature", "properties": {"collection_times": [{"days": "Mon-Fri", "time": "2:15pm"}, {"days": "Sat-Sun", "time": "Closed"}], "id": "7411600012", "name": "USPS COLLECTION BOX - BLUE BOX", "address": {"city": "TULSA", "state": "OK", "street": "3850 N MINGO RD", "postcode": "74116"}}},
{"geometry": {"type": "Point", "coordinates": [-95.862696736, 36.160780177]}, "type": "Feature", "properties": {"collection_times": [{"days": "Mon-Fri", "time": "2:00pm"}, {"days": "Sat-Sun", "time": "Closed"}], "id": "7411600014", "name": "USPS COLLECTION BOX - BLUE BOX", "address": {"city": "TULSA", "state": "OK", "street": "10161 E ADMIRAL PL", "postcode": "74116"}}},
{"geometry": {"type": "Point", "coordinates": [-95.9903247354, 36.1502621254]}, "type": "Feature", "properties": {"collection_times": [{"days": "Mon-Fri", "time": "4:15pm"}, {"days": "Sat-Sun", "time": "Closed"}], "id": "7411900012", "name": "USPS COLLECTION BOX - BLUE BOX", "address": {"city": "TULSA", "state": "OK", "street": "15 W 6TH ST", "postcode": "74119"}}},
{"geometry": {"type": "Point", "coordinates": [-95.9877482737, 36.1497673587]}, "type": "Feature", "properties": {"collection_times": [{"days": "Mon-Fri", "time": "2:45pm"}, {"days": "Sat-Sun", "time": "Closed"}], "id": "7411900015", "name": "USPS COLLECTION BOX - BLUE BOX", "address": {"city": "TULSA", "state": "OK", "street": "715 S BOSTON AVE", "postcode": "74119"}}},
{"geometry": {"type": "Point", "coordinates": [-95.9851433752, 36.1402034254]}, "type": "Feature", "properties": {"collection_times": [{"days": "Mon-Fri", "time": "3:15pm"}, {"days": "Sat-Sun", "time": "Closed"}], "id": "7411900020", "name": "USPS COLLECTION BOX - BLUE BOX", "address": {"city": "TULSA", "state": "OK", "street": "1516 S BOSTON AVE", "postcode": "74119"}}},
{"geometry": {"type": "Point", "coordinates": [-95.9952427246, 36.1479784987]}, "type": "Feature", "properties": {"collection_times": [{"days": "Mon-Fri", "time": "2:45pm"}, {"days": "Sat-Sun", "time": "Closed"}], "id": "7411900027", "name": "USPS COLLECTION BOX - BLUE BOX", "address": {"city": "TULSA", "state": "OK", "street": "501 W 7TH ST", "postcode": "74119"}}},
{"geometry": {"type": "Point", "coordinates": [-95.9865207215, 36.1504944914]}, "type": "Feature", "properties": {"collection_times": [{"days": "Mon-Fri", "time": "4:15pm"}, {"days": "Sat-Sun", "time": "Closed"}], "id": "7411900045", "name": "USPS COLLECTION BOX - BLUE BOX", "address": {"city": "TULSA", "state": "OK", "street": "213 E 7TH", "postcode": "74119"}}},
{"geometry": {"type": "Point", "coordinates": [-95.9884840513, 36.1429786471]}, "type": "Feature", "properties": {"collection_times": [{"days": "Mon-Fri", "time": "3:30pm"}, {"days": "Sat-Sun", "time": "Closed"}], "id": "7411900060", "name": "USPS COLLECTION BOX - BLUE BOX", "address": {"city": "TULSA", "state": "OK", "street": "1350 S BOULDER AVE", "postcode": "74119"}}},
{"geometry": {"type": "Point", "coordinates": [-95.9755141771, 36.248247077]}, "type": "Feature", "properties": {"collection_times": [{"days": "Mon-Fri", "time": "4:30pm"}, {"days": "Sat-Sun", "time": "Closed"}], "id": "7412600001", "name": "USPS COLLECTION BOX - BLUE BOX", "address": {"city": "TULSA", "state": "OK", "street": "6528 N PEORIA AVE", "postcode": "74126"}}},
{"geometry": {"type": "Point", "coordinates": [-95.9755141771, 36.248247077]}, "type": "Feature", "properties": {"collection_times": [{"days": "Mon-Fri", "time": "4:30pm"}, {"days": "Sat-Sun", "time": "Closed"}], "id": "7412600002", "name": "USPS COLLECTION BOX - BLUE BOX", "address": {"city": "TULSA", "state": "OK", "street": "6528 N PEORIA AVE", "postcode": "74126"}}},
{"geometry": {"type": "Point", "coordinates": [-95.9988479548, 36.149409212]}, "type": "Feature", "properties": {"collection_times": [{"days": "Mon-Fri", "time": "3:30pm"}, {"days": "Sat-Sun", "time": "Closed"}], "id": "7412700007", "name": "USPS COLLECTION BOX - BLUE BOX", "address": {"city": "TULSA", "state": "OK", "street": "440 S HOUSTON AVE", "postcode": "74127"}}},
{"geometry": {"type": "Point", "coordinates": [-95.9988479548, 36.149409212]}, "type": "Feature", "properties": {"collection_times": [{"days": "Mon-Fri", "time": "3:30pm"}, {"days": "Sat-Sun", "time": "Closed"}], "id": "7412700016", "name": "USPS COLLECTION BOX - BLUE BOX", "address": {"city": "TULSA", "state": "OK", "street": "440 S HOUSTON AVE", "postcode": "74127"}}},
{"geometry": {"type": "Point", "coordinates": [-95.8517158587, 36.1478749468]}, "type": "Feature", "properties": {"collection_times": [{"days": "Mon-Fri", "time": "4:30pm"}, {"days": "Sat-Sun", "time": "Closed"}], "id": "7412800000", "name": "USPS COLLECTION BOX - BLUE BOX", "address": {"city": "TULSA", "state": "OK", "street": "11212 E 11TH ST", "postcode": "74128"}}},
{"geometry": {"type": "Point", "coordinates": [-95.9044813895, 36.1197388556]}, "type": "Feature", "properties": {"collection_times": [{"days": "Mon-Fri", "time": "3:00pm"}, {"days": "Sat-Sun", "time": "Closed"}], "id": "7412900007", "name": "USPS COLLECTION BOX - BLUE BOX", "address": {"city": "TULSA", "state": "OK", "street": "3025 S SHERIDAN RD", "postcode": "74129"}}},
{"geometry": {"type": "Point", "coordinates": [-95.9041866308, 36.0473210329]}, "type": "Feature", "properties": {"collection_times": [{"days": "Mon-Fri", "time": "2:30pm"}, {"days": "Sat-Sun", "time": "Closed"}], "id": "7413300000", "name": "USPS COLLECTION BOX - BLUE BOX", "address": {"city": "TULSA", "state": "OK", "street": "8011 S SHERIDAN RD", "postcode": "74133"}}},
{"geometry": {"type": "Point", "coordinates": [-95.9042112376, 36.0296677397]}, "type": "Feature", "properties": {"collection_times": [{"days": "Mon-Fri", "time": "5:00pm"}, {"days": "Sat", "time": "4:30pm"}, {"days": "Sun", "time": "Closed"}], "id": "7413300001", "name": "USPS COLLECTION BOX - BLUE BOX", "address": {"city": "TULSA", "state": "OK", "street": "9230 S SHERIDAN RD", "postcode": "74133"}}},
{"geometry": {"type": "Point", "coordinates": [-95.9042112376, 36.0296677397]}, "type": "Feature", "properties": {"collection_times": [{"days": "Mon-Fri", "time": "5:00pm"}, {"days": "Sat", "time": "4:30pm"}, {"days": "Sun", "time": "Closed"}], "id": "7413300003", "name": "USPS COLLECTION BOX - BLUE BOX", "address": {"city": "TULSA", "state": "OK", "street": "9230 S SHERIDAN RD", "postcode": "74133"}}},
{"geometry": {"type": "Point", "coordinates": [-95.904193767, 36.017262221]}, "type": "Feature", "properties": {"collection_times": [{"days": "Mon-Fri", "time": "4:30pm"}, {"days": "Sat-Sun", "time": "Closed"}], "id": "7413300007", "name": "USPS COLLECTION BOX - BLUE BOX", "address": {"city": "TULSA", "state": "OK", "street": "10101 S SHERIDAN RD", "postcode": "74133"}}},
{"geometry": {"type": "Point", "coordinates": [-95.8865891323, 36.0322433431]}, "type": "Feature", "properties": {"collection_times": [{"days": "Mon-Fri", "time": "2:15pm"}, {"days": "Sat-Sun", "time": "Closed"}], "id": "7413300008", "name": "USPS COLLECTION BOX - BLUE BOX", "address": {"city": "TULSA", "state": "OK", "street": "9000 S MEMORIAL DR", "postcode": "74133"}}},
{"geometry": {"type": "Point", "coordinates": [-95.8862406844, 36.0655665285]}, "type": "Feature", "properties": {"collection_times": [{"days": "Mon-Fri", "time": "2:45pm"}, {"days": "Sat-Sun", "time": "Closed"}], "id": "7413300010", "name": "USPS COLLECTION BOX - BLUE BOX", "address": {"city": "TULSA", "state": "OK", "street": "6801 S MEMORIAL DR", "postcode": "74133"}}},
{"geometry": {"type": "Point", "coordinates": [-95.8914991605, 36.0718390438]}, "type": "Feature", "properties": {"collection_times": [{"days": "Mon-Fri", "time": "4:30pm"}, {"days": "Sat-Sun", "time": "Closed"}], "id": "7413300017", "name": "USPS COLLECTION BOX - BLUE BOX", "address": {"city": "TULSA", "state": "OK", "street": "7615 E 63RD PL", "postcode": "74133"}}},
{"geometry": {"type": "Point", "coordinates": [-95.886222057, 36.071654563]}, "type": "Feature", "properties": {"collection_times": [{"days": "Mon-Fri", "time": "4:30pm"}, {"days": "Sat-Sun", "time": "Closed"}], "id": "7413300023", "name": "USPS COLLECTION BOX - BLUE BOX", "address": {"city": "TULSA", "state": "OK", "street": "8105 E 63RD PL", "postcode": "74133"}}},
{"geometry": {"type": "Point", "coordinates": [-95.85435, 36.089718]}, "type": "Feature", "properties": {"collection_times": [{"days": "Mon-Fri", "time": "3:45pm"}, {"days": "Sat-Sun", "time": "Closed"}], "id": "7413300031", "name": "USPS COLLECTION BOX - BLUE BOX", "address": {"city": "TULSA", "state": "OK", "street": "5115 S 110TH EAST AVE", "postcode": "74133"}}},
{"geometry": {"type": "Point", "coordinates": [-95.8863336358, 36.0447513767]}, "type": "Feature", "properties": {"collection_times": [{"days": "Mon-Fri", "time": "2:15pm"}, {"days": "Sat-Sun", "time": "Closed"}], "id": "7413300035", "name": "USPS COLLECTION BOX - BLUE BOX", "address": {"city": "TULSA", "state": "OK", "street": "8130 S MEMORIAL DR", "postcode": "74133"}}},
{"geometry": {"type": "Point", "coordinates": [-95.868517075, 36.074910886]}, "type": "Feature", "properties": {"collection_times": [{"days": "Mon-Fri", "time": "4:15pm"}, {"days": "Sat-Sun", "time": "Closed"}], "id": "7413300038", "name": "USPS COLLECTION BOX - BLUE BOX", "address": {"city": "TULSA", "state": "OK", "street": "6105 S MINGO RD", "postcode": "74133"}}},
{"geometry": {"type": "Point", "coordinates": [-95.8685343782, 36.0621624395]}, "type": "Feature", "properties": {"collection_times": [{"days": "Mon-Fri", "time": "2:30pm"}, {"days": "Sat-Sun", "time": "Closed"}], "id": "7413300043", "name": "USPS COLLECTION BOX - BLUE BOX", "address": {"city": "TULSA", "state": "OK", "street": "6922 S MINGO RD", "postcode": "74133"}}},
{"geometry": {"type": "Point", "coordinates": [-95.8885370313, 36.0754163117]}, "type": "Feature", "properties": {"collection_times": [{"days": "Mon-Fri", "time": "4:30pm"}, {"days": "Sat-Sun", "time": "Closed"}], "id": "7413300053", "name": "USPS COLLECTION BOX - BLUE BOX", "address": {"city": "TULSA", "state": "OK", "street": "7666 E 61ST ST", "postcode": "74133"}}},
{"geometry": {"type": "Point", "coordinates": [-95.8885370313, 36.0754163117]}, "type": "Feature", "properties": {"collection_times": [{"days": "Mon-Fri", "time": "4:30pm"}, {"days": "Sat-Sun", "time": "Closed"}], "id": "7413300054", "name": "USPS COLLECTION BOX - BLUE BOX", "address": {"city": "TULSA", "state": "OK", "street": "7666 E 61ST ST", "postcode": "74133"}}},
{"geometry": {"type": "Point", "coordinates": [-95.8646388943, 36.0363301646]}, "type": "Feature", "properties": {"collection_times": [{"days": "Mon-Fri", "time": "2:30pm"}, {"days": "Sat-Sun", "time": "Closed"}], "id": "7413300061", "name": "USPS COLLECTION BOX - BLUE BOX", "address": {"city": "TULSA", "state": "OK", "street": "8803 S 101ST EAST AVE", "postcode": "74133"}}},
{"geometry": {"type": "Point", "coordinates": [-95.8866840413, 36.009690697]}, "type": "Feature", "properties": {"collection_times": [{"days": "Mon-Fri", "time": "2:15pm"}, {"days": "Sat", "time": "12:00pm"}, {"days": "Sun", "time": "Closed"}], "id": "7413300063", "name": "USPS COLLECTION BOX - BLUE BOX", "address": {"city": "TULSA", "state": "OK", "street": "10632 S MEMORIAL DR", "postcode": "74133"}}},
{"geometry": {"type": "Point", "coordinates": [-95.886684041, 36.009690697]}, "type": "Feature", "properties": {"collection_times": [{"days": "Mon-Fri", "time": "2:15pm"}, {"days": "Sat", "time": "12:00pm"}, {"days": "Sun", "time": "Closed"}], "id": "7413300064", "name": "USPS COLLECTION BOX - BLUE BOX", "address": {"city": "TULSA", "state": "OK", "street": "10632 S MEMORIAL DR", "postcode": "74133"}}},
{"geometry": {"type": "Point", "coordinates": [-95.8332818333, 36.1224902987]}, "type": "Feature", "properties": {"collection_times": [{"days": "Mon-Fri", "time": "5:00pm"}, {"days": "Sat", "time": "4:15pm"}, {"days": "Sun", "time": "Closed"}], "id": "7413400008", "name": "USPS COLLECTION BOX - BLUE BOX", "address": {"city": "TULSA", "state": "OK", "street": "2920 S 129TH EAST AVE", "postcode": "74134"}}},
{"geometry": {"type": "Point", "coordinates": [-95.8332818333, 36.1224902987]}, "type": "Feature", "properties": {"collection_times": [{"days": "Mon-Fri", "time": "5:00pm"}, {"days": "Sat", "time": "4:15pm"}, {"days": "Sun", "time": "Closed"}], "id": "7413400009", "name": "USPS COLLECTION BOX - BLUE BOX", "address": {"city": "TULSA", "state": "OK", "street": "2920 S 129TH EAST AVE", "postcode": "74134"}}},
{"geometry": {"type": "Point", "coordinates": [-95.7795569037, 36.1119128913]}, "type": "Feature", "properties": {"collection_times": [{"days": "Mon-Fri", "time": "5:00pm"}, {"days": "Sat", "time": "4:15pm"}, {"days": "Sun", "time": "Closed"}], "id": "7413400010", "name": "USPS COLLECTION BOX - PO LOBBY", "address": {"city": "TULSA", "state": "OK", "street": "2920 S 129TH EAST AVE", "postcode": "74134"}}},
{"geometry": {"type": "Point", "coordinates": [-95.8333118103, 36.1205082159]}, "type": "Feature", "properties": {"collection_times": [{"days": "Mon-Fri", "time": "5:00pm"}, {"days": "Sat", "time": "4:15pm"}, {"days": "Sun", "time": "Closed"}], "id": "7413400011", "name": "USPS COLLECTION BOX - PO LOBBY", "address": {"city": "TULSA", "state": "OK", "street": "2920 S 129TH EAST AVE", "postcode": "74134"}}},
{"geometry": {"type": "Point", "coordinates": [-95.8333118103, 36.1205082159]}, "type": "Feature", "properties": {"collection_times": [{"days": "Mon-Fri", "time": "5:00pm"}, {"days": "Sat", "time": "4:15pm"}, {"days": "Sun", "time": "Closed"}], "id": "7413400012", "name": "USPS COLLECTION BOX - PO LOBBY", "address": {"city": "TULSA", "state": "OK", "street": "2920 S 129TH EAST AVE", "postcode": "74134"}}},
{"geometry": {"type": "Point", "coordinates": [-95.8333118103, 36.1205082159]}, "type": "Feature", "properties": {"collection_times": [{"days": "Mon-Fri", "time": "5:00pm"}, {"days": "Sat", "time": "4:15pm"}, {"days": "Sun", "time": "Closed"}], "id": "7413400016", "name": "USPS COLLECTION BOX - APC", "address": {"city": "TULSA", "state": "OK", "street": "2920 S 129TH EAST AVE", "postcode": "74134"}}},
{"geometry": {"type": "Point", "coordinates": [-95.9401744342, 36.0947713532]}, "type": "Feature", "properties": {"collection_times": [{"days": "Mon-Fri", "time": "2:30pm"}, {"days": "Sat-Sun", "time": "Closed"}], "id": "7413500000", "name": "USPS COLLECTION BOX - BLUE BOX", "address": {"city": "TULSA", "state": "OK", "street": "4720 S HARVARD AVE", "postcode": "74135"}}},
{"geometry": {"type": "Point", "coordinates": [-95.9402292659, 36.1177358232]}, "type": "Feature", "properties": {"collection_times": [{"days": "Mon-Fri", "time": "3:30pm"}, {"days": "Sat-Sun", "time": "Closed"}], "id": "7413500004", "name": "USPS COLLECTION BOX - BLUE BOX", "address": {"city": "TULSA", "state": "OK", "street": "3133 S HARVARD AVE", "postcode": "74135"}}},
{"geometry": {"type": "Point", "coordinates": [-95.9401729629, 36.1076549905]}, "type": "Feature", "properties": {"collection_times": [{"days": "Mon-Fri", "time": "3:30pm"}, {"days": "Sat-Sun", "time": "Closed"}], "id": "7413500006", "name": "USPS COLLECTION BOX - BLUE BOX", "address": {"city": "TULSA", "state": "OK", "street": "3815 S HARVARD AVE", "postcode": "74135"}}},
{"geometry": {"type": "Point", "coordinates": [-95.9074525451, 36.1063566035]}, "type": "Feature", "properties": {"collection_times": [{"days": "Mon-Fri", "time": "4:00pm"}, {"days": "Sat-Sun", "time": "Closed"}], "id": "7413500017", "name": "USPS COLLECTION BOX - BLUE BOX", "address": {"city": "TULSA", "state": "OK", "street": "6111 E SKELLY DR", "postcode": "74135"}}},
{"geometry": {"type": "Point", "coordinates": [-95.9289492755, 36.0915577868]}, "type": "Feature", "properties": {"collection_times": [{"days": "Mon-Fri", "time": "2:30pm"}, {"days": "Sat-Sun", "time": "Closed"}], "id": "7413500025", "name": "USPS COLLECTION BOX - BLUE BOX", "address": {"city": "TULSA", "state": "OK", "street": "4200 E SKELLY DR", "postcode": "74135"}}},
{"geometry": {"type": "Point", "coordinates": [-95.9289492755, 36.0915577868]}, "type": "Feature", "properties": {"collection_times": [{"days": "Mon-Fri", "time": "2:30pm"}, {"days": "Sat-Sun", "time": "Closed"}], "id": "7413500026", "name": "USPS COLLECTION BOX - BLUE BOX", "address": {"city": "TULSA", "state": "OK", "street": "4200 E SKELLY DR", "postcode": "74135"}}},
{"geometry": {"type": "Point", "coordinates": [-95.90705998, 36.1188643788]}, "type": "Feature", "properties": {"collection_times": [{"days": "Mon-Fri", "time": "3:00pm"}, {"days": "Sat-Sun", "time": "Closed"}], "id": "7413500046", "name": "USPS COLLECTION BOX - BLUE BOX", "address": {"city": "TULSA", "state": "OK", "street": "6108 E 31ST ST", "postcode": "74135"}}},
{"geometry": {"type": "Point", "coordinates": [-95.9136850796, 36.1043975543]}, "type": "Feature", "properties": {"collection_times": [{"days": "Mon-Fri", "time": "4:00pm"}, {"days": "Sat-Sun", "time": "Closed"}], "id": "7413500052", "name": "USPS COLLECTION BOX - BLUE BOX", "address": {"city": "TULSA", "state": "OK", "street": "5609 E 41ST ST", "postcode": "74135"}}},
{"geometry": {"type": "Point", "coordinates": [-95.9063830109, 36.0891231206]}, "type": "Feature", "properties": {"collection_times": [{"days": "Mon-Fri", "time": "5:00pm"}, {"days": "Sat", "time": "4:15pm"}, {"days": "Sun", "time": "Closed"}], "id": "7413500058", "name": "USPS COLLECTION BOX - BLUE BOX", "address": {"city": "TULSA", "state": "OK", "street": "6110 E 51ST PL", "postcode": "74135"}}},
{"geometry": {"type": "Point", "coordinates": [-95.940068694, 36.0896898884]}, "type": "Feature", "properties": {"collection_times": [{"days": "Mon-Fri", "time": "3:00pm"}, {"days": "Sat-Sun", "time": "Closed"}], "id": "7413500081", "name": "USPS COLLECTION BOX - BLUE BOX", "address": {"city": "TULSA", "state": "OK", "street": "5101 S HARVARD AVE", "postcode": "74135"}}},
{"geometry": {"type": "Point", "coordinates": [-95.940068694, 36.0896898884]}, "type": "Feature", "properties": {"collection_times": [{"days": "Mon-Fri", "time": "3:00pm"}, {"days": "Sat-Sun", "time": "Closed"}], "id": "7413500083", "name": "USPS COLLECTION BOX - BLUE BOX", "address": {"city": "TULSA", "state": "OK", "street": "5101 S HARVARD AVE", "postcode": "74135"}}},
{"geometry": {"type": "Point", "coordinates": [-95.9223641174, 36.0893307039]}, "type": "Feature", "properties": {"collection_times": [{"days": "Mon-Fri", "time": "3:45pm"}, {"days": "Sat-Sun", "time": "Closed"}], "id": "7413500086", "name": "USPS COLLECTION BOX - BLUE BOX", "address": {"city": "TULSA", "state": "OK", "street": "5110 S YALE AVE", "postcode": "74135"}}},
{"geometry": {"type": "Point", "coordinates": [-95.9070487479, 36.0898270853]}, "type": "Feature", "properties": {"collection_times": [{"days": "Mon-Fri", "time": "5:00pm"}, {"days": "Sat", "time": "4:15pm"}, {"days": "Sun", "time": "Closed"}], "id": "7413500096", "name": "USPS COLLECTION BOX - PO LOBBY", "address": {"city": "TULSA", "state": "OK", "street": "6110 E 51ST PL/STAMPED", "postcode": "74135"}}},
{"geometry": {"type": "Point", "coordinates": [-95.9064247906, 36.0891225218]}, "type": "Feature", "properties": {"collection_times": [{"days": "Mon-Fri", "time": "5:00pm"}, {"days": "Sat", "time": "4:15pm"}, {"days": "Sun", "time": "Closed"}], "id": "7413500100", "name": "USPS COLLECTION BOX - APC", "address": {"city": "TULSA", "state": "OK", "street": "6110 E 51ST PL", "postcode": "74135"}}},
{"geometry": {"type": "Point", "coordinates": [-95.906383011, 36.089123121]}, "type": "Feature", "properties": {"collection_times": [{"days": "Mon-Fri", "time": "5:00pm"}, {"days": "Sat", "time": "4:15pm"}, {"days": "Sun", "time": "Closed"}], "id": "7413500101", "name": "USPS COLLECTION BOX - BLUE BOX", "address": {"city": "TULSA", "state": "OK", "street": "6110 E 51ST PL", "postcode": "74135"}}},
{"geometry": {"type": "Point", "coordinates": [-95.965933791, 36.060850477]}, "type": "Feature", "properties": {"collection_times": [{"days": "Mon-Fri", "time": "3:30pm"}, {"days": "Sat-Sun", "time": "Closed"}], "id": "7413600000", "name": "USPS COLLECTION BOX - BLUE BOX", "address": {"city": "TULSA", "state": "OK", "street": "1719 E 71ST ST", "postcode": "74136"}}},
{"geometry": {"type": "Point", "coordinates": [-95.9609230277, 36.0636899586]}, "type": "Feature", "properties": {"collection_times": [{"days": "Mon-Fri", "time": "5:00pm"}, {"days": "Sat", "time": "4:30pm"}, {"days": "Sun", "time": "Closed"}], "id": "7413600003", "name": "USPS COLLECTION BOX - BLUE BOX", "address": {"city": "TULSA", "state": "OK", "street": "6910 S YORKTOWN AVE", "postcode": "74136"}}},
{"geometry": {"type": "Point", "coordinates": [-95.9609230277, 36.0636899586]}, "type": "Feature", "properties": {"collection_times": [{"days": "Mon-Fri", "time": "5:00pm"}, {"days": "Sat", "time": "4:30pm"}, {"days": "Sun", "time": "Closed"}], "id": "7413600004", "name": "USPS COLLECTION BOX - BLUE BOX", "address": {"city": "TULSA", "state": "OK", "street": "6910 S YORKTOWN AVE", "postcode": "74136"}}},
{"geometry": {"type": "Point", "coordinates": [-95.9579270383, 36.0693157923]}, "type": "Feature", "properties": {"collection_times": [{"days": "Mon-Fri", "time": "4:30pm"}, {"days": "Sat-Sun", "time": "Closed"}], "id": "7413600011", "name": "USPS COLLECTION BOX - BLUE BOX", "address": {"city": "TULSA", "state": "OK", "street": "6506 S LEWIS AVE", "postcode": "74136"}}},
{"geometry": {"type": "Point", "coordinates": [-95.9187088724, 36.0622006759]}, "type": "Feature", "properties": {"collection_times": [{"days": "Mon-Fri", "time": "3:00pm"}, {"days": "Sat-Sun", "time": "Closed"}], "id": "7413600031", "name": "USPS COLLECTION BOX - BLUE BOX", "address": {"city": "TULSA", "state": "OK", "street": "6929 S CANTON AVE", "postcode": "74136"}}},
{"geometry": {"type": "Point", "coordinates": [-95.9423891832, 36.0614941406]}, "type": "Feature", "properties": {"collection_times": [{"days": "Mon-Fri", "time": "3:30pm"}, {"days": "Sat-Sun", "time": "Closed"}], "id": "7413600038", "name": "USPS COLLECTION BOX - BLUE BOX", "address": {"city": "TULSA", "state": "OK", "street": "6565 S YALE AVE", "postcode": "74136"}}},
{"geometry": {"type": "Point", "coordinates": [-95.9423891832, 36.0614941406]}, "type": "Feature", "properties": {"collection_times": [{"days": "Mon-Fri", "time": "3:30pm"}, {"days": "Sat-Sun", "time": "Closed"}], "id": "7413600045", "name": "USPS COLLECTION BOX - BLUE BOX", "address": {"city": "TULSA", "state": "OK", "street": "6465 S YALE AVE", "postcode": "74136"}}},
{"geometry": {"type": "Point", "coordinates": [-95.9221780183, 36.0622121238]}, "type": "Feature", "properties": {"collection_times": [{"days": "Mon-Fri", "time": "4:15pm"}, {"days": "Sat-Sun", "time": "Closed"}], "id": "7413600055", "name": "USPS COLLECTION BOX - BLUE BOX", "address": {"city": "TULSA", "state": "OK", "street": "7060 S YALE AVE", "postcode": "74136"}}},
{"geometry": {"type": "Point", "coordinates": [-95.922188665, 36.0618477724]}, "type": "Feature", "properties": {"collection_times": [{"days": "Mon-Fri", "time": "4:15pm"}, {"days": "Sat-Sun", "time": "Closed"}], "id": "7413600057", "name": "USPS COLLECTION BOX - BLUE BOX", "address": {"city": "TULSA", "state": "OK", "street": "7030 S YALE AVE", "postcode": "74136"}}},
{"geometry": {"type": "Point", "coordinates": [-95.9222449186, 36.0612004535]}, "type": "Feature", "properties": {"collection_times": [{"days": "Mon-Fri", "time": "4:15pm"}, {"days": "Sat-Sun", "time": "Closed"}], "id": "7413600058", "name": "USPS COLLECTION BOX - BLUE BOX", "address": {"city": "TULSA", "state": "OK", "street": "7050 S YALE AVE", "postcode": "74136"}}},
{"geometry": {"type": "Point", "coordinates": [-95.9222545584, 36.0600505012]}, "type": "Feature", "properties": {"collection_times": [{"days": "Mon-Fri", "time": "4:30pm"}, {"days": "Sat-Sun", "time": "Closed"}], "id": "7413600060", "name": "USPS COLLECTION BOX - BLUE BOX", "address": {"city": "TULSA", "state": "OK", "street": "7134 S YALE AVE", "postcode": "74136"}}},
{"geometry": {"type": "Point", "coordinates": [-95.957907778, 36.076712449]}, "type": "Feature", "properties": {"collection_times": [{"days": "Mon-Fri", "time": "4:30pm"}, {"days": "Sat-Sun", "time": "Closed"}], "id": "7413600062", "name": "USPS COLLECTION BOX - BLUE BOX", "address": {"city": "TULSA", "state": "OK", "street": "5951 S LEWIS AVE", "postcode": "74136"}}},
{"geometry": {"type": "Point", "coordinates": [-95.9423891832, 36.0614941406]}, "type": "Feature", "properties": {"collection_times": [{"days": "Mon-Fri", "time": "3:30pm"}, {"days": "Sat-Sun", "time": "Closed"}], "id": "7413600079", "name": "USPS COLLECTION BOX - BLUE BOX", "address": {"city": "TULSA", "state": "OK", "street": "6565 S YALE AVE", "postcode": "74136"}}},
{"geometry": {"type": "Point", "coordinates": [-95.9222052264, 36.0671568922]}, "type": "Feature", "properties": {"collection_times": [{"days": "Mon-Fri", "time": "4:00pm"}, {"days": "Sat-Sun", "time": "Closed"}], "id": "7413600080", "name": "USPS COLLECTION BOX - BLUE BOX", "address": {"city": "TULSA", "state": "OK", "street": "6600 S YALE AVE", "postcode": "74136"}}},
{"geometry": {"type": "Point", "coordinates": [-95.9610673865, 36.0629082832]}, "type": "Feature", "properties": {"collection_times": [{"days": "Mon-Fri", "time": "5:00pm"}, {"days": "Sat", "time": "4:30pm"}, {"days": "Sun", "time": "Closed"}], "id": "7413600090", "name": "USPS COLLECTION BOX - PO LOBBY", "address": {"city": "TULSA", "state": "OK", "street": "6910 S YORKTOWN AVE", "postcode": "74136"}}},
{"geometry": {"type": "Point", "coordinates": [-95.9244755541, 36.0608768729]}, "type": "Feature", "properties": {"collection_times": [{"days": "Mon-Fri", "time": "5:00pm"}, {"days": "Sat", "time": "4:30pm"}, {"days": "Sun", "time": "Closed"}], "id": "7413600091", "name": "USPS COLLECTION BOX - PO LOBBY", "address": {"city": "TULSA", "state": "OK", "street": "6910 S YORKTOWN AVE", "postcode": "74136"}}},
{"geometry": {"type": "Point", "coordinates": [-95.9244755541, 36.0608768729]}, "type": "Feature", "properties": {"collection_times": [{"days": "Mon-Fri", "time": "5:00pm"}, {"days": "Sat", "time": "4:30pm"}, {"days": "Sun", "time": "Closed"}], "id": "7413600092", "name": "USPS COLLECTION BOX - PO LOBBY", "address": {"city": "TULSA", "state": "OK", "street": "6910 S YORKTOWN AVE", "postcode": "74136"}}},
{"geometry": {"type": "Point", "coordinates": [-95.9610673865, 36.0629082832]}, "type": "Feature", "properties": {"collection_times": [{"days": "Mon-Fri", "time": "5:00pm"}, {"days": "Sat", "time": "4:30pm"}, {"days": "Sun", "time": "Closed"}], "id": "7413600094", "name": "USPS COLLECTION BOX - APC", "address": {"city": "TULSA", "state": "OK", "street": "6910 S YORKTOWN AVE", "postcode": "74136"}}},
{"geometry": {"type": "Point", "coordinates": [-95.9609230277, 36.0636899586]}, "type": "Feature", "properties": {"collection_times": [{"days": "Mon-Fri", "time": "5:00pm"}, {"days": "Sat", "time": "4:30pm"}, {"days": "Sun", "time": "Closed"}], "id": "7413600095", "name": "USPS COLLECTION BOX - BLUE BOX", "address": {"city": "TULSA", "state": "OK", "street": "6910 S YORKTOWN AVE", "postcode": "74136"}}},
{"geometry": {"type": "Point", "coordinates": [-96.0117293552, 36.0619862614]}, "type": "Feature", "properties": {"collection_times": [{"days": "Mon-Fri", "time": "3:45pm"}, {"days": "Sat-Sun", "time": "Closed"}], "id": "7413600098", "name": "USPS COLLECTION BOX - BLUE BOX", "address": {"city": "TULSA", "state": "OK", "street": "7042 S UNION AVE", "postcode": "74136"}}},
{"geometry": {"type": "Point", "coordinates": [-95.92212402, 36.03353025]}, "type": "Feature", "properties": {"collection_times": [{"days": "Mon-Fri", "time": "2:30pm"}, {"days": "Sat-Sun", "time": "Closed"}], "id": "7413700008", "name": "USPS COLLECTION BOX - BLUE BOX", "address": {"city": "TULSA", "state": "OK", "street": "8908 S YALE AVE", "postcode": "74137"}}},
{"geometry": {"type": "Point", "coordinates": [-95.9492984459, 36.0200254487]}, "type": "Feature", "properties": {"collection_times": [{"days": "Mon-Fri", "time": "2:30pm"}, {"days": "Sat-Sun", "time": "Closed"}], "id": "7413700010", "name": "USPS COLLECTION BOX - BLUE BOX", "address": {"city": "TULSA", "state": "OK", "street": "9934 RIVERSIDE PKWY", "postcode": "74137"}}},
{"geometry": {"type": "Point", "coordinates": [-95.8755553335, 36.1322196403]}, "type": "Feature", "properties": {"collection_times": [{"days": "Mon-Fri", "time": "8:30pm"}, {"days": "Sat", "time": "7:00pm"}, {"days": "Sun", "time": "Closed"}], "id": "7414100005", "name": "USPS COLLECTION BOX - BLUE BOX", "address": {"city": "TULSA", "state": "OK", "street": "2132 S 91ST EAST AVE", "postcode": "74141"}}},
{"geometry": {"type": "Point", "coordinates": [-95.9043950487, 36.0925321807]}, "type": "Feature", "properties": {"collection_times": [{"days": "Mon-Fri", "time": "2:30pm"}, {"days": "Sat-Sun", "time": "Closed"}], "id": "7414500007", "name": "USPS COLLECTION BOX - BLUE BOX", "address": {"city": "TULSA", "state": "OK", "street": "4845 S SHERIDAN RD", "postcode": "74145"}}},
{"geometry": {"type": "Point", "coordinates": [-95.8866644073, 36.1158451173]}, "type": "Feature", "properties": {"collection_times": [{"days": "Mon-Fri", "time": "3:00pm"}, {"days": "Sat-Sun", "time": "Closed"}], "id": "7414500017", "name": "USPS COLLECTION BOX - BLUE BOX", "address": {"city": "TULSA", "state": "OK", "street": "3220 S MEMORIAL DR", "postcode": "74145"}}},
{"geometry": {"type": "Point", "coordinates": [-95.8875019422, 36.0899335841]}, "type": "Feature", "properties": {"collection_times": [{"days": "Mon-Fri", "time": "4:30pm"}, {"days": "Sat-Sun", "time": "Closed"}], "id": "7414500035", "name": "USPS COLLECTION BOX - BLUE BOX", "address": {"city": "TULSA", "state": "OK", "street": "7990 E 51ST ST", "postcode": "74145"}}},
{"geometry": {"type": "Point", "coordinates": [-95.8733735867, 36.1188929974]}, "type": "Feature", "properties": {"collection_times": [{"days": "Mon-Fri", "time": "3:15pm"}, {"days": "Sat-Sun", "time": "Closed"}], "id": "7414500038", "name": "USPS COLLECTION BOX - BLUE BOX", "address": {"city": "TULSA", "state": "OK", "street": "9126 E 31ST ST", "postcode": "74145"}}},
{"geometry": {"type": "Point", "coordinates": [-95.8765271675, 36.0978920562]}, "type": "Feature", "properties": {"collection_times": [{"days": "Mon-Fri", "time": "5:00pm"}, {"days": "Sat", "time": "4:00pm"}, {"days": "Sun", "time": "Closed"}], "id": "7414500049", "name": "USPS COLLECTION BOX - APC", "address": {"city": "TULSA", "state": "OK", "street": "9023 E 46TH ST", "postcode": "74145"}}},
{"geometry": {"type": "Point", "coordinates": [-95.854607037, 36.1045010051]}, "type": "Feature", "properties": {"collection_times": [{"days": "Mon-Fri", "time": "3:45pm"}, {"days": "Sat-Sun", "time": "Closed"}], "id": "7414600001", "name": "USPS COLLECTION BOX - BLUE BOX", "address": {"city": "TULSA", "state": "OK", "street": "4500 S GARNETT RD", "postcode": "74146"}}},
{"geometry": {"type": "Point", "coordinates": [-95.8679204225, 36.1023582022]}, "type": "Feature", "properties": {"collection_times": [{"days": "Mon-Fri", "time": "3:15pm"}, {"days": "Sat-Sun", "time": "Closed"}], "id": "7414600013", "name": "USPS COLLECTION BOX - BLUE BOX", "address": {"city": "TULSA", "state": "OK", "street": "9717 E 42ND ST", "postcode": "74146"}}},
{"geometry": {"type": "Point", "coordinates": [-95.8540928151, 36.1044650521]}, "type": "Feature", "properties": {"collection_times": [{"days": "Mon-Fri", "time": "3:15pm"}, {"days": "Sat-Sun", "time": "Closed"}], "id": "7414600017", "name": "USPS COLLECTION BOX - BLUE BOX", "address": {"city": "TULSA", "state": "OK", "street": "11005 E 41ST ST", "postcode": "74146"}}},
{"geometry": {"type": "Point", "coordinates": [-95.854607037, 36.1045010051]}, "type": "Feature", "properties": {"collection_times": [{"days": "Mon-Fri", "time": "3:30pm"}, {"days": "Sat-Sun", "time": "Closed"}], "id": "7414600022", "name": "USPS COLLECTION BOX - BLUE BOX", "address": {"city": "TULSA", "state": "OK", "street": "10810 E 45TH ST", "postcode": "74146"}}},
{"geometry": {"type": "Point", "coordinates": [-95.8678403262, 36.0862785254]}, "type": "Feature", "properties": {"collection_times": [{"days": "Mon-Fri", "time": "4:00pm"}, {"days": "Sat-Sun", "time": "Closed"}], "id": "7414600026", "name": "USPS COLLECTION BOX - BLUE BOX", "address": {"city": "TULSA", "state": "OK", "street": "9730 E 54TH ST", "postcode": "74146"}}},
{"geometry": {"type": "Point", "coordinates": [-95.8482450913, 36.1190297621]}, "type": "Feature", "properties": {"collection_times": [{"days": "Mon-Fri", "time": "2:00pm"}, {"days": "Sat-Sun", "time": "Closed"}], "id": "7414600040", "name": "USPS COLLECTION BOX - BLUE BOX", "address": {"city": "TULSA", "state": "OK", "street": "11515 E 31ST ST", "postcode": "74146"}}},
{"geometry": {"type": "Point", "coordinates": [-95.8404422282, 36.0836516795]}, "type": "Feature", "properties": {"collection_times": [{"days": "Mon-Fri", "time": "3:45pm"}, {"days": "Sat-Sun", "time": "Closed"}], "id": "7414600054", "name": "USPS COLLECTION BOX - BLUE BOX", "address": {"city": "TULSA", "state": "OK", "street": "5615 S 122ND EAST AVE", "postcode": "74146"}}},
{"geometry": {"type": "Point", "coordinates": [-95.854607037, 36.1045010051]}, "type": "Feature", "properties": {"collection_times": [{"days": "Mon-Fri", "time": "3:45pm"}, {"days": "Sat-Sun", "time": "Closed"}], "id": "7414600064", "name": "USPS COLLECTION BOX - BLUE BOX", "address": {"city": "TULSA", "state": "OK", "street": "4500 S GARNETT RD", "postcode": "74146"}}},
{"geometry": {"type": "Point", "coordinates": [-95.854607037, 36.1045010051]}, "type": "Feature", "properties": {"collection_times": [{"days": "Mon-Fri", "time": "3:45pm"}, {"days": "Sat-Sun", "time": "Closed"}], "id": "7414600070", "name": "USPS COLLECTION BOX - BLUE BOX", "address": {"city": "TULSA", "state": "OK", "street": "10820 E 45TH ST", "postcode": "74146"}}},
{"geometry": {"type": "Point", "coordinates": [-95.854607037, 36.1045010051]}, "type": "Feature", "properties": {"collection_times": [{"days": "Mon-Fri", "time": "3:45pm"}, {"days": "Sat-Sun", "time": "Closed"}], "id": "7414600072", "name": "USPS COLLECTION BOX - BLUE BOX", "address": {"city": "TULSA", "state": "OK", "street": "10830 E 45TH ST", "postcode": "74146"}}},
{"geometry": {"type": "Point", "coordinates": [-95.851004008, 36.080024548]}, "type": "Feature", "properties": {"collection_times": [{"days": "Mon-Fri", "time": "4:00pm"}, {"days": "Sat-Sun", "time": "Closed"}], "id": "7414600074", "name": "USPS COLLECTION BOX - BLUE BOX", "address": {"city": "TULSA", "state": "OK", "street": "5727 S GARNETT RD", "postcode": "74146"}}},
{"geometry": {"type": "Point", "coordinates": [-95.851004008, 36.080024548]}, "type": "Feature", "properties": {"collection_times": [{"days": "Mon-Fri", "time": "4:00pm"}, {"days": "Sat-Sun", "time": "Closed"}], "id": "7414600075", "name": "USPS COLLECTION BOX - BLUE BOX", "address": {"city": "TULSA", "state": "OK", "street": "5727 S GARNETT RD", "postcode": "74146"}}},
{"geometry": {"type": "Point", "coordinates": [-95.8452856856, 36.0998278529]}, "type": "Feature", "properties": {"collection_times": [{"days": "Mon-Fri", "time": "3:15pm"}, {"days": "Sat-Sun", "time": "Closed"}], "id": "7414600081", "name": "USPS COLLECTION BOX - BLUE BOX", "address": {"city": "TULSA", "state": "OK", "street": "4343 S 118TH EAST AVE", "postcode": "74146"}}},
{"geometry": {"type": "Point", "coordinates": [-95.9646037723, 36.1319329594]}, "type": "Feature", "properties": {"collection_times": [{"days": "Mon-Fri", "time": "5:00pm"}, {"days": "Sat-Sun", "time": "Closed"}], "id": "7415200000", "name": "USPS COLLECTION BOX - PO LOBBY", "address": {"city": "TULSA", "state": "OK", "street": "2032 UTICA SQ", "postcode": "74152"}}},
{"geometry": {"type": "Point", "coordinates": [-95.9646037723, 36.1319329594]}, "type": "Feature", "properties": {"collection_times": [{"days": "Mon-Fri", "time": "5:00pm"}, {"days": "Sat", "time": "2:00pm"}, {"days": "Sun", "time": "Closed"}], "id": "7415200003", "name": "USPS COLLECTION BOX - APC", "address": {"city": "TULSA", "state": "OK", "street": "2032 UTICA SQ", "postcode": "74152"}}}
]}
