{"type": "FeatureCollection", "features": [
{"geometry": {"type": "Point", "coordinates": [-95.154128082, 36.6387029209]}, "type": "Feature", "properties": {"collection_times": [{"days": "Mon-Fri", "time": "5:00pm"}, {"days": "Sat", "time": "4:30pm"}, {"days": "Sun", "time": "Closed"}], "id": "7430100000", "name": "USPS COLLECTION BOX - BLUE BOX", "address": {"city": "VINITA", "state": "OK", "street": "120 E ILLINOIS AVE", "postcode": "74301"}}},
{"geometry": {"type": "Point", "coordinates": [-95.1579508895, 36.6356211266]}, "type": "Feature", "properties": {"collection_times": [{"days": "Mon-Fri", "time": "3:00pm"}, {"days": "Sat-Sun", "time": "Closed"}], "id": "7430100006", "name": "USPS COLLECTION BOX - BLUE BOX", "address": {"city": "VINITA", "state": "OK", "street": "210 W DELAWARE AVE", "postcode": "74301"}}},
{"geometry": {"type": "Point", "coordinates": [-95.1555642687, 36.6392945696]}, "type": "Feature", "properties": {"collection_times": [{"days": "Mon-Sat", "time": "3:00pm"}, {"days": "Sun", "time": "Closed"}], "id": "7430100008", "name": "USPS COLLECTION BOX - BLUE BOX", "address": {"city": "VINITA", "state": "OK", "street": "102 N SCRAPER ST", "postcode": "74301"}}},
{"geometry": {"type": "Point", "coordinates": [-95.1564964699, 36.635359874]}, "type": "Feature", "properties": {"collection_times": [{"days": "Mon-Sat", "time": "3:00pm"}, {"days": "Sun", "time": "Closed"}], "id": "7430100009", "name": "USPS COLLECTION BOX - BLUE BOX", "address": {"city": "VINITA", "state": "OK", "street": "305 S WILSON ST", "postcode": "74301"}}},
{"geometry": {"type": "Point", "coordinates": [-95.154128082, 36.6387029209]}, "type": "Feature", "properties": {"collection_times": [{"days": "Mon-Fri", "time": "5:00pm"}, {"days": "Sat", "time": "4:30pm"}, {"days": "Sun", "time": "Closed"}], "id": "7430100011", "name": "USPS COLLECTION BOX - PO LOBBY", "address": {"city": "VINITA", "state": "OK", "street": "120 E ILLINOIS AVE", "postcode": "74301"}}},
{"geometry": {"type": "Point", "coordinates": [-95.154128082, 36.6387029209]}, "type": "Feature", "properties": {"collection_times": [{"days": "Mon-Fri", "time": "5:00pm"}, {"days": "Sat", "time": "4:30pm"}, {"days": "Sun", "time": "Closed"}], "id": "7430100012", "name": "USPS COLLECTION BOX - PO LOBBY", "address": {"city": "VINITA", "state": "OK", "street": "120 E ILLINOIS AVE", "postcode": "74301"}}},
{"geometry": {"type": "Point", "coordinates": [-95.154128082, 36.6387029209]}, "type": "Feature", "properties": {"collection_times": [{"days": "Mon-Fri", "time": "5:00pm"}, {"days": "Sat", "time": "4:30pm"}, {"days": "Sun", "time": "Closed"}], "id": "7430100013", "name": "USPS COLLECTION BOX - BLUE BOX", "address": {"city": "VINITA", "state": "OK", "street": "120 E ILLINOIS AVE", "postcode": "74301"}}},
{"geometry": {"type": "Point", "coordinates": [-95.154128082, 36.6387029209]}, "type": "Feature", "properties": {"collection_times": [{"days": "Mon-Fri", "time": "5:00pm"}, {"days": "Sat", "time": "4:30pm"}, {"days": "Sun", "time": "Closed"}], "id": "7430100014", "name": "USPS COLLECTION BOX - BLUE BOX", "address": {"city": "VINITA", "state": "OK", "street": "120 E ILLINOIS AVE", "postcode": "74301"}}},
{"geometry": {"type": "Point", "coordinates": [-95.2814296783, 36.4192826794]}, "type": "Feature", "properties": {"collection_times": [{"days": "Mon-Fri", "time": "4:00pm"}, {"days": "Sat", "time": "10:00am"}, {"days": "Sun", "time": "Closed"}], "id": "7433000000", "name": "USPS COLLECTION BOX - BLUE BOX", "address": {"city": "ADAIR", "state": "OK", "street": "103 S WILLIAM PENN", "postcode": "74330"}}},
{"geometry": {"type": "Point", "coordinates": [-95.2814296783, 36.4192826794]}, "type": "Feature", "properties": {"collection_times": [{"days": "Mon-Fri", "time": "4:00pm"}, {"days": "Sat", "time": "10:00am"}, {"days": "Sun", "time": "Closed"}], "id": "7433000001", "name": "USPS COLLECTION BOX - PO LOBBY", "address": {"city": "ADAIR", "state": "OK", "street": "103 S WILLIAM PENN", "postcode": "74330"}}},
{"geometry": {"type": "Point", "coordinates": [-94.9643935429, 36.6933811644]}, "type": "Feature", "properties": {"collection_times": [{"days": "Mon-Fri", "time": "3:45pm"}, {"days": "Sat", "time": "9:00am"}, {"days": "Sun", "time": "Closed"}], "id": "7433100000", "name": "USPS COLLECTION BOX - BLUE BOX", "address": {"city": "AFTON", "state": "OK", "street": "101 SW 1ST ST", "postcode": "74331"}}},
{"geometry": {"type": "Point", "coordinates": [-94.9642624699, 36.6933724558]}, "type": "Feature", "properties": {"collection_times": [{"days": "Mon-Fri", "time": "3:30pm"}, {"days": "Sat", "time": "9:00am"}, {"days": "Sun", "time": "Closed"}], "id": "7433100001", "name": "USPS COLLECTION BOX - BLUE BOX", "address": {"city": "AFTON", "state": "OK", "street": "100 N WALNUT", "postcode": "74331"}}},
{"geometry": {"type": "Point", "coordinates": [-94.9643935429, 36.6933811644]}, "type": "Feature", "properties": {"collection_times": [{"days": "Mon-Fri", "time": "4:00pm"}, {"days": "Sat-Sun", "time": "Closed"}], "id": "7433100002", "name": "USPS COLLECTION BOX - PO LOBBY", "address": {"city": "AFTON", "state": "OK", "street": "101 SW 1ST ST", "postcode": "74331"}}},
{"geometry": {"type": "Point", "coordinates": [-94.9455797464, 36.7141400368]}, "type": "Feature", "properties": {"collection_times": [{"days": "Mon-Sat", "time": "11:45am"}, {"days": "Sun", "time": "Closed"}], "id": "7433100005", "name": "USPS COLLECTION BOX - BLUE BOX", "address": {"city": "AFTON", "state": "OK", "street": "209 S BROADWAY", "postcode": "74331"}}},
{"geometry": {"type": "Point", "coordinates": [-95.2216271487, 36.5379693597]}, "type": "Feature", "properties": {"collection_times": [{"days": "Mon-Fri", "time": "2:30pm"}, {"days": "Sat", "time": "9:00am"}, {"days": "Sun", "time": "Closed"}], "id": "7433200002", "name": "USPS COLLECTION BOX - PO LOBBY", "address": {"city": "BIG CABIN", "state": "OK", "street": "104 W MAIN ST", "postcode": "74332"}}},
{"geometry": {"type": "Point", "coordinates": [-95.2216271487, 36.5379693597]}, "type": "Feature", "properties": {"collection_times": [{"days": "Mon-Fri", "time": "2:30pm"}, {"days": "Sat", "time": "9:00am"}, {"days": "Sun", "time": "Closed"}], "id": "7433200003", "name": "USPS COLLECTION BOX - PO LOBBY", "address": {"city": "BIG CABIN", "state": "OK", "street": "104 W MAIN ST", "postcode": "74332"}}},
{"geometry": {"type": "Point", "coordinates": [-95.1202117821, 36.8011527503]}, "type": "Feature", "properties": {"collection_times": [{"days": "Mon-Fri", "time": "4:30pm"}, {"days": "Sat", "time": "11:30am"}, {"days": "Sun", "time": "Closed"}], "id": "7433300002", "name": "USPS COLLECTION BOX - PO LOBBY", "address": {"city": "BLUEJACKET", "state": "OK", "street": "210 E MAIN ST", "postcode": "74333"}}},
{"geometry": {"type": "Point", "coordinates": [-95.3444838146, 36.1859953592]}, "type": "Feature", "properties": {"collection_times": [{"days": "Mon-Fri", "time": "4:00pm"}, {"days": "Sat", "time": "11:00am"}, {"days": "Sun", "time": "Closed"}], "id": "7433700000", "name": "USPS COLLECTION BOX - BLUE BOX", "address": {"city": "CHOUTEAU", "state": "OK", "street": "125 RAILROAD ST", "postcode": "74337"}}},
{"geometry": {"type": "Point", "coordinates": [-95.3444838146, 36.1859953592]}, "type": "Feature", "properties": {"collection_times": [{"days": "Mon-Fri", "time": "4:15pm"}, {"days": "Sat", "time": "11:00am"}, {"days": "Sun", "time": "Closed"}], "id": "7433700002", "name": "USPS COLLECTION BOX - PO LOBBY", "address": {"city": "CHOUTEAU", "state": "OK", "street": "125 RAILROAD ST", "postcode": "74337"}}},
{"geometry": {"type": "Point", "coordinates": [-94.6977593689, 36.2640713593]}, "type": "Feature", "properties": {"collection_times": [{"days": "Mon-Fri", "time": "3:30pm"}, {"days": "Sat", "time": "10:45am"}, {"days": "Sun", "time": "Closed"}], "id": "7433800000", "name": "USPS COLLECTION BOX - BLUE BOX", "address": {"city": "COLCORD", "state": "OK", "street": "367 W MAIN", "postcode": "74338"}}},
{"geometry": {"type": "Point", "coordinates": [-94.6977593689, 36.2640713593]}, "type": "Feature", "properties": {"collection_times": [{"days": "Mon-Fri", "time": "3:45pm"}, {"days": "Sat", "time": "11:00am"}, {"days": "Sun", "time": "Closed"}], "id": "7433800001", "name": "USPS COLLECTION BOX - PO LOBBY", "address": {"city": "COLCORD", "state": "OK", "street": "367 W MAIN", "postcode": "74338"}}},
{"geometry": {"type": "Point", "coordinates": [-94.8752579182, 36.9333126923]}, "type": "Feature", "properties": {"collection_times": [{"days": "Mon-Fri", "time": "3:30pm"}, {"days": "Sat", "time": "9:45am"}, {"days": "Sun", "time": "Closed"}], "id": "7433900001", "name": "USPS COLLECTION BOX - PO LOBBY", "address": {"city": "COMMERCE", "state": "OK", "street": "301 COMMERCE ST", "postcode": "74339"}}},
{"geometry": {"type": "Point", "coordinates": [-94.8752579182, 36.9333126923]}, "type": "Feature", "properties": {"collection_times": [{"days": "Mon-Fri", "time": "3:30pm"}, {"days": "Sat", "time": "9:45am"}, {"days": "Sun", "time": "Closed"}], "id": "7433900002", "name": "USPS COLLECTION BOX - PO LOBBY", "address": {"city": "COMMERCE", "state": "OK", "street": "301 COMMERCE ST", "postcode": "74339"}}},
{"geometry": {"type": "Point", "coordinates": [-95.0160611368, 36.4810569909]}, "type": "Feature", "properties": {"collection_times": [{"days": "Mon-Fri", "time": "3:45pm"}, {"days": "Sat", "time": "10:15am"}, {"days": "Sun", "time": "Closed"}], "id": "7434000000", "name": "USPS COLLECTION BOX - BLUE BOX", "address": {"city": "DISNEY", "state": "OK", "street": "303 E MAIN ST", "postcode": "74340"}}},
{"geometry": {"type": "Point", "coordinates": [-95.0160611368, 36.4810569909]}, "type": "Feature", "properties": {"collection_times": [{"days": "Mon-Fri", "time": "3:45pm"}, {"days": "Sat", "time": "10:15am"}, {"days": "Sun", "time": "Closed"}], "id": "7434000001", "name": "USPS COLLECTION BOX - PO LOBBY", "address": {"city": "DISNEY", "state": "OK", "street": "303 E MAIN ST", "postcode": "74340"}}},
{"geometry": {"type": "Point", "coordinates": [-95.0160611368, 36.4810569909]}, "type": "Feature", "properties": {"collection_times": [{"days": "Mon-Fri", "time": "3:45pm"}, {"days": "Sat", "time": "10:15am"}, {"days": "Sun", "time": "Closed"}], "id": "7434000002", "name": "USPS COLLECTION BOX - PO LOBBY", "address": {"city": "DISNEY", "state": "OK", "street": "303 E MAIN ST", "postcode": "74340"}}},
{"geometry": {"type": "Point", "coordinates": [-94.9147733732, 36.3736896883]}, "type": "Feature", "properties": {"collection_times": [{"days": "Mon-Fri", "time": "3:30pm"}, {"days": "Sat", "time": "9:30am"}, {"days": "Sun", "time": "Closed"}], "id": "7434200000", "name": "USPS COLLECTION BOX - BLUE BOX", "address": {"city": "EUCHA", "state": "OK", "street": "101 MAIN ST", "postcode": "74342"}}},
{"geometry": {"type": "Point", "coordinates": [-94.9147733732, 36.3736896883]}, "type": "Feature", "properties": {"collection_times": [{"days": "Mon-Fri", "time": "3:30pm"}, {"days": "Sat", "time": "9:30am"}, {"days": "Sun", "time": "Closed"}], "id": "7434200001", "name": "USPS COLLECTION BOX - PO LOBBY", "address": {"city": "EUCHA", "state": "OK", "street": "101 MAIN ST", "postcode": "74342"}}},
{"geometry": {"type": "Point", "coordinates": [-94.8526498223, 36.7489230037]}, "type": "Feature", "properties": {"collection_times": [{"days": "Mon-Fri", "time": "3:30pm"}, {"days": "Sat-Sun", "time": "Closed"}], "id": "7434300000", "name": "USPS COLLECTION BOX - BLUE BOX", "address": {"city": "FAIRLAND", "state": "OK", "street": "121 N OLIVER ST", "postcode": "74343"}}},
{"geometry": {"type": "Point", "coordinates": [-94.8526498223, 36.7489230037]}, "type": "Feature", "properties": {"collection_times": [{"days": "Mon-Fri", "time": "4:00pm"}, {"days": "Sat", "time": "1:30pm"}, {"days": "Sun", "time": "Closed"}], "id": "7434300001", "name": "USPS COLLECTION BOX - PO LOBBY", "address": {"city": "FAIRLAND", "state": "OK", "street": "121 N OLIVER ST", "postcode": "74343"}}},
{"geometry": {"type": "Point", "coordinates": [-94.7242716772, 36.5797404555]}, "type": "Feature", "properties": {"collection_times": [{"days": "Mon-Fri", "time": "4:30pm"}, {"days": "Sat", "time": "10:45am"}, {"days": "Sun", "time": "Closed"}], "id": "7434400000", "name": "USPS COLLECTION BOX - BLUE BOX", "address": {"city": "GROVE", "state": "OK", "street": "1200 S SHUNDI", "postcode": "74344"}}},
{"geometry": {"type": "Point", "coordinates": [-94.7242716772, 36.5797404555]}, "type": "Feature", "properties": {"collection_times": [{"days": "Mon-Fri", "time": "4:30pm"}, {"days": "Sat", "time": "10:45am"}, {"days": "Sun", "time": "Closed"}], "id": "7434400001", "name": "USPS COLLECTION BOX - PO LOBBY", "address": {"city": "GROVE", "state": "OK", "street": "1200 S SHUNDI", "postcode": "74344"}}},
{"geometry": {"type": "Point", "coordinates": [-94.7242716772, 36.5797404555]}, "type": "Feature", "properties": {"collection_times": [{"days": "Mon-Fri", "time": "4:30pm"}, {"days": "Sat", "time": "10:45am"}, {"days": "Sun", "time": "Closed"}], "id": "7434400007", "name": "USPS COLLECTION BOX - PO LOBBY", "address": {"city": "GROVE", "state": "OK", "street": "1200 S SHUNDI", "postcode": "74344"}}},
{"geometry": {"type": "Point", "coordinates": [-94.7242716772, 36.5797404555]}, "type": "Feature", "properties": {"collection_times": [{"days": "Mon-Fri", "time": "4:30pm"}, {"days": "Sat", "time": "10:45am"}, {"days": "Sun", "time": "Closed"}], "id": "7434400008", "name": "USPS COLLECTION BOX - PO LOBBY", "address": {"city": "GROVE", "state": "OK", "street": "1200 S SHUNDI", "postcode": "74344"}}},
{"geometry": {"type": "Point", "coordinates": [-94.7733529895, 36.5331973215]}, "type": "Feature", "properties": {"collection_times": [{"days": "Mon-Fri", "time": "11:00am"}, {"days": "Sat-Sun", "time": "Closed"}], "id": "7434400009", "name": "USPS COLLECTION BOX - BLUE BOX", "address": {"city": "GROVE", "state": "OK", "street": "6818 US HIGHWAY 59 N", "postcode": "74344"}}},
{"geometry": {"type": "Point", "coordinates": [-94.7987529691, 36.4199882539]}, "type": "Feature", "properties": {"collection_times": [{"days": "Mon-Fri", "time": "4:00pm"}, {"days": "Sat", "time": "10:45am"}, {"days": "Sun", "time": "Closed"}], "id": "7434600000", "name": "USPS COLLECTION BOX - BLUE BOX", "address": {"city": "JAY", "state": "OK", "street": "409 S 6TH ST", "postcode": "74346"}}},
{"geometry": {"type": "Point", "coordinates": [-94.7987529691, 36.4199882539]}, "type": "Feature", "properties": {"collection_times": [{"days": "Mon-Fri", "time": "4:00pm"}, {"days": "Sat", "time": "10:45am"}, {"days": "Sun", "time": "Closed"}], "id": "7434600001", "name": "USPS COLLECTION BOX - PO LOBBY", "address": {"city": "JAY", "state": "OK", "street": "409 S 6TH ST", "postcode": "74346"}}},
{"geometry": {"type": "Point", "coordinates": [-94.7987529691, 36.4199882539]}, "type": "Feature", "properties": {"collection_times": [{"days": "Mon-Fri", "time": "4:00pm"}, {"days": "Sat", "time": "10:45am"}, {"days": "Sun", "time": "Closed"}], "id": "7434600003", "name": "USPS COLLECTION BOX - PO LOBBY", "address": {"city": "JAY", "state": "OK", "street": "409 S 6TH ST", "postcode": "74346"}}},
{"geometry": {"type": "Point", "coordinates": [-94.7993560313, 36.2090433323]}, "type": "Feature", "properties": {"collection_times": [{"days": "Mon-Fri", "time": "3:45pm"}, {"days": "Sat", "time": "9:45am"}, {"days": "Sun", "time": "Closed"}], "id": "7434700000", "name": "USPS COLLECTION BOX - BLUE BOX", "address": {"city": "KANSAS", "state": "OK", "street": "491 W MAIN ST", "postcode": "74347"}}},
{"geometry": {"type": "Point", "coordinates": [-94.7993560313, 36.2090433323]}, "type": "Feature", "properties": {"collection_times": [{"days": "Mon-Fri", "time": "3:45pm"}, {"days": "Sat", "time": "9:45am"}, {"days": "Sun", "time": "Closed"}], "id": "7434700001", "name": "USPS COLLECTION BOX - PO LOBBY", "address": {"city": "KANSAS", "state": "OK", "street": "491 W MAIN ST", "postcode": "74347"}}},
{"geometry": {"type": "Point", "coordinates": [-94.7993560313, 36.2090433323]}, "type": "Feature", "properties": {"collection_times": [{"days": "Mon-Fri", "time": "3:45pm"}, {"days": "Sat", "time": "9:45am"}, {"days": "Sun", "time": "Closed"}], "id": "7434700002", "name": "USPS COLLECTION BOX - PO LOBBY", "address": {"city": "KANSAS", "state": "OK", "street": "491 W MAIN ST", "postcode": "74347"}}},
{"geometry": {"type": "Point", "coordinates": [-95.0260520402, 36.526277939]}, "type": "Feature", "properties": {"collection_times": [{"days": "Mon-Fri", "time": "3:45pm"}, {"days": "Sat", "time": "11:00am"}, {"days": "Sun", "time": "Closed"}], "id": "7434900001", "name": "USPS COLLECTION BOX - PO LOBBY", "address": {"city": "KETCHUM", "state": "OK", "street": "300 N MAIN ST", "postcode": "74349"}}},
{"geometry": {"type": "Point", "coordinates": [-95.0485658929, 36.4672814776]}, "type": "Feature", "properties": {"collection_times": [{"days": "Mon-Fri", "time": "3:30pm"}, {"days": "Sat", "time": "10:00am"}, {"days": "Sun", "time": "Closed"}], "id": "7435000000", "name": "USPS COLLECTION BOX - BLUE BOX", "address": {"city": "LANGLEY", "state": "OK", "street": "213 S 3RD ST", "postcode": "74350"}}},
{"geometry": {"type": "Point", "coordinates": [-95.0485658929, 36.4672814776]}, "type": "Feature", "properties": {"collection_times": [{"days": "Mon-Fri", "time": "3:30pm"}, {"days": "Sat", "time": "10:00am"}, {"days": "Sun", "time": "Closed"}], "id": "7435000002", "name": "USPS COLLECTION BOX - PO LOBBY", "address": {"city": "LANGLEY", "state": "OK", "street": "213 S 3RD ST", "postcode": "74350"}}},
{"geometry": {"type": "Point", "coordinates": [-95.1712208056, 36.1680736813]}, "type": "Feature", "properties": {"collection_times": [{"days": "Mon-Fri", "time": "4:00pm"}, {"days": "Sat", "time": "11:00am"}, {"days": "Sun", "time": "Closed"}], "id": "7435200000", "name": "USPS COLLECTION BOX - BLUE BOX", "address": {"city": "LOCUST GROVE", "state": "OK", "street": "700 ELORA ST", "postcode": "74352"}}},
{"geometry": {"type": "Point", "coordinates": [-95.1712208056, 36.1680736813]}, "type": "Feature", "properties": {"collection_times": [{"days": "Mon-Fri", "time": "4:00pm"}, {"days": "Sat", "time": "11:00am"}, {"days": "Sun", "time": "Closed"}], "id": "7435200001", "name": "USPS COLLECTION BOX - PO LOBBY", "address": {"city": "LOCUST GROVE", "state": "OK", "street": "700 ELORA ST", "postcode": "74352"}}},
{"geometry": {"type": "Point", "coordinates": [-95.1712208056, 36.1680736813]}, "type": "Feature", "properties": {"collection_times": [{"days": "Mon-Fri", "time": "4:00pm"}, {"days": "Sat", "time": "11:00am"}, {"days": "Sun", "time": "Closed"}], "id": "7435200003", "name": "USPS COLLECTION BOX - PO LOBBY", "address": {"city": "LOCUST GROVE", "state": "OK", "street": "700 ELORA ST", "postcode": "74352"}}},
{"geometry": {"type": "Point", "coordinates": [-94.878940677, 36.8816272103]}, "type": "Feature", "properties": {"collection_times": [{"days": "Mon-Fri", "time": "4:15pm"}, {"days": "Sat", "time": "3:00pm"}, {"days": "Sun", "time": "Closed"}], "id": "7435400000", "name": "USPS COLLECTION BOX - BLUE BOX", "address": {"city": "MIAMI", "state": "OK", "street": "129 5TH AVE NW", "postcode": "74354"}}},
{"geometry": {"type": "Point", "coordinates": [-94.8776697785, 36.8982732838]}, "type": "Feature", "properties": {"collection_times": [{"days": "Mon-Fri", "time": "4:00pm"}, {"days": "Sat", "time": "3:00pm"}, {"days": "Sun", "time": "Closed"}], "id": "7435400003", "name": "USPS COLLECTION BOX - BLUE BOX", "address": {"city": "MIAMI", "state": "OK", "street": "2019 N MAIN ST", "postcode": "74354"}}},
{"geometry": {"type": "Point", "coordinates": [-94.8809961489, 36.8722061232]}, "type": "Feature", "properties": {"collection_times": [{"days": "Mon-Fri", "time": "4:15pm"}, {"days": "Sat", "time": "3:00pm"}, {"days": "Sun", "time": "Closed"}], "id": "7435400010", "name": "USPS COLLECTION BOX - BLUE BOX", "address": {"city": "MIAMI", "state": "OK", "street": "310 2ND AVE SW", "postcode": "74354"}}},
{"geometry": {"type": "Point", "coordinates": [-94.8763424164, 36.8752062532]}, "type": "Feature", "properties": {"collection_times": [{"days": "Mon-Fri", "time": "5:00pm"}, {"days": "Sat", "time": "3:15pm"}, {"days": "Sun", "time": "Closed"}], "id": "7435400013", "name": "USPS COLLECTION BOX - BLUE BOX", "address": {"city": "MIAMI", "state": "OK", "street": "34 A ST NE", "postcode": "74354"}}},
{"geometry": {"type": "Point", "coordinates": [-94.8763424164, 36.8752062532]}, "type": "Feature", "properties": {"collection_times": [{"days": "Mon-Fri", "time": "5:00pm"}, {"days": "Sat", "time": "3:30pm"}, {"days": "Sun", "time": "Closed"}], "id": "7435400021", "name": "USPS COLLECTION BOX - BLUE BOX", "address": {"city": "MIAMI", "state": "OK", "street": "34 A ST NE", "postcode": "74354"}}},
{"geometry": {"type": "Point", "coordinates": [-94.8787181776, 36.8866816298]}, "type": "Feature", "properties": {"collection_times": [{"days": "Mon-Fri", "time": "4:15pm"}, {"days": "Sat", "time": "3:00pm"}, {"days": "Sun", "time": "Closed"}], "id": "7435400022", "name": "USPS COLLECTION BOX - BLUE BOX", "address": {"city": "MIAMI", "state": "OK", "street": "1001 A ST NW", "postcode": "74354"}}},
{"geometry": {"type": "Point", "coordinates": [-94.8777092278, 36.924357514]}, "type": "Feature", "properties": {"collection_times": [{"days": "Mon-Fri", "time": "4:15pm"}, {"days": "Sat", "time": "3:00pm"}, {"days": "Sun", "time": "Closed"}], "id": "7435400025", "name": "USPS COLLECTION BOX - BLUE BOX", "address": {"city": "MIAMI", "state": "OK", "street": "19 2ND ST NE", "postcode": "74354"}}},
{"geometry": {"type": "Point", "coordinates": [-94.8831159544, 36.8733650896]}, "type": "Feature", "properties": {"collection_times": [{"days": "Mon-Fri", "time": "4:30pm"}, {"days": "Sat", "time": "3:15pm"}, {"days": "Sun", "time": "Closed"}], "id": "7435400026", "name": "USPS COLLECTION BOX - BLUE BOX", "address": {"city": "MIAMI", "state": "OK", "street": "102 E CENTRAL AVE", "postcode": "74354"}}},
{"geometry": {"type": "Point", "coordinates": [-94.8763424164, 36.8752062532]}, "type": "Feature", "properties": {"collection_times": [{"days": "Mon-Fri", "time": "5:00pm"}, {"days": "Sat", "time": "3:30pm"}, {"days": "Sun", "time": "Closed"}], "id": "7435400028", "name": "USPS COLLECTION BOX - PO LOBBY", "address": {"city": "MIAMI", "state": "OK", "street": "34 A ST NE", "postcode": "74354"}}},
{"geometry": {"type": "Point", "coordinates": [-94.8763424164, 36.8752062532]}, "type": "Feature", "properties": {"collection_times": [{"days": "Mon-Fri", "time": "5:00pm"}, {"days": "Sat", "time": "3:30pm"}, {"days": "Sun", "time": "Closed"}], "id": "7435400029", "name": "USPS COLLECTION BOX - PO LOBBY", "address": {"city": "MIAMI", "state": "OK", "street": "34 A ST NE", "postcode": "74354"}}},
{"geometry": {"type": "Point", "coordinates": [-94.8798638811, 36.9162782331]}, "type": "Feature", "properties": {"collection_times": [{"days": "Mon-Fri", "time": "4:15pm"}, {"days": "Sat", "time": "11:45am"}, {"days": "Sun", "time": "Closed"}], "id": "7435800000", "name": "USPS COLLECTION BOX - BLUE BOX", "address": {"city": "NORTH MIAMI", "state": "OK", "street": "303 PINE ST", "postcode": "74358"}}},
{"geometry": {"type": "Point", "coordinates": [-94.8798638811, 36.9162782331]}, "type": "Feature", "properties": {"collection_times": [{"days": "Mon-Fri", "time": "4:30pm"}, {"days": "Sat", "time": "12:00pm"}, {"days": "Sun", "time": "Closed"}], "id": "7435800001", "name": "USPS COLLECTION BOX - PO LOBBY", "address": {"city": "NORTH MIAMI", "state": "OK", "street": "303 PINE ST", "postcode": "74358"}}},
{"geometry": {"type": "Point", "coordinates": [-94.8624629106, 36.1689005782]}, "type": "Feature", "properties": {"collection_times": [{"days": "Mon-Fri", "time": "3:45pm"}, {"days": "Sat", "time": "12:00pm"}, {"days": "Sun", "time": "Closed"}], "id": "7435900000", "name": "USPS COLLECTION BOX - BLUE BOX", "address": {"city": "OAKS", "state": "OK", "street": "377 W MAIN", "postcode": "74359"}}},
{"geometry": {"type": "Point", "coordinates": [-94.8624629106, 36.1689005782]}, "type": "Feature", "properties": {"collection_times": [{"days": "Mon-Fri", "time": "3:45pm"}, {"days": "Sat", "time": "12:00pm"}, {"days": "Sun", "time": "Closed"}], "id": "7435900001", "name": "USPS COLLECTION BOX - PO LOBBY", "address": {"city": "OAKS", "state": "OK", "street": "377 W MAIN", "postcode": "74359"}}},
{"geometry": {"type": "Point", "coordinates": [-95.2882427394, 36.248563678]}, "type": "Feature", "properties": {"collection_times": [{"days": "Mon-Fri", "time": "9:00am"}, {"days": "Sat-Sun", "time": "Closed"}], "id": "7436100000", "name": "USPS COLLECTION BOX - BLUE BOX", "address": {"city": "PRYOR", "state": "OK", "street": "3 REDDEN", "postcode": "74361"}}},
{"geometry": {"type": "Point", "coordinates": [-95.3177753477, 36.305619292]}, "type": "Feature", "properties": {"collection_times": [{"days": "Mon-Fri", "time": "4:45pm"}, {"days": "Sat", "time": "3:30pm"}, {"days": "Sun", "time": "Closed"}], "id": "7436100002", "name": "USPS COLLECTION BOX - BLUE BOX", "address": {"city": "PRYOR", "state": "OK", "street": "111 S ADAIR ST", "postcode": "74361"}}},
{"geometry": {"type": "Point", "coordinates": [-95.3177753477, 36.305619292]}, "type": "Feature", "properties": {"collection_times": [{"days": "Mon-Fri", "time": "4:45pm"}, {"days": "Sat", "time": "3:30pm"}, {"days": "Sun", "time": "Closed"}], "id": "7436100026", "name": "USPS COLLECTION BOX - PO LOBBY", "address": {"city": "PRYOR", "state": "OK", "street": "111 S ADAIR ST", "postcode": "74361"}}},
{"geometry": {"type": "Point", "coordinates": [-95.3177753477, 36.305619292]}, "type": "Feature", "properties": {"collection_times": [{"days": "Mon-Fri", "time": "4:45pm"}, {"days": "Sat", "time": "3:30pm"}, {"days": "Sun", "time": "Closed"}], "id": "7436100028", "name": "USPS COLLECTION BOX - BLUE BOX", "address": {"city": "PRYOR", "state": "OK", "street": "111 S ADAIR ST", "postcode": "74361"}}},
{"geometry": {"type": "Point", "coordinates": [-95.3177753477, 36.305619292]}, "type": "Feature", "properties": {"collection_times": [{"days": "Mon-Fri", "time": "4:45pm"}, {"days": "Sat", "time": "3:30pm"}, {"days": "Sun", "time": "Closed"}], "id": "7436100029", "name": "USPS COLLECTION BOX - BLUE BOX", "address": {"city": "PRYOR", "state": "OK", "street": "111 S ADAIR ST", "postcode": "74361"}}},
{"geometry": {"type": "Point", "coordinates": [-95.3177753477, 36.305619292]}, "type": "Feature", "properties": {"collection_times": [{"days": "Mon-Fri", "time": "4:45pm"}, {"days": "Sat", "time": "3:30pm"}, {"days": "Sun", "time": "Closed"}], "id": "7436100030", "name": "USPS COLLECTION BOX - BLUE BOX", "address": {"city": "PRYOR", "state": "OK", "street": "111 S ADAIR ST", "postcode": "74361"}}},
{"geometry": {"type": "Point", "coordinates": [-94.787922099, 36.9489496444]}, "type": "Feature", "properties": {"collection_times": [{"days": "Mon-Fri", "time": "4:15pm"}, {"days": "Sat", "time": "10:30am"}, {"days": "Sun", "time": "Closed"}], "id": "7436300000", "name": "USPS COLLECTION BOX - BLUE BOX", "address": {"city": "QUAPAW", "state": "OK", "street": "601 MAIN ST", "postcode": "74363"}}},
{"geometry": {"type": "Point", "coordinates": [-94.787922099, 36.9489496444]}, "type": "Feature", "properties": {"collection_times": [{"days": "Mon-Fri", "time": "4:15pm"}, {"days": "Sat", "time": "10:30am"}, {"days": "Sun", "time": "Closed"}], "id": "7436300001", "name": "USPS COLLECTION BOX - PO LOBBY", "address": {"city": "QUAPAW", "state": "OK", "street": "601 MAIN ST", "postcode": "74363"}}},
{"geometry": {"type": "Point", "coordinates": [-94.787922099, 36.9489496444]}, "type": "Feature", "properties": {"collection_times": [{"days": "Mon-Fri", "time": "4:15pm"}, {"days": "Sat", "time": "10:30am"}, {"days": "Sun", "time": "Closed"}], "id": "7436300002", "name": "USPS COLLECTION BOX - PO LOBBY", "address": {"city": "QUAPAW", "state": "OK", "street": "601 MAIN ST", "postcode": "74363"}}},
{"geometry": {"type": "Point", "coordinates": [-94.9875786596, 36.2184220398]}, "type": "Feature", "properties": {"collection_times": [{"days": "Mon-Fri", "time": "12:00pm"}, {"days": "Sat", "time": "10:00am"}, {"days": "Sun", "time": "Closed"}], "id": "7436400001", "name": "USPS COLLECTION BOX - PO LOBBY", "address": {"city": "ROSE", "state": "OK", "street": "5904 S 448 RD", "postcode": "74364"}}},
{"geometry": {"type": "Point", "coordinates": [-94.9875786596, 36.2184220398]}, "type": "Feature", "properties": {"collection_times": [{"days": "Mon-Fri", "time": "12:00pm"}, {"days": "Sat", "time": "10:00am"}, {"days": "Sun", "time": "Closed"}], "id": "7436400002", "name": "USPS COLLECTION BOX - PO LOBBY", "address": {"city": "ROSE", "state": "OK", "street": "5904 S 448 RD", "postcode": "74364"}}},
{"geometry": {"type": "Point", "coordinates": [-95.1531842697, 36.2924644801]}, "type": "Feature", "properties": {"collection_times": [{"days": "Mon-Fri", "time": "4:15pm"}, {"days": "Sat", "time": "9:45am"}, {"days": "Sun", "time": "Closed"}], "id": "7436500000", "name": "USPS COLLECTION BOX - BLUE BOX", "address": {"city": "SALINA", "state": "OK", "street": "200 S CHEROKEE ST", "postcode": "74365"}}},
{"geometry": {"type": "Point", "coordinates": [-95.1531842697, 36.2924644801]}, "type": "Feature", "properties": {"collection_times": [{"days": "Mon-Fri", "time": "4:15pm"}, {"days": "Sat", "time": "9:45am"}, {"days": "Sun", "time": "Closed"}], "id": "7436500001", "name": "USPS COLLECTION BOX - PO LOBBY", "address": {"city": "SALINA", "state": "OK", "street": "200 S CHEROKEE ST", "postcode": "74365"}}},
{"geometry": {"type": "Point", "coordinates": [-95.1531842697, 36.2924644801]}, "type": "Feature", "properties": {"collection_times": [{"days": "Mon-Fri", "time": "4:15pm"}, {"days": "Sat", "time": "9:45am"}, {"days": "Sun", "time": "Closed"}], "id": "7436500002", "name": "USPS COLLECTION BOX - PO LOBBY", "address": {"city": "SALINA", "state": "OK", "street": "200 S CHEROKEE ST", "postcode": "74365"}}},
{"geometry": {"type": "Point", "coordinates": [-95.0498543325, 36.3840167126]}, "type": "Feature", "properties": {"collection_times": [{"days": "Mon-Fri", "time": "3:45pm"}, {"days": "Sat", "time": "10:00am"}, {"days": "Sun", "time": "Closed"}], "id": "7436600001", "name": "USPS COLLECTION BOX - PO LOBBY", "address": {"city": "SPAVINAW", "state": "OK", "street": "125 N MAIN ST", "postcode": "74366"}}},
{"geometry": {"type": "Point", "coordinates": [-95.0498543325, 36.3840167126]}, "type": "Feature", "properties": {"collection_times": [{"days": "Mon-Fri", "time": "3:45pm"}, {"days": "Sat", "time": "10:00am"}, {"days": "Sun", "time": "Closed"}], "id": "7436600002", "name": "USPS COLLECTION BOX - PO LOBBY", "address": {"city": "SPAVINAW", "state": "OK", "street": "125 N MAIN ST", "postcode": "74366"}}},
{"geometry": {"type": "Point", "coordinates": [-95.0464559906, 36.4693340938]}, "type": "Feature", "properties": {"collection_times": [{"days": "Mon-Fri", "time": "3:30pm"}, {"days": "Sat", "time": "2:00pm"}, {"days": "Sun", "time": "Closed"}], "id": "7436700000", "name": "USPS COLLECTION BOX - BLUE BOX", "address": {"city": "STRANG", "state": "OK", "street": "104 E BROADWAY", "postcode": "74367"}}},
{"geometry": {"type": "Point", "coordinates": [-95.0464559906, 36.4693340938]}, "type": "Feature", "properties": {"collection_times": [{"days": "Mon-Fri", "time": "3:30pm"}, {"days": "Sat", "time": "2:00pm"}, {"days": "Sun", "time": "Closed"}], "id": "7436700001", "name": "USPS COLLECTION BOX - PO LOBBY", "address": {"city": "STRANG", "state": "OK", "street": "104 E BROADWAY", "postcode": "74367"}}},
{"geometry": {"type": "Point", "coordinates": [-95.0949956823, 36.8728505502]}, "type": "Feature", "properties": {"collection_times": [{"days": "Mon-Fri", "time": "3:30pm"}, {"days": "Sat", "time": "10:45am"}, {"days": "Sun", "time": "Closed"}], "id": "7436900000", "name": "USPS COLLECTION BOX - PO LOBBY", "address": {"city": "WELCH", "state": "OK", "street": "369 S COMMERCIAL ST", "postcode": "74369"}}},
{"geometry": {"type": "Point", "coordinates": [-95.0949956823, 36.8728505502]}, "type": "Feature", "properties": {"collection_times": [{"days": "Mon-Fri", "time": "3:30pm"}, {"days": "Sat", "time": "10:45am"}, {"days": "Sun", "time": "Closed"}], "id": "7436900001", "name": "USPS COLLECTION BOX - PO LOBBY", "address": {"city": "WELCH", "state": "OK", "street": "369 S COMMERCIAL ST", "postcode": "74369"}}},
{"geometry": {"type": "Point", "coordinates": [-95.0949956823, 36.8728505502]}, "type": "Feature", "properties": {"collection_times": [{"days": "Mon-Fri", "time": "3:30pm"}, {"days": "Sat", "time": "10:45am"}, {"days": "Sun", "time": "Closed"}], "id": "7436900002", "name": "USPS COLLECTION BOX - PO LOBBY", "address": {"city": "WELCH", "state": "OK", "street": "369 S COMMERCIAL ST", "postcode": "74369"}}},
{"geometry": {"type": "Point", "coordinates": [-94.725157644, 36.7938148167]}, "type": "Feature", "properties": {"collection_times": [{"days": "Mon-Fri", "time": "3:45pm"}, {"days": "Sat", "time": "9:00am"}, {"days": "Sun", "time": "Closed"}], "id": "7437000001", "name": "USPS COLLECTION BOX - PO LOBBY", "address": {"city": "WYANDOTTE", "state": "OK", "street": "12 N MAIN", "postcode": "74370"}}}
]}
