{"type": "FeatureCollection", "features": [
{"geometry": {"type": "Point", "coordinates": [-95.3696227791, 35.747632583]}, "type": "Feature", "properties": {"collection_times": [{"days": "Mon-Fri", "time": "4:00pm"}, {"days": "Sat-Sun", "time": "Closed"}], "id": "7440100006", "name": "USPS COLLECTION BOX - BLUE BOX", "address": {"city": "MUSKOGEE", "state": "OK", "street": "125 S MAIN ST", "postcode": "74401"}}},
{"geometry": {"type": "Point", "coordinates": [-95.4115462505, 35.7522383275]}, "type": "Feature", "properties": {"collection_times": [{"days": "Mon-Fri", "time": "3:30pm"}, {"days": "Sat-Sun", "time": "Closed"}], "id": "7440100018", "name": "USPS COLLECTION BOX - BLUE BOX", "address": {"city": "MUSKOGEE", "state": "OK", "street": "350 S 40TH ST", "postcode": "74401"}}},
{"geometry": {"type": "Point", "coordinates": [-95.4037589833, 35.7550355194]}, "type": "Feature", "properties": {"collection_times": [{"days": "Mon-Fri", "time": "3:45pm"}, {"days": "Sat", "time": "2:30pm"}, {"days": "Sun", "time": "Closed"}], "id": "7440100036", "name": "USPS COLLECTION BOX - BLUE BOX", "address": {"city": "MUSKOGEE", "state": "OK", "street": "3316 W OKMULGEE ST", "postcode": "74401"}}},
{"geometry": {"type": "Point", "coordinates": [-95.4005278923, 35.7467332522]}, "type": "Feature", "properties": {"collection_times": [{"days": "Mon-Sat", "time": "5:00pm"}, {"days": "Sun", "time": "Closed"}], "id": "7440100049", "name": "USPS COLLECTION BOX - BLUE BOX", "address": {"city": "MUSKOGEE", "state": "OK", "street": "525 W OKMULGEE ST", "postcode": "74401"}}},
{"geometry": {"type": "Point", "coordinates": [-95.374880003, 35.7498071407]}, "type": "Feature", "properties": {"collection_times": [{"days": "Mon-Sat", "time": "5:00pm"}, {"days": "Sun", "time": "Closed"}], "id": "7440100059", "name": "USPS COLLECTION BOX - PO LOBBY", "address": {"city": "MUSKOGEE", "state": "OK", "street": "525 W OKMULGEE ST", "postcode": "74401"}}},
{"geometry": {"type": "Point", "coordinates": [-95.3728294903, 35.7505765826]}, "type": "Feature", "properties": {"collection_times": [{"days": "Mon-Fri", "time": "4:00pm"}, {"days": "Sat-Sun", "time": "Closed"}], "id": "7440100060", "name": "USPS COLLECTION BOX - BLUE BOX", "address": {"city": "MUSKOGEE", "state": "OK", "street": "220 STATE ST", "postcode": "74401"}}},
{"geometry": {"type": "Point", "coordinates": [-95.3728294903, 35.7505765826]}, "type": "Feature", "properties": {"collection_times": [{"days": "Mon-Fri", "time": "4:00pm"}, {"days": "Sat-Sun", "time": "Closed"}], "id": "7440100061", "name": "USPS COLLECTION BOX - BLUE BOX", "address": {"city": "MUSKOGEE", "state": "OK", "street": "220 STATE ST", "postcode": "74401"}}},
{"geometry": {"type": "Point", "coordinates": [-95.374880003, 35.7498071407]}, "type": "Feature", "properties": {"collection_times": [{"days": "Mon-Sat", "time": "5:00pm"}, {"days": "Sun", "time": "Closed"}], "id": "7440100065", "name": "USPS COLLECTION BOX - PO LOBBY", "address": {"city": "MUSKOGEE", "state": "OK", "street": "525 W OKMULGEE ST", "postcode": "74401"}}},
{"geometry": {"type": "Point", "coordinates": [-95.374880003, 35.7498071407]}, "type": "Feature", "properties": {"collection_times": [{"days": "Mon-Sat", "time": "5:00pm"}, {"days": "Sun", "time": "Closed"}], "id": "7440100067", "name": "USPS COLLECTION BOX - PO LOBBY", "address": {"city": "MUSKOGEE", "state": "OK", "street": "525 W OKMULGEE ST", "postcode": "74401"}}},
{"geometry": {"type": "Point", "coordinates": [-95.4026484259, 35.7472838349]}, "type": "Feature", "properties": {"collection_times": [{"days": "Mon-Fri", "time": "3:30pm"}, {"days": "Sat-Sun", "time": "Closed"}], "id": "7440100069", "name": "USPS COLLECTION BOX - BLUE BOX", "address": {"city": "MUSKOGEE", "state": "OK", "street": "727 S 32ND ST", "postcode": "74401"}}},
{"geometry": {"type": "Point", "coordinates": [-95.3710457851, 35.7494350113]}, "type": "Feature", "properties": {"collection_times": [{"days": "Mon-Fri", "time": "4:00pm"}, {"days": "Sat-Sun", "time": "Closed"}], "id": "7440100071", "name": "USPS COLLECTION BOX - BLUE BOX", "address": {"city": "MUSKOGEE", "state": "OK", "street": "300 W BROADWAY ST", "postcode": "74401"}}},
{"geometry": {"type": "Point", "coordinates": [-95.3666681224, 35.7525214719]}, "type": "Feature", "properties": {"collection_times": [{"days": "Mon-Fri", "time": "4:00pm"}, {"days": "Sat-Sun", "time": "Closed"}], "id": "7440100072", "name": "USPS COLLECTION BOX - BLUE BOX", "address": {"city": "MUSKOGEE", "state": "OK", "street": "510 N MAIN ST", "postcode": "74401"}}},
{"geometry": {"type": "Point", "coordinates": [-95.4139525993, 35.7668720332]}, "type": "Feature", "properties": {"collection_times": [{"days": "Mon-Fri", "time": "3:30pm"}, {"days": "Sat-Sun", "time": "Closed"}], "id": "7440100074", "name": "USPS COLLECTION BOX - BLUE BOX", "address": {"city": "MUSKOGEE", "state": "OK", "street": "1011 HONOR HEIGHTS DR", "postcode": "74401"}}},
{"geometry": {"type": "Point", "coordinates": [-95.3572106493, 35.7463948397]}, "type": "Feature", "properties": {"collection_times": [{"days": "Mon-Fri", "time": "3:45pm"}, {"days": "Sat", "time": "2:15pm"}, {"days": "Sun", "time": "Closed"}], "id": "7440300001", "name": "USPS COLLECTION BOX - BLUE BOX", "address": {"city": "MUSKOGEE", "state": "OK", "street": "300 EASTSIDE BLVD", "postcode": "74403"}}},
{"geometry": {"type": "Point", "coordinates": [-95.3403259487, 35.7282492843]}, "type": "Feature", "properties": {"collection_times": [{"days": "Mon-Fri", "time": "3:30pm"}, {"days": "Sat", "time": "2:00pm"}, {"days": "Sun", "time": "Closed"}], "id": "7440300009", "name": "USPS COLLECTION BOX - BLUE BOX", "address": {"city": "MUSKOGEE", "state": "OK", "street": "1306 S YORK ST", "postcode": "74403"}}},
{"geometry": {"type": "Point", "coordinates": [-95.3401454241, 35.740632052]}, "type": "Feature", "properties": {"collection_times": [{"days": "Mon-Fri", "time": "3:30pm"}, {"days": "Sat", "time": "2:00pm"}, {"days": "Sun", "time": "Closed"}], "id": "7440300014", "name": "USPS COLLECTION BOX - BLUE BOX", "address": {"city": "MUSKOGEE", "state": "OK", "street": "2410 CHANDLER RD", "postcode": "74403"}}},
{"geometry": {"type": "Point", "coordinates": [-95.3227200967, 35.7406127161]}, "type": "Feature", "properties": {"collection_times": [{"days": "Mon-Sat", "time": "9:30am"}, {"days": "Sun", "time": "Closed"}], "id": "7440300027", "name": "USPS COLLECTION BOX - BLUE BOX", "address": {"city": "MUSKOGEE", "state": "OK", "street": "200 N COUNTRY CLUB RD", "postcode": "74403"}}},
{"geometry": {"type": "Point", "coordinates": [-95.3401454241, 35.740632052]}, "type": "Feature", "properties": {"collection_times": [{"days": "Mon-Fri", "time": "3:30pm"}, {"days": "Sat", "time": "2:00pm"}, {"days": "Sun", "time": "Closed"}], "id": "7440300032", "name": "USPS COLLECTION BOX - BLUE BOX", "address": {"city": "MUSKOGEE", "state": "OK", "street": "2410 CHANDLER RD", "postcode": "74403"}}},
{"geometry": {"type": "Point", "coordinates": [-95.3404568634, 35.7646608386]}, "type": "Feature", "properties": {"collection_times": [{"days": "Mon-Fri", "time": "3:45pm"}, {"days": "Sat", "time": "2:15pm"}, {"days": "Sun", "time": "Closed"}], "id": "7440300033", "name": "USPS COLLECTION BOX - BLUE BOX", "address": {"city": "MUSKOGEE", "state": "OK", "street": "1805 N YORK ST", "postcode": "74403"}}},
{"geometry": {"type": "Point", "coordinates": [-96.0686253522, 35.741629315]}, "type": "Feature", "properties": {"collection_times": [{"days": "Mon-Fri", "time": "4:30pm"}, {"days": "Sat", "time": "11:00am"}, {"days": "Sun", "time": "Closed"}], "id": "7442100000", "name": "USPS COLLECTION BOX - BLUE BOX", "address": {"city": "BEGGS", "state": "OK", "street": "106 N CHOCTAW ST", "postcode": "74421"}}},
{"geometry": {"type": "Point", "coordinates": [-96.0686253522, 35.741629315]}, "type": "Feature", "properties": {"collection_times": [{"days": "Mon-Fri", "time": "4:30pm"}, {"days": "Sat", "time": "11:00am"}, {"days": "Sun", "time": "Closed"}], "id": "7442100001", "name": "USPS COLLECTION BOX - PO LOBBY", "address": {"city": "BEGGS", "state": "OK", "street": "106 N CHOCTAW ST", "postcode": "74421"}}},
{"geometry": {"type": "Point", "coordinates": [-96.0686253522, 35.741629315]}, "type": "Feature", "properties": {"collection_times": [{"days": "Mon-Fri", "time": "4:30pm"}, {"days": "Sat", "time": "11:00am"}, {"days": "Sun", "time": "Closed"}], "id": "7442100002", "name": "USPS COLLECTION BOX - PO LOBBY", "address": {"city": "BEGGS", "state": "OK", "street": "106 N CHOCTAW ST", "postcode": "74421"}}},
{"geometry": {"type": "Point", "coordinates": [-95.69591529, 35.6548520359]}, "type": "Feature", "properties": {"collection_times": [{"days": "Mon-Fri", "time": "11:15am"}, {"days": "Sat", "time": "9:00am"}, {"days": "Sun", "time": "Closed"}], "id": "7442200002", "name": "USPS COLLECTION BOX - PO LOBBY", "address": {"city": "BOYNTON", "state": "OK", "street": "101 S SEAMAN ST", "postcode": "74422"}}},
{"geometry": {"type": "Point", "coordinates": [-95.1965429969, 35.6616431407]}, "type": "Feature", "properties": {"collection_times": [{"days": "Mon-Fri", "time": "3:00pm"}, {"days": "Sat", "time": "10:30am"}, {"days": "Sun", "time": "Closed"}], "id": "7442300000", "name": "USPS COLLECTION BOX - BLUE BOX", "address": {"city": "BRAGGS", "state": "OK", "street": "300 N MADISON ST", "postcode": "74423"}}},
{"geometry": {"type": "Point", "coordinates": [-95.1965429969, 35.6616431407]}, "type": "Feature", "properties": {"collection_times": [{"days": "Mon-Fri", "time": "12:00pm"}, {"days": "Sat", "time": "10:30am"}, {"days": "Sun", "time": "Closed"}], "id": "7442300001", "name": "USPS COLLECTION BOX - PO LOBBY", "address": {"city": "BRAGGS", "state": "OK", "street": "300 N MADISON ST", "postcode": "74423"}}},
{"geometry": {"type": "Point", "coordinates": [-95.1965429969, 35.6616431407]}, "type": "Feature", "properties": {"collection_times": [{"days": "Mon-Fri", "time": "12:00pm"}, {"days": "Sat", "time": "10:30am"}, {"days": "Sun", "time": "Closed"}], "id": "7442300002", "name": "USPS COLLECTION BOX - PO LOBBY", "address": {"city": "BRAGGS", "state": "OK", "street": "300 N MADISON ST", "postcode": "74423"}}},
{"geometry": {"type": "Point", "coordinates": [-95.652991954, 35.1768601758]}, "type": "Feature", "properties": {"collection_times": [{"days": "Mon-Fri", "time": "4:00pm"}, {"days": "Sat", "time": "8:45am"}, {"days": "Sun", "time": "Closed"}], "id": "7442500001", "name": "USPS COLLECTION BOX - PO LOBBY", "address": {"city": "CANADIAN", "state": "OK", "street": "101 TIGNOR ST", "postcode": "74425"}}},
{"geometry": {"type": "Point", "coordinates": [-95.5230517163, 35.470190282]}, "type": "Feature", "properties": {"collection_times": [{"days": "Mon-Sat", "time": "3:00pm"}, {"days": "Sun", "time": "Closed"}], "id": "7442600001", "name": "USPS COLLECTION BOX - BLUE BOX", "address": {"city": "CHECOTAH", "state": "OK", "street": "300 W GENTRY AVE", "postcode": "74426"}}},
{"geometry": {"type": "Point", "coordinates": [-95.5215476264, 35.4707069863]}, "type": "Feature", "properties": {"collection_times": [{"days": "Mon-Fri", "time": "4:30pm"}, {"days": "Sat", "time": "4:00pm"}, {"days": "Sun", "time": "Closed"}], "id": "7442600003", "name": "USPS COLLECTION BOX - BLUE BOX", "address": {"city": "CHECOTAH", "state": "OK", "street": "213 W SPAULDING ST", "postcode": "74426"}}},
{"geometry": {"type": "Point", "coordinates": [-95.5313484314, 35.4719430675]}, "type": "Feature", "properties": {"collection_times": [{"days": "Mon-Sat", "time": "9:30am"}, {"days": "Sun", "time": "Closed"}], "id": "7442600005", "name": "USPS COLLECTION BOX - BLUE BOX", "address": {"city": "CHECOTAH", "state": "OK", "street": "1255 W GENTRY AVE", "postcode": "74426"}}},
{"geometry": {"type": "Point", "coordinates": [-95.5312346232, 35.472025054]}, "type": "Feature", "properties": {"collection_times": [{"days": "Mon-Sat", "time": "9:00am"}, {"days": "Sun", "time": "Closed"}], "id": "7442600006", "name": "USPS COLLECTION BOX - BLUE BOX", "address": {"city": "CHECOTAH", "state": "OK", "street": "1220 W GENTRY AVE", "postcode": "74426"}}},
{"geometry": {"type": "Point", "coordinates": [-95.5215476264, 35.4707069863]}, "type": "Feature", "properties": {"collection_times": [{"days": "Mon-Fri", "time": "4:30pm"}, {"days": "Sat", "time": "4:00pm"}, {"days": "Sun", "time": "Closed"}], "id": "7442600007", "name": "USPS COLLECTION BOX - PO LOBBY", "address": {"city": "CHECOTAH", "state": "OK", "street": "213 W SPAULDING ST", "postcode": "74426"}}},
{"geometry": {"type": "Point", "coordinates": [-95.5215476264, 35.4707069863]}, "type": "Feature", "properties": {"collection_times": [{"days": "Mon-Fri", "time": "4:30pm"}, {"days": "Sat", "time": "4:00pm"}, {"days": "Sun", "time": "Closed"}], "id": "7442600008", "name": "USPS COLLECTION BOX - PO LOBBY", "address": {"city": "CHECOTAH", "state": "OK", "street": "213 W SPAULDING ST", "postcode": "74426"}}},
{"geometry": {"type": "Point", "coordinates": [-94.9154465033, 35.7069372728]}, "type": "Feature", "properties": {"collection_times": [{"days": "Mon-Fri", "time": "3:45pm"}, {"days": "Sat", "time": "12:15pm"}, {"days": "Sun", "time": "Closed"}], "id": "7442700000", "name": "USPS COLLECTION BOX - BLUE BOX", "address": {"city": "COOKSON", "state": "OK", "street": "32094 HIGHWAY 82", "postcode": "74427"}}},
{"geometry": {"type": "Point", "coordinates": [-94.9154465033, 35.7069372728]}, "type": "Feature", "properties": {"collection_times": [{"days": "Mon-Fri", "time": "3:45pm"}, {"days": "Sat", "time": "12:15pm"}, {"days": "Sun", "time": "Closed"}], "id": "7442700001", "name": "USPS COLLECTION BOX - PO LOBBY", "address": {"city": "COOKSON", "state": "OK", "street": "32094 HIGHWAY 82", "postcode": "74427"}}},
{"geometry": {"type": "Point", "coordinates": [-95.7235126181, 35.5178357917]}, "type": "Feature", "properties": {"collection_times": [{"days": "Mon-Fri", "time": "12:00pm"}, {"days": "Sat", "time": "10:30am"}, {"days": "Sun", "time": "Closed"}], "id": "7442800001", "name": "USPS COLLECTION BOX - PO LOBBY", "address": {"city": "COUNCIL HILL", "state": "OK", "street": "115 S BROADWAY ST", "postcode": "74428"}}},
{"geometry": {"type": "Point", "coordinates": [-95.6532976233, 35.9508667979]}, "type": "Feature", "properties": {"collection_times": [{"days": "Mon-Fri", "time": "4:15pm"}, {"days": "Sat", "time": "3:15pm"}, {"days": "Sun", "time": "Closed"}], "id": "7442900000", "name": "USPS COLLECTION BOX - BLUE BOX", "address": {"city": "COWETA", "state": "OK", "street": "215 W SYCAMORE ST", "postcode": "74429"}}},
{"geometry": {"type": "Point", "coordinates": [-95.6499652374, 35.9565739384]}, "type": "Feature", "properties": {"collection_times": [{"days": "Mon-Fri", "time": "12:00pm"}, {"days": "Sat", "time": "11:30am"}, {"days": "Sun", "time": "Closed"}], "id": "7442900001", "name": "USPS COLLECTION BOX - BLUE BOX", "address": {"city": "COWETA", "state": "OK", "street": "14269 S STATE HIGHWAY 51", "postcode": "74429"}}},
{"geometry": {"type": "Point", "coordinates": [-95.6370484687, 35.951828895]}, "type": "Feature", "properties": {"collection_times": [{"days": "Mon-Sat", "time": "10:00am"}, {"days": "Sun", "time": "Closed"}], "id": "7442900002", "name": "USPS COLLECTION BOX - BLUE BOX", "address": {"city": "COWETA", "state": "OK", "street": "30455 E STATE HIGHWAY 51", "postcode": "74429"}}},
{"geometry": {"type": "Point", "coordinates": [-95.6532976233, 35.9508667979]}, "type": "Feature", "properties": {"collection_times": [{"days": "Mon-Fri", "time": "4:30pm"}, {"days": "Sat", "time": "3:15pm"}, {"days": "Sun", "time": "Closed"}], "id": "7442900003", "name": "USPS COLLECTION BOX - PO LOBBY", "address": {"city": "COWETA", "state": "OK", "street": "215 W SYCAMORE ST", "postcode": "74429"}}},
{"geometry": {"type": "Point", "coordinates": [-95.6532976233, 35.9508667979]}, "type": "Feature", "properties": {"collection_times": [{"days": "Mon-Fri", "time": "4:30pm"}, {"days": "Sat", "time": "3:15pm"}, {"days": "Sun", "time": "Closed"}], "id": "7442900004", "name": "USPS COLLECTION BOX - PO LOBBY", "address": {"city": "COWETA", "state": "OK", "street": "215 W SYCAMORE ST", "postcode": "74429"}}},
{"geometry": {"type": "Point", "coordinates": [-95.6532976233, 35.9508667979]}, "type": "Feature", "properties": {"collection_times": [{"days": "Mon-Fri", "time": "4:30pm"}, {"days": "Sat", "time": "3:15pm"}, {"days": "Sun", "time": "Closed"}], "id": "7442900005", "name": "USPS COLLECTION BOX - PO LOBBY", "address": {"city": "COWETA", "state": "OK", "street": "215 W SYCAMORE ST", "postcode": "74429"}}},
{"geometry": {"type": "Point", "coordinates": [-95.670888162, 35.1234926491]}, "type": "Feature", "properties": {"collection_times": [{"days": "Mon-Fri", "time": "3:45pm"}, {"days": "Sat", "time": "9:45am"}, {"days": "Sun", "time": "Closed"}], "id": "7443000000", "name": "USPS COLLECTION BOX - BLUE BOX", "address": {"city": "CROWDER", "state": "OK", "street": "100 N B ST", "postcode": "74430"}}},
{"geometry": {"type": "Point", "coordinates": [-95.670888162, 35.1234926491]}, "type": "Feature", "properties": {"collection_times": [{"days": "Mon-Fri", "time": "3:45pm"}, {"days": "Sat", "time": "9:45am"}, {"days": "Sun", "time": "Closed"}], "id": "7443000001", "name": "USPS COLLECTION BOX - PO LOBBY", "address": {"city": "CROWDER", "state": "OK", "street": "100 N B ST", "postcode": "74430"}}},
{"geometry": {"type": "Point", "coordinates": [-95.670888162, 35.1234926491]}, "type": "Feature", "properties": {"collection_times": [{"days": "Mon-Fri", "time": "3:45pm"}, {"days": "Sat", "time": "9:45am"}, {"days": "Sun", "time": "Closed"}], "id": "7443000002", "name": "USPS COLLECTION BOX - PO LOBBY", "address": {"city": "CROWDER", "state": "OK", "street": "100 N B ST", "postcode": "74430"}}},
{"geometry": {"type": "Point", "coordinates": [-95.9408806591, 35.4558324298]}, "type": "Feature", "properties": {"collection_times": [{"days": "Mon-Fri", "time": "3:30pm"}, {"days": "Sat", "time": "10:45am"}, {"days": "Sun", "time": "Closed"}], "id": "7443100001", "name": "USPS COLLECTION BOX - PO LOBBY", "address": {"city": "DEWAR", "state": "OK", "street": "104 N BROADWAY", "postcode": "74431"}}},
{"geometry": {"type": "Point", "coordinates": [-95.9408806591, 35.4558324298]}, "type": "Feature", "properties": {"collection_times": [{"days": "Mon-Fri", "time": "3:30pm"}, {"days": "Sat", "time": "10:45am"}, {"days": "Sun", "time": "Closed"}], "id": "7443100002", "name": "USPS COLLECTION BOX - PO LOBBY", "address": {"city": "DEWAR", "state": "OK", "street": "104 N BROADWAY", "postcode": "74431"}}},
{"geometry": {"type": "Point", "coordinates": [-95.5815341237, 35.2864290645]}, "type": "Feature", "properties": {"collection_times": [{"days": "Mon-Fri", "time": "4:15pm"}, {"days": "Sat", "time": "3:45pm"}, {"days": "Sun", "time": "Closed"}], "id": "7443200000", "name": "USPS COLLECTION BOX - BLUE BOX", "address": {"city": "EUFAULA", "state": "OK", "street": "131 W FOLEY ST", "postcode": "74432"}}},
{"geometry": {"type": "Point", "coordinates": [-95.5815341237, 35.2864290645]}, "type": "Feature", "properties": {"collection_times": [{"days": "Mon-Fri", "time": "4:30pm"}, {"days": "Sat", "time": "4:00pm"}, {"days": "Sun", "time": "Closed"}], "id": "7443200003", "name": "USPS COLLECTION BOX - PO LOBBY", "address": {"city": "EUFAULA", "state": "OK", "street": "131 W FOLEY ST", "postcode": "74432"}}},
{"geometry": {"type": "Point", "coordinates": [-95.7525179441, 35.3115179169]}, "type": "Feature", "properties": {"collection_times": [{"days": "Mon-Sat", "time": "9:00am"}, {"days": "Sun", "time": "Closed"}], "id": "7443200004", "name": "USPS COLLECTION BOX - BLUE BOX", "address": {"city": "EUFAULA", "state": "OK", "street": "16876 STATE HIGHWAY 9 E", "postcode": "74432"}}},
{"geometry": {"type": "Point", "coordinates": [-95.2481722668, 35.7982922239]}, "type": "Feature", "properties": {"collection_times": [{"days": "Mon-Fri", "time": "4:00pm"}, {"days": "Sat", "time": "10:00am"}, {"days": "Sun", "time": "Closed"}], "id": "7443400000", "name": "USPS COLLECTION BOX - BLUE BOX", "address": {"city": "FORT GIBSON", "state": "OK", "street": "201 W POPLAR ST", "postcode": "74434"}}},
{"geometry": {"type": "Point", "coordinates": [-95.2481722668, 35.7982922239]}, "type": "Feature", "properties": {"collection_times": [{"days": "Mon-Fri", "time": "4:00pm"}, {"days": "Sat", "time": "10:00am"}, {"days": "Sun", "time": "Closed"}], "id": "7443400002", "name": "USPS COLLECTION BOX - PO LOBBY", "address": {"city": "FORT GIBSON", "state": "OK", "street": "201 W POPLAR ST", "postcode": "74434"}}},
{"geometry": {"type": "Point", "coordinates": [-95.2481722668, 35.7982922239]}, "type": "Feature", "properties": {"collection_times": [{"days": "Mon-Fri", "time": "4:00pm"}, {"days": "Sat", "time": "10:00am"}, {"days": "Sun", "time": "Closed"}], "id": "7443400003", "name": "USPS COLLECTION BOX - PO LOBBY", "address": {"city": "FORT GIBSON", "state": "OK", "street": "201 W POPLAR ST", "postcode": "74434"}}},
{"geometry": {"type": "Point", "coordinates": [-95.2481722668, 35.7982922239]}, "type": "Feature", "properties": {"collection_times": [{"days": "Mon-Fri", "time": "4:00pm"}, {"days": "Sat", "time": "10:00am"}, {"days": "Sun", "time": "Closed"}], "id": "7443400004", "name": "USPS COLLECTION BOX - PO LOBBY", "address": {"city": "FORT GIBSON", "state": "OK", "street": "201 W POPLAR ST", "postcode": "74434"}}},
{"geometry": {"type": "Point", "coordinates": [-95.2481722668, 35.7982922239]}, "type": "Feature", "properties": {"collection_times": [{"days": "Mon-Fri", "time": "4:00pm"}, {"days": "Sat", "time": "10:00am"}, {"days": "Sun", "time": "Closed"}], "id": "7443400005", "name": "USPS COLLECTION BOX - PO LOBBY", "address": {"city": "FORT GIBSON", "state": "OK", "street": "201 W POPLAR ST", "postcode": "74434"}}},
{"geometry": {"type": "Point", "coordinates": [-95.1151931319, 35.5315915432]}, "type": "Feature", "properties": {"collection_times": [{"days": "Mon-Fri", "time": "4:00pm"}, {"days": "Sat", "time": "10:00am"}, {"days": "Sun", "time": "Closed"}], "id": "7443500000", "name": "USPS COLLECTION BOX - BLUE BOX", "address": {"city": "GORE", "state": "OK", "street": "402 N MAIN ST", "postcode": "74435"}}},
{"geometry": {"type": "Point", "coordinates": [-95.1151931319, 35.5315915432]}, "type": "Feature", "properties": {"collection_times": [{"days": "Mon-Fri", "time": "4:15pm"}, {"days": "Sat", "time": "10:00am"}, {"days": "Sun", "time": "Closed"}], "id": "7443500001", "name": "USPS COLLECTION BOX - PO LOBBY", "address": {"city": "GORE", "state": "OK", "street": "402 N MAIN ST", "postcode": "74435"}}},
{"geometry": {"type": "Point", "coordinates": [-95.6750854609, 35.825552532]}, "type": "Feature", "properties": {"collection_times": [{"days": "Mon-Fri", "time": "4:15pm"}, {"days": "Sat", "time": "10:30am"}, {"days": "Sun", "time": "Closed"}], "id": "7443600001", "name": "USPS COLLECTION BOX - PO LOBBY", "address": {"city": "HASKELL", "state": "OK", "street": "525 BROADWAY", "postcode": "74436"}}},
{"geometry": {"type": "Point", "coordinates": [-95.6750854609, 35.825552532]}, "type": "Feature", "properties": {"collection_times": [{"days": "Mon-Fri", "time": "4:15pm"}, {"days": "Sat", "time": "10:30am"}, {"days": "Sun", "time": "Closed"}], "id": "7443600002", "name": "USPS COLLECTION BOX - PO LOBBY", "address": {"city": "HASKELL", "state": "OK", "street": "525 BROADWAY", "postcode": "74436"}}},
{"geometry": {"type": "Point", "coordinates": [-95.6750854609, 35.825552532]}, "type": "Feature", "properties": {"collection_times": [{"days": "Mon-Fri", "time": "4:15pm"}, {"days": "Sat", "time": "10:30am"}, {"days": "Sun", "time": "Closed"}], "id": "7443600003", "name": "USPS COLLECTION BOX - PO LOBBY", "address": {"city": "HASKELL", "state": "OK", "street": "525 BROADWAY", "postcode": "74436"}}},
{"geometry": {"type": "Point", "coordinates": [-95.9869942034, 35.4408762839]}, "type": "Feature", "properties": {"collection_times": [{"days": "Mon-Fri", "time": "4:30pm"}, {"days": "Sat", "time": "3:45pm"}, {"days": "Sun", "time": "Closed"}], "id": "7443700004", "name": "USPS COLLECTION BOX - BLUE BOX", "address": {"city": "HENRYETTA", "state": "OK", "street": "201 N 5TH ST", "postcode": "74437"}}},
{"geometry": {"type": "Point", "coordinates": [-95.9869942034, 35.4408762839]}, "type": "Feature", "properties": {"collection_times": [{"days": "Mon-Fri", "time": "4:30pm"}, {"days": "Sat", "time": "3:45pm"}, {"days": "Sun", "time": "Closed"}], "id": "7443700005", "name": "USPS COLLECTION BOX - BLUE BOX", "address": {"city": "HENRYETTA", "state": "OK", "street": "201 N 5TH ST", "postcode": "74437"}}},
{"geometry": {"type": "Point", "coordinates": [-95.9869942034, 35.4408762839]}, "type": "Feature", "properties": {"collection_times": [{"days": "Mon-Fri", "time": "4:30pm"}, {"days": "Sat", "time": "3:45pm"}, {"days": "Sun", "time": "Closed"}], "id": "7443700006", "name": "USPS COLLECTION BOX - PO LOBBY", "address": {"city": "HENRYETTA", "state": "OK", "street": "201 N 5TH ST", "postcode": "74437"}}},
{"geometry": {"type": "Point", "coordinates": [-95.9869942034, 35.4408762839]}, "type": "Feature", "properties": {"collection_times": [{"days": "Mon-Fri", "time": "4:30pm"}, {"days": "Sat", "time": "3:45pm"}, {"days": "Sun", "time": "Closed"}], "id": "7443700007", "name": "USPS COLLECTION BOX - PO LOBBY", "address": {"city": "HENRYETTA", "state": "OK", "street": "201 N 5TH ST", "postcode": "74437"}}},
{"geometry": {"type": "Point", "coordinates": [-95.875775985, 35.487471145]}, "type": "Feature", "properties": {"collection_times": [{"days": "Mon-Sat", "time": "11:00am"}, {"days": "Sun", "time": "Closed"}], "id": "7443700009", "name": "USPS COLLECTION BOX - BLUE BOX", "address": {"city": "HENRYETTA", "state": "OK", "street": "408110 HIGHWAY 266", "postcode": "74437"}}},
{"geometry": {"type": "Point", "coordinates": [-95.7518032892, 35.5204500361]}, "type": "Feature", "properties": {"collection_times": [{"days": "Mon-Fri", "time": "3:00pm"}, {"days": "Sat", "time": "9:45am"}, {"days": "Sun", "time": "Closed"}], "id": "7443800000", "name": "USPS COLLECTION BOX - BLUE BOX", "address": {"city": "HITCHITA", "state": "OK", "street": "1 BROADWAY ST", "postcode": "74438"}}},
{"geometry": {"type": "Point", "coordinates": [-95.7518032892, 35.5204500361]}, "type": "Feature", "properties": {"collection_times": [{"days": "Mon-Sat", "time": "10:30am"}, {"days": "Sun", "time": "Closed"}], "id": "7443800001", "name": "USPS COLLECTION BOX - PO LOBBY", "address": {"city": "HITCHITA", "state": "OK", "street": "1 BROADWAY ST", "postcode": "74438"}}},
{"geometry": {"type": "Point", "coordinates": [-95.1394920665, 35.9327342497]}, "type": "Feature", "properties": {"collection_times": [{"days": "Mon-Fri", "time": "4:00pm"}, {"days": "Sat", "time": "9:45am"}, {"days": "Sun", "time": "Closed"}], "id": "7444100000", "name": "USPS COLLECTION BOX - BLUE BOX", "address": {"city": "HULBERT", "state": "OK", "street": "402 E MAIN ST", "postcode": "74441"}}},
{"geometry": {"type": "Point", "coordinates": [-95.1394920665, 35.9327342497]}, "type": "Feature", "properties": {"collection_times": [{"days": "Mon-Fri", "time": "4:15pm"}, {"days": "Sat", "time": "9:45am"}, {"days": "Sun", "time": "Closed"}], "id": "7444100001", "name": "USPS COLLECTION BOX - PO LOBBY", "address": {"city": "HULBERT", "state": "OK", "street": "402 E MAIN ST", "postcode": "74441"}}},
{"geometry": {"type": "Point", "coordinates": [-95.1394920665, 35.9327342497]}, "type": "Feature", "properties": {"collection_times": [{"days": "Mon-Fri", "time": "4:15pm"}, {"days": "Sat", "time": "9:45am"}, {"days": "Sun", "time": "Closed"}], "id": "7444100002", "name": "USPS COLLECTION BOX - PO LOBBY", "address": {"city": "HULBERT", "state": "OK", "street": "402 E MAIN ST", "postcode": "74441"}}},
{"geometry": {"type": "Point", "coordinates": [-95.7992035188, 35.1386069601]}, "type": "Feature", "properties": {"collection_times": [{"days": "Mon-Sat", "time": "3:45pm"}, {"days": "Sun", "time": "Closed"}], "id": "7444200000", "name": "USPS COLLECTION BOX - BLUE BOX", "address": {"city": "INDIANOLA", "state": "OK", "street": "212 MAIN ST", "postcode": "74442"}}},
{"geometry": {"type": "Point", "coordinates": [-95.7992035188, 35.1386069601]}, "type": "Feature", "properties": {"collection_times": [{"days": "Mon-Fri", "time": "11:45am"}, {"days": "Sat", "time": "10:00am"}, {"days": "Sun", "time": "Closed"}], "id": "7444200001", "name": "USPS COLLECTION BOX - PO LOBBY", "address": {"city": "INDIANOLA", "state": "OK", "street": "212 MAIN ST", "postcode": "74442"}}},
{"geometry": {"type": "Point", "coordinates": [-94.957725125, 36.0602645145]}, "type": "Feature", "properties": {"collection_times": [{"days": "Mon-Fri", "time": "11:30am"}, {"days": "Sat", "time": "10:30am"}, {"days": "Sun", "time": "Closed"}], "id": "7444400000", "name": "USPS COLLECTION BOX - BLUE BOX", "address": {"city": "MOODYS", "state": "OK", "street": "9783 HIGHWAY 82A", "postcode": "74444"}}},
{"geometry": {"type": "Point", "coordinates": [-95.8613972097, 35.6074191666]}, "type": "Feature", "properties": {"collection_times": [{"days": "Mon-Fri", "time": "4:00pm"}, {"days": "Sat", "time": "10:00am"}, {"days": "Sun", "time": "Closed"}], "id": "7444500000", "name": "USPS COLLECTION BOX - BLUE BOX", "address": {"city": "MORRIS", "state": "OK", "street": "321 S 2ND ST", "postcode": "74445"}}},
{"geometry": {"type": "Point", "coordinates": [-95.8613972097, 35.6074191666]}, "type": "Feature", "properties": {"collection_times": [{"days": "Mon-Fri", "time": "4:00pm"}, {"days": "Sat", "time": "10:00am"}, {"days": "Sun", "time": "Closed"}], "id": "7444500004", "name": "USPS COLLECTION BOX - PO LOBBY", "address": {"city": "MORRIS", "state": "OK", "street": "321 S 2ND ST", "postcode": "74445"}}},
{"geometry": {"type": "Point", "coordinates": [-95.8613972097, 35.6074191666]}, "type": "Feature", "properties": {"collection_times": [{"days": "Mon-Fri", "time": "4:00pm"}, {"days": "Sat", "time": "10:00am"}, {"days": "Sun", "time": "Closed"}], "id": "7444500005", "name": "USPS COLLECTION BOX - PO LOBBY", "address": {"city": "MORRIS", "state": "OK", "street": "321 S 2ND ST", "postcode": "74445"}}},
{"geometry": {"type": "Point", "coordinates": [-95.8613972097, 35.6074191666]}, "type": "Feature", "properties": {"collection_times": [{"days": "Mon-Fri", "time": "4:00pm"}, {"days": "Sat", "time": "10:00am"}, {"days": "Sun", "time": "Closed"}], "id": "7444500006", "name": "USPS COLLECTION BOX - PO LOBBY", "address": {"city": "MORRIS", "state": "OK", "street": "321 S 2ND ST", "postcode": "74445"}}},
{"geometry": {"type": "Point", "coordinates": [-95.3212551382, 35.8506749719]}, "type": "Feature", "properties": {"collection_times": [{"days": "Mon-Fri", "time": "3:15pm"}, {"days": "Sat", "time": "9:00am"}, {"days": "Sun", "time": "Closed"}], "id": "7444600000", "name": "USPS COLLECTION BOX - BLUE BOX", "address": {"city": "OKAY", "state": "OK", "street": "3620 E 75TH ST N", "postcode": "74446"}}},
{"geometry": {"type": "Point", "coordinates": [-95.3212551382, 35.8506749719]}, "type": "Feature", "properties": {"collection_times": [{"days": "Mon-Fri", "time": "3:30pm"}, {"days": "Sat", "time": "9:00am"}, {"days": "Sun", "time": "Closed"}], "id": "7444600001", "name": "USPS COLLECTION BOX - PO LOBBY", "address": {"city": "OKAY", "state": "OK", "street": "3620 E 75TH ST N", "postcode": "74446"}}},
{"geometry": {"type": "Point", "coordinates": [-95.3212551382, 35.8506749719]}, "type": "Feature", "properties": {"collection_times": [{"days": "Mon-Fri", "time": "3:30pm"}, {"days": "Sat", "time": "9:00am"}, {"days": "Sun", "time": "Closed"}], "id": "7444600002", "name": "USPS COLLECTION BOX - PO LOBBY", "address": {"city": "OKAY", "state": "OK", "street": "3620 E 75TH ST N", "postcode": "74446"}}},
{"geometry": {"type": "Point", "coordinates": [-95.9715853149, 35.623279312]}, "type": "Feature", "properties": {"collection_times": [{"days": "Mon-Fri", "time": "4:30pm"}, {"days": "Sat", "time": "4:00pm"}, {"days": "Sun", "time": "Closed"}], "id": "7444700001", "name": "USPS COLLECTION BOX - BLUE BOX", "address": {"city": "OKMULGEE", "state": "OK", "street": "113 E 6TH ST", "postcode": "74447"}}},
{"geometry": {"type": "Point", "coordinates": [-95.9741185363, 35.6224110307]}, "type": "Feature", "properties": {"collection_times": [{"days": "Mon-Fri", "time": "4:30pm"}, {"days": "Sat", "time": "4:00pm"}, {"days": "Sun", "time": "Closed"}], "id": "7444700005", "name": "USPS COLLECTION BOX - BLUE BOX", "address": {"city": "OKMULGEE", "state": "OK", "street": "310 W 7TH ST", "postcode": "74447"}}},
{"geometry": {"type": "Point", "coordinates": [-95.9717486513, 35.6239424305]}, "type": "Feature", "properties": {"collection_times": [{"days": "Mon-Fri", "time": "4:30pm"}, {"days": "Sat", "time": "4:00pm"}, {"days": "Sun", "time": "Closed"}], "id": "7444700006", "name": "USPS COLLECTION BOX - BLUE BOX", "address": {"city": "OKMULGEE", "state": "OK", "street": "114 N GRAND AVE", "postcode": "74447"}}},
{"geometry": {"type": "Point", "coordinates": [-95.9718664372, 35.6247079517]}, "type": "Feature", "properties": {"collection_times": [{"days": "Mon-Fri", "time": "5:00pm"}, {"days": "Sat", "time": "4:00pm"}, {"days": "Sun", "time": "Closed"}], "id": "7444700007", "name": "USPS COLLECTION BOX - BLUE BOX", "address": {"city": "OKMULGEE", "state": "OK", "street": "111 W 4TH ST", "postcode": "74447"}}},
{"geometry": {"type": "Point", "coordinates": [-95.9718740228, 35.6247130002]}, "type": "Feature", "properties": {"collection_times": [{"days": "Mon-Fri", "time": "5:00pm"}, {"days": "Sat", "time": "4:00pm"}, {"days": "Sun", "time": "Closed"}], "id": "7444700008", "name": "USPS COLLECTION BOX - BLUE BOX", "address": {"city": "OKMULGEE", "state": "OK", "street": "111 W 4TH ST", "postcode": "74447"}}},
{"geometry": {"type": "Point", "coordinates": [-95.9619077314, 35.6062891171]}, "type": "Feature", "properties": {"collection_times": [{"days": "Mon-Sat", "time": "10:00am"}, {"days": "Sun", "time": "Closed"}], "id": "7444700011", "name": "USPS COLLECTION BOX - BLUE BOX", "address": {"city": "OKMULGEE", "state": "OK", "street": "1800 S WOOD DR", "postcode": "74447"}}},
{"geometry": {"type": "Point", "coordinates": [-95.965119195, 35.6212993046]}, "type": "Feature", "properties": {"collection_times": [{"days": "Mon-Fri", "time": "4:30pm"}, {"days": "Sat", "time": "4:00pm"}, {"days": "Sun", "time": "Closed"}], "id": "7444700022", "name": "USPS COLLECTION BOX - BLUE BOX", "address": {"city": "OKMULGEE", "state": "OK", "street": "610 E 8TH ST", "postcode": "74447"}}},
{"geometry": {"type": "Point", "coordinates": [-95.9718664372, 35.6247079517]}, "type": "Feature", "properties": {"collection_times": [{"days": "Mon-Fri", "time": "4:45pm"}, {"days": "Sat", "time": "4:30pm"}, {"days": "Sun", "time": "Closed"}], "id": "7444700025", "name": "USPS COLLECTION BOX - PO LOBBY", "address": {"city": "OKMULGEE", "state": "OK", "street": "111 W 4TH ST", "postcode": "74447"}}},
{"geometry": {"type": "Point", "coordinates": [-95.9718664372, 35.6247079517]}, "type": "Feature", "properties": {"collection_times": [{"days": "Mon-Fri", "time": "4:45pm"}, {"days": "Sat", "time": "4:30pm"}, {"days": "Sun", "time": "Closed"}], "id": "7444700026", "name": "USPS COLLECTION BOX - PO LOBBY", "address": {"city": "OKMULGEE", "state": "OK", "street": "111 W 4TH ST", "postcode": "74447"}}},
{"geometry": {"type": "Point", "coordinates": [-95.9718664372, 35.6247079517]}, "type": "Feature", "properties": {"collection_times": [{"days": "Mon-Fri", "time": "4:45pm"}, {"days": "Sat", "time": "4:30pm"}, {"days": "Sun", "time": "Closed"}], "id": "7444700028", "name": "USPS COLLECTION BOX - PO LOBBY", "address": {"city": "OKMULGEE", "state": "OK", "street": "111 W 4TH ST", "postcode": "74447"}}},
{"geometry": {"type": "Point", "coordinates": [-95.4791305136, 35.5762320753]}, "type": "Feature", "properties": {"collection_times": [{"days": "Mon-Fri", "time": "3:30pm"}, {"days": "Sat", "time": "10:00am"}, {"days": "Sun", "time": "Closed"}], "id": "7445000000", "name": "USPS COLLECTION BOX - BLUE BOX", "address": {"city": "OKTAHA", "state": "OK", "street": "104 E PRAIRIE", "postcode": "74450"}}},
{"geometry": {"type": "Point", "coordinates": [-95.4791305136, 35.5762320753]}, "type": "Feature", "properties": {"collection_times": [{"days": "Mon-Fri", "time": "3:00pm"}, {"days": "Sat", "time": "10:00am"}, {"days": "Sun", "time": "Closed"}], "id": "7445000002", "name": "USPS COLLECTION BOX - PO LOBBY", "address": {"city": "OKTAHA", "state": "OK", "street": "104 E PRAIRIE", "postcode": "74450"}}},
{"geometry": {"type": "Point", "coordinates": [-95.4791305136, 35.5762320753]}, "type": "Feature", "properties": {"collection_times": [{"days": "Mon-Fri", "time": "3:00pm"}, {"days": "Sat", "time": "10:00am"}, {"days": "Sun", "time": "Closed"}], "id": "7445000003", "name": "USPS COLLECTION BOX - PO LOBBY", "address": {"city": "OKTAHA", "state": "OK", "street": "104 E PRAIRIE", "postcode": "74450"}}},
{"geometry": {"type": "Point", "coordinates": [-94.9511656837, 35.7939969809]}, "type": "Feature", "properties": {"collection_times": [{"days": "Mon-Fri", "time": "3:30pm"}, {"days": "Sat-Sun", "time": "Closed"}], "id": "7445100001", "name": "USPS COLLECTION BOX - BLUE BOX", "address": {"city": "PARK HILL", "state": "OK", "street": "26241 HIGHWAY 82", "postcode": "74451"}}},
{"geometry": {"type": "Point", "coordinates": [-94.9156827335, 35.7747427376]}, "type": "Feature", "properties": {"collection_times": [{"days": "Mon-Fri", "time": "3:45pm"}, {"days": "Sat-Sun", "time": "Closed"}], "id": "7445100002", "name": "USPS COLLECTION BOX - BLUE BOX", "address": {"city": "PARK HILL", "state": "OK", "street": "28406 HIGHWAY 82", "postcode": "74451"}}},
{"geometry": {"type": "Point", "coordinates": [-95.0647287066, 35.7112259437]}, "type": "Feature", "properties": {"collection_times": [{"days": "Mon-Fri", "time": "3:45pm"}, {"days": "Sat", "time": "10:00am"}, {"days": "Sun", "time": "Closed"}], "id": "7445100003", "name": "USPS COLLECTION BOX - PO LOBBY", "address": {"city": "PARK HILL", "state": "OK", "street": "21286 S KEELER DR", "postcode": "74451"}}},
{"geometry": {"type": "Point", "coordinates": [-95.0647287066, 35.7112259437]}, "type": "Feature", "properties": {"collection_times": [{"days": "Mon-Fri", "time": "3:45pm"}, {"days": "Sat", "time": "10:00am"}, {"days": "Sun", "time": "Closed"}], "id": "7445100004", "name": "USPS COLLECTION BOX - PO LOBBY", "address": {"city": "PARK HILL", "state": "OK", "street": "21286 S KEELER DR", "postcode": "74451"}}},
{"geometry": {"type": "Point", "coordinates": [-95.0168212568, 36.1269206434]}, "type": "Feature", "properties": {"collection_times": [{"days": "Mon-Fri", "time": "2:00pm"}, {"days": "Sat", "time": "1:00pm"}, {"days": "Sun", "time": "Closed"}], "id": "7445200000", "name": "USPS COLLECTION BOX - BLUE BOX", "address": {"city": "PEGGS", "state": "OK", "street": "6580 N SYLVAN ST", "postcode": "74452"}}},
{"geometry": {"type": "Point", "coordinates": [-95.0168212568, 36.1269206434]}, "type": "Feature", "properties": {"collection_times": [{"days": "Mon-Fri", "time": "2:00pm"}, {"days": "Sat", "time": "1:00pm"}, {"days": "Sun", "time": "Closed"}], "id": "7445200001", "name": "USPS COLLECTION BOX - PO LOBBY", "address": {"city": "PEGGS", "state": "OK", "street": "6580 N SYLVAN ST", "postcode": "74452"}}},
{"geometry": {"type": "Point", "coordinates": [-95.522537845, 35.865672464]}, "type": "Feature", "properties": {"collection_times": [{"days": "Mon-Fri", "time": "3:00pm"}, {"days": "Sat", "time": "9:15am"}, {"days": "Sun", "time": "Closed"}], "id": "7445400001", "name": "USPS COLLECTION BOX - PO LOBBY", "address": {"city": "PORTER", "state": "OK", "street": "530 S MAIN ST", "postcode": "74454"}}},
{"geometry": {"type": "Point", "coordinates": [-95.522537845, 35.865672464]}, "type": "Feature", "properties": {"collection_times": [{"days": "Mon-Fri", "time": "3:00pm"}, {"days": "Sat", "time": "9:15am"}, {"days": "Sun", "time": "Closed"}], "id": "7445400002", "name": "USPS COLLECTION BOX - PO LOBBY", "address": {"city": "PORTER", "state": "OK", "street": "530 S MAIN ST", "postcode": "74454"}}},
{"geometry": {"type": "Point", "coordinates": [-95.2656035999, 35.3588022147]}, "type": "Feature", "properties": {"collection_times": [{"days": "Mon-Fri", "time": "3:30pm"}, {"days": "Sat", "time": "10:00am"}, {"days": "Sun", "time": "Closed"}], "id": "7445500000", "name": "USPS COLLECTION BOX - BLUE BOX", "address": {"city": "PORUM", "state": "OK", "street": "105 SEMINOLE ST", "postcode": "74455"}}},
{"geometry": {"type": "Point", "coordinates": [-95.2656035999, 35.3588022147]}, "type": "Feature", "properties": {"collection_times": [{"days": "Mon-Fri", "time": "3:30pm"}, {"days": "Sat", "time": "10:00am"}, {"days": "Sun", "time": "Closed"}], "id": "7445500001", "name": "USPS COLLECTION BOX - PO LOBBY", "address": {"city": "PORUM", "state": "OK", "street": "105 SEMINOLE ST", "postcode": "74455"}}},
{"geometry": {"type": "Point", "coordinates": [-95.2656035999, 35.3588022147]}, "type": "Feature", "properties": {"collection_times": [{"days": "Mon-Fri", "time": "3:30pm"}, {"days": "Sat", "time": "10:00am"}, {"days": "Sun", "time": "Closed"}], "id": "7445500002", "name": "USPS COLLECTION BOX - PO LOBBY", "address": {"city": "PORUM", "state": "OK", "street": "105 SEMINOLE ST", "postcode": "74455"}}},
{"geometry": {"type": "Point", "coordinates": [-95.9890885942, 35.7138970195]}, "type": "Feature", "properties": {"collection_times": [{"days": "Mon-Fri", "time": "11:30am"}, {"days": "Sat", "time": "9:45am"}, {"days": "Sun", "time": "Closed"}], "id": "7445600001", "name": "USPS COLLECTION BOX - PO LOBBY", "address": {"city": "PRESTON", "state": "OK", "street": "10040 POLK AVE", "postcode": "74456"}}},
{"geometry": {"type": "Point", "coordinates": [-94.7313713399, 35.9700673988]}, "type": "Feature", "properties": {"collection_times": [{"days": "Mon-Fri", "time": "3:30pm"}, {"days": "Sat", "time": "1:00pm"}, {"days": "Sun", "time": "Closed"}], "id": "7445700001", "name": "USPS COLLECTION BOX - PO LOBBY", "address": {"city": "PROCTOR", "state": "OK", "street": "100 HIGHWAY 62", "postcode": "74457"}}},
{"geometry": {"type": "Point", "coordinates": [-95.956951858, 35.518091533]}, "type": "Feature", "properties": {"collection_times": [{"days": "Mon-Fri", "time": "4:15pm"}, {"days": "Sat", "time": "9:45am"}, {"days": "Sun", "time": "Closed"}], "id": "7446000000", "name": "USPS COLLECTION BOX - BLUE BOX", "address": {"city": "SCHULTER", "state": "OK", "street": "13445 GINGER ST", "postcode": "74460"}}},
{"geometry": {"type": "Point", "coordinates": [-95.956951858, 35.518091533]}, "type": "Feature", "properties": {"collection_times": [{"days": "Mon-Fri", "time": "4:15pm"}, {"days": "Sat", "time": "9:45am"}, {"days": "Sun", "time": "Closed"}], "id": "7446000001", "name": "USPS COLLECTION BOX - PO LOBBY", "address": {"city": "SCHULTER", "state": "OK", "street": "13445 GINGER ST", "postcode": "74460"}}},
{"geometry": {"type": "Point", "coordinates": [-95.1262142441, 35.2533473681]}, "type": "Feature", "properties": {"collection_times": [{"days": "Mon-Fri", "time": "4:00pm"}, {"days": "Sat", "time": "12:00pm"}, {"days": "Sun", "time": "Closed"}], "id": "7446200000", "name": "USPS COLLECTION BOX - BLUE BOX", "address": {"city": "STIGLER", "state": "OK", "street": "120 E A ST", "postcode": "74462"}}},
{"geometry": {"type": "Point", "coordinates": [-95.12548008, 35.2543925573]}, "type": "Feature", "properties": {"collection_times": [{"days": "Mon-Fri", "time": "4:00pm"}, {"days": "Sat", "time": "12:00pm"}, {"days": "Sun", "time": "Closed"}], "id": "7446200001", "name": "USPS COLLECTION BOX - PO LOBBY", "address": {"city": "STIGLER", "state": "OK", "street": "120 N BROADWAY ST", "postcode": "74462"}}},
{"geometry": {"type": "Point", "coordinates": [-95.5615218149, 35.7408478904]}, "type": "Feature", "properties": {"collection_times": [{"days": "Mon-Fri", "time": "3:15pm"}, {"days": "Sat", "time": "9:45am"}, {"days": "Sun", "time": "Closed"}], "id": "7446300000", "name": "USPS COLLECTION BOX - BLUE BOX", "address": {"city": "TAFT", "state": "OK", "street": "106 W CHEROKEE ST", "postcode": "74463"}}},
{"geometry": {"type": "Point", "coordinates": [-95.5615218149, 35.7408478904]}, "type": "Feature", "properties": {"collection_times": [{"days": "Mon-Fri", "time": "3:15pm"}, {"days": "Sat", "time": "9:45am"}, {"days": "Sun", "time": "Closed"}], "id": "7446300001", "name": "USPS COLLECTION BOX - PO LOBBY", "address": {"city": "TAFT", "state": "OK", "street": "106 W CHEROKEE ST", "postcode": "74463"}}},
{"geometry": {"type": "Point", "coordinates": [-94.9743896899, 35.9020427699]}, "type": "Feature", "properties": {"collection_times": [{"days": "Mon-Fri", "time": "4:45pm"}, {"days": "Sat", "time": "4:00pm"}, {"days": "Sun", "time": "Closed"}], "id": "7446400000", "name": "USPS COLLECTION BOX - BLUE BOX", "address": {"city": "TAHLEQUAH", "state": "OK", "street": "1101 S MUSKOGEE AVE", "postcode": "74464"}}},
{"geometry": {"type": "Point", "coordinates": [-94.9755159437, 35.9007501932]}, "type": "Feature", "properties": {"collection_times": [{"days": "Mon-Fri", "time": "3:30pm"}, {"days": "Sat", "time": "3:00pm"}, {"days": "Sun", "time": "Closed"}], "id": "7446400002", "name": "USPS COLLECTION BOX - BLUE BOX", "address": {"city": "TAHLEQUAH", "state": "OK", "street": "1001 S COLLEGE AVE", "postcode": "74464"}}},
{"geometry": {"type": "Point", "coordinates": [-94.9725352092, 35.9137767267]}, "type": "Feature", "properties": {"collection_times": [{"days": "Mon-Fri", "time": "3:30pm"}, {"days": "Sat", "time": "3:00pm"}, {"days": "Sun", "time": "Closed"}], "id": "7446400010", "name": "USPS COLLECTION BOX - BLUE BOX", "address": {"city": "TAHLEQUAH", "state": "OK", "street": "213 W DELAWARE ST", "postcode": "74464"}}},
{"geometry": {"type": "Point", "coordinates": [-94.9489924908, 35.915297653]}, "type": "Feature", "properties": {"collection_times": [{"days": "Mon-Sat", "time": "10:00am"}, {"days": "Sun", "time": "Closed"}], "id": "7446400017", "name": "USPS COLLECTION BOX - BLUE BOX", "address": {"city": "TAHLEQUAH", "state": "OK", "street": "100 S BLISS AVE", "postcode": "74464"}}},
{"geometry": {"type": "Point", "coordinates": [-94.9743896899, 35.9020427699]}, "type": "Feature", "properties": {"collection_times": [{"days": "Mon-Fri", "time": "4:45pm"}, {"days": "Sat", "time": "4:00pm"}, {"days": "Sun", "time": "Closed"}], "id": "7446400021", "name": "USPS COLLECTION BOX - BLUE BOX", "address": {"city": "TAHLEQUAH", "state": "OK", "street": "1101 S MUSKOGEE AVE", "postcode": "74464"}}},
{"geometry": {"type": "Point", "coordinates": [-94.9743896899, 35.9020427699]}, "type": "Feature", "properties": {"collection_times": [{"days": "Mon-Fri", "time": "4:45pm"}, {"days": "Sat", "time": "4:00pm"}, {"days": "Sun", "time": "Closed"}], "id": "7446400022", "name": "USPS COLLECTION BOX - PO LOBBY", "address": {"city": "TAHLEQUAH", "state": "OK", "street": "1101 S MUSKOGEE AVE", "postcode": "74464"}}},
{"geometry": {"type": "Point", "coordinates": [-94.9743896899, 35.9020427699]}, "type": "Feature", "properties": {"collection_times": [{"days": "Mon-Fri", "time": "4:45pm"}, {"days": "Sat", "time": "4:00pm"}, {"days": "Sun", "time": "Closed"}], "id": "7446400023", "name": "USPS COLLECTION BOX - PO LOBBY", "address": {"city": "TAHLEQUAH", "state": "OK", "street": "1101 S MUSKOGEE AVE", "postcode": "74464"}}},
{"geometry": {"type": "Point", "coordinates": [-94.97102162, 35.9133391597]}, "type": "Feature", "properties": {"collection_times": [{"days": "Mon-Fri", "time": "3:30pm"}, {"days": "Sat", "time": "3:00pm"}, {"days": "Sun", "time": "Closed"}], "id": "7446400024", "name": "USPS COLLECTION BOX - BLUE BOX", "address": {"city": "TAHLEQUAH", "state": "OK", "street": "100 S MUSKOGEE AVE", "postcode": "74464"}}},
{"geometry": {"type": "Point", "coordinates": [-95.3762457796, 35.9586038244]}, "type": "Feature", "properties": {"collection_times": [{"days": "Mon-Fri", "time": "4:30pm"}, {"days": "Sat", "time": "3:00pm"}, {"days": "Sun", "time": "Closed"}], "id": "7446700000", "name": "USPS COLLECTION BOX - BLUE BOX", "address": {"city": "WAGONER", "state": "OK", "street": "233 E CHURCH ST", "postcode": "74467"}}},
{"geometry": {"type": "Point", "coordinates": [-95.3762457796, 35.9586038244]}, "type": "Feature", "properties": {"collection_times": [{"days": "Mon-Fri", "time": "4:30pm"}, {"days": "Sat", "time": "3:00pm"}, {"days": "Sun", "time": "Closed"}], "id": "7446700002", "name": "USPS COLLECTION BOX - BLUE BOX", "address": {"city": "WAGONER", "state": "OK", "street": "233 E CHURCH ST", "postcode": "74467"}}},
{"geometry": {"type": "Point", "coordinates": [-95.3762457796, 35.9586038244]}, "type": "Feature", "properties": {"collection_times": [{"days": "Mon-Fri", "time": "4:30pm"}, {"days": "Sat", "time": "3:00pm"}, {"days": "Sun", "time": "Closed"}], "id": "7446700003", "name": "USPS COLLECTION BOX - PO LOBBY", "address": {"city": "WAGONER", "state": "OK", "street": "233 E CHURCH ST", "postcode": "74467"}}},
{"geometry": {"type": "Point", "coordinates": [-95.3762457796, 35.9586038244]}, "type": "Feature", "properties": {"collection_times": [{"days": "Mon-Fri", "time": "4:30pm"}, {"days": "Sat", "time": "3:00pm"}, {"days": "Sun", "time": "Closed"}], "id": "7446700004", "name": "USPS COLLECTION BOX - PO LOBBY", "address": {"city": "WAGONER", "state": "OK", "street": "233 E CHURCH ST", "postcode": "74467"}}},
{"geometry": {"type": "Point", "coordinates": [-95.3762457796, 35.9586038244]}, "type": "Feature", "properties": {"collection_times": [{"days": "Mon-Fri", "time": "4:30pm"}, {"days": "Sat", "time": "3:00pm"}, {"days": "Sun", "time": "Closed"}], "id": "7446700005", "name": "USPS COLLECTION BOX - PO LOBBY", "address": {"city": "WAGONER", "state": "OK", "street": "233 E CHURCH ST", "postcode": "74467"}}},
{"geometry": {"type": "Point", "coordinates": [-95.3762457796, 35.9586038244]}, "type": "Feature", "properties": {"collection_times": [{"days": "Mon-Fri", "time": "4:30pm"}, {"days": "Sat", "time": "3:00pm"}, {"days": "Sun", "time": "Closed"}], "id": "7446700006", "name": "USPS COLLECTION BOX - PO LOBBY", "address": {"city": "WAGONER", "state": "OK", "street": "233 E CHURCH ST", "postcode": "74467"}}},
{"geometry": {"type": "Point", "coordinates": [-95.5687223533, 35.6144093906]}, "type": "Feature", "properties": {"collection_times": [{"days": "Mon-Sat", "time": "12:30pm"}, {"days": "Sun", "time": "Closed"}], "id": "7446800004", "name": "USPS COLLECTION BOX - PO LOBBY", "address": {"city": "WAINWRIGHT", "state": "OK", "street": "103 MAIN ST", "postcode": "74468"}}},
{"geometry": {"type": "Point", "coordinates": [-95.3194273727, 35.4933873464]}, "type": "Feature", "properties": {"collection_times": [{"days": "Mon-Fri", "time": "4:00pm"}, {"days": "Sat", "time": "9:30am"}, {"days": "Sun", "time": "Closed"}], "id": "7446900000", "name": "USPS COLLECTION BOX - BLUE BOX", "address": {"city": "WARNER", "state": "OK", "street": "805 2ND AVE", "postcode": "74469"}}},
{"geometry": {"type": "Point", "coordinates": [-95.3194273727, 35.4933873464]}, "type": "Feature", "properties": {"collection_times": [{"days": "Mon-Fri", "time": "4:00pm"}, {"days": "Sat", "time": "9:30am"}, {"days": "Sun", "time": "Closed"}], "id": "7446900001", "name": "USPS COLLECTION BOX - PO LOBBY", "address": {"city": "WARNER", "state": "OK", "street": "805 2ND AVE", "postcode": "74469"}}},
{"geometry": {"type": "Point", "coordinates": [-95.3194273727, 35.4933873464]}, "type": "Feature", "properties": {"collection_times": [{"days": "Mon-Fri", "time": "4:00pm"}, {"days": "Sat", "time": "9:30am"}, {"days": "Sun", "time": "Closed"}], "id": "7446900002", "name": "USPS COLLECTION BOX - PO LOBBY", "address": {"city": "WARNER", "state": "OK", "street": "805 2ND AVE", "postcode": "74469"}}},
{"geometry": {"type": "Point", "coordinates": [-95.176729694, 35.4946316881]}, "type": "Feature", "properties": {"collection_times": [{"days": "Mon-Sat", "time": "2:00pm"}, {"days": "Sun", "time": "Closed"}], "id": "7447000001", "name": "USPS COLLECTION BOX - BLUE BOX", "address": {"city": "WEBBERS FALLS", "state": "OK", "street": "214 S HIGHWAY 100", "postcode": "74470"}}},
{"geometry": {"type": "Point", "coordinates": [-95.1439560391, 35.5084290211]}, "type": "Feature", "properties": {"collection_times": [{"days": "Mon-Fri", "time": "2:00pm"}, {"days": "Sat", "time": "9:30am"}, {"days": "Sun", "time": "Closed"}], "id": "7447000002", "name": "USPS COLLECTION BOX - PO LOBBY", "address": {"city": "WEBBERS FALLS", "state": "OK", "street": "116 COMMERCIAL ST", "postcode": "74470"}}},
{"geometry": {"type": "Point", "coordinates": [-94.8989032498, 35.8736520984]}, "type": "Feature", "properties": {"collection_times": [{"days": "Mon-Fri", "time": "3:30pm"}, {"days": "Sat", "time": "12:00pm"}, {"days": "Sun", "time": "Closed"}], "id": "7447100000", "name": "USPS COLLECTION BOX - BLUE BOX", "address": {"city": "WELLING", "state": "OK", "street": "20627 S WELLING RD", "postcode": "74471"}}},
{"geometry": {"type": "Point", "coordinates": [-94.8989032498, 35.8736520984]}, "type": "Feature", "properties": {"collection_times": [{"days": "Mon-Fri", "time": "3:30pm"}, {"days": "Sat", "time": "12:00pm"}, {"days": "Sun", "time": "Closed"}], "id": "7447100001", "name": "USPS COLLECTION BOX - PO LOBBY", "address": {"city": "WELLING", "state": "OK", "street": "20627 S WELLING RD", "postcode": "74471"}}},
{"geometry": {"type": "Point", "coordinates": [-95.3063303564, 35.2754726011]}, "type": "Feature", "properties": {"collection_times": [{"days": "Mon-Fri", "time": "4:15pm"}, {"days": "Sat", "time": "1:30pm"}, {"days": "Sun", "time": "Closed"}], "id": "7447200000", "name": "USPS COLLECTION BOX - BLUE BOX", "address": {"city": "WHITEFIELD", "state": "OK", "street": "201 N MAIN ST", "postcode": "74472"}}},
{"geometry": {"type": "Point", "coordinates": [-95.3063303564, 35.2754726011]}, "type": "Feature", "properties": {"collection_times": [{"days": "Mon-Fri", "time": "4:15pm"}, {"days": "Sat", "time": "1:30pm"}, {"days": "Sun", "time": "Closed"}], "id": "7447200001", "name": "USPS COLLECTION BOX - PO LOBBY", "address": {"city": "WHITEFIELD", "state": "OK", "street": "201 N MAIN ST", "postcode": "74472"}}},
{"geometry": {"type": "Point", "coordinates": [-95.3063303564, 35.2754726011]}, "type": "Feature", "properties": {"collection_times": [{"days": "Mon-Fri", "time": "4:15pm"}, {"days": "Sat", "time": "1:30pm"}, {"days": "Sun", "time": "Closed"}], "id": "7447200002", "name": "USPS COLLECTION BOX - PO LOBBY", "address": {"city": "WHITEFIELD", "state": "OK", "street": "201 N MAIN ST", "postcode": "74472"}}}
]}
