{"type": "FeatureCollection", "features": [
{"geometry": {"type": "Point", "coordinates": [-95.7548254903, 34.9252373409]}, "type": "Feature", "properties": {"collection_times": [{"days": "Mon-Fri", "time": "4:45pm"}, {"days": "Sat-Sun", "time": "Closed"}], "id": "7450100011", "name": "USPS COLLECTION BOX - BLUE BOX", "address": {"city": "MCALESTER", "state": "OK", "street": "1201 E WYANDOTTE AVE", "postcode": "74501"}}},
{"geometry": {"type": "Point", "coordinates": [-95.766921435, 34.9315941621]}, "type": "Feature", "properties": {"collection_times": [{"days": "Mon-Fri", "time": "4:30pm"}, {"days": "Sat-Sun", "time": "Closed"}], "id": "7450100015", "name": "USPS COLLECTION BOX - BLUE BOX", "address": {"city": "MCALESTER", "state": "OK", "street": "235 E CHOCTAW AVE", "postcode": "74501"}}},
{"geometry": {"type": "Point", "coordinates": [-95.7681182871, 34.9331072002]}, "type": "Feature", "properties": {"collection_times": [{"days": "Mon-Fri", "time": "4:15pm"}, {"days": "Sat-Sun", "time": "Closed"}], "id": "7450100018", "name": "USPS COLLECTION BOX - BLUE BOX", "address": {"city": "MCALESTER", "state": "OK", "street": "101 E CARL ALBERT PKWY", "postcode": "74501"}}},
{"geometry": {"type": "Point", "coordinates": [-95.7690640928, 34.9344055335]}, "type": "Feature", "properties": {"collection_times": [{"days": "Mon-Fri", "time": "4:15pm"}, {"days": "Sat-Sun", "time": "Closed"}], "id": "7450100020", "name": "USPS COLLECTION BOX - BLUE BOX", "address": {"city": "MCALESTER", "state": "OK", "street": "28 E WASHINGTON AVE", "postcode": "74501"}}},
{"geometry": {"type": "Point", "coordinates": [-95.7441900129, 34.9273375513]}, "type": "Feature", "properties": {"collection_times": [{"days": "Mon-Fri", "time": "4:45pm"}, {"days": "Sat-Sun", "time": "Closed"}], "id": "7450100021", "name": "USPS COLLECTION BOX - BLUE BOX", "address": {"city": "MCALESTER", "state": "OK", "street": "1706 E CARL ALBERT PKWY", "postcode": "74501"}}},
{"geometry": {"type": "Point", "coordinates": [-95.7684073954, 34.9318829814]}, "type": "Feature", "properties": {"collection_times": [{"days": "Mon-Fri", "time": "4:30pm"}, {"days": "Sat-Sun", "time": "Closed"}], "id": "7450100022", "name": "USPS COLLECTION BOX - BLUE BOX", "address": {"city": "MCALESTER", "state": "OK", "street": "124 E CHOCTAW AVE", "postcode": "74501"}}},
{"geometry": {"type": "Point", "coordinates": [-95.7625467972, 34.9326631533]}, "type": "Feature", "properties": {"collection_times": [{"days": "Mon-Sat", "time": "5:00pm"}, {"days": "Sun", "time": "Closed"}], "id": "7450100027", "name": "USPS COLLECTION BOX - BLUE BOX", "address": {"city": "MCALESTER", "state": "OK", "street": "500 E WASHINGTON AVE", "postcode": "74501"}}},
{"geometry": {"type": "Point", "coordinates": [-95.7696064579, 34.9323179818]}, "type": "Feature", "properties": {"collection_times": [{"days": "Mon-Fri", "time": "4:30pm"}, {"days": "Sat-Sun", "time": "Closed"}], "id": "7450100036", "name": "USPS COLLECTION BOX - BLUE BOX", "address": {"city": "MCALESTER", "state": "OK", "street": "7 E CHOCTAW AVE", "postcode": "74501"}}},
{"geometry": {"type": "Point", "coordinates": [-95.761609994, 34.9324211151]}, "type": "Feature", "properties": {"collection_times": [{"days": "Mon-Sat", "time": "5:00pm"}, {"days": "Sun", "time": "Closed"}], "id": "7450100037", "name": "USPS COLLECTION BOX - PO LOBBY", "address": {"city": "MCALESTER", "state": "OK", "street": "500 E WASHINGTON AVE", "postcode": "74501"}}},
{"geometry": {"type": "Point", "coordinates": [-95.761609994, 34.9324211151]}, "type": "Feature", "properties": {"collection_times": [{"days": "Mon-Sat", "time": "5:00pm"}, {"days": "Sun", "time": "Closed"}], "id": "7450100038", "name": "USPS COLLECTION BOX - PO LOBBY", "address": {"city": "MCALESTER", "state": "OK", "street": "500 E WASHINGTON AVE", "postcode": "74501"}}},
{"geometry": {"type": "Point", "coordinates": [-95.7692961112, 34.9266774661]}, "type": "Feature", "properties": {"collection_times": [{"days": "Mon-Fri", "time": "4:45pm"}, {"days": "Sat-Sun", "time": "Closed"}], "id": "7450100039", "name": "USPS COLLECTION BOX - BLUE BOX", "address": {"city": "MCALESTER", "state": "OK", "street": "524 S 2ND ST", "postcode": "74501"}}},
{"geometry": {"type": "Point", "coordinates": [-95.7750812185, 34.9027888167]}, "type": "Feature", "properties": {"collection_times": [{"days": "Mon-Fri", "time": "4:30pm"}, {"days": "Sat-Sun", "time": "Closed"}], "id": "7450100041", "name": "USPS COLLECTION BOX - BLUE BOX", "address": {"city": "MCALESTER", "state": "OK", "street": "1900 S MAIN ST", "postcode": "74501"}}},
{"geometry": {"type": "Point", "coordinates": [-95.7667919558, 34.9292846546]}, "type": "Feature", "properties": {"collection_times": [{"days": "Mon-Fri", "time": "4:45pm"}, {"days": "Sat-Sun", "time": "Closed"}], "id": "7450100042", "name": "USPS COLLECTION BOX - BLUE BOX", "address": {"city": "MCALESTER", "state": "OK", "street": "200 S 3RD ST", "postcode": "74501"}}},
{"geometry": {"type": "Point", "coordinates": [-95.7690288507, 34.9289094251]}, "type": "Feature", "properties": {"collection_times": [{"days": "Mon-Fri", "time": "4:30pm"}, {"days": "Sat-Sun", "time": "Closed"}], "id": "7450100043", "name": "USPS COLLECTION BOX - BLUE BOX", "address": {"city": "MCALESTER", "state": "OK", "street": "128 E WYANDOTTE AVE", "postcode": "74501"}}},
{"geometry": {"type": "Point", "coordinates": [-95.7682070122, 34.9328781695]}, "type": "Feature", "properties": {"collection_times": [{"days": "Mon-Fri", "time": "4:30pm"}, {"days": "Sat-Sun", "time": "Closed"}], "id": "7450100044", "name": "USPS COLLECTION BOX - BLUE BOX", "address": {"city": "MCALESTER", "state": "OK", "street": "100 E CARL ALBERT PKWY", "postcode": "74501"}}},
{"geometry": {"type": "Point", "coordinates": [-95.7617585595, 34.9544061296]}, "type": "Feature", "properties": {"collection_times": [{"days": "Mon-Fri", "time": "12:00pm"}, {"days": "Sat-Sun", "time": "Closed"}], "id": "7450100045", "name": "USPS COLLECTION BOX - BLUE BOX", "address": {"city": "MCALESTER", "state": "OK", "street": "2657 N MAIN ST", "postcode": "74501"}}},
{"geometry": {"type": "Point", "coordinates": [-95.853089632, 34.9503756785]}, "type": "Feature", "properties": {"collection_times": [{"days": "Mon-Fri", "time": "10:00am"}, {"days": "Sat-Sun", "time": "Closed"}], "id": "7450100046", "name": "USPS COLLECTION BOX - BLUE BOX", "address": {"city": "MCALESTER", "state": "OK", "street": "1 C TREE RD", "postcode": "74501"}}},
{"geometry": {"type": "Point", "coordinates": [-95.0998661407, 34.6628514155]}, "type": "Feature", "properties": {"collection_times": [{"days": "Mon-Fri", "time": "10:30am"}, {"days": "Sat", "time": "9:00am"}, {"days": "Sun", "time": "Closed"}], "id": "7452100001", "name": "USPS COLLECTION BOX - PO LOBBY", "address": {"city": "ALBION", "state": "OK", "street": "110 S KENTUCKY ST", "postcode": "74521"}}},
{"geometry": {"type": "Point", "coordinates": [-95.6918490033, 34.9002702742]}, "type": "Feature", "properties": {"collection_times": [{"days": "Mon-Sat", "time": "4:30pm"}, {"days": "Sun", "time": "Closed"}], "id": "7452200000", "name": "USPS COLLECTION BOX - BLUE BOX", "address": {"city": "ALDERSON", "state": "OK", "street": "49 W HIGHWAY 270", "postcode": "74522"}}},
{"geometry": {"type": "Point", "coordinates": [-95.6918490033, 34.9002702742]}, "type": "Feature", "properties": {"collection_times": [{"days": "Mon-Fri", "time": "11:45am"}, {"days": "Sat", "time": "9:30am"}, {"days": "Sun", "time": "Closed"}], "id": "7452200001", "name": "USPS COLLECTION BOX - PO LOBBY", "address": {"city": "ALDERSON", "state": "OK", "street": "49 W HIGHWAY 270", "postcode": "74522"}}},
{"geometry": {"type": "Point", "coordinates": [-95.6918490033, 34.9002702742]}, "type": "Feature", "properties": {"collection_times": [{"days": "Mon-Fri", "time": "11:45am"}, {"days": "Sat", "time": "9:30am"}, {"days": "Sun", "time": "Closed"}], "id": "7452200002", "name": "USPS COLLECTION BOX - PO LOBBY", "address": {"city": "ALDERSON", "state": "OK", "street": "49 W HIGHWAY 270", "postcode": "74522"}}},
{"geometry": {"type": "Point", "coordinates": [-95.6207231902, 34.2325477901]}, "type": "Feature", "properties": {"collection_times": [{"days": "Mon-Fri", "time": "4:00pm"}, {"days": "Sat", "time": "3:30pm"}, {"days": "Sun", "time": "Closed"}], "id": "7452300003", "name": "USPS COLLECTION BOX - PO LOBBY", "address": {"city": "ANTLERS", "state": "OK", "street": "219 N HIGH ST", "postcode": "74523"}}},
{"geometry": {"type": "Point", "coordinates": [-95.6207231902, 34.2325477901]}, "type": "Feature", "properties": {"collection_times": [{"days": "Mon-Fri", "time": "4:00pm"}, {"days": "Sat", "time": "3:30pm"}, {"days": "Sun", "time": "Closed"}], "id": "7452300004", "name": "USPS COLLECTION BOX - PO LOBBY", "address": {"city": "ANTLERS", "state": "OK", "street": "219 N HIGH ST", "postcode": "74523"}}},
{"geometry": {"type": "Point", "coordinates": [-95.6207231902, 34.2325477901]}, "type": "Feature", "properties": {"collection_times": [{"days": "Mon-Fri", "time": "4:00pm"}, {"days": "Sat", "time": "3:30pm"}, {"days": "Sun", "time": "Closed"}], "id": "7452300005", "name": "USPS COLLECTION BOX - PO LOBBY", "address": {"city": "ANTLERS", "state": "OK", "street": "219 N HIGH ST", "postcode": "74523"}}},
{"geometry": {"type": "Point", "coordinates": [-96.1246000504, 34.3850106046]}, "type": "Feature", "properties": {"collection_times": [{"days": "Mon-Fri", "time": "3:45pm"}, {"days": "Sat", "time": "11:00am"}, {"days": "Sun", "time": "Closed"}], "id": "7452500000", "name": "USPS COLLECTION BOX - BLUE BOX", "address": {"city": "ATOKA", "state": "OK", "street": "401 E COURT ST", "postcode": "74525"}}},
{"geometry": {"type": "Point", "coordinates": [-96.1246000504, 34.3850106046]}, "type": "Feature", "properties": {"collection_times": [{"days": "Mon-Fri", "time": "3:45pm"}, {"days": "Sat", "time": "11:00am"}, {"days": "Sun", "time": "Closed"}], "id": "7452500001", "name": "USPS COLLECTION BOX - BLUE BOX", "address": {"city": "ATOKA", "state": "OK", "street": "401 E COURT ST", "postcode": "74525"}}},
{"geometry": {"type": "Point", "coordinates": [-96.1425244155, 34.3716997014]}, "type": "Feature", "properties": {"collection_times": [{"days": "Mon-Sat", "time": "9:30am"}, {"days": "Sun", "time": "Closed"}], "id": "7452500002", "name": "USPS COLLECTION BOX - BLUE BOX", "address": {"city": "ATOKA", "state": "OK", "street": "80 W CEDAR CIR", "postcode": "74525"}}},
{"geometry": {"type": "Point", "coordinates": [-96.1409852711, 34.3659673183]}, "type": "Feature", "properties": {"collection_times": [{"days": "Mon-Sat", "time": "10:00am"}, {"days": "Sun", "time": "Closed"}], "id": "7452500003", "name": "USPS COLLECTION BOX - BLUE BOX", "address": {"city": "ATOKA", "state": "OK", "street": "1811 S MISSISSIPPI AVE", "postcode": "74525"}}},
{"geometry": {"type": "Point", "coordinates": [-96.1246000504, 34.3850106046]}, "type": "Feature", "properties": {"collection_times": [{"days": "Mon-Fri", "time": "3:45pm"}, {"days": "Sat", "time": "11:00am"}, {"days": "Sun", "time": "Closed"}], "id": "7452500004", "name": "USPS COLLECTION BOX - PO LOBBY", "address": {"city": "ATOKA", "state": "OK", "street": "401 E COURT ST", "postcode": "74525"}}},
{"geometry": {"type": "Point", "coordinates": [-96.1246000504, 34.3850106046]}, "type": "Feature", "properties": {"collection_times": [{"days": "Mon-Fri", "time": "3:45pm"}, {"days": "Sat", "time": "11:00am"}, {"days": "Sun", "time": "Closed"}], "id": "7452500005", "name": "USPS COLLECTION BOX - PO LOBBY", "address": {"city": "ATOKA", "state": "OK", "street": "401 E COURT ST", "postcode": "74525"}}},
{"geometry": {"type": "Point", "coordinates": [-95.7963846813, 34.7686416467]}, "type": "Feature", "properties": {"collection_times": [{"days": "Mon-Sat", "time": "10:30am"}, {"days": "Sun", "time": "Closed"}], "id": "7452800000", "name": "USPS COLLECTION BOX - BLUE BOX", "address": {"city": "BLANCO", "state": "OK", "street": "100 E HIGHWAY 63", "postcode": "74528"}}},
{"geometry": {"type": "Point", "coordinates": [-95.7963846813, 34.7686416467]}, "type": "Feature", "properties": {"collection_times": [{"days": "Mon-Sat", "time": "10:30am"}, {"days": "Sun", "time": "Closed"}], "id": "7452800001", "name": "USPS COLLECTION BOX - PO LOBBY", "address": {"city": "BLANCO", "state": "OK", "street": "100 E HIGHWAY 63", "postcode": "74528"}}},
{"geometry": {"type": "Point", "coordinates": [-96.4933933928, 34.4179251288]}, "type": "Feature", "properties": {"collection_times": [{"days": "Mon-Fri", "time": "11:00am"}, {"days": "Sat", "time": "10:00am"}, {"days": "Sun", "time": "Closed"}], "id": "7453000000", "name": "USPS COLLECTION BOX - PO LOBBY", "address": {"city": "BROMIDE", "state": "OK", "street": "102 S MAIN ST", "postcode": "74530"}}},
{"geometry": {"type": "Point", "coordinates": [-96.2501780996, 34.9679540688]}, "type": "Feature", "properties": {"collection_times": [{"days": "Mon-Fri", "time": "12:00pm"}, {"days": "Sat", "time": "9:30am"}, {"days": "Sun", "time": "Closed"}], "id": "7453100001", "name": "USPS COLLECTION BOX - PO LOBBY", "address": {"city": "CALVIN", "state": "OK", "street": "205 CANADIAN ST", "postcode": "74531"}}},
{"geometry": {"type": "Point", "coordinates": [-96.2501780996, 34.9679540688]}, "type": "Feature", "properties": {"collection_times": [{"days": "Mon-Fri", "time": "12:00pm"}, {"days": "Sat", "time": "9:30am"}, {"days": "Sun", "time": "Closed"}], "id": "7453100002", "name": "USPS COLLECTION BOX - PO LOBBY", "address": {"city": "CALVIN", "state": "OK", "street": "205 CANADIAN ST", "postcode": "74531"}}},
{"geometry": {"type": "Point", "coordinates": [-96.2098337928, 34.2318894603]}, "type": "Feature", "properties": {"collection_times": [{"days": "Mon-Fri", "time": "11:30am"}, {"days": "Sat", "time": "9:30am"}, {"days": "Sun", "time": "Closed"}], "id": "7453300001", "name": "USPS COLLECTION BOX - PO LOBBY", "address": {"city": "CANEY", "state": "OK", "street": "200 W MAIN ST", "postcode": "74533"}}},
{"geometry": {"type": "Point", "coordinates": [-96.2098337928, 34.2318894603]}, "type": "Feature", "properties": {"collection_times": [{"days": "Mon-Fri", "time": "11:30am"}, {"days": "Sat", "time": "9:30am"}, {"days": "Sun", "time": "Closed"}], "id": "7453300002", "name": "USPS COLLECTION BOX - PO LOBBY", "address": {"city": "CANEY", "state": "OK", "street": "200 W MAIN ST", "postcode": "74533"}}},
{"geometry": {"type": "Point", "coordinates": [-96.4335101461, 34.4843439865]}, "type": "Feature", "properties": {"collection_times": [{"days": "Mon-Fri", "time": "10:00am"}, {"days": "Sat", "time": "12:00pm"}, {"days": "Sun", "time": "Closed"}], "id": "7453500001", "name": "USPS COLLECTION BOX - PO LOBBY", "address": {"city": "CLARITA", "state": "OK", "street": "100 MAIN ST", "postcode": "74535"}}},
{"geometry": {"type": "Point", "coordinates": [-95.35067, 34.591934]}, "type": "Feature", "properties": {"collection_times": [{"days": "Mon-Fri", "time": "3:00pm"}, {"days": "Sat", "time": "11:00am"}, {"days": "Sun", "time": "Closed"}], "id": "7453600001", "name": "USPS COLLECTION BOX - BLUE BOX", "address": {"city": "CLAYTON", "state": "OK", "street": "121 N LAWSON BLVD", "postcode": "74536"}}},
{"geometry": {"type": "Point", "coordinates": [-95.4606077178, 34.6095847646]}, "type": "Feature", "properties": {"collection_times": [{"days": "Mon-Fri", "time": "3:00pm"}, {"days": "Sat", "time": "11:00am"}, {"days": "Sun", "time": "Closed"}], "id": "7453600002", "name": "USPS COLLECTION BOX - PO LOBBY", "address": {"city": "CLAYTON", "state": "OK", "street": "121 LAWSON BLVD", "postcode": "74536"}}},
{"geometry": {"type": "Point", "coordinates": [-95.4606077178, 34.6095847646]}, "type": "Feature", "properties": {"collection_times": [{"days": "Mon-Fri", "time": "3:00pm"}, {"days": "Sat", "time": "11:00am"}, {"days": "Sun", "time": "Closed"}], "id": "7453600003", "name": "USPS COLLECTION BOX - PO LOBBY", "address": {"city": "CLAYTON", "state": "OK", "street": "121 LAWSON BLVD", "postcode": "74536"}}},
{"geometry": {"type": "Point", "coordinates": [-96.2183141702, 34.5385291305]}, "type": "Feature", "properties": {"collection_times": [{"days": "Mon-Fri", "time": "3:15pm"}, {"days": "Sat", "time": "11:00am"}, {"days": "Sun", "time": "Closed"}], "id": "7453800001", "name": "USPS COLLECTION BOX - PO LOBBY", "address": {"city": "COALGATE", "state": "OK", "street": "38 N MAIN ST", "postcode": "74538"}}},
{"geometry": {"type": "Point", "coordinates": [-96.2183141702, 34.5385291305]}, "type": "Feature", "properties": {"collection_times": [{"days": "Mon-Fri", "time": "3:15pm"}, {"days": "Sat", "time": "11:00am"}, {"days": "Sun", "time": "Closed"}], "id": "7453800002", "name": "USPS COLLECTION BOX - BLUE BOX", "address": {"city": "COALGATE", "state": "OK", "street": "38 N MAIN ST", "postcode": "74538"}}},
{"geometry": {"type": "Point", "coordinates": [-95.7331498028, 34.5222704217]}, "type": "Feature", "properties": {"collection_times": [{"days": "Mon-Sat", "time": "11:30am"}, {"days": "Sun", "time": "Closed"}], "id": "7454000000", "name": "USPS COLLECTION BOX - PO LOBBY", "address": {"city": "DAISY", "state": "OK", "street": "2401 E HIGHWAY 43", "postcode": "74540"}}},
{"geometry": {"type": "Point", "coordinates": [-95.7331498028, 34.5222704217]}, "type": "Feature", "properties": {"collection_times": [{"days": "Mon-Sat", "time": "11:30am"}, {"days": "Sun", "time": "Closed"}], "id": "7454000001", "name": "USPS COLLECTION BOX - BLUE BOX", "address": {"city": "DAISY", "state": "OK", "street": "2401 E HIGHWAY 43", "postcode": "74540"}}},
{"geometry": {"type": "Point", "coordinates": [-95.5518576352, 34.3461428076]}, "type": "Feature", "properties": {"collection_times": [{"days": "Mon-Fri", "time": "10:15am"}, {"days": "Sat", "time": "9:45am"}, {"days": "Sun", "time": "Closed"}], "id": "7454300000", "name": "USPS COLLECTION BOX - BLUE BOX", "address": {"city": "FINLEY", "state": "OK", "street": "300 MAIN ST", "postcode": "74543"}}},
{"geometry": {"type": "Point", "coordinates": [-95.5518576352, 34.3461428076]}, "type": "Feature", "properties": {"collection_times": [{"days": "Mon-Fri", "time": "10:15am"}, {"days": "Sat", "time": "9:45am"}, {"days": "Sun", "time": "Closed"}], "id": "7454300001", "name": "USPS COLLECTION BOX - PO LOBBY", "address": {"city": "FINLEY", "state": "OK", "street": "300 MAIN ST", "postcode": "74543"}}},
{"geometry": {"type": "Point", "coordinates": [-95.4779753938, 34.8776343274]}, "type": "Feature", "properties": {"collection_times": [{"days": "Mon-Fri", "time": "10:30am"}, {"days": "Sat", "time": "9:30am"}, {"days": "Sun", "time": "Closed"}], "id": "7454500001", "name": "USPS COLLECTION BOX - PO LOBBY", "address": {"city": "GOWEN", "state": "OK", "street": "9231 SW GOWEN RD", "postcode": "74545"}}},
{"geometry": {"type": "Point", "coordinates": [-95.4779753938, 34.8776343274]}, "type": "Feature", "properties": {"collection_times": [{"days": "Mon-Fri", "time": "10:30am"}, {"days": "Sat", "time": "9:30am"}, {"days": "Sun", "time": "Closed"}], "id": "7454500002", "name": "USPS COLLECTION BOX - PO LOBBY", "address": {"city": "GOWEN", "state": "OK", "street": "9231 SW GOWEN RD", "postcode": "74545"}}},
{"geometry": {"type": "Point", "coordinates": [-95.5807734518, 34.8545380462]}, "type": "Feature", "properties": {"collection_times": [{"days": "Mon-Fri", "time": "3:00pm"}, {"days": "Sat", "time": "9:00am"}, {"days": "Sun", "time": "Closed"}], "id": "7454600001", "name": "USPS COLLECTION BOX - PO LOBBY", "address": {"city": "HAILEYVILLE", "state": "OK", "street": "509 PARKWAY AVE", "postcode": "74546"}}},
{"geometry": {"type": "Point", "coordinates": [-95.5558158195, 34.8449442045]}, "type": "Feature", "properties": {"collection_times": [{"days": "Mon-Fri", "time": "4:00pm"}, {"days": "Sat", "time": "2:00pm"}, {"days": "Sun", "time": "Closed"}], "id": "7454700001", "name": "USPS COLLECTION BOX - BLUE BOX", "address": {"city": "HARTSHORNE", "state": "OK", "street": "1021 PENNSYLVANIA AVE", "postcode": "74547"}}},
{"geometry": {"type": "Point", "coordinates": [-95.5558158195, 34.8449442045]}, "type": "Feature", "properties": {"collection_times": [{"days": "Mon-Fri", "time": "4:15pm"}, {"days": "Sat", "time": "2:00pm"}, {"days": "Sun", "time": "Closed"}], "id": "7454700002", "name": "USPS COLLECTION BOX - PO LOBBY", "address": {"city": "HARTSHORNE", "state": "OK", "street": "1021 PENNSYLVANIA AVE", "postcode": "74547"}}},
{"geometry": {"type": "Point", "coordinates": [-95.298177892, 35.1765362368]}, "type": "Feature", "properties": {"collection_times": [{"days": "Mon-Fri", "time": "11:15am"}, {"days": "Sat", "time": "8:30am"}, {"days": "Sun", "time": "Closed"}], "id": "7455200001", "name": "USPS COLLECTION BOX - PO LOBBY", "address": {"city": "KINTA", "state": "OK", "street": "301 W BROADWAY ST", "postcode": "74552"}}},
{"geometry": {"type": "Point", "coordinates": [-95.90462951, 34.7239069091]}, "type": "Feature", "properties": {"collection_times": [{"days": "Mon-Fri", "time": "4:00pm"}, {"days": "Sat", "time": "10:30am"}, {"days": "Sun", "time": "Closed"}], "id": "7455300000", "name": "USPS COLLECTION BOX - BLUE BOX", "address": {"city": "KIOWA", "state": "OK", "street": "624 S HARRISON ST", "postcode": "74553"}}},
{"geometry": {"type": "Point", "coordinates": [-95.90462951, 34.7239069091]}, "type": "Feature", "properties": {"collection_times": [{"days": "Mon-Fri", "time": "4:00pm"}, {"days": "Sat", "time": "10:30am"}, {"days": "Sun", "time": "Closed"}], "id": "7455300001", "name": "USPS COLLECTION BOX - PO LOBBY", "address": {"city": "KIOWA", "state": "OK", "street": "624 S HARRISON ST", "postcode": "74553"}}},
{"geometry": {"type": "Point", "coordinates": [-95.90462951, 34.7239069091]}, "type": "Feature", "properties": {"collection_times": [{"days": "Mon-Fri", "time": "4:00pm"}, {"days": "Sat", "time": "10:30am"}, {"days": "Sun", "time": "Closed"}], "id": "7455300002", "name": "USPS COLLECTION BOX - PO LOBBY", "address": {"city": "KIOWA", "state": "OK", "street": "624 S HARRISON ST", "postcode": "74553"}}},
{"geometry": {"type": "Point", "coordinates": [-95.7160620214, 34.9276488014]}, "type": "Feature", "properties": {"collection_times": [{"days": "Mon-Fri", "time": "4:00pm"}, {"days": "Sat", "time": "10:30am"}, {"days": "Sun", "time": "Closed"}], "id": "7455400000", "name": "USPS COLLECTION BOX - BLUE BOX", "address": {"city": "KREBS", "state": "OK", "street": "40 S MAIN ST", "postcode": "74554"}}},
{"geometry": {"type": "Point", "coordinates": [-95.7160620214, 34.9276488014]}, "type": "Feature", "properties": {"collection_times": [{"days": "Mon-Fri", "time": "4:15pm"}, {"days": "Sat", "time": "10:45am"}, {"days": "Sun", "time": "Closed"}], "id": "7455400001", "name": "USPS COLLECTION BOX - PO LOBBY", "address": {"city": "KREBS", "state": "OK", "street": "40 S MAIN ST", "postcode": "74554"}}},
{"geometry": {"type": "Point", "coordinates": [-95.979972719, 34.2951816257]}, "type": "Feature", "properties": {"collection_times": [{"days": "Mon-Fri", "time": "11:15am"}, {"days": "Sat", "time": "3:00pm"}, {"days": "Sun", "time": "Closed"}], "id": "7455500000", "name": "USPS COLLECTION BOX - BLUE BOX", "address": {"city": "LANE", "state": "OK", "street": "1020 E HIGHWAY 3", "postcode": "74555"}}},
{"geometry": {"type": "Point", "coordinates": [-95.979972719, 34.2951816257]}, "type": "Feature", "properties": {"collection_times": [{"days": "Mon-Fri", "time": "11:15am"}, {"days": "Sat", "time": "10:30am"}, {"days": "Sun", "time": "Closed"}], "id": "7455500001", "name": "USPS COLLECTION BOX - PO LOBBY", "address": {"city": "LANE", "state": "OK", "street": "1020 E HIGHWAY 3", "postcode": "74555"}}},
{"geometry": {"type": "Point", "coordinates": [-96.2173916963, 34.4691415869]}, "type": "Feature", "properties": {"collection_times": [{"days": "Mon-Fri", "time": "3:30pm"}, {"days": "Sat", "time": "9:15am"}, {"days": "Sun", "time": "Closed"}], "id": "7455600001", "name": "USPS COLLECTION BOX - PO LOBBY", "address": {"city": "LEHIGH", "state": "OK", "street": "105 N HIGHWAY 75", "postcode": "74556"}}},
{"geometry": {"type": "Point", "coordinates": [-95.6406481738, 34.301015834]}, "type": "Feature", "properties": {"collection_times": [{"days": "Mon-Fri", "time": "12:00pm"}, {"days": "Sat", "time": "9:00am"}, {"days": "Sun", "time": "Closed"}], "id": "7455700001", "name": "USPS COLLECTION BOX - PO LOBBY", "address": {"city": "MOYERS", "state": "OK", "street": "100 MAIN ST", "postcode": "74557"}}},
{"geometry": {"type": "Point", "coordinates": [-95.182294404, 34.5301671448]}, "type": "Feature", "properties": {"collection_times": [{"days": "Mon-Fri", "time": "12:30pm"}, {"days": "Sat", "time": "9:00am"}, {"days": "Sun", "time": "Closed"}], "id": "7455800001", "name": "USPS COLLECTION BOX - PO LOBBY", "address": {"city": "NASHOBA", "state": "OK", "street": "100 HIGHWAY 144", "postcode": "74558"}}},
{"geometry": {"type": "Point", "coordinates": [-95.182294404, 34.5301671448]}, "type": "Feature", "properties": {"collection_times": [{"days": "Mon-Fri", "time": "12:30pm"}, {"days": "Sat", "time": "9:00am"}, {"days": "Sun", "time": "Closed"}], "id": "7455800002", "name": "USPS COLLECTION BOX - PO LOBBY", "address": {"city": "NASHOBA", "state": "OK", "street": "100 HIGHWAY 144", "postcode": "74558"}}},
{"geometry": {"type": "Point", "coordinates": [-95.2382548633, 34.9268801567]}, "type": "Feature", "properties": {"collection_times": [{"days": "Mon-Fri", "time": "11:00am"}, {"days": "Sat", "time": "10:45am"}, {"days": "Sun", "time": "Closed"}], "id": "7455900001", "name": "USPS COLLECTION BOX - PO LOBBY", "address": {"city": "PANOLA", "state": "OK", "street": "5755 HIGHWAY 270 E", "postcode": "74559"}}},
{"geometry": {"type": "Point", "coordinates": [-95.8148818814, 34.6573757101]}, "type": "Feature", "properties": {"collection_times": [{"days": "Mon-Fri", "time": "12:30pm"}, {"days": "Sat", "time": "9:30am"}, {"days": "Sun", "time": "Closed"}], "id": "7456000001", "name": "USPS COLLECTION BOX - PO LOBBY", "address": {"city": "PITTSBURG", "state": "OK", "street": "500 E BROADWAY ST", "postcode": "74560"}}},
{"geometry": {"type": "Point", "coordinates": [-95.8148818814, 34.6573757101]}, "type": "Feature", "properties": {"collection_times": [{"days": "Mon-Fri", "time": "12:30pm"}, {"days": "Sat", "time": "9:30am"}, {"days": "Sun", "time": "Closed"}], "id": "7456000002", "name": "USPS COLLECTION BOX - PO LOBBY", "address": {"city": "PITTSBURG", "state": "OK", "street": "500 E BROADWAY ST", "postcode": "74560"}}},
{"geometry": {"type": "Point", "coordinates": [-95.3697637742, 35.1228410791]}, "type": "Feature", "properties": {"collection_times": [{"days": "Mon-Fri", "time": "4:30pm"}, {"days": "Sat", "time": "9:00am"}, {"days": "Sun", "time": "Closed"}], "id": "7456100001", "name": "USPS COLLECTION BOX - PO LOBBY", "address": {"city": "QUINTON", "state": "OK", "street": "911 E MAIN ST", "postcode": "74561"}}},
{"geometry": {"type": "Point", "coordinates": [-95.2671848877, 34.3075017176]}, "type": "Feature", "properties": {"collection_times": [{"days": "Mon-Fri", "time": "3:30pm"}, {"days": "Sat", "time": "11:15am"}, {"days": "Sun", "time": "Closed"}], "id": "7456200000", "name": "USPS COLLECTION BOX - BLUE BOX", "address": {"city": "RATTAN", "state": "OK", "street": "107 W MAIN ST", "postcode": "74562"}}},
{"geometry": {"type": "Point", "coordinates": [-95.2671848877, 34.3075017176]}, "type": "Feature", "properties": {"collection_times": [{"days": "Mon-Fri", "time": "3:30pm"}, {"days": "Sat", "time": "11:15am"}, {"days": "Sun", "time": "Closed"}], "id": "7456200001", "name": "USPS COLLECTION BOX - PO LOBBY", "address": {"city": "RATTAN", "state": "OK", "street": "107 W MAIN ST", "postcode": "74562"}}},
{"geometry": {"type": "Point", "coordinates": [-95.2671848877, 34.3075017176]}, "type": "Feature", "properties": {"collection_times": [{"days": "Mon-Fri", "time": "3:30pm"}, {"days": "Sat", "time": "11:15am"}, {"days": "Sun", "time": "Closed"}], "id": "7456200002", "name": "USPS COLLECTION BOX - PO LOBBY", "address": {"city": "RATTAN", "state": "OK", "street": "107 W MAIN ST", "postcode": "74562"}}},
{"geometry": {"type": "Point", "coordinates": [-95.0786206921, 34.9518289258]}, "type": "Feature", "properties": {"collection_times": [{"days": "Mon-Fri", "time": "3:30pm"}, {"days": "Sat", "time": "10:00am"}, {"days": "Sun", "time": "Closed"}], "id": "7456300000", "name": "USPS COLLECTION BOX - BLUE BOX", "address": {"city": "RED OAK", "state": "OK", "street": "111 NE DIVISION ST", "postcode": "74563"}}},
{"geometry": {"type": "Point", "coordinates": [-95.080218872, 34.9517580579]}, "type": "Feature", "properties": {"collection_times": [{"days": "Mon-Fri", "time": "3:30pm"}, {"days": "Sat", "time": "10:00am"}, {"days": "Sun", "time": "Closed"}], "id": "7456300001", "name": "USPS COLLECTION BOX - PO LOBBY", "address": {"city": "RED OAK", "state": "OK", "street": "111 NE DIVISION ST", "postcode": "74563"}}},
{"geometry": {"type": "Point", "coordinates": [-95.080218872, 34.9517580579]}, "type": "Feature", "properties": {"collection_times": [{"days": "Mon-Fri", "time": "3:30pm"}, {"days": "Sat", "time": "10:00am"}, {"days": "Sun", "time": "Closed"}], "id": "7456300002", "name": "USPS COLLECTION BOX - PO LOBBY", "address": {"city": "RED OAK", "state": "OK", "street": "111 NE DIVISION ST", "postcode": "74563"}}},
{"geometry": {"type": "Point", "coordinates": [-95.8261799638, 34.8531158404]}, "type": "Feature", "properties": {"collection_times": [{"days": "Mon-Fri", "time": "4:00pm"}, {"days": "Sat", "time": "10:00am"}, {"days": "Sun", "time": "Closed"}], "id": "7456500001", "name": "USPS COLLECTION BOX - PO LOBBY", "address": {"city": "SAVANNA", "state": "OK", "street": "1 S MAIN ST", "postcode": "74565"}}},
{"geometry": {"type": "Point", "coordinates": [-95.4273343536, 34.4426723621]}, "type": "Feature", "properties": {"collection_times": [{"days": "Mon-Sat", "time": "12:30pm"}, {"days": "Sun", "time": "Closed"}], "id": "7456700000", "name": "USPS COLLECTION BOX - BLUE BOX", "address": {"city": "SNOW", "state": "OK", "street": "100 HIGHWAY 271", "postcode": "74567"}}},
{"geometry": {"type": "Point", "coordinates": [-95.4273343536, 34.4426723621]}, "type": "Feature", "properties": {"collection_times": [{"days": "Mon-Sat", "time": "12:30pm"}, {"days": "Sun", "time": "Closed"}], "id": "7456700001", "name": "USPS COLLECTION BOX - PO LOBBY", "address": {"city": "SNOW", "state": "OK", "street": "100 HIGHWAY 271", "postcode": "74567"}}},
{"geometry": {"type": "Point", "coordinates": [-96.0488477888, 34.4680066827]}, "type": "Feature", "properties": {"collection_times": [{"days": "Mon-Fri", "time": "1:30pm"}, {"days": "Sat", "time": "10:00am"}, {"days": "Sun", "time": "Closed"}], "id": "7456900001", "name": "USPS COLLECTION BOX - PO LOBBY", "address": {"city": "STRINGTOWN", "state": "OK", "street": "107 E REBA MCENTIRE AVE", "postcode": "74569"}}},
{"geometry": {"type": "Point", "coordinates": [-96.0993656034, 34.900596972]}, "type": "Feature", "properties": {"collection_times": [{"days": "Mon-Fri", "time": "4:00pm"}, {"days": "Sat", "time": "9:00am"}, {"days": "Sun", "time": "Closed"}], "id": "7457000000", "name": "USPS COLLECTION BOX - BLUE BOX", "address": {"city": "STUART", "state": "OK", "street": "619 ROOSEVELT AVE", "postcode": "74570"}}},
{"geometry": {"type": "Point", "coordinates": [-96.0993656034, 34.900596972]}, "type": "Feature", "properties": {"collection_times": [{"days": "Mon-Fri", "time": "11:45am"}, {"days": "Sat", "time": "9:00am"}, {"days": "Sun", "time": "Closed"}], "id": "7457000001", "name": "USPS COLLECTION BOX - PO LOBBY", "address": {"city": "STUART", "state": "OK", "street": "619 ROOSEVELT AVE", "postcode": "74570"}}},
{"geometry": {"type": "Point", "coordinates": [-95.0499305736, 34.7534314805]}, "type": "Feature", "properties": {"collection_times": [{"days": "Mon-Fri", "time": "3:45pm"}, {"days": "Sat", "time": "9:30am"}, {"days": "Sun", "time": "Closed"}], "id": "7457100000", "name": "USPS COLLECTION BOX - BLUE BOX", "address": {"city": "TALIHINA", "state": "OK", "street": "405 DALLAS ST", "postcode": "74571"}}},
{"geometry": {"type": "Point", "coordinates": [-95.0499305736, 34.7534314805]}, "type": "Feature", "properties": {"collection_times": [{"days": "Mon-Fri", "time": "3:45pm"}, {"days": "Sat", "time": "9:30am"}, {"days": "Sun", "time": "Closed"}], "id": "7457100002", "name": "USPS COLLECTION BOX - PO LOBBY", "address": {"city": "TALIHINA", "state": "OK", "street": "405 DALLAS ST", "postcode": "74571"}}},
{"geometry": {"type": "Point", "coordinates": [-95.0499305736, 34.7534314805]}, "type": "Feature", "properties": {"collection_times": [{"days": "Mon-Fri", "time": "3:45pm"}, {"days": "Sat", "time": "9:30am"}, {"days": "Sun", "time": "Closed"}], "id": "7457100003", "name": "USPS COLLECTION BOX - PO LOBBY", "address": {"city": "TALIHINA", "state": "OK", "street": "405 DALLAS ST", "postcode": "74571"}}},
{"geometry": {"type": "Point", "coordinates": [-96.4214433499, 34.604788713]}, "type": "Feature", "properties": {"collection_times": [{"days": "Mon-Fri", "time": "11:15am"}, {"days": "Sat", "time": "10:00am"}, {"days": "Sun", "time": "Closed"}], "id": "7457200001", "name": "USPS COLLECTION BOX - PO LOBBY", "address": {"city": "TUPELO", "state": "OK", "street": "403 MAIN ST", "postcode": "74572"}}},
{"geometry": {"type": "Point", "coordinates": [-96.4214433499, 34.604788713]}, "type": "Feature", "properties": {"collection_times": [{"days": "Mon-Fri", "time": "11:15am"}, {"days": "Sat", "time": "10:00am"}, {"days": "Sun", "time": "Closed"}], "id": "7457200002", "name": "USPS COLLECTION BOX - PO LOBBY", "address": {"city": "TUPELO", "state": "OK", "street": "403 MAIN ST", "postcode": "74572"}}},
{"geometry": {"type": "Point", "coordinates": [-95.250740722, 34.7290983583]}, "type": "Feature", "properties": {"collection_times": [{"days": "Mon-Fri", "time": "3:00pm"}, {"days": "Sat", "time": "12:30pm"}, {"days": "Sun", "time": "Closed"}], "id": "7457400000", "name": "USPS COLLECTION BOX - BLUE BOX", "address": {"city": "TUSKAHOMA", "state": "OK", "street": "301 W MAIN ST", "postcode": "74574"}}},
{"geometry": {"type": "Point", "coordinates": [-95.250740722, 34.7290983583]}, "type": "Feature", "properties": {"collection_times": [{"days": "Mon-Fri", "time": "3:00pm"}, {"days": "Sat", "time": "12:30pm"}, {"days": "Sun", "time": "Closed"}], "id": "7457400001", "name": "USPS COLLECTION BOX - PO LOBBY", "address": {"city": "TUSKAHOMA", "state": "OK", "street": "301 W MAIN ST", "postcode": "74574"}}},
{"geometry": {"type": "Point", "coordinates": [-94.8452274994, 34.6953939964]}, "type": "Feature", "properties": {"collection_times": [{"days": "Mon-Fri", "time": "2:00pm"}, {"days": "Sat", "time": "12:00pm"}, {"days": "Sun", "time": "Closed"}], "id": "7457700001", "name": "USPS COLLECTION BOX - PO LOBBY", "address": {"city": "WHITESBORO", "state": "OK", "street": "57137 WHITE WOOD DR", "postcode": "74577"}}},
{"geometry": {"type": "Point", "coordinates": [-94.8452274994, 34.6953939964]}, "type": "Feature", "properties": {"collection_times": [{"days": "Mon-Fri", "time": "2:00pm"}, {"days": "Sat", "time": "12:00pm"}, {"days": "Sun", "time": "Closed"}], "id": "7457700002", "name": "USPS COLLECTION BOX - PO LOBBY", "address": {"city": "WHITESBORO", "state": "OK", "street": "57137 WHITE WOOD DR", "postcode": "74577"}}},
{"geometry": {"type": "Point", "coordinates": [-95.3073412505, 34.9188374807]}, "type": "Feature", "properties": {"collection_times": [{"days": "Mon-Fri", "time": "4:00pm"}, {"days": "Sat", "time": "3:00pm"}, {"days": "Sun", "time": "Closed"}], "id": "7457800004", "name": "USPS COLLECTION BOX - BLUE BOX", "address": {"city": "WILBURTON", "state": "OK", "street": "205 E MAIN ST", "postcode": "74578"}}},
{"geometry": {"type": "Point", "coordinates": [-95.3076753531, 34.9188562503]}, "type": "Feature", "properties": {"collection_times": [{"days": "Mon-Fri", "time": "4:00pm"}, {"days": "Sat", "time": "3:00pm"}, {"days": "Sun", "time": "Closed"}], "id": "7457800006", "name": "USPS COLLECTION BOX - PO LOBBY", "address": {"city": "WILBURTON", "state": "OK", "street": "205 E MAIN ST", "postcode": "74578"}}},
{"geometry": {"type": "Point", "coordinates": [-95.3076753531, 34.9188562503]}, "type": "Feature", "properties": {"collection_times": [{"days": "Mon-Fri", "time": "4:00pm"}, {"days": "Sat", "time": "3:00pm"}, {"days": "Sun", "time": "Closed"}], "id": "7457800007", "name": "USPS COLLECTION BOX - PO LOBBY", "address": {"city": "WILBURTON", "state": "OK", "street": "205 E MAIN ST", "postcode": "74578"}}}
]}
