{"type": "FeatureCollection", "features": [
{"geometry": {"type": "Point", "coordinates": [-97.067309391, 36.7365148736]}, "type": "Feature", "properties": {"collection_times": [{"days": "Mon-Fri", "time": "2:45pm"}, {"days": "Sat", "time": "2:15pm"}, {"days": "Sun", "time": "Closed"}], "id": "7460100001", "name": "USPS COLLECTION BOX - BLUE BOX", "address": {"city": "PONCA CITY", "state": "OK", "street": "2800 N 14TH ST", "postcode": "74601"}}},
{"geometry": {"type": "Point", "coordinates": [-97.079845547, 36.7035802813]}, "type": "Feature", "properties": {"collection_times": [{"days": "Mon-Fri", "time": "5:00pm"}, {"days": "Sat", "time": "1:00pm"}, {"days": "Sun", "time": "Closed"}], "id": "7460100006", "name": "USPS COLLECTION BOX - BLUE BOX", "address": {"city": "PONCA CITY", "state": "OK", "street": "402 E GRAND AVE", "postcode": "74601"}}},
{"geometry": {"type": "Point", "coordinates": [-97.0931774004, 36.7040137047]}, "type": "Feature", "properties": {"collection_times": [{"days": "Mon-Fri", "time": "2:45pm"}, {"days": "Sat", "time": "2:00pm"}, {"days": "Sun", "time": "Closed"}], "id": "7460100009", "name": "USPS COLLECTION BOX - BLUE BOX", "address": {"city": "PONCA CITY", "state": "OK", "street": "801 W GRAND AVE", "postcode": "74601"}}},
{"geometry": {"type": "Point", "coordinates": [-97.0671170055, 36.7260958612]}, "type": "Feature", "properties": {"collection_times": [{"days": "Mon-Fri", "time": "2:45pm"}, {"days": "Sat", "time": "2:00pm"}, {"days": "Sun", "time": "Closed"}], "id": "7460100021", "name": "USPS COLLECTION BOX - BLUE BOX", "address": {"city": "PONCA CITY", "state": "OK", "street": "2005 N 14TH ST", "postcode": "74601"}}},
{"geometry": {"type": "Point", "coordinates": [-97.0797169993, 36.7241776145]}, "type": "Feature", "properties": {"collection_times": [{"days": "Mon-Fri", "time": "2:45pm"}, {"days": "Sat", "time": "2:00pm"}, {"days": "Sun", "time": "Closed"}], "id": "7460100027", "name": "USPS COLLECTION BOX - BLUE BOX", "address": {"city": "PONCA CITY", "state": "OK", "street": "412 E HARTFORD AVE", "postcode": "74601"}}},
{"geometry": {"type": "Point", "coordinates": [-97.0773684189, 36.7034096097]}, "type": "Feature", "properties": {"collection_times": [{"days": "Mon-Fri", "time": "3:00pm"}, {"days": "Sat", "time": "2:30pm"}, {"days": "Sun", "time": "Closed"}], "id": "7460100036", "name": "USPS COLLECTION BOX - BLUE BOX", "address": {"city": "PONCA CITY", "state": "OK", "street": "112 S 6TH ST", "postcode": "74601"}}},
{"geometry": {"type": "Point", "coordinates": [-97.0773684189, 36.7034096097]}, "type": "Feature", "properties": {"collection_times": [{"days": "Mon-Fri", "time": "3:00pm"}, {"days": "Sat", "time": "2:30pm"}, {"days": "Sun", "time": "Closed"}], "id": "7460100037", "name": "USPS COLLECTION BOX - BLUE BOX", "address": {"city": "PONCA CITY", "state": "OK", "street": "112 S 6TH ST", "postcode": "74601"}}},
{"geometry": {"type": "Point", "coordinates": [-97.0773684189, 36.7034096097]}, "type": "Feature", "properties": {"collection_times": [{"days": "Mon-Fri", "time": "3:00pm"}, {"days": "Sat", "time": "2:30pm"}, {"days": "Sun", "time": "Closed"}], "id": "7460100038", "name": "USPS COLLECTION BOX - BLUE BOX", "address": {"city": "PONCA CITY", "state": "OK", "street": "112 S 6TH ST", "postcode": "74601"}}},
{"geometry": {"type": "Point", "coordinates": [-97.079845547, 36.7035802813]}, "type": "Feature", "properties": {"collection_times": [{"days": "Mon-Fri", "time": "5:00pm"}, {"days": "Sat", "time": "1:00pm"}, {"days": "Sun", "time": "Closed"}], "id": "7460100045", "name": "USPS COLLECTION BOX - PO LOBBY", "address": {"city": "PONCA CITY", "state": "OK", "street": "402 E GRAND AVE", "postcode": "74601"}}},
{"geometry": {"type": "Point", "coordinates": [-97.079845547, 36.7035802813]}, "type": "Feature", "properties": {"collection_times": [{"days": "Mon-Fri", "time": "5:00pm"}, {"days": "Sat", "time": "1:00pm"}, {"days": "Sun", "time": "Closed"}], "id": "7460100046", "name": "USPS COLLECTION BOX - PO LOBBY", "address": {"city": "PONCA CITY", "state": "OK", "street": "402 E GRAND AVE", "postcode": "74601"}}},
{"geometry": {"type": "Point", "coordinates": [-97.079845547, 36.7035802813]}, "type": "Feature", "properties": {"collection_times": [{"days": "Mon-Fri", "time": "5:00pm"}, {"days": "Sat", "time": "1:00pm"}, {"days": "Sun", "time": "Closed"}], "id": "7460100047", "name": "USPS COLLECTION BOX - PO LOBBY", "address": {"city": "PONCA CITY", "state": "OK", "street": "402 E GRAND AVE", "postcode": "74601"}}},
{"geometry": {"type": "Point", "coordinates": [-97.079845547, 36.7035802813]}, "type": "Feature", "properties": {"collection_times": [{"days": "Mon-Fri", "time": "5:00pm"}, {"days": "Sat", "time": "1:00pm"}, {"days": "Sun", "time": "Closed"}], "id": "7460100048", "name": "USPS COLLECTION BOX - BLUE BOX", "address": {"city": "PONCA CITY", "state": "OK", "street": "402 E GRAND AVE", "postcode": "74601"}}},
{"geometry": {"type": "Point", "coordinates": [-97.0821741323, 36.703615918]}, "type": "Feature", "properties": {"collection_times": [{"days": "Mon-Fri", "time": "2:45pm"}, {"days": "Sat-Sun", "time": "Closed"}], "id": "7460100052", "name": "USPS COLLECTION BOX - BLUE BOX", "address": {"city": "PONCA CITY", "state": "OK", "street": "222 E GRAND AVE", "postcode": "74601"}}},
{"geometry": {"type": "Point", "coordinates": [-97.0596561221, 36.7094432098]}, "type": "Feature", "properties": {"collection_times": [{"days": "Mon-Fri", "time": "2:45pm"}, {"days": "Sat-Sun", "time": "Closed"}], "id": "7460400000", "name": "USPS COLLECTION BOX - BLUE BOX", "address": {"city": "PONCA CITY", "state": "OK", "street": "1916 LAKE RD", "postcode": "74604"}}},
{"geometry": {"type": "Point", "coordinates": [-97.0000723232, 36.7080046641]}, "type": "Feature", "properties": {"collection_times": [{"days": "Mon-Sat", "time": "1:00pm"}, {"days": "Sun", "time": "Closed"}], "id": "7460400003", "name": "USPS COLLECTION BOX - BLUE BOX", "address": {"city": "PONCA CITY", "state": "OK", "street": "64820 US HIGHWAY 60", "postcode": "74604"}}},
{"geometry": {"type": "Point", "coordinates": [-97.4442602811, 36.5288301007]}, "type": "Feature", "properties": {"collection_times": [{"days": "Mon-Fri", "time": "2:45pm"}, {"days": "Sat", "time": "9:30am"}, {"days": "Sun", "time": "Closed"}], "id": "7463000001", "name": "USPS COLLECTION BOX - PO LOBBY", "address": {"city": "BILLINGS", "state": "OK", "street": "113 W MAIN ST", "postcode": "74630"}}},
{"geometry": {"type": "Point", "coordinates": [-97.4442602811, 36.5288301007]}, "type": "Feature", "properties": {"collection_times": [{"days": "Mon-Fri", "time": "2:45pm"}, {"days": "Sat", "time": "9:30am"}, {"days": "Sun", "time": "Closed"}], "id": "7463000002", "name": "USPS COLLECTION BOX - PO LOBBY", "address": {"city": "BILLINGS", "state": "OK", "street": "113 W MAIN ST", "postcode": "74630"}}},
{"geometry": {"type": "Point", "coordinates": [-97.284300025, 36.8042672617]}, "type": "Feature", "properties": {"collection_times": [{"days": "Mon-Sat", "time": "3:30pm"}, {"days": "Sun", "time": "Closed"}], "id": "7463100002", "name": "USPS COLLECTION BOX - BLUE BOX", "address": {"city": "BLACKWELL", "state": "OK", "street": "203 W BLACKWELL AVE", "postcode": "74631"}}},
{"geometry": {"type": "Point", "coordinates": [-97.284300025, 36.8042672617]}, "type": "Feature", "properties": {"collection_times": [{"days": "Mon-Sat", "time": "3:30pm"}, {"days": "Sun", "time": "Closed"}], "id": "7463100003", "name": "USPS COLLECTION BOX - BLUE BOX", "address": {"city": "BLACKWELL", "state": "OK", "street": "203 W BLACKWELL AVE", "postcode": "74631"}}},
{"geometry": {"type": "Point", "coordinates": [-97.2816469426, 36.8042921154]}, "type": "Feature", "properties": {"collection_times": [{"days": "Mon-Sat", "time": "2:00pm"}, {"days": "Sun", "time": "Closed"}], "id": "7463100007", "name": "USPS COLLECTION BOX - BLUE BOX", "address": {"city": "BLACKWELL", "state": "OK", "street": "100 S A ST", "postcode": "74631"}}},
{"geometry": {"type": "Point", "coordinates": [-97.3008168044, 36.7979560196]}, "type": "Feature", "properties": {"collection_times": [{"days": "Mon-Sat", "time": "2:00pm"}, {"days": "Sun", "time": "Closed"}], "id": "7463100011", "name": "USPS COLLECTION BOX - BLUE BOX", "address": {"city": "BLACKWELL", "state": "OK", "street": "710 S 13TH ST", "postcode": "74631"}}},
{"geometry": {"type": "Point", "coordinates": [-97.2842669768, 36.8116189969]}, "type": "Feature", "properties": {"collection_times": [{"days": "Mon-Sat", "time": "2:30pm"}, {"days": "Sun", "time": "Closed"}], "id": "7463100017", "name": "USPS COLLECTION BOX - BLUE BOX", "address": {"city": "BLACKWELL", "state": "OK", "street": "200 W DOOLIN AVE", "postcode": "74631"}}},
{"geometry": {"type": "Point", "coordinates": [-97.2912396551, 36.799293501]}, "type": "Feature", "properties": {"collection_times": [{"days": "Mon-Sat", "time": "9:45am"}, {"days": "Sun", "time": "Closed"}], "id": "7463100019", "name": "USPS COLLECTION BOX - BLUE BOX", "address": {"city": "BLACKWELL", "state": "OK", "street": "806 W BLACKWELL AVE", "postcode": "74631"}}},
{"geometry": {"type": "Point", "coordinates": [-97.2912396551, 36.799293501]}, "type": "Feature", "properties": {"collection_times": [{"days": "Mon-Sat", "time": "9:45am"}, {"days": "Sun", "time": "Closed"}], "id": "7463100020", "name": "USPS COLLECTION BOX - BLUE BOX", "address": {"city": "BLACKWELL", "state": "OK", "street": "806 W BLACKWELL AVE", "postcode": "74631"}}},
{"geometry": {"type": "Point", "coordinates": [-97.2991386428, 36.7896995025]}, "type": "Feature", "properties": {"collection_times": [{"days": "Mon-Sat", "time": "12:30pm"}, {"days": "Sun", "time": "Closed"}], "id": "7463100023", "name": "USPS COLLECTION BOX - BLUE BOX", "address": {"city": "BLACKWELL", "state": "OK", "street": "1301 W COOLIDGE AVE", "postcode": "74631"}}},
{"geometry": {"type": "Point", "coordinates": [-97.284300025, 36.8042672617]}, "type": "Feature", "properties": {"collection_times": [{"days": "Mon-Sat", "time": "3:30pm"}, {"days": "Sun", "time": "Closed"}], "id": "7463100028", "name": "USPS COLLECTION BOX - PO LOBBY", "address": {"city": "BLACKWELL", "state": "OK", "street": "203 W BLACKWELL AVE", "postcode": "74631"}}},
{"geometry": {"type": "Point", "coordinates": [-97.284300025, 36.8042672617]}, "type": "Feature", "properties": {"collection_times": [{"days": "Mon-Sat", "time": "3:30pm"}, {"days": "Sun", "time": "Closed"}], "id": "7463100029", "name": "USPS COLLECTION BOX - PO LOBBY", "address": {"city": "BLACKWELL", "state": "OK", "street": "203 W BLACKWELL AVE", "postcode": "74631"}}},
{"geometry": {"type": "Point", "coordinates": [-97.3345156261, 36.9233937933]}, "type": "Feature", "properties": {"collection_times": [{"days": "Mon-Fri", "time": "3:30pm"}, {"days": "Sat", "time": "9:15am"}, {"days": "Sun", "time": "Closed"}], "id": "7463200000", "name": "USPS COLLECTION BOX - BLUE BOX", "address": {"city": "BRAMAN", "state": "OK", "street": "410 BROADWAY AVE", "postcode": "74632"}}},
{"geometry": {"type": "Point", "coordinates": [-97.3345156261, 36.9233937933]}, "type": "Feature", "properties": {"collection_times": [{"days": "Mon-Fri", "time": "3:30pm"}, {"days": "Sat", "time": "9:15am"}, {"days": "Sun", "time": "Closed"}], "id": "7463200002", "name": "USPS COLLECTION BOX - PO LOBBY", "address": {"city": "BRAMAN", "state": "OK", "street": "410 BROADWAY AVE", "postcode": "74632"}}},
{"geometry": {"type": "Point", "coordinates": [-97.3345156261, 36.9233937933]}, "type": "Feature", "properties": {"collection_times": [{"days": "Mon-Fri", "time": "3:30pm"}, {"days": "Sat", "time": "9:15am"}, {"days": "Sun", "time": "Closed"}], "id": "7463200003", "name": "USPS COLLECTION BOX - PO LOBBY", "address": {"city": "BRAMAN", "state": "OK", "street": "410 BROADWAY AVE", "postcode": "74632"}}},
{"geometry": {"type": "Point", "coordinates": [-96.7037450428, 36.5734263196]}, "type": "Feature", "properties": {"collection_times": [{"days": "Mon-Fri", "time": "3:30pm"}, {"days": "Sat", "time": "10:00am"}, {"days": "Sun", "time": "Closed"}], "id": "7463700000", "name": "USPS COLLECTION BOX - BLUE BOX", "address": {"city": "FAIRFAX", "state": "OK", "street": "151 E ELM ST", "postcode": "74637"}}},
{"geometry": {"type": "Point", "coordinates": [-96.7037450428, 36.5734263196]}, "type": "Feature", "properties": {"collection_times": [{"days": "Mon-Fri", "time": "3:30pm"}, {"days": "Sat", "time": "10:00am"}, {"days": "Sun", "time": "Closed"}], "id": "7463700002", "name": "USPS COLLECTION BOX - PO LOBBY", "address": {"city": "FAIRFAX", "state": "OK", "street": "151 E ELM ST", "postcode": "74637"}}},
{"geometry": {"type": "Point", "coordinates": [-97.6001891799, 36.5703178093]}, "type": "Feature", "properties": {"collection_times": [{"days": "Mon-Fri", "time": "1:45pm"}, {"days": "Sat", "time": "9:00am"}, {"days": "Sun", "time": "Closed"}], "id": "7464000001", "name": "USPS COLLECTION BOX - PO LOBBY", "address": {"city": "HUNTER", "state": "OK", "street": "126 N MAINE ST", "postcode": "74640"}}},
{"geometry": {"type": "Point", "coordinates": [-97.6001891799, 36.5703178093]}, "type": "Feature", "properties": {"collection_times": [{"days": "Mon-Fri", "time": "1:45pm"}, {"days": "Sat", "time": "9:00am"}, {"days": "Sun", "time": "Closed"}], "id": "7464000002", "name": "USPS COLLECTION BOX - PO LOBBY", "address": {"city": "HUNTER", "state": "OK", "street": "126 N MAINE ST", "postcode": "74640"}}},
{"geometry": {"type": "Point", "coordinates": [-96.8300114611, 36.8347614198]}, "type": "Feature", "properties": {"collection_times": [{"days": "Mon-Fri", "time": "3:45pm"}, {"days": "Sat", "time": "11:00am"}, {"days": "Sun", "time": "Closed"}], "id": "7464100000", "name": "USPS COLLECTION BOX - PO LOBBY", "address": {"city": "KAW CITY", "state": "OK", "street": "701 MORGAN SQ", "postcode": "74641"}}},
{"geometry": {"type": "Point", "coordinates": [-97.5569329793, 36.6906112404]}, "type": "Feature", "properties": {"collection_times": [{"days": "Mon-Fri", "time": "11:30am"}, {"days": "Sat", "time": "9:30am"}, {"days": "Sun", "time": "Closed"}], "id": "7464300001", "name": "USPS COLLECTION BOX - PO LOBBY", "address": {"city": "LAMONT", "state": "OK", "street": "102 N MAIN ST", "postcode": "74643"}}},
{"geometry": {"type": "Point", "coordinates": [-97.1510463157, 36.5607224154]}, "type": "Feature", "properties": {"collection_times": [{"days": "Mon-Fri", "time": "2:30pm"}, {"days": "Sat", "time": "11:00am"}, {"days": "Sun", "time": "Closed"}], "id": "7464400002", "name": "USPS COLLECTION BOX - BLUE BOX", "address": {"city": "MARLAND", "state": "OK", "street": "375 N MAIN ST", "postcode": "74644"}}},
{"geometry": {"type": "Point", "coordinates": [-97.1510463157, 36.5607224154]}, "type": "Feature", "properties": {"collection_times": [{"days": "Mon-Fri", "time": "11:30am"}, {"days": "Sat", "time": "11:00am"}, {"days": "Sun", "time": "Closed"}], "id": "7464400003", "name": "USPS COLLECTION BOX - PO LOBBY", "address": {"city": "MARLAND", "state": "OK", "street": "375 N MAIN ST", "postcode": "74644"}}},
{"geometry": {"type": "Point", "coordinates": [-97.0537012959, 36.8824193276]}, "type": "Feature", "properties": {"collection_times": [{"days": "Mon-Fri", "time": "4:15pm"}, {"days": "Sat", "time": "3:45pm"}, {"days": "Sun", "time": "Closed"}], "id": "7464700000", "name": "USPS COLLECTION BOX - BLUE BOX", "address": {"city": "NEWKIRK", "state": "OK", "street": "101 S MAIN ST", "postcode": "74647"}}},
{"geometry": {"type": "Point", "coordinates": [-97.0490099439, 36.892050632]}, "type": "Feature", "properties": {"collection_times": [{"days": "Mon-Fri", "time": "4:15pm"}, {"days": "Sat-Sun", "time": "Closed"}], "id": "7464700001", "name": "USPS COLLECTION BOX - BLUE BOX", "address": {"city": "NEWKIRK", "state": "OK", "street": "201 S MAIN ST", "postcode": "74647"}}},
{"geometry": {"type": "Point", "coordinates": [-97.0537012959, 36.8824193276]}, "type": "Feature", "properties": {"collection_times": [{"days": "Mon-Fri", "time": "4:15pm"}, {"days": "Sat", "time": "3:45pm"}, {"days": "Sun", "time": "Closed"}], "id": "7464700002", "name": "USPS COLLECTION BOX - PO LOBBY", "address": {"city": "NEWKIRK", "state": "OK", "street": "101 S MAIN ST", "postcode": "74647"}}},
{"geometry": {"type": "Point", "coordinates": [-96.7321321531, 36.5039102694]}, "type": "Feature", "properties": {"collection_times": [{"days": "Mon-Fri", "time": "4:00pm"}, {"days": "Sat", "time": "10:00am"}, {"days": "Sun", "time": "Closed"}], "id": "7465000000", "name": "USPS COLLECTION BOX - BLUE BOX", "address": {"city": "RALSTON", "state": "OK", "street": "509 MAIN ST", "postcode": "74650"}}},
{"geometry": {"type": "Point", "coordinates": [-96.7321321531, 36.5039102694]}, "type": "Feature", "properties": {"collection_times": [{"days": "Mon-Fri", "time": "4:15pm"}, {"days": "Sat", "time": "10:00am"}, {"days": "Sun", "time": "Closed"}], "id": "7465000001", "name": "USPS COLLECTION BOX - PO LOBBY", "address": {"city": "RALSTON", "state": "OK", "street": "509 MAIN ST", "postcode": "74650"}}},
{"geometry": {"type": "Point", "coordinates": [-96.7321321531, 36.5039102694]}, "type": "Feature", "properties": {"collection_times": [{"days": "Mon-Fri", "time": "4:15pm"}, {"days": "Sat", "time": "10:00am"}, {"days": "Sun", "time": "Closed"}], "id": "7465000002", "name": "USPS COLLECTION BOX - PO LOBBY", "address": {"city": "RALSTON", "state": "OK", "street": "509 MAIN ST", "postcode": "74650"}}},
{"geometry": {"type": "Point", "coordinates": [-97.2201320306, 36.5142479496]}, "type": "Feature", "properties": {"collection_times": [{"days": "Mon-Fri", "time": "3:00pm"}, {"days": "Sat", "time": "10:00am"}, {"days": "Sun", "time": "Closed"}], "id": "7465100001", "name": "USPS COLLECTION BOX - BLUE BOX", "address": {"city": "RED ROCK", "state": "OK", "street": "500 MCKINLEY ST", "postcode": "74651"}}},
{"geometry": {"type": "Point", "coordinates": [-97.2201320306, 36.5142479496]}, "type": "Feature", "properties": {"collection_times": [{"days": "Mon-Fri", "time": "11:45am"}, {"days": "Sat", "time": "10:00am"}, {"days": "Sun", "time": "Closed"}], "id": "7465100002", "name": "USPS COLLECTION BOX - PO LOBBY", "address": {"city": "RED ROCK", "state": "OK", "street": "500 MCKINLEY ST", "postcode": "74651"}}},
{"geometry": {"type": "Point", "coordinates": [-97.2201320306, 36.5142479496]}, "type": "Feature", "properties": {"collection_times": [{"days": "Mon-Fri", "time": "11:45am"}, {"days": "Sat", "time": "10:00am"}, {"days": "Sun", "time": "Closed"}], "id": "7465100003", "name": "USPS COLLECTION BOX - PO LOBBY", "address": {"city": "RED ROCK", "state": "OK", "street": "500 MCKINLEY ST", "postcode": "74651"}}},
{"geometry": {"type": "Point", "coordinates": [-96.6611134863, 36.7797948288]}, "type": "Feature", "properties": {"collection_times": [{"days": "Mon-Fri", "time": "3:30pm"}, {"days": "Sat", "time": "9:00am"}, {"days": "Sun", "time": "Closed"}], "id": "7465200000", "name": "USPS COLLECTION BOX - BLUE BOX", "address": {"city": "SHIDLER", "state": "OK", "street": "301 S COSDEN AVE", "postcode": "74652"}}},
{"geometry": {"type": "Point", "coordinates": [-96.6611134863, 36.7797948288]}, "type": "Feature", "properties": {"collection_times": [{"days": "Mon-Fri", "time": "11:15am"}, {"days": "Sat", "time": "9:00am"}, {"days": "Sun", "time": "Closed"}], "id": "7465200001", "name": "USPS COLLECTION BOX - PO LOBBY", "address": {"city": "SHIDLER", "state": "OK", "street": "301 S COSDEN AVE", "postcode": "74652"}}},
{"geometry": {"type": "Point", "coordinates": [-96.6611134863, 36.7797948288]}, "type": "Feature", "properties": {"collection_times": [{"days": "Mon-Fri", "time": "11:15am"}, {"days": "Sat", "time": "9:00am"}, {"days": "Sun", "time": "Closed"}], "id": "7465200002", "name": "USPS COLLECTION BOX - PO LOBBY", "address": {"city": "SHIDLER", "state": "OK", "street": "301 S COSDEN AVE", "postcode": "74652"}}},
{"geometry": {"type": "Point", "coordinates": [-97.309867951, 36.6921928571]}, "type": "Feature", "properties": {"collection_times": [{"days": "Mon-Sat", "time": "1:30pm"}, {"days": "Sun", "time": "Closed"}], "id": "7465300000", "name": "USPS COLLECTION BOX - BLUE BOX", "address": {"city": "TONKAWA", "state": "OK", "street": "1315 N MAIN ST", "postcode": "74653"}}},
{"geometry": {"type": "Point", "coordinates": [-97.3534570754, 36.6625196527]}, "type": "Feature", "properties": {"collection_times": [{"days": "Mon-Sat", "time": "1:30pm"}, {"days": "Sun", "time": "Closed"}], "id": "7465300002", "name": "USPS COLLECTION BOX - BLUE BOX", "address": {"city": "TONKAWA", "state": "OK", "street": "120 N 6TH STREET", "postcode": "74653"}}},
{"geometry": {"type": "Point", "coordinates": [-97.3534570754, 36.6625196527]}, "type": "Feature", "properties": {"collection_times": [{"days": "Mon-Sat", "time": "10:30am"}, {"days": "Sun", "time": "Closed"}], "id": "7465300005", "name": "USPS COLLECTION BOX - BLUE BOX", "address": {"city": "TONKAWA", "state": "OK", "street": "16501 W FOUNTAIN RD", "postcode": "74653"}}},
{"geometry": {"type": "Point", "coordinates": [-97.3085224074, 36.6797068012]}, "type": "Feature", "properties": {"collection_times": [{"days": "Mon-Fri", "time": "3:45pm"}, {"days": "Sat", "time": "11:00am"}, {"days": "Sun", "time": "Closed"}], "id": "7465300008", "name": "USPS COLLECTION BOX - PO LOBBY", "address": {"city": "TONKAWA", "state": "OK", "street": "207 E TONKAWA AVE", "postcode": "74653"}}},
{"geometry": {"type": "Point", "coordinates": [-97.3085224074, 36.6797068012]}, "type": "Feature", "properties": {"collection_times": [{"days": "Mon-Fri", "time": "3:45pm"}, {"days": "Sat", "time": "11:00am"}, {"days": "Sun", "time": "Closed"}], "id": "7465300009", "name": "USPS COLLECTION BOX - PO LOBBY", "address": {"city": "TONKAWA", "state": "OK", "street": "207 E TONKAWA AVE", "postcode": "74653"}}},
{"geometry": {"type": "Point", "coordinates": [-97.3085224074, 36.6797068012]}, "type": "Feature", "properties": {"collection_times": [{"days": "Mon-Fri", "time": "3:45pm"}, {"days": "Sat", "time": "11:00am"}, {"days": "Sun", "time": "Closed"}], "id": "7465300010", "name": "USPS COLLECTION BOX - PO LOBBY", "address": {"city": "TONKAWA", "state": "OK", "street": "207 E TONKAWA AVE", "postcode": "74653"}}}
]}
