{"type": "FeatureCollection", "features": [
{"geometry": {"type": "Point", "coordinates": [-96.416783878, 33.9980192186]}, "type": "Feature", "properties": {"collection_times": [{"days": "Mon-Sat", "time": "2:30pm"}, {"days": "Sun", "time": "Closed"}], "id": "7470100002", "name": "USPS COLLECTION BOX - BLUE BOX", "address": {"city": "DURANT", "state": "OK", "street": "3712 W MAIN ST", "postcode": "74701"}}},
{"geometry": {"type": "Point", "coordinates": [-96.3785233692, 33.9926646998]}, "type": "Feature", "properties": {"collection_times": [{"days": "Mon-Sat", "time": "2:45pm"}, {"days": "Sun", "time": "Closed"}], "id": "7470100012", "name": "USPS COLLECTION BOX - BLUE BOX", "address": {"city": "DURANT", "state": "OK", "street": "324 W EVERGREEN ST", "postcode": "74701"}}},
{"geometry": {"type": "Point", "coordinates": [-96.390349483, 34.0049932212]}, "type": "Feature", "properties": {"collection_times": [{"days": "Mon-Sat", "time": "2:30pm"}, {"days": "Sun", "time": "Closed"}], "id": "7470100013", "name": "USPS COLLECTION BOX - BLUE BOX", "address": {"city": "DURANT", "state": "OK", "street": "1200 N WASHINGTON AVE", "postcode": "74701"}}},
{"geometry": {"type": "Point", "coordinates": [-96.390349483, 34.0049932212]}, "type": "Feature", "properties": {"collection_times": [{"days": "Mon-Sat", "time": "2:30pm"}, {"days": "Sun", "time": "Closed"}], "id": "7470100014", "name": "USPS COLLECTION BOX - BLUE BOX", "address": {"city": "DURANT", "state": "OK", "street": "1200 N WASHINGTON AVE", "postcode": "74701"}}},
{"geometry": {"type": "Point", "coordinates": [-96.3785233692, 33.9926646998]}, "type": "Feature", "properties": {"collection_times": [{"days": "Mon-Sat", "time": "2:45pm"}, {"days": "Sun", "time": "Closed"}], "id": "7470100015", "name": "USPS COLLECTION BOX - BLUE BOX", "address": {"city": "DURANT", "state": "OK", "street": "324 W EVERGREEN ST", "postcode": "74701"}}},
{"geometry": {"type": "Point", "coordinates": [-96.3892212003, 33.9939218148]}, "type": "Feature", "properties": {"collection_times": [{"days": "Mon-Sat", "time": "4:30pm"}, {"days": "Sun", "time": "Closed"}], "id": "7470100019", "name": "USPS COLLECTION BOX - PO LOBBY", "address": {"city": "DURANT", "state": "OK", "street": "1223 W MAIN ST", "postcode": "74701"}}},
{"geometry": {"type": "Point", "coordinates": [-96.3892212003, 33.9939218148]}, "type": "Feature", "properties": {"collection_times": [{"days": "Mon-Sat", "time": "4:30pm"}, {"days": "Sun", "time": "Closed"}], "id": "7470100020", "name": "USPS COLLECTION BOX - PO LOBBY", "address": {"city": "DURANT", "state": "OK", "street": "1223 W MAIN ST", "postcode": "74701"}}},
{"geometry": {"type": "Point", "coordinates": [-96.4214791761, 33.9978141559]}, "type": "Feature", "properties": {"collection_times": [{"days": "Mon-Sat", "time": "2:30pm"}, {"days": "Sun", "time": "Closed"}], "id": "7470100021", "name": "USPS COLLECTION BOX - BLUE BOX", "address": {"city": "DURANT", "state": "OK", "street": "4300 W MAIN ST", "postcode": "74701"}}},
{"geometry": {"type": "Point", "coordinates": [-96.3989022149, 34.0049114201]}, "type": "Feature", "properties": {"collection_times": [{"days": "Mon-Sat", "time": "2:30pm"}, {"days": "Sun", "time": "Closed"}], "id": "7470100023", "name": "USPS COLLECTION BOX - BLUE BOX", "address": {"city": "DURANT", "state": "OK", "street": "1400 BRYAN DR", "postcode": "74701"}}},
{"geometry": {"type": "Point", "coordinates": [-96.3785233692, 33.9926646998]}, "type": "Feature", "properties": {"collection_times": [{"days": "Mon-Sat", "time": "2:45pm"}, {"days": "Sun", "time": "Closed"}], "id": "7470100024", "name": "USPS COLLECTION BOX - BLUE BOX", "address": {"city": "DURANT", "state": "OK", "street": "324 W EVERGREEN ST", "postcode": "74701"}}},
{"geometry": {"type": "Point", "coordinates": [-96.3956979151, 33.8351120396]}, "type": "Feature", "properties": {"collection_times": [{"days": "Mon-Fri", "time": "3:15pm"}, {"days": "Sat", "time": "9:00am"}, {"days": "Sun", "time": "Closed"}], "id": "7472000000", "name": "USPS COLLECTION BOX - BLUE BOX", "address": {"city": "ACHILLE", "state": "OK", "street": "110 E MAIN ST", "postcode": "74720"}}},
{"geometry": {"type": "Point", "coordinates": [-96.3956979151, 33.8351120396]}, "type": "Feature", "properties": {"collection_times": [{"days": "Mon-Fri", "time": "3:15pm"}, {"days": "Sat", "time": "9:00am"}, {"days": "Sun", "time": "Closed"}], "id": "7472000001", "name": "USPS COLLECTION BOX - PO LOBBY", "address": {"city": "ACHILLE", "state": "OK", "street": "110 E MAIN ST", "postcode": "74720"}}},
{"geometry": {"type": "Point", "coordinates": [-96.1637201216, 33.8811767044]}, "type": "Feature", "properties": {"collection_times": [{"days": "Mon-Sat", "time": "9:30am"}, {"days": "Sun", "time": "Closed"}], "id": "7472100000", "name": "USPS COLLECTION BOX - PO LOBBY", "address": {"city": "ALBANY", "state": "OK", "street": "109 N WADE ST", "postcode": "74721"}}},
{"geometry": {"type": "Point", "coordinates": [-94.9249902383, 34.3942022814]}, "type": "Feature", "properties": {"collection_times": [{"days": "Mon-Fri", "time": "12:45pm"}, {"days": "Sat", "time": "11:30am"}, {"days": "Sun", "time": "Closed"}], "id": "7472200001", "name": "USPS COLLECTION BOX - PO LOBBY", "address": {"city": "BATTIEST", "state": "OK", "street": "100 S MAIN ST", "postcode": "74722"}}},
{"geometry": {"type": "Point", "coordinates": [-96.0383882419, 34.002336868]}, "type": "Feature", "properties": {"collection_times": [{"days": "Mon-Fri", "time": "3:00pm"}, {"days": "Sat", "time": "9:00am"}, {"days": "Sun", "time": "Closed"}], "id": "7472300000", "name": "USPS COLLECTION BOX - BLUE BOX", "address": {"city": "BENNINGTON", "state": "OK", "street": "310 N PERRY ST", "postcode": "74723"}}},
{"geometry": {"type": "Point", "coordinates": [-96.0383882419, 34.002336868]}, "type": "Feature", "properties": {"collection_times": [{"days": "Mon-Fri", "time": "11:30am"}, {"days": "Sat", "time": "9:00am"}, {"days": "Sun", "time": "Closed"}], "id": "7472300001", "name": "USPS COLLECTION BOX - PO LOBBY", "address": {"city": "BENNINGTON", "state": "OK", "street": "310 N PERRY ST", "postcode": "74723"}}},
{"geometry": {"type": "Point", "coordinates": [-96.0383882419, 34.002336868]}, "type": "Feature", "properties": {"collection_times": [{"days": "Mon-Fri", "time": "11:30am"}, {"days": "Sat", "time": "9:00am"}, {"days": "Sun", "time": "Closed"}], "id": "7472300002", "name": "USPS COLLECTION BOX - PO LOBBY", "address": {"city": "BENNINGTON", "state": "OK", "street": "310 N PERRY ST", "postcode": "74723"}}},
{"geometry": {"type": "Point", "coordinates": [-94.8448181816, 34.3549673033]}, "type": "Feature", "properties": {"collection_times": [{"days": "Mon-Fri", "time": "12:00pm"}, {"days": "Sat", "time": "11:30am"}, {"days": "Sun", "time": "Closed"}], "id": "7472400001", "name": "USPS COLLECTION BOX - PO LOBBY", "address": {"city": "BETHEL", "state": "OK", "street": "100 MAIN ST", "postcode": "74724"}}},
{"geometry": {"type": "Point", "coordinates": [-96.1444611145, 34.0165863747]}, "type": "Feature", "properties": {"collection_times": [{"days": "Mon-Fri", "time": "3:30pm"}, {"days": "Sat", "time": "9:00am"}, {"days": "Sun", "time": "Closed"}], "id": "7472600001", "name": "USPS COLLECTION BOX - PO LOBBY", "address": {"city": "BOKCHITO", "state": "OK", "street": "118 W MAIN ST", "postcode": "74726"}}},
{"geometry": {"type": "Point", "coordinates": [-96.1444611145, 34.0165863747]}, "type": "Feature", "properties": {"collection_times": [{"days": "Mon-Fri", "time": "3:30pm"}, {"days": "Sat", "time": "9:00am"}, {"days": "Sun", "time": "Closed"}], "id": "7472600002", "name": "USPS COLLECTION BOX - PO LOBBY", "address": {"city": "BOKCHITO", "state": "OK", "street": "118 W MAIN ST", "postcode": "74726"}}},
{"geometry": {"type": "Point", "coordinates": [-95.8705317501, 34.0273958564]}, "type": "Feature", "properties": {"collection_times": [{"days": "Mon-Fri", "time": "3:30pm"}, {"days": "Sat", "time": "9:00am"}, {"days": "Sun", "time": "Closed"}], "id": "7472700000", "name": "USPS COLLECTION BOX - BLUE BOX", "address": {"city": "BOSWELL", "state": "OK", "street": "515 HUNTER AVE", "postcode": "74727"}}},
{"geometry": {"type": "Point", "coordinates": [-95.8705317501, 34.0273958564]}, "type": "Feature", "properties": {"collection_times": [{"days": "Mon-Fri", "time": "3:30pm"}, {"days": "Sat", "time": "9:00am"}, {"days": "Sun", "time": "Closed"}], "id": "7472700001", "name": "USPS COLLECTION BOX - PO LOBBY", "address": {"city": "BOSWELL", "state": "OK", "street": "515 HUNTER AVE", "postcode": "74727"}}},
{"geometry": {"type": "Point", "coordinates": [-95.8705317501, 34.0273958564]}, "type": "Feature", "properties": {"collection_times": [{"days": "Mon-Fri", "time": "3:30pm"}, {"days": "Sat", "time": "9:00am"}, {"days": "Sun", "time": "Closed"}], "id": "7472700002", "name": "USPS COLLECTION BOX - PO LOBBY", "address": {"city": "BOSWELL", "state": "OK", "street": "515 HUNTER AVE", "postcode": "74727"}}},
{"geometry": {"type": "Point", "coordinates": [-94.7371553157, 34.0313318916]}, "type": "Feature", "properties": {"collection_times": [{"days": "Mon-Sat", "time": "3:30pm"}, {"days": "Sun", "time": "Closed"}], "id": "7472800004", "name": "USPS COLLECTION BOX - BLUE BOX", "address": {"city": "BROKEN BOW", "state": "OK", "street": "107 W 5TH ST", "postcode": "74728"}}},
{"geometry": {"type": "Point", "coordinates": [-94.7371553157, 34.0313318916]}, "type": "Feature", "properties": {"collection_times": [{"days": "Mon-Sat", "time": "3:30pm"}, {"days": "Sun", "time": "Closed"}], "id": "7472800005", "name": "USPS COLLECTION BOX - BLUE BOX", "address": {"city": "BROKEN BOW", "state": "OK", "street": "107 W 5TH ST", "postcode": "74728"}}},
{"geometry": {"type": "Point", "coordinates": [-94.737137898, 34.0304702703]}, "type": "Feature", "properties": {"collection_times": [{"days": "Mon-Sat", "time": "3:30pm"}, {"days": "Sun", "time": "Closed"}], "id": "7472800006", "name": "USPS COLLECTION BOX - PO LOBBY", "address": {"city": "BROKEN BOW", "state": "OK", "street": "405 MAIN ST", "postcode": "74728"}}},
{"geometry": {"type": "Point", "coordinates": [-94.737137898, 34.0304702703]}, "type": "Feature", "properties": {"collection_times": [{"days": "Mon-Sat", "time": "3:30pm"}, {"days": "Sun", "time": "Closed"}], "id": "7472800007", "name": "USPS COLLECTION BOX - PO LOBBY", "address": {"city": "BROKEN BOW", "state": "OK", "street": "405 MAIN ST", "postcode": "74728"}}},
{"geometry": {"type": "Point", "coordinates": [-94.737137898, 34.0304702703]}, "type": "Feature", "properties": {"collection_times": [{"days": "Mon-Sat", "time": "3:30pm"}, {"days": "Sun", "time": "Closed"}], "id": "7472800008", "name": "USPS COLLECTION BOX - PO LOBBY", "address": {"city": "BROKEN BOW", "state": "OK", "street": "405 MAIN ST", "postcode": "74728"}}},
{"geometry": {"type": "Point", "coordinates": [-94.7565067356, 34.1612540039]}, "type": "Feature", "properties": {"collection_times": [{"days": "Mon-Sat", "time": "9:00am"}, {"days": "Sun", "time": "Closed"}], "id": "7472800009", "name": "USPS COLLECTION BOX - BLUE BOX", "address": {"city": "BROKEN BOW", "state": "OK", "street": "9914 N US HIGHWAY 259", "postcode": "74728"}}},
{"geometry": {"type": "Point", "coordinates": [-96.2601784207, 34.1254173254]}, "type": "Feature", "properties": {"collection_times": [{"days": "Mon-Fri", "time": "2:00pm"}, {"days": "Sat", "time": "10:30am"}, {"days": "Sun", "time": "Closed"}], "id": "7472900000", "name": "USPS COLLECTION BOX - PO LOBBY", "address": {"city": "CADDO", "state": "OK", "street": "127 W BUFFALO ST", "postcode": "74729"}}},
{"geometry": {"type": "Point", "coordinates": [-96.2601784207, 34.1254173254]}, "type": "Feature", "properties": {"collection_times": [{"days": "Mon-Fri", "time": "2:00pm"}, {"days": "Sat", "time": "10:30am"}, {"days": "Sun", "time": "Closed"}], "id": "7472900002", "name": "USPS COLLECTION BOX - PO LOBBY", "address": {"city": "CADDO", "state": "OK", "street": "127 W BUFFALO ST", "postcode": "74729"}}},
{"geometry": {"type": "Point", "coordinates": [-96.4269454478, 33.9367142723]}, "type": "Feature", "properties": {"collection_times": [{"days": "Mon-Fri", "time": "4:00pm"}, {"days": "Sat", "time": "10:00am"}, {"days": "Sun", "time": "Closed"}], "id": "7473000001", "name": "USPS COLLECTION BOX - PO LOBBY", "address": {"city": "CALERA", "state": "OK", "street": "410 N MCKINLEY AVE", "postcode": "74730"}}},
{"geometry": {"type": "Point", "coordinates": [-96.5756255877, 33.8718691418]}, "type": "Feature", "properties": {"collection_times": [{"days": "Mon-Fri", "time": "11:30am"}, {"days": "Sat", "time": "8:45am"}, {"days": "Sun", "time": "Closed"}], "id": "7473100001", "name": "USPS COLLECTION BOX - PO LOBBY", "address": {"city": "CARTWRIGHT", "state": "OK", "street": "52 BOAT CLUB RD", "postcode": "74731"}}},
{"geometry": {"type": "Point", "coordinates": [-96.5756255877, 33.8718691418]}, "type": "Feature", "properties": {"collection_times": [{"days": "Mon-Fri", "time": "11:30am"}, {"days": "Sat", "time": "8:45am"}, {"days": "Sun", "time": "Closed"}], "id": "7473100002", "name": "USPS COLLECTION BOX - PO LOBBY", "address": {"city": "CARTWRIGHT", "state": "OK", "street": "52 BOAT CLUB RD", "postcode": "74731"}}},
{"geometry": {"type": "Point", "coordinates": [-96.4690596079, 33.8260786616]}, "type": "Feature", "properties": {"collection_times": [{"days": "Mon-Fri", "time": "3:45pm"}, {"days": "Sat", "time": "9:00am"}, {"days": "Sun", "time": "Closed"}], "id": "7473300000", "name": "USPS COLLECTION BOX - BLUE BOX", "address": {"city": "COLBERT", "state": "OK", "street": "711 MOORE AVE", "postcode": "74733"}}},
{"geometry": {"type": "Point", "coordinates": [-96.4690596079, 33.8260786616]}, "type": "Feature", "properties": {"collection_times": [{"days": "Mon-Fri", "time": "3:45pm"}, {"days": "Sat", "time": "9:00am"}, {"days": "Sun", "time": "Closed"}], "id": "7473300003", "name": "USPS COLLECTION BOX - BLUE BOX", "address": {"city": "COLBERT", "state": "OK", "street": "711 MOORE AVE", "postcode": "74733"}}},
{"geometry": {"type": "Point", "coordinates": [-96.4690596079, 33.8260786616]}, "type": "Feature", "properties": {"collection_times": [{"days": "Mon-Fri", "time": "3:45pm"}, {"days": "Sat", "time": "9:00am"}, {"days": "Sun", "time": "Closed"}], "id": "7473300004", "name": "USPS COLLECTION BOX - PO LOBBY", "address": {"city": "COLBERT", "state": "OK", "street": "711 MOORE AVE", "postcode": "74733"}}},
{"geometry": {"type": "Point", "coordinates": [-96.4690596079, 33.8260786616]}, "type": "Feature", "properties": {"collection_times": [{"days": "Mon-Fri", "time": "3:45pm"}, {"days": "Sat", "time": "9:00am"}, {"days": "Sun", "time": "Closed"}], "id": "7473300005", "name": "USPS COLLECTION BOX - PO LOBBY", "address": {"city": "COLBERT", "state": "OK", "street": "711 MOORE AVE", "postcode": "74733"}}},
{"geometry": {"type": "Point", "coordinates": [-94.57471, 34.03788]}, "type": "Feature", "properties": {"collection_times": [{"days": "Mon-Fri", "time": "3:00pm"}, {"days": "Sat", "time": "10:00am"}, {"days": "Sun", "time": "Closed"}], "id": "7473400000", "name": "USPS COLLECTION BOX - BLUE BOX", "address": {"city": "EAGLETOWN", "state": "OK", "street": "8747 E US HIGHWAY 70", "postcode": "74734"}}},
{"geometry": {"type": "Point", "coordinates": [-94.5747074569, 34.0378816941]}, "type": "Feature", "properties": {"collection_times": [{"days": "Mon-Fri", "time": "11:30am"}, {"days": "Sat", "time": "10:00am"}, {"days": "Sun", "time": "Closed"}], "id": "7473400001", "name": "USPS COLLECTION BOX - PO LOBBY", "address": {"city": "EAGLETOWN", "state": "OK", "street": "8747 E US HIGHWAY 70", "postcode": "74734"}}},
{"geometry": {"type": "Point", "coordinates": [-94.5747074569, 34.0378816941]}, "type": "Feature", "properties": {"collection_times": [{"days": "Mon-Fri", "time": "11:30am"}, {"days": "Sat", "time": "10:00am"}, {"days": "Sun", "time": "Closed"}], "id": "7473400002", "name": "USPS COLLECTION BOX - PO LOBBY", "address": {"city": "EAGLETOWN", "state": "OK", "street": "8747 E US HIGHWAY 70", "postcode": "74734"}}},
{"geometry": {"type": "Point", "coordinates": [-94.5866912232, 34.0433264454]}, "type": "Feature", "properties": {"collection_times": [{"days": "Mon-Sat", "time": "2:00pm"}, {"days": "Sun", "time": "Closed"}], "id": "7473400003", "name": "USPS COLLECTION BOX - BLUE BOX", "address": {"city": "EAGLETOWN", "state": "OK", "street": "76 MAIN ST", "postcode": "74734"}}},
{"geometry": {"type": "Point", "coordinates": [-95.255155101, 34.0489316324]}, "type": "Feature", "properties": {"collection_times": [{"days": "Mon-Fri", "time": "2:00pm"}, {"days": "Sat", "time": "9:00am"}, {"days": "Sun", "time": "Closed"}], "id": "7473500002", "name": "USPS COLLECTION BOX - PO LOBBY", "address": {"city": "FORT TOWSON", "state": "OK", "street": "100 N MAIN ST", "postcode": "74735"}}},
{"geometry": {"type": "Point", "coordinates": [-94.9360311586, 33.9162232083]}, "type": "Feature", "properties": {"collection_times": [{"days": "Mon-Fri", "time": "3:30pm"}, {"days": "Sat", "time": "9:30am"}, {"days": "Sun", "time": "Closed"}], "id": "7473600000", "name": "USPS COLLECTION BOX - BLUE BOX", "address": {"city": "GARVIN", "state": "OK", "street": "10 N LOVE ST", "postcode": "74736"}}},
{"geometry": {"type": "Point", "coordinates": [-94.9360311586, 33.9162232083]}, "type": "Feature", "properties": {"collection_times": [{"days": "Mon-Fri", "time": "11:15am"}, {"days": "Sat", "time": "9:30am"}, {"days": "Sun", "time": "Closed"}], "id": "7473600001", "name": "USPS COLLECTION BOX - PO LOBBY", "address": {"city": "GARVIN", "state": "OK", "street": "10 N LOVE ST", "postcode": "74736"}}},
{"geometry": {"type": "Point", "coordinates": [-94.8959763875, 34.0339977611]}, "type": "Feature", "properties": {"collection_times": [{"days": "Mon-Fri", "time": "12:30pm"}, {"days": "Sat", "time": "11:30am"}, {"days": "Sun", "time": "Closed"}], "id": "7473700001", "name": "USPS COLLECTION BOX - PO LOBBY", "address": {"city": "GOLDEN", "state": "OK", "street": "100 LINE ST", "postcode": "74737"}}},
{"geometry": {"type": "Point", "coordinates": [-95.4656642916, 33.9204699347]}, "type": "Feature", "properties": {"collection_times": [{"days": "Mon-Fri", "time": "2:30pm"}, {"days": "Sat", "time": "12:30pm"}, {"days": "Sun", "time": "Closed"}], "id": "7473800002", "name": "USPS COLLECTION BOX - PO LOBBY", "address": {"city": "GRANT", "state": "OK", "street": "604 WALNUT ST", "postcode": "74738"}}},
{"geometry": {"type": "Point", "coordinates": [-94.5745692436, 33.7865836798]}, "type": "Feature", "properties": {"collection_times": [{"days": "Mon-Fri", "time": "3:15pm"}, {"days": "Sat-Sun", "time": "Closed"}], "id": "7474000000", "name": "USPS COLLECTION BOX - PO LOBBY", "address": {"city": "HAWORTH", "state": "OK", "street": "100 N ELM ST", "postcode": "74740"}}},
{"geometry": {"type": "Point", "coordinates": [-94.5745692436, 33.7865836798]}, "type": "Feature", "properties": {"collection_times": [{"days": "Mon-Fri", "time": "3:15pm"}, {"days": "Sat-Sun", "time": "Closed"}], "id": "7474000001", "name": "USPS COLLECTION BOX - BLUE BOX", "address": {"city": "HAWORTH", "state": "OK", "street": "100 N ELM ST", "postcode": "74740"}}},
{"geometry": {"type": "Point", "coordinates": [-96.2841373346, 33.8041914685]}, "type": "Feature", "properties": {"collection_times": [{"days": "Mon-Fri", "time": "12:00pm"}, {"days": "Sat", "time": "9:00am"}, {"days": "Sun", "time": "Closed"}], "id": "7474100000", "name": "USPS COLLECTION BOX - PO LOBBY", "address": {"city": "HENDRIX", "state": "OK", "street": "309 E MAIN ST", "postcode": "74741"}}},
{"geometry": {"type": "Point", "coordinates": [-95.5087264719, 34.0108617664]}, "type": "Feature", "properties": {"collection_times": [{"days": "Mon-Sat", "time": "4:45pm"}, {"days": "Sun", "time": "Closed"}], "id": "7474300003", "name": "USPS COLLECTION BOX - BLUE BOX", "address": {"city": "HUGO", "state": "OK", "street": "207 N 4TH ST", "postcode": "74743"}}},
{"geometry": {"type": "Point", "coordinates": [-95.5087264719, 34.0108617664]}, "type": "Feature", "properties": {"collection_times": [{"days": "Mon-Sat", "time": "4:45pm"}, {"days": "Sun", "time": "Closed"}], "id": "7474300004", "name": "USPS COLLECTION BOX - BLUE BOX", "address": {"city": "HUGO", "state": "OK", "street": "207 N 4TH ST", "postcode": "74743"}}},
{"geometry": {"type": "Point", "coordinates": [-95.5087264719, 34.0108617664]}, "type": "Feature", "properties": {"collection_times": [{"days": "Mon-Sat", "time": "5:00pm"}, {"days": "Sun", "time": "Closed"}], "id": "7474300012", "name": "USPS COLLECTION BOX - PO LOBBY", "address": {"city": "HUGO", "state": "OK", "street": "207 N 4TH ST", "postcode": "74743"}}},
{"geometry": {"type": "Point", "coordinates": [-95.5087264719, 34.0108617664]}, "type": "Feature", "properties": {"collection_times": [{"days": "Mon-Sat", "time": "5:00pm"}, {"days": "Sun", "time": "Closed"}], "id": "7474300013", "name": "USPS COLLECTION BOX - PO LOBBY", "address": {"city": "HUGO", "state": "OK", "street": "207 N 4TH ST", "postcode": "74743"}}},
{"geometry": {"type": "Point", "coordinates": [-95.5087264719, 34.0108617664]}, "type": "Feature", "properties": {"collection_times": [{"days": "Mon-Sat", "time": "5:00pm"}, {"days": "Sun", "time": "Closed"}], "id": "7474300014", "name": "USPS COLLECTION BOX - PO LOBBY", "address": {"city": "HUGO", "state": "OK", "street": "207 N 4TH ST", "postcode": "74743"}}},
{"geometry": {"type": "Point", "coordinates": [-94.8294284812, 33.8974658287]}, "type": "Feature", "properties": {"collection_times": [{"days": "Mon-Fri", "time": "3:45pm"}, {"days": "Sat", "time": "3:00pm"}, {"days": "Sun", "time": "Closed"}], "id": "7474500008", "name": "USPS COLLECTION BOX - BLUE BOX", "address": {"city": "IDABEL", "state": "OK", "street": "201 N CENTRAL AVE", "postcode": "74745"}}},
{"geometry": {"type": "Point", "coordinates": [-94.8294284812, 33.8974658287]}, "type": "Feature", "properties": {"collection_times": [{"days": "Mon-Fri", "time": "3:45pm"}, {"days": "Sat", "time": "3:00pm"}, {"days": "Sun", "time": "Closed"}], "id": "7474500011", "name": "USPS COLLECTION BOX - PO LOBBY", "address": {"city": "IDABEL", "state": "OK", "street": "201 N CENTRAL AVE", "postcode": "74745"}}},
{"geometry": {"type": "Point", "coordinates": [-94.8294284812, 33.8974658287]}, "type": "Feature", "properties": {"collection_times": [{"days": "Mon-Fri", "time": "3:45pm"}, {"days": "Sat", "time": "3:00pm"}, {"days": "Sun", "time": "Closed"}], "id": "7474500012", "name": "USPS COLLECTION BOX - PO LOBBY", "address": {"city": "IDABEL", "state": "OK", "street": "201 N CENTRAL AVE", "postcode": "74745"}}},
{"geometry": {"type": "Point", "coordinates": [-94.8294284812, 33.8974658287]}, "type": "Feature", "properties": {"collection_times": [{"days": "Mon-Fri", "time": "3:45pm"}, {"days": "Sat", "time": "3:00pm"}, {"days": "Sun", "time": "Closed"}], "id": "7474500013", "name": "USPS COLLECTION BOX - PO LOBBY", "address": {"city": "IDABEL", "state": "OK", "street": "201 N CENTRAL AVE", "postcode": "74745"}}},
{"geometry": {"type": "Point", "coordinates": [-96.3628960597, 34.1449439934]}, "type": "Feature", "properties": {"collection_times": [{"days": "Mon-Sat", "time": "4:00pm"}, {"days": "Sun", "time": "Closed"}], "id": "7474800000", "name": "USPS COLLECTION BOX - BLUE BOX", "address": {"city": "KENEFIC", "state": "OK", "street": "117 MARY ST", "postcode": "74748"}}},
{"geometry": {"type": "Point", "coordinates": [-96.3628960597, 34.1449439934]}, "type": "Feature", "properties": {"collection_times": [{"days": "Mon-Fri", "time": "11:00am"}, {"days": "Sat", "time": "10:00am"}, {"days": "Sun", "time": "Closed"}], "id": "7474800001", "name": "USPS COLLECTION BOX - PO LOBBY", "address": {"city": "KENEFIC", "state": "OK", "street": "117 MARY ST", "postcode": "74748"}}},
{"geometry": {"type": "Point", "coordinates": [-96.3628960597, 34.1449439934]}, "type": "Feature", "properties": {"collection_times": [{"days": "Mon-Fri", "time": "11:00am"}, {"days": "Sat", "time": "10:00am"}, {"days": "Sun", "time": "Closed"}], "id": "7474800002", "name": "USPS COLLECTION BOX - PO LOBBY", "address": {"city": "KENEFIC", "state": "OK", "street": "117 MARY ST", "postcode": "74748"}}},
{"geometry": {"type": "Point", "coordinates": [-95.0139256969, 33.9871161181]}, "type": "Feature", "properties": {"collection_times": [{"days": "Mon-Fri", "time": "4:00pm"}, {"days": "Sat", "time": "10:30am"}, {"days": "Sun", "time": "Closed"}], "id": "7475000000", "name": "USPS COLLECTION BOX - BLUE BOX", "address": {"city": "MILLERTON", "state": "OK", "street": "101 N MAIN ST", "postcode": "74750"}}},
{"geometry": {"type": "Point", "coordinates": [-95.0139256969, 33.9871161181]}, "type": "Feature", "properties": {"collection_times": [{"days": "Mon-Fri", "time": "4:00pm"}, {"days": "Sat", "time": "10:30am"}, {"days": "Sun", "time": "Closed"}], "id": "7475000001", "name": "USPS COLLECTION BOX - PO LOBBY", "address": {"city": "MILLERTON", "state": "OK", "street": "101 N MAIN ST", "postcode": "74750"}}},
{"geometry": {"type": "Point", "coordinates": [-95.0115977599, 34.3963011978]}, "type": "Feature", "properties": {"collection_times": [{"days": "Mon-Fri", "time": "12:15pm"}, {"days": "Sat", "time": "12:00pm"}, {"days": "Sun", "time": "Closed"}], "id": "7475200001", "name": "USPS COLLECTION BOX - PO LOBBY", "address": {"city": "PICKENS", "state": "OK", "street": "100 MAIN ST", "postcode": "74752"}}},
{"geometry": {"type": "Point", "coordinates": [-96.5352028333, 33.905823062]}, "type": "Feature", "properties": {"collection_times": [{"days": "Mon-Fri", "time": "10:30am"}, {"days": "Sat", "time": "8:00am"}, {"days": "Sun", "time": "Closed"}], "id": "7475300000", "name": "USPS COLLECTION BOX - BLUE BOX", "address": {"city": "PLATTER", "state": "OK", "street": "313 2ND ST", "postcode": "74753"}}},
{"geometry": {"type": "Point", "coordinates": [-96.5352028333, 33.905823062]}, "type": "Feature", "properties": {"collection_times": [{"days": "Mon-Fri", "time": "10:30am"}, {"days": "Sat", "time": "8:00am"}, {"days": "Sun", "time": "Closed"}], "id": "7475300001", "name": "USPS COLLECTION BOX - PO LOBBY", "address": {"city": "PLATTER", "state": "OK", "street": "313 2ND ST", "postcode": "74753"}}},
{"geometry": {"type": "Point", "coordinates": [-95.0705439797, 34.1940605591]}, "type": "Feature", "properties": {"collection_times": [{"days": "Mon-Fri", "time": "11:30am"}, {"days": "Sat", "time": "10:30am"}, {"days": "Sun", "time": "Closed"}], "id": "7475400001", "name": "USPS COLLECTION BOX - PO LOBBY", "address": {"city": "RINGOLD", "state": "OK", "street": "1 HWY 3", "postcode": "74754"}}},
{"geometry": {"type": "Point", "coordinates": [-95.1272915538, 34.1615785721]}, "type": "Feature", "properties": {"collection_times": [{"days": "Mon-Fri", "time": "11:30am"}, {"days": "Sat", "time": "9:45am"}, {"days": "Sun", "time": "Closed"}], "id": "7475500000", "name": "USPS COLLECTION BOX - PO LOBBY", "address": {"city": "RUFE", "state": "OK", "street": "100 MAIN ST", "postcode": "74755"}}},
{"geometry": {"type": "Point", "coordinates": [-95.1465776843, 34.1225763085]}, "type": "Feature", "properties": {"collection_times": [{"days": "Mon-Fri", "time": "1:00pm"}, {"days": "Sat", "time": "9:45am"}, {"days": "Sun", "time": "Closed"}], "id": "7475500001", "name": "USPS COLLECTION BOX - BLUE BOX", "address": {"city": "RUFE", "state": "OK", "street": "100 MAIN ST", "postcode": "74755"}}},
{"geometry": {"type": "Point", "coordinates": [-95.3487663632, 34.0259646427]}, "type": "Feature", "properties": {"collection_times": [{"days": "Mon-Fri", "time": "11:00am"}, {"days": "Sat", "time": "9:00am"}, {"days": "Sun", "time": "Closed"}], "id": "7475600001", "name": "USPS COLLECTION BOX - PO LOBBY", "address": {"city": "SAWYER", "state": "OK", "street": "100 DAM ACCESS", "postcode": "74756"}}},
{"geometry": {"type": "Point", "coordinates": [-95.3487663632, 34.0259646427]}, "type": "Feature", "properties": {"collection_times": [{"days": "Mon-Fri", "time": "11:00am"}, {"days": "Sat", "time": "9:00am"}, {"days": "Sun", "time": "Closed"}], "id": "7475600002", "name": "USPS COLLECTION BOX - PO LOBBY", "address": {"city": "SAWYER", "state": "OK", "street": "100 DAM ACCESS", "postcode": "74756"}}},
{"geometry": {"type": "Point", "coordinates": [-95.6987275542, 34.034016895]}, "type": "Feature", "properties": {"collection_times": [{"days": "Mon-Fri", "time": "1:45pm"}, {"days": "Sat", "time": "8:00am"}, {"days": "Sun", "time": "Closed"}], "id": "7475900001", "name": "USPS COLLECTION BOX - PO LOBBY", "address": {"city": "SOPER", "state": "OK", "street": "300 PARIS AVE", "postcode": "74759"}}},
{"geometry": {"type": "Point", "coordinates": [-95.6987275542, 34.034016895]}, "type": "Feature", "properties": {"collection_times": [{"days": "Mon-Fri", "time": "1:45pm"}, {"days": "Sat", "time": "8:00am"}, {"days": "Sun", "time": "Closed"}], "id": "7475900002", "name": "USPS COLLECTION BOX - PO LOBBY", "address": {"city": "SOPER", "state": "OK", "street": "300 PARIS AVE", "postcode": "74759"}}},
{"geometry": {"type": "Point", "coordinates": [-95.2023544676, 34.0190454196]}, "type": "Feature", "properties": {"collection_times": [{"days": "Mon-Fri", "time": "2:30pm"}, {"days": "Sat", "time": "9:15am"}, {"days": "Sun", "time": "Closed"}], "id": "7476100001", "name": "USPS COLLECTION BOX - PO LOBBY", "address": {"city": "SWINK", "state": "OK", "street": "100 FRONT ST", "postcode": "74761"}}},
{"geometry": {"type": "Point", "coordinates": [-95.0617649491, 33.9844606709]}, "type": "Feature", "properties": {"collection_times": [{"days": "Mon-Fri", "time": "3:00pm"}, {"days": "Sat", "time": "10:00am"}, {"days": "Sun", "time": "Closed"}], "id": "7476400000", "name": "USPS COLLECTION BOX - BLUE BOX", "address": {"city": "VALLIANT", "state": "OK", "street": "501 N DALTON ST", "postcode": "74764"}}},
{"geometry": {"type": "Point", "coordinates": [-95.0617649491, 33.9844606709]}, "type": "Feature", "properties": {"collection_times": [{"days": "Mon-Fri", "time": "3:00pm"}, {"days": "Sat", "time": "10:00am"}, {"days": "Sun", "time": "Closed"}], "id": "7476400001", "name": "USPS COLLECTION BOX - PO LOBBY", "address": {"city": "VALLIANT", "state": "OK", "street": "501 N DALTON ST", "postcode": "74764"}}},
{"geometry": {"type": "Point", "coordinates": [-95.0617649491, 33.9844606709]}, "type": "Feature", "properties": {"collection_times": [{"days": "Mon-Fri", "time": "3:00pm"}, {"days": "Sat", "time": "10:00am"}, {"days": "Sun", "time": "Closed"}], "id": "7476400002", "name": "USPS COLLECTION BOX - PO LOBBY", "address": {"city": "VALLIANT", "state": "OK", "street": "501 N DALTON ST", "postcode": "74764"}}},
{"geometry": {"type": "Point", "coordinates": [-94.9773305373, 34.1529117835]}, "type": "Feature", "properties": {"collection_times": [{"days": "Mon-Fri", "time": "3:00pm"}, {"days": "Sat", "time": "10:00am"}, {"days": "Sun", "time": "Closed"}], "id": "7476600000", "name": "USPS COLLECTION BOX - BLUE BOX", "address": {"city": "WRIGHT CITY", "state": "OK", "street": "301 W 10TH ST", "postcode": "74766"}}},
{"geometry": {"type": "Point", "coordinates": [-94.9773305373, 34.1529117835]}, "type": "Feature", "properties": {"collection_times": [{"days": "Mon-Fri", "time": "3:00pm"}, {"days": "Sat", "time": "10:00am"}, {"days": "Sun", "time": "Closed"}], "id": "7476600001", "name": "USPS COLLECTION BOX - PO LOBBY", "address": {"city": "WRIGHT CITY", "state": "OK", "street": "301 W 10TH ST", "postcode": "74766"}}},
{"geometry": {"type": "Point", "coordinates": [-94.9773305373, 34.1529117835]}, "type": "Feature", "properties": {"collection_times": [{"days": "Mon-Fri", "time": "3:00pm"}, {"days": "Sat", "time": "10:00am"}, {"days": "Sun", "time": "Closed"}], "id": "7476600003", "name": "USPS COLLECTION BOX - PO LOBBY", "address": {"city": "WRIGHT CITY", "state": "OK", "street": "301 W 10TH ST", "postcode": "74766"}}}
]}
