{"type": "FeatureCollection", "features": [
{"geometry": {"type": "Point", "coordinates": [-96.9219819332, 35.3287583653]}, "type": "Feature", "properties": {"collection_times": [{"days": "Mon-Fri", "time": "5:00pm"}, {"days": "Sat", "time": "4:00pm"}, {"days": "Sun", "time": "Closed"}], "id": "7480100046", "name": "USPS COLLECTION BOX - PO LOBBY", "address": {"city": "SHAWNEE", "state": "OK", "street": "116 E 9TH ST", "postcode": "74801"}}},
{"geometry": {"type": "Point", "coordinates": [-96.9222639694, 35.3287429182]}, "type": "Feature", "properties": {"collection_times": [{"days": "Mon-Fri", "time": "5:00pm"}, {"days": "Sat", "time": "4:00pm"}, {"days": "Sun", "time": "Closed"}], "id": "7480100047", "name": "USPS COLLECTION BOX - BLUE BOX", "address": {"city": "SHAWNEE", "state": "OK", "street": "200 N BELL AVE", "postcode": "74801"}}},
{"geometry": {"type": "Point", "coordinates": [-96.9121507737, 35.3543967082]}, "type": "Feature", "properties": {"collection_times": [{"days": "Mon-Fri", "time": "3:30pm"}, {"days": "Sat", "time": "2:00pm"}, {"days": "Sun", "time": "Closed"}], "id": "7480400001", "name": "USPS COLLECTION BOX - BLUE BOX", "address": {"city": "SHAWNEE", "state": "OK", "street": "901 E FEDERAL ST", "postcode": "74804"}}},
{"geometry": {"type": "Point", "coordinates": [-96.9120175672, 35.3598271008]}, "type": "Feature", "properties": {"collection_times": [{"days": "Mon-Fri", "time": "3:30pm"}, {"days": "Sat", "time": "2:00pm"}, {"days": "Sun", "time": "Closed"}], "id": "7480400002", "name": "USPS COLLECTION BOX - BLUE BOX", "address": {"city": "SHAWNEE", "state": "OK", "street": "2705 N HARRISON ST", "postcode": "74804"}}},
{"geometry": {"type": "Point", "coordinates": [-96.9324134377, 35.3472686323]}, "type": "Feature", "properties": {"collection_times": [{"days": "Mon-Fri", "time": "4:00pm"}, {"days": "Sat", "time": "2:15pm"}, {"days": "Sun", "time": "Closed"}], "id": "7480400006", "name": "USPS COLLECTION BOX - BLUE BOX", "address": {"city": "SHAWNEE", "state": "OK", "street": "600 W INDEPENDENCE ST", "postcode": "74804"}}},
{"geometry": {"type": "Point", "coordinates": [-96.9267942318, 35.3617099156]}, "type": "Feature", "properties": {"collection_times": [{"days": "Mon-Fri", "time": "3:45pm"}, {"days": "Sat", "time": "2:15pm"}, {"days": "Sun", "time": "Closed"}], "id": "7480400008", "name": "USPS COLLECTION BOX - BLUE BOX", "address": {"city": "SHAWNEE", "state": "OK", "street": "303 W MACARTHUR ST", "postcode": "74804"}}},
{"geometry": {"type": "Point", "coordinates": [-96.9267942318, 35.3617099156]}, "type": "Feature", "properties": {"collection_times": [{"days": "Mon-Fri", "time": "3:45pm"}, {"days": "Sat", "time": "2:15pm"}, {"days": "Sun", "time": "Closed"}], "id": "7480400018", "name": "USPS COLLECTION BOX - BLUE BOX", "address": {"city": "SHAWNEE", "state": "OK", "street": "303 W MACARTHUR ST", "postcode": "74804"}}},
{"geometry": {"type": "Point", "coordinates": [-96.6524352187, 34.7937178896]}, "type": "Feature", "properties": {"collection_times": [{"days": "Mon-Fri", "time": "10:00am"}, {"days": "Sat", "time": "9:00am"}, {"days": "Sun", "time": "Closed"}], "id": "7482000025", "name": "USPS COLLECTION BOX - BLUE BOX", "address": {"city": "ADA", "state": "OK", "street": "1419 N COUNTRY CLUB RD", "postcode": "74820"}}},
{"geometry": {"type": "Point", "coordinates": [-96.6781760384, 34.7733395272]}, "type": "Feature", "properties": {"collection_times": [{"days": "Mon-Fri", "time": "5:00pm"}, {"days": "Sat", "time": "4:30pm"}, {"days": "Sun", "time": "Closed"}], "id": "7482000027", "name": "USPS COLLECTION BOX - BLUE BOX", "address": {"city": "ADA", "state": "OK", "street": "131 E 12TH ST", "postcode": "74820"}}},
{"geometry": {"type": "Point", "coordinates": [-96.6781760384, 34.7733395272]}, "type": "Feature", "properties": {"collection_times": [{"days": "Mon-Fri", "time": "5:00pm"}, {"days": "Sat", "time": "4:30pm"}, {"days": "Sun", "time": "Closed"}], "id": "7482000034", "name": "USPS COLLECTION BOX - PO LOBBY", "address": {"city": "ADA", "state": "OK", "street": "131 E 12TH ST", "postcode": "74820"}}},
{"geometry": {"type": "Point", "coordinates": [-96.8742049734, 35.8924597705]}, "type": "Feature", "properties": {"collection_times": [{"days": "Mon-Fri", "time": "12:30pm"}, {"days": "Sat", "time": "10:45am"}, {"days": "Sun", "time": "Closed"}], "id": "7482400001", "name": "USPS COLLECTION BOX - PO LOBBY", "address": {"city": "AGRA", "state": "OK", "street": "13 S MAIN ST", "postcode": "74824"}}},
{"geometry": {"type": "Point", "coordinates": [-96.8742049734, 35.8924597705]}, "type": "Feature", "properties": {"collection_times": [{"days": "Mon-Fri", "time": "12:30pm"}, {"days": "Sat", "time": "10:45am"}, {"days": "Sun", "time": "Closed"}], "id": "7482400002", "name": "USPS COLLECTION BOX - PO LOBBY", "address": {"city": "AGRA", "state": "OK", "street": "13 S MAIN ST", "postcode": "74824"}}},
{"geometry": {"type": "Point", "coordinates": [-96.4158622299, 34.8792824167]}, "type": "Feature", "properties": {"collection_times": [{"days": "Mon-Fri", "time": "3:45pm"}, {"days": "Sat", "time": "9:30am"}, {"days": "Sun", "time": "Closed"}], "id": "7482500000", "name": "USPS COLLECTION BOX - BLUE BOX", "address": {"city": "ALLEN", "state": "OK", "street": "107 S EASTON", "postcode": "74825"}}},
{"geometry": {"type": "Point", "coordinates": [-96.4158622299, 34.8792824167]}, "type": "Feature", "properties": {"collection_times": [{"days": "Mon-Fri", "time": "2:45pm"}, {"days": "Sat", "time": "9:30am"}, {"days": "Sun", "time": "Closed"}], "id": "7482500001", "name": "USPS COLLECTION BOX - PO LOBBY", "address": {"city": "ALLEN", "state": "OK", "street": "107 S EASTON", "postcode": "74825"}}},
{"geometry": {"type": "Point", "coordinates": [-96.9231834118, 34.9910007366]}, "type": "Feature", "properties": {"collection_times": [{"days": "Mon-Fri", "time": "3:45pm"}, {"days": "Sat", "time": "9:30am"}, {"days": "Sun", "time": "Closed"}], "id": "7482600000", "name": "USPS COLLECTION BOX - BLUE BOX", "address": {"city": "ASHER", "state": "OK", "street": "112 W MAIN ST", "postcode": "74826"}}},
{"geometry": {"type": "Point", "coordinates": [-96.9231834118, 34.9910007366]}, "type": "Feature", "properties": {"collection_times": [{"days": "Mon-Fri", "time": "12:30pm"}, {"days": "Sat", "time": "9:30am"}, {"days": "Sun", "time": "Closed"}], "id": "7482600002", "name": "USPS COLLECTION BOX - PO LOBBY", "address": {"city": "ASHER", "state": "OK", "street": "112 W MAIN ST", "postcode": "74826"}}},
{"geometry": {"type": "Point", "coordinates": [-96.9231834118, 34.9910007366]}, "type": "Feature", "properties": {"collection_times": [{"days": "Mon-Fri", "time": "12:30pm"}, {"days": "Sat", "time": "9:30am"}, {"days": "Sun", "time": "Closed"}], "id": "7482600003", "name": "USPS COLLECTION BOX - PO LOBBY", "address": {"city": "ASHER", "state": "OK", "street": "112 W MAIN ST", "postcode": "74826"}}},
{"geometry": {"type": "Point", "coordinates": [-96.348562831, 34.9211941751]}, "type": "Feature", "properties": {"collection_times": [{"days": "Mon-Fri", "time": "1:30pm"}, {"days": "Sat", "time": "10:00am"}, {"days": "Sun", "time": "Closed"}], "id": "7482700001", "name": "USPS COLLECTION BOX - PO LOBBY", "address": {"city": "ATWOOD", "state": "OK", "street": "321 HIGHWAY 1", "postcode": "74827"}}},
{"geometry": {"type": "Point", "coordinates": [-96.348562831, 34.9211941751]}, "type": "Feature", "properties": {"collection_times": [{"days": "Mon-Fri", "time": "1:30pm"}, {"days": "Sat", "time": "10:00am"}, {"days": "Sun", "time": "Closed"}], "id": "7482700002", "name": "USPS COLLECTION BOX - PO LOBBY", "address": {"city": "ATWOOD", "state": "OK", "street": "321 HIGHWAY 1", "postcode": "74827"}}},
{"geometry": {"type": "Point", "coordinates": [-96.4835902639, 35.4920067784]}, "type": "Feature", "properties": {"collection_times": [{"days": "Mon-Fri", "time": "3:15pm"}, {"days": "Sat", "time": "9:30am"}, {"days": "Sun", "time": "Closed"}], "id": "7482900000", "name": "USPS COLLECTION BOX - BLUE BOX", "address": {"city": "BOLEY", "state": "OK", "street": "122 S PECAN ST", "postcode": "74829"}}},
{"geometry": {"type": "Point", "coordinates": [-96.4835902639, 35.4920067784]}, "type": "Feature", "properties": {"collection_times": [{"days": "Mon-Fri", "time": "3:15pm"}, {"days": "Sat", "time": "9:30am"}, {"days": "Sun", "time": "Closed"}], "id": "7482900001", "name": "USPS COLLECTION BOX - PO LOBBY", "address": {"city": "BOLEY", "state": "OK", "street": "122 S PECAN ST", "postcode": "74829"}}},
{"geometry": {"type": "Point", "coordinates": [-96.670187355, 35.1483038178]}, "type": "Feature", "properties": {"collection_times": [{"days": "Mon-Fri", "time": "11:45am"}, {"days": "Sat", "time": "9:15am"}, {"days": "Sun", "time": "Closed"}], "id": "7483000000", "name": "USPS COLLECTION BOX - PO LOBBY", "address": {"city": "BOWLEGS", "state": "OK", "street": "126 S MAIN", "postcode": "74830"}}},
{"geometry": {"type": "Point", "coordinates": [-97.0528511398, 34.87449088]}, "type": "Feature", "properties": {"collection_times": [{"days": "Mon-Fri", "time": "11:45am"}, {"days": "Sat", "time": "8:30am"}, {"days": "Sun", "time": "Closed"}], "id": "7483100002", "name": "USPS COLLECTION BOX - PO LOBBY", "address": {"city": "BYARS", "state": "OK", "street": "252 E RIPLEY ST", "postcode": "74831"}}},
{"geometry": {"type": "Point", "coordinates": [-97.0528511398, 34.87449088]}, "type": "Feature", "properties": {"collection_times": [{"days": "Mon-Fri", "time": "11:45am"}, {"days": "Sat", "time": "8:30am"}, {"days": "Sun", "time": "Closed"}], "id": "7483100003", "name": "USPS COLLECTION BOX - PO LOBBY", "address": {"city": "BYARS", "state": "OK", "street": "252 E RIPLEY ST", "postcode": "74831"}}},
{"geometry": {"type": "Point", "coordinates": [-97.018438811, 35.8113813416]}, "type": "Feature", "properties": {"collection_times": [{"days": "Mon-Fri", "time": "11:00am"}, {"days": "Sat", "time": "9:30am"}, {"days": "Sun", "time": "Closed"}], "id": "7483200001", "name": "USPS COLLECTION BOX - PO LOBBY", "address": {"city": "CARNEY", "state": "OK", "street": "406 W SANTA FE ST", "postcode": "74832"}}},
{"geometry": {"type": "Point", "coordinates": [-97.018438811, 35.8113813416]}, "type": "Feature", "properties": {"collection_times": [{"days": "Mon-Fri", "time": "11:00am"}, {"days": "Sat", "time": "9:30am"}, {"days": "Sun", "time": "Closed"}], "id": "7483200002", "name": "USPS COLLECTION BOX - PO LOBBY", "address": {"city": "CARNEY", "state": "OK", "street": "406 W SANTA FE ST", "postcode": "74832"}}},
{"geometry": {"type": "Point", "coordinates": [-96.4133321573, 35.5705256039]}, "type": "Feature", "properties": {"collection_times": [{"days": "Mon-Fri", "time": "11:30am"}, {"days": "Sat", "time": "8:45am"}, {"days": "Sun", "time": "Closed"}], "id": "7483300001", "name": "USPS COLLECTION BOX - PO LOBBY", "address": {"city": "CASTLE", "state": "OK", "street": "401 MAIN ST", "postcode": "74833"}}},
{"geometry": {"type": "Point", "coordinates": [-96.8689613452, 35.7098515131]}, "type": "Feature", "properties": {"collection_times": [{"days": "Mon-Fri", "time": "1:45pm"}, {"days": "Sat", "time": "1:00pm"}, {"days": "Sun", "time": "Closed"}], "id": "7483400004", "name": "USPS COLLECTION BOX - BLUE BOX", "address": {"city": "CHANDLER", "state": "OK", "street": "1601 E 1ST ST", "postcode": "74834"}}},
{"geometry": {"type": "Point", "coordinates": [-96.8821163022, 35.7016039337]}, "type": "Feature", "properties": {"collection_times": [{"days": "Mon-Fri", "time": "4:15pm"}, {"days": "Sat", "time": "3:30pm"}, {"days": "Sun", "time": "Closed"}], "id": "7483400005", "name": "USPS COLLECTION BOX - BLUE BOX", "address": {"city": "CHANDLER", "state": "OK", "street": "903 STEELE AVE", "postcode": "74834"}}},
{"geometry": {"type": "Point", "coordinates": [-96.8810821405, 35.7015934953]}, "type": "Feature", "properties": {"collection_times": [{"days": "Mon-Fri", "time": "4:15pm"}, {"days": "Sat", "time": "3:30pm"}, {"days": "Sun", "time": "Closed"}], "id": "7483400007", "name": "USPS COLLECTION BOX - BLUE BOX", "address": {"city": "CHANDLER", "state": "OK", "street": "123 W 9TH ST", "postcode": "74834"}}},
{"geometry": {"type": "Point", "coordinates": [-96.8810821405, 35.7015934953]}, "type": "Feature", "properties": {"collection_times": [{"days": "Mon-Fri", "time": "4:30pm"}, {"days": "Sat", "time": "3:30pm"}, {"days": "Sun", "time": "Closed"}], "id": "7483400009", "name": "USPS COLLECTION BOX - PO LOBBY", "address": {"city": "CHANDLER", "state": "OK", "street": "123 W 9TH ST", "postcode": "74834"}}},
{"geometry": {"type": "Point", "coordinates": [-96.8810821405, 35.7015934953]}, "type": "Feature", "properties": {"collection_times": [{"days": "Mon-Fri", "time": "4:30pm"}, {"days": "Sat", "time": "3:30pm"}, {"days": "Sun", "time": "Closed"}], "id": "7483400010", "name": "USPS COLLECTION BOX - PO LOBBY", "address": {"city": "CHANDLER", "state": "OK", "street": "123 W 9TH ST", "postcode": "74834"}}},
{"geometry": {"type": "Point", "coordinates": [-96.8810821405, 35.7015934953]}, "type": "Feature", "properties": {"collection_times": [{"days": "Mon-Fri", "time": "4:30pm"}, {"days": "Sat", "time": "3:30pm"}, {"days": "Sun", "time": "Closed"}], "id": "7483400011", "name": "USPS COLLECTION BOX - PO LOBBY", "address": {"city": "CHANDLER", "state": "OK", "street": "123 W 9TH ST", "postcode": "74834"}}},
{"geometry": {"type": "Point", "coordinates": [-96.6359521194, 34.4484876352]}, "type": "Feature", "properties": {"collection_times": [{"days": "Mon-Fri", "time": "11:30am"}, {"days": "Sat", "time": "9:15am"}, {"days": "Sun", "time": "Closed"}], "id": "7483600001", "name": "USPS COLLECTION BOX - PO LOBBY", "address": {"city": "CONNERVILLE", "state": "OK", "street": "7121 N HIGHWAY 377", "postcode": "74836"}}},
{"geometry": {"type": "Point", "coordinates": [-96.4590246033, 35.348235264]}, "type": "Feature", "properties": {"collection_times": [{"days": "Mon-Fri", "time": "3:45pm"}, {"days": "Sat", "time": "8:45am"}, {"days": "Sun", "time": "Closed"}], "id": "7483700000", "name": "USPS COLLECTION BOX - BLUE BOX", "address": {"city": "CROMWELL", "state": "OK", "street": "104 N SHAWNEE AVE", "postcode": "74837"}}},
{"geometry": {"type": "Point", "coordinates": [-96.4590246033, 35.348235264]}, "type": "Feature", "properties": {"collection_times": [{"days": "Mon-Fri", "time": "12:00pm"}, {"days": "Sat", "time": "8:45am"}, {"days": "Sun", "time": "Closed"}], "id": "7483700001", "name": "USPS COLLECTION BOX - PO LOBBY", "address": {"city": "CROMWELL", "state": "OK", "street": "104 N SHAWNEE AVE", "postcode": "74837"}}},
{"geometry": {"type": "Point", "coordinates": [-96.0695036051, 35.2252165937]}, "type": "Feature", "properties": {"collection_times": [{"days": "Mon-Fri", "time": "12:00pm"}, {"days": "Sat", "time": "10:00am"}, {"days": "Sun", "time": "Closed"}], "id": "7483900001", "name": "USPS COLLECTION BOX - PO LOBBY", "address": {"city": "DUSTIN", "state": "OK", "street": "127 N BROADWAY ST", "postcode": "74839"}}},
{"geometry": {"type": "Point", "coordinates": [-96.0695036051, 35.2252165937]}, "type": "Feature", "properties": {"collection_times": [{"days": "Mon-Fri", "time": "12:00pm"}, {"days": "Sat", "time": "10:00am"}, {"days": "Sun", "time": "Closed"}], "id": "7483900002", "name": "USPS COLLECTION BOX - PO LOBBY", "address": {"city": "DUSTIN", "state": "OK", "street": "127 N BROADWAY ST", "postcode": "74839"}}},
{"geometry": {"type": "Point", "coordinates": [-96.8011745845, 35.2680276618]}, "type": "Feature", "properties": {"collection_times": [{"days": "Mon-Fri", "time": "3:45pm"}, {"days": "Sat", "time": "9:00am"}, {"days": "Sun", "time": "Closed"}], "id": "7484000000", "name": "USPS COLLECTION BOX - BLUE BOX", "address": {"city": "EARLSBORO", "state": "OK", "street": "220 W MAIN ST", "postcode": "74840"}}},
{"geometry": {"type": "Point", "coordinates": [-96.8011745845, 35.2680276618]}, "type": "Feature", "properties": {"collection_times": [{"days": "Mon-Fri", "time": "2:45pm"}, {"days": "Sat", "time": "9:00am"}, {"days": "Sun", "time": "Closed"}], "id": "7484000001", "name": "USPS COLLECTION BOX - PO LOBBY", "address": {"city": "EARLSBORO", "state": "OK", "street": "220 W MAIN ST", "postcode": "74840"}}},
{"geometry": {"type": "Point", "coordinates": [-96.8011745845, 35.2680276618]}, "type": "Feature", "properties": {"collection_times": [{"days": "Mon-Fri", "time": "2:45pm"}, {"days": "Sat", "time": "9:00am"}, {"days": "Sun", "time": "Closed"}], "id": "7484000002", "name": "USPS COLLECTION BOX - PO LOBBY", "address": {"city": "EARLSBORO", "state": "OK", "street": "220 W MAIN ST", "postcode": "74840"}}},
{"geometry": {"type": "Point", "coordinates": [-96.672672308, 34.6248212631]}, "type": "Feature", "properties": {"collection_times": [{"days": "Mon-Fri", "time": "1:45pm"}, {"days": "Sat", "time": "9:30am"}, {"days": "Sun", "time": "Closed"}], "id": "7484200001", "name": "USPS COLLECTION BOX - PO LOBBY", "address": {"city": "FITTSTOWN", "state": "OK", "street": "101 US HIGHWAY 377", "postcode": "74842"}}},
{"geometry": {"type": "Point", "coordinates": [-96.7668135229, 34.6589314696]}, "type": "Feature", "properties": {"collection_times": [{"days": "Mon-Sat", "time": "11:30am"}, {"days": "Sun", "time": "Closed"}], "id": "7484300000", "name": "USPS COLLECTION BOX - BLUE BOX", "address": {"city": "FITZHUGH", "state": "OK", "street": "100 E JACKSON", "postcode": "74843"}}},
{"geometry": {"type": "Point", "coordinates": [-96.770917976, 34.665181225]}, "type": "Feature", "properties": {"collection_times": [{"days": "Mon-Sat", "time": "11:30am"}, {"days": "Sun", "time": "Closed"}], "id": "7484300001", "name": "USPS COLLECTION BOX - PO LOBBY", "address": {"city": "FITZHUGH", "state": "OK", "street": "100 E JACKSON", "postcode": "74843"}}},
{"geometry": {"type": "Point", "coordinates": [-96.5952214598, 34.8736536911]}, "type": "Feature", "properties": {"collection_times": [{"days": "Mon-Fri", "time": "11:15am"}, {"days": "Sat", "time": "9:00am"}, {"days": "Sun", "time": "Closed"}], "id": "7484400000", "name": "USPS COLLECTION BOX - BLUE BOX", "address": {"city": "FRANCIS", "state": "OK", "street": "231 W MAIN ST", "postcode": "74844"}}},
{"geometry": {"type": "Point", "coordinates": [-96.5952214598, 34.8736536911]}, "type": "Feature", "properties": {"collection_times": [{"days": "Mon-Fri", "time": "11:15am"}, {"days": "Sat", "time": "9:00am"}, {"days": "Sun", "time": "Closed"}], "id": "7484400001", "name": "USPS COLLECTION BOX - PO LOBBY", "address": {"city": "FRANCIS", "state": "OK", "street": "231 W MAIN ST", "postcode": "74844"}}},
{"geometry": {"type": "Point", "coordinates": [-95.9249884575, 35.2066142555]}, "type": "Feature", "properties": {"collection_times": [{"days": "Mon-Fri", "time": "1:00pm"}, {"days": "Sat", "time": "10:15am"}, {"days": "Sun", "time": "Closed"}], "id": "7484500001", "name": "USPS COLLECTION BOX - PO LOBBY", "address": {"city": "HANNA", "state": "OK", "street": "105 S MAIN ST", "postcode": "74845"}}},
{"geometry": {"type": "Point", "coordinates": [-96.4006720128, 35.0836026948]}, "type": "Feature", "properties": {"collection_times": [{"days": "Mon-Fri", "time": "4:30pm"}, {"days": "Sat", "time": "3:30pm"}, {"days": "Sun", "time": "Closed"}], "id": "7484800001", "name": "USPS COLLECTION BOX - BLUE BOX", "address": {"city": "HOLDENVILLE", "state": "OK", "street": "123 W 7TH ST", "postcode": "74848"}}},
{"geometry": {"type": "Point", "coordinates": [-96.4006720128, 35.0836026948]}, "type": "Feature", "properties": {"collection_times": [{"days": "Mon-Fri", "time": "4:30pm"}, {"days": "Sat", "time": "3:30pm"}, {"days": "Sun", "time": "Closed"}], "id": "7484800002", "name": "USPS COLLECTION BOX - BLUE BOX", "address": {"city": "HOLDENVILLE", "state": "OK", "street": "123 W 7TH ST", "postcode": "74848"}}},
{"geometry": {"type": "Point", "coordinates": [-96.3861663195, 35.086744343]}, "type": "Feature", "properties": {"collection_times": [{"days": "Mon-Sat", "time": "11:45am"}, {"days": "Sun", "time": "Closed"}], "id": "7484800010", "name": "USPS COLLECTION BOX - BLUE BOX", "address": {"city": "HOLDENVILLE", "state": "OK", "street": "301 CRESTVIEW ST", "postcode": "74848"}}},
{"geometry": {"type": "Point", "coordinates": [-96.3861663195, 35.086744343]}, "type": "Feature", "properties": {"collection_times": [{"days": "Mon-Sat", "time": "11:45am"}, {"days": "Sun", "time": "Closed"}], "id": "7484800011", "name": "USPS COLLECTION BOX - BLUE BOX", "address": {"city": "HOLDENVILLE", "state": "OK", "street": "200 SURREY LN", "postcode": "74848"}}},
{"geometry": {"type": "Point", "coordinates": [-96.4006720128, 35.0836026948]}, "type": "Feature", "properties": {"collection_times": [{"days": "Mon-Fri", "time": "4:30pm"}, {"days": "Sat", "time": "3:30pm"}, {"days": "Sun", "time": "Closed"}], "id": "7484800012", "name": "USPS COLLECTION BOX - PO LOBBY", "address": {"city": "HOLDENVILLE", "state": "OK", "street": "123 W 7TH ST", "postcode": "74848"}}},
{"geometry": {"type": "Point", "coordinates": [-96.4006720128, 35.0836026948]}, "type": "Feature", "properties": {"collection_times": [{"days": "Mon-Fri", "time": "4:30pm"}, {"days": "Sat", "time": "3:30pm"}, {"days": "Sun", "time": "Closed"}], "id": "7484800013", "name": "USPS COLLECTION BOX - PO LOBBY", "address": {"city": "HOLDENVILLE", "state": "OK", "street": "123 W 7TH ST", "postcode": "74848"}}},
{"geometry": {"type": "Point", "coordinates": [-96.4006720128, 35.0836026948]}, "type": "Feature", "properties": {"collection_times": [{"days": "Mon-Fri", "time": "4:30pm"}, {"days": "Sat", "time": "3:30pm"}, {"days": "Sun", "time": "Closed"}], "id": "7484800014", "name": "USPS COLLECTION BOX - PO LOBBY", "address": {"city": "HOLDENVILLE", "state": "OK", "street": "123 W 7TH ST", "postcode": "74848"}}},
{"geometry": {"type": "Point", "coordinates": [-96.4006720128, 35.0836026948]}, "type": "Feature", "properties": {"collection_times": [{"days": "Mon-Fri", "time": "4:30pm"}, {"days": "Sat", "time": "3:30pm"}, {"days": "Sun", "time": "Closed"}], "id": "7484800015", "name": "USPS COLLECTION BOX - PO LOBBY", "address": {"city": "HOLDENVILLE", "state": "OK", "street": "123 W 7TH ST", "postcode": "74848"}}},
{"geometry": {"type": "Point", "coordinates": [-96.7521644131, 34.9573080056]}, "type": "Feature", "properties": {"collection_times": [{"days": "Mon-Fri", "time": "3:30pm"}, {"days": "Sat", "time": "10:30am"}, {"days": "Sun", "time": "Closed"}], "id": "7484900001", "name": "USPS COLLECTION BOX - PO LOBBY", "address": {"city": "KONAWA", "state": "OK", "street": "100 S BROADWAY ST", "postcode": "74849"}}},
{"geometry": {"type": "Point", "coordinates": [-97.0918565913, 35.4365805524]}, "type": "Feature", "properties": {"collection_times": [{"days": "Mon-Sat", "time": "1:00pm"}, {"days": "Sun", "time": "Closed"}], "id": "7485100000", "name": "USPS COLLECTION BOX - BLUE BOX", "address": {"city": "MCLOUD", "state": "OK", "street": "118 N MAIN ST", "postcode": "74851"}}},
{"geometry": {"type": "Point", "coordinates": [-97.09703595, 35.4259000009]}, "type": "Feature", "properties": {"collection_times": [{"days": "Mon-Fri", "time": "4:45pm"}, {"days": "Sat", "time": "10:00am"}, {"days": "Sun", "time": "Closed"}], "id": "7485100002", "name": "USPS COLLECTION BOX - BLUE BOX", "address": {"city": "MCLOUD", "state": "OK", "street": "700 S 8TH ST", "postcode": "74851"}}},
{"geometry": {"type": "Point", "coordinates": [-97.0453242758, 35.3886802315]}, "type": "Feature", "properties": {"collection_times": [{"days": "Mon-Sat", "time": "10:00am"}, {"days": "Sun", "time": "Closed"}], "id": "7485100004", "name": "USPS COLLECTION BOX - BLUE BOX", "address": {"city": "MCLOUD", "state": "OK", "street": "300 SMITH AVE", "postcode": "74851"}}},
{"geometry": {"type": "Point", "coordinates": [-97.09703595, 35.4259000009]}, "type": "Feature", "properties": {"collection_times": [{"days": "Mon-Fri", "time": "4:45pm"}, {"days": "Sat", "time": "10:00am"}, {"days": "Sun", "time": "Closed"}], "id": "7485100005", "name": "USPS COLLECTION BOX - PO LOBBY", "address": {"city": "MCLOUD", "state": "OK", "street": "700 S 8TH ST", "postcode": "74851"}}},
{"geometry": {"type": "Point", "coordinates": [-97.09703595, 35.4259000009]}, "type": "Feature", "properties": {"collection_times": [{"days": "Mon-Fri", "time": "4:45pm"}, {"days": "Sat", "time": "10:00am"}, {"days": "Sun", "time": "Closed"}], "id": "7485100006", "name": "USPS COLLECTION BOX - PO LOBBY", "address": {"city": "MCLOUD", "state": "OK", "street": "700 S 8TH ST", "postcode": "74851"}}},
{"geometry": {"type": "Point", "coordinates": [-97.09703595, 35.4259000009]}, "type": "Feature", "properties": {"collection_times": [{"days": "Mon-Fri", "time": "4:45pm"}, {"days": "Sat", "time": "10:00am"}, {"days": "Sun", "time": "Closed"}], "id": "7485100007", "name": "USPS COLLECTION BOX - PO LOBBY", "address": {"city": "MCLOUD", "state": "OK", "street": "700 S 8TH ST", "postcode": "74851"}}},
{"geometry": {"type": "Point", "coordinates": [-97.0100312312, 35.1462194171]}, "type": "Feature", "properties": {"collection_times": [{"days": "Mon-Fri", "time": "11:30am"}, {"days": "Sat", "time": "9:00am"}, {"days": "Sun", "time": "Closed"}], "id": "7485200001", "name": "USPS COLLECTION BOX - PO LOBBY", "address": {"city": "MACOMB", "state": "OK", "street": "36654 SECOND ST", "postcode": "74852"}}},
{"geometry": {"type": "Point", "coordinates": [-97.0100312312, 35.1462194171]}, "type": "Feature", "properties": {"collection_times": [{"days": "Mon-Fri", "time": "3:00pm"}, {"days": "Sat", "time": "9:00am"}, {"days": "Sun", "time": "Closed"}], "id": "7485200003", "name": "USPS COLLECTION BOX - BLUE BOX", "address": {"city": "MACOMB", "state": "OK", "street": "36654 SECOND ST", "postcode": "74852"}}},
{"geometry": {"type": "Point", "coordinates": [-96.7769845804, 35.1312103889]}, "type": "Feature", "properties": {"collection_times": [{"days": "Mon-Fri", "time": "3:00pm"}, {"days": "Sat", "time": "2:30pm"}, {"days": "Sun", "time": "Closed"}], "id": "7485400000", "name": "USPS COLLECTION BOX - BLUE BOX", "address": {"city": "MAUD", "state": "OK", "street": "201 W MAIN ST", "postcode": "74854"}}},
{"geometry": {"type": "Point", "coordinates": [-96.7769845804, 35.1312103889]}, "type": "Feature", "properties": {"collection_times": [{"days": "Mon-Fri", "time": "1:45pm"}, {"days": "Sat", "time": "2:30pm"}, {"days": "Sun", "time": "Closed"}], "id": "7485400001", "name": "USPS COLLECTION BOX - PO LOBBY", "address": {"city": "MAUD", "state": "OK", "street": "201 W MAIN ST", "postcode": "74854"}}},
{"geometry": {"type": "Point", "coordinates": [-96.9408383752, 35.5282302548]}, "type": "Feature", "properties": {"collection_times": [{"days": "Mon-Fri", "time": "4:30pm"}, {"days": "Sat", "time": "10:00am"}, {"days": "Sun", "time": "Closed"}], "id": "7485500000", "name": "USPS COLLECTION BOX - BLUE BOX", "address": {"city": "MEEKER", "state": "OK", "street": "220 W CARL HUBBELL BLVD", "postcode": "74855"}}},
{"geometry": {"type": "Point", "coordinates": [-96.9408383752, 35.5282302548]}, "type": "Feature", "properties": {"collection_times": [{"days": "Mon-Fri", "time": "4:30pm"}, {"days": "Sat", "time": "10:00am"}, {"days": "Sun", "time": "Closed"}], "id": "7485500001", "name": "USPS COLLECTION BOX - PO LOBBY", "address": {"city": "MEEKER", "state": "OK", "street": "220 W CARL HUBBELL BLVD", "postcode": "74855"}}},
{"geometry": {"type": "Point", "coordinates": [-96.9408383752, 35.5282302548]}, "type": "Feature", "properties": {"collection_times": [{"days": "Mon-Fri", "time": "4:30pm"}, {"days": "Sat", "time": "10:00am"}, {"days": "Sun", "time": "Closed"}], "id": "7485500002", "name": "USPS COLLECTION BOX - PO LOBBY", "address": {"city": "MEEKER", "state": "OK", "street": "220 W CARL HUBBELL BLVD", "postcode": "74855"}}},
{"geometry": {"type": "Point", "coordinates": [-96.8234243712, 34.4041917293]}, "type": "Feature", "properties": {"collection_times": [{"days": "Mon-Fri", "time": "4:00pm"}, {"days": "Sat", "time": "9:30am"}, {"days": "Sun", "time": "Closed"}], "id": "7485600000", "name": "USPS COLLECTION BOX - BLUE BOX", "address": {"city": "MILL CREEK", "state": "OK", "street": "100 W MAIN ST", "postcode": "74856"}}},
{"geometry": {"type": "Point", "coordinates": [-96.8234243712, 34.4041917293]}, "type": "Feature", "properties": {"collection_times": [{"days": "Mon-Fri", "time": "12:30pm"}, {"days": "Sat", "time": "9:30am"}, {"days": "Sun", "time": "Closed"}], "id": "7485600001", "name": "USPS COLLECTION BOX - PO LOBBY", "address": {"city": "MILL CREEK", "state": "OK", "street": "100 W MAIN ST", "postcode": "74856"}}},
{"geometry": {"type": "Point", "coordinates": [-96.8234243712, 34.4041917293]}, "type": "Feature", "properties": {"collection_times": [{"days": "Mon-Fri", "time": "12:30pm"}, {"days": "Sat", "time": "9:30am"}, {"days": "Sun", "time": "Closed"}], "id": "7485600002", "name": "USPS COLLECTION BOX - PO LOBBY", "address": {"city": "MILL CREEK", "state": "OK", "street": "100 W MAIN ST", "postcode": "74856"}}},
{"geometry": {"type": "Point", "coordinates": [-97.1596019307, 35.4070465849]}, "type": "Feature", "properties": {"collection_times": [{"days": "Mon-Fri", "time": "4:15pm"}, {"days": "Sat", "time": "10:00am"}, {"days": "Sun", "time": "Closed"}], "id": "7485700000", "name": "USPS COLLECTION BOX - BLUE BOX", "address": {"city": "NEWALLA", "state": "OK", "street": "5900 S HARRAH RD", "postcode": "74857"}}},
{"geometry": {"type": "Point", "coordinates": [-97.1596315134, 35.2922222619]}, "type": "Feature", "properties": {"collection_times": [{"days": "Mon-Sat", "time": "11:30am"}, {"days": "Sun", "time": "Closed"}], "id": "7485700001", "name": "USPS COLLECTION BOX - BLUE BOX", "address": {"city": "NEWALLA", "state": "OK", "street": "17805 S HARRAH RD", "postcode": "74857"}}},
{"geometry": {"type": "Point", "coordinates": [-97.1596019307, 35.4070465849]}, "type": "Feature", "properties": {"collection_times": [{"days": "Mon-Fri", "time": "4:30pm"}, {"days": "Sat", "time": "10:00am"}, {"days": "Sun", "time": "Closed"}], "id": "7485700002", "name": "USPS COLLECTION BOX - PO LOBBY", "address": {"city": "NEWALLA", "state": "OK", "street": "5900 S HARRAH RD", "postcode": "74857"}}},
{"geometry": {"type": "Point", "coordinates": [-97.1596019307, 35.4070465849]}, "type": "Feature", "properties": {"collection_times": [{"days": "Mon-Fri", "time": "4:30pm"}, {"days": "Sat", "time": "10:00am"}, {"days": "Sun", "time": "Closed"}], "id": "7485700003", "name": "USPS COLLECTION BOX - PO LOBBY", "address": {"city": "NEWALLA", "state": "OK", "street": "5900 S HARRAH RD", "postcode": "74857"}}},
{"geometry": {"type": "Point", "coordinates": [-96.3059660147, 35.4316513115]}, "type": "Feature", "properties": {"collection_times": [{"days": "Mon-Fri", "time": "4:15pm"}, {"days": "Sat", "time": "3:15pm"}, {"days": "Sun", "time": "Closed"}], "id": "7485900000", "name": "USPS COLLECTION BOX - BLUE BOX", "address": {"city": "OKEMAH", "state": "OK", "street": "110 N 5TH ST", "postcode": "74859"}}},
{"geometry": {"type": "Point", "coordinates": [-96.3059660147, 35.4316513115]}, "type": "Feature", "properties": {"collection_times": [{"days": "Mon-Fri", "time": "4:15pm"}, {"days": "Sat", "time": "3:15pm"}, {"days": "Sun", "time": "Closed"}], "id": "7485900001", "name": "USPS COLLECTION BOX - BLUE BOX", "address": {"city": "OKEMAH", "state": "OK", "street": "110 N 5TH ST", "postcode": "74859"}}},
{"geometry": {"type": "Point", "coordinates": [-96.3050272011, 35.4315871618]}, "type": "Feature", "properties": {"collection_times": [{"days": "Mon-Fri", "time": "4:15pm"}, {"days": "Sat", "time": "3:15pm"}, {"days": "Sun", "time": "Closed"}], "id": "7485900004", "name": "USPS COLLECTION BOX - PO LOBBY", "address": {"city": "OKEMAH", "state": "OK", "street": "418 W BROADWAY ST", "postcode": "74859"}}},
{"geometry": {"type": "Point", "coordinates": [-96.3050272011, 35.4315871618]}, "type": "Feature", "properties": {"collection_times": [{"days": "Mon-Fri", "time": "4:15pm"}, {"days": "Sat", "time": "3:15pm"}, {"days": "Sun", "time": "Closed"}], "id": "7485900005", "name": "USPS COLLECTION BOX - PO LOBBY", "address": {"city": "OKEMAH", "state": "OK", "street": "418 W BROADWAY ST", "postcode": "74859"}}},
{"geometry": {"type": "Point", "coordinates": [-96.5678117462, 35.5066632073]}, "type": "Feature", "properties": {"collection_times": [{"days": "Mon-Fri", "time": "3:45pm"}, {"days": "Sat", "time": "9:00am"}, {"days": "Sun", "time": "Closed"}], "id": "7486000000", "name": "USPS COLLECTION BOX - BLUE BOX", "address": {"city": "PADEN", "state": "OK", "street": "813 S MAIN ST", "postcode": "74860"}}},
{"geometry": {"type": "Point", "coordinates": [-96.5678117462, 35.5066632073]}, "type": "Feature", "properties": {"collection_times": [{"days": "Mon-Fri", "time": "1:45pm"}, {"days": "Sat", "time": "9:00am"}, {"days": "Sun", "time": "Closed"}], "id": "7486000001", "name": "USPS COLLECTION BOX - PO LOBBY", "address": {"city": "PADEN", "state": "OK", "street": "813 S MAIN ST", "postcode": "74860"}}},
{"geometry": {"type": "Point", "coordinates": [-96.5678117462, 35.5066632073]}, "type": "Feature", "properties": {"collection_times": [{"days": "Mon-Fri", "time": "1:45pm"}, {"days": "Sat", "time": "9:00am"}, {"days": "Sun", "time": "Closed"}], "id": "7486000002", "name": "USPS COLLECTION BOX - PO LOBBY", "address": {"city": "PADEN", "state": "OK", "street": "813 S MAIN ST", "postcode": "74860"}}},
{"geometry": {"type": "Point", "coordinates": [-96.6846294444, 35.4855710703]}, "type": "Feature", "properties": {"collection_times": [{"days": "Mon-Fri", "time": "4:00pm"}, {"days": "Sat", "time": "10:30am"}, {"days": "Sun", "time": "Closed"}], "id": "7486400000", "name": "USPS COLLECTION BOX - BLUE BOX", "address": {"city": "PRAGUE", "state": "OK", "street": "901 KLABZUBA AVE", "postcode": "74864"}}},
{"geometry": {"type": "Point", "coordinates": [-96.6904494769, 35.4856947028]}, "type": "Feature", "properties": {"collection_times": [{"days": "Mon-Fri", "time": "4:00pm"}, {"days": "Sat", "time": "10:30am"}, {"days": "Sun", "time": "Closed"}], "id": "7486400001", "name": "USPS COLLECTION BOX - PO LOBBY", "address": {"city": "PRAGUE", "state": "OK", "street": "804 9TH ST", "postcode": "74864"}}},
{"geometry": {"type": "Point", "coordinates": [-96.6904494769, 35.4856947028]}, "type": "Feature", "properties": {"collection_times": [{"days": "Mon-Fri", "time": "4:00pm"}, {"days": "Sat", "time": "10:30am"}, {"days": "Sun", "time": "Closed"}], "id": "7486400002", "name": "USPS COLLECTION BOX - PO LOBBY", "address": {"city": "PRAGUE", "state": "OK", "street": "804 9TH ST", "postcode": "74864"}}},
{"geometry": {"type": "Point", "coordinates": [-96.838474447, 34.627291368]}, "type": "Feature", "properties": {"collection_times": [{"days": "Mon-Fri", "time": "3:45pm"}, {"days": "Sat", "time": "9:00am"}, {"days": "Sun", "time": "Closed"}], "id": "7486500000", "name": "USPS COLLECTION BOX - BLUE BOX", "address": {"city": "ROFF", "state": "OK", "street": "204 W MAIN ST", "postcode": "74865"}}},
{"geometry": {"type": "Point", "coordinates": [-96.838474447, 34.627291368]}, "type": "Feature", "properties": {"collection_times": [{"days": "Mon-Fri", "time": "4:00pm"}, {"days": "Sat", "time": "9:00am"}, {"days": "Sun", "time": "Closed"}], "id": "7486500002", "name": "USPS COLLECTION BOX - PO LOBBY", "address": {"city": "ROFF", "state": "OK", "street": "204 W MAIN ST", "postcode": "74865"}}},
{"geometry": {"type": "Point", "coordinates": [-96.838474447, 34.627291368]}, "type": "Feature", "properties": {"collection_times": [{"days": "Mon-Fri", "time": "4:00pm"}, {"days": "Sat", "time": "9:00am"}, {"days": "Sun", "time": "Closed"}], "id": "7486500003", "name": "USPS COLLECTION BOX - PO LOBBY", "address": {"city": "ROFF", "state": "OK", "street": "204 W MAIN ST", "postcode": "74865"}}},
{"geometry": {"type": "Point", "coordinates": [-96.8618879371, 35.0724709537]}, "type": "Feature", "properties": {"collection_times": [{"days": "Mon-Fri", "time": "12:45pm"}, {"days": "Sat", "time": "8:45am"}, {"days": "Sun", "time": "Closed"}], "id": "7486600000", "name": "USPS COLLECTION BOX - BLUE BOX", "address": {"city": "ST LOUIS", "state": "OK", "street": "34000 SAINT LOUIS RD", "postcode": "74866"}}},
{"geometry": {"type": "Point", "coordinates": [-96.8591176628, 35.0724694177]}, "type": "Feature", "properties": {"collection_times": [{"days": "Mon-Fri", "time": "12:45pm"}, {"days": "Sat", "time": "8:45am"}, {"days": "Sun", "time": "Closed"}], "id": "7486600001", "name": "USPS COLLECTION BOX - PO LOBBY", "address": {"city": "ST LOUIS", "state": "OK", "street": "34000 ST. LOUIS RD", "postcode": "74866"}}},
{"geometry": {"type": "Point", "coordinates": [-96.8591176628, 35.0724694177]}, "type": "Feature", "properties": {"collection_times": [{"days": "Mon-Fri", "time": "12:45pm"}, {"days": "Sat", "time": "8:45am"}, {"days": "Sun", "time": "Closed"}], "id": "7486600002", "name": "USPS COLLECTION BOX - PO LOBBY", "address": {"city": "ST LOUIS", "state": "OK", "street": "34000 ST. LOUIS RD", "postcode": "74866"}}},
{"geometry": {"type": "Point", "coordinates": [-96.5429319038, 34.9512949264]}, "type": "Feature", "properties": {"collection_times": [{"days": "Mon-Fri", "time": "4:00pm"}, {"days": "Sat", "time": "10:00am"}, {"days": "Sun", "time": "Closed"}], "id": "7486700000", "name": "USPS COLLECTION BOX - BLUE BOX", "address": {"city": "SASAKWA", "state": "OK", "street": "1 OLIVE ST", "postcode": "74867"}}},
{"geometry": {"type": "Point", "coordinates": [-96.5429319038, 34.9512949264]}, "type": "Feature", "properties": {"collection_times": [{"days": "Mon-Fri", "time": "12:00pm"}, {"days": "Sat", "time": "10:00am"}, {"days": "Sun", "time": "Closed"}], "id": "7486700001", "name": "USPS COLLECTION BOX - PO LOBBY", "address": {"city": "SASAKWA", "state": "OK", "street": "1 OLIVE ST", "postcode": "74867"}}},
{"geometry": {"type": "Point", "coordinates": [-96.6708093733, 35.22555566]}, "type": "Feature", "properties": {"collection_times": [{"days": "Mon-Fri", "time": "4:30pm"}, {"days": "Sat", "time": "2:00pm"}, {"days": "Sun", "time": "Closed"}], "id": "7486800008", "name": "USPS COLLECTION BOX - BLUE BOX", "address": {"city": "SEMINOLE", "state": "OK", "street": "120 E OAK AVE", "postcode": "74868"}}},
{"geometry": {"type": "Point", "coordinates": [-96.6708093733, 35.22555566]}, "type": "Feature", "properties": {"collection_times": [{"days": "Mon-Fri", "time": "4:30pm"}, {"days": "Sat", "time": "2:00pm"}, {"days": "Sun", "time": "Closed"}], "id": "7486800013", "name": "USPS COLLECTION BOX - PO LOBBY", "address": {"city": "SEMINOLE", "state": "OK", "street": "120 E OAK AVE", "postcode": "74868"}}},
{"geometry": {"type": "Point", "coordinates": [-96.803815027, 35.630089174]}, "type": "Feature", "properties": {"collection_times": [{"days": "Mon-Fri", "time": "2:30pm"}, {"days": "Sat", "time": "11:00am"}, {"days": "Sun", "time": "Closed"}], "id": "7486900000", "name": "USPS COLLECTION BOX - BLUE BOX", "address": {"city": "SPARKS", "state": "OK", "street": "316 BROADWAY ST", "postcode": "74869"}}},
{"geometry": {"type": "Point", "coordinates": [-96.803815027, 35.630089174]}, "type": "Feature", "properties": {"collection_times": [{"days": "Mon-Fri", "time": "2:30pm"}, {"days": "Sat", "time": "11:00am"}, {"days": "Sun", "time": "Closed"}], "id": "7486900001", "name": "USPS COLLECTION BOX - PO LOBBY", "address": {"city": "SPARKS", "state": "OK", "street": "316 BROADWAY ST", "postcode": "74869"}}},
{"geometry": {"type": "Point", "coordinates": [-96.5438753051, 34.6487373372]}, "type": "Feature", "properties": {"collection_times": [{"days": "Mon-Fri", "time": "4:00pm"}, {"days": "Sat", "time": "12:30pm"}, {"days": "Sun", "time": "Closed"}], "id": "7487100000", "name": "USPS COLLECTION BOX - BLUE BOX", "address": {"city": "STONEWALL", "state": "OK", "street": "124 W MAIN ST", "postcode": "74871"}}},
{"geometry": {"type": "Point", "coordinates": [-96.5438753051, 34.6487373372]}, "type": "Feature", "properties": {"collection_times": [{"days": "Mon-Fri", "time": "4:00pm"}, {"days": "Sat", "time": "12:30pm"}, {"days": "Sun", "time": "Closed"}], "id": "7487100001", "name": "USPS COLLECTION BOX - PO LOBBY", "address": {"city": "STONEWALL", "state": "OK", "street": "124 W MAIN ST", "postcode": "74871"}}},
{"geometry": {"type": "Point", "coordinates": [-96.5438753051, 34.6487373372]}, "type": "Feature", "properties": {"collection_times": [{"days": "Mon-Fri", "time": "4:00pm"}, {"days": "Sat", "time": "12:30pm"}, {"days": "Sun", "time": "Closed"}], "id": "7487100002", "name": "USPS COLLECTION BOX - PO LOBBY", "address": {"city": "STONEWALL", "state": "OK", "street": "124 W MAIN ST", "postcode": "74871"}}},
{"geometry": {"type": "Point", "coordinates": [-96.9619864205, 34.7956555744]}, "type": "Feature", "properties": {"collection_times": [{"days": "Mon-Fri", "time": "4:00pm"}, {"days": "Sat", "time": "10:30am"}, {"days": "Sun", "time": "Closed"}], "id": "7487200001", "name": "USPS COLLECTION BOX - BLUE BOX", "address": {"city": "STRATFORD", "state": "OK", "street": "116 E MAIN ST", "postcode": "74872"}}},
{"geometry": {"type": "Point", "coordinates": [-96.9619864205, 34.7956555744]}, "type": "Feature", "properties": {"collection_times": [{"days": "Mon-Fri", "time": "4:00pm"}, {"days": "Sat", "time": "10:30am"}, {"days": "Sun", "time": "Closed"}], "id": "7487200003", "name": "USPS COLLECTION BOX - PO LOBBY", "address": {"city": "STRATFORD", "state": "OK", "street": "116 E MAIN ST", "postcode": "74872"}}},
{"geometry": {"type": "Point", "coordinates": [-96.9619864205, 34.7956555744]}, "type": "Feature", "properties": {"collection_times": [{"days": "Mon-Fri", "time": "4:00pm"}, {"days": "Sat", "time": "10:30am"}, {"days": "Sun", "time": "Closed"}], "id": "7487200004", "name": "USPS COLLECTION BOX - PO LOBBY", "address": {"city": "STRATFORD", "state": "OK", "street": "116 E MAIN ST", "postcode": "74872"}}},
{"geometry": {"type": "Point", "coordinates": [-96.937040293, 35.2586767891]}, "type": "Feature", "properties": {"collection_times": [{"days": "Mon-Fri", "time": "4:30pm"}, {"days": "Sat", "time": "2:00pm"}, {"days": "Sun", "time": "Closed"}], "id": "7487300003", "name": "USPS COLLECTION BOX - BLUE BOX", "address": {"city": "TECUMSEH", "state": "OK", "street": "116 W PARK ST", "postcode": "74873"}}},
{"geometry": {"type": "Point", "coordinates": [-96.9432737685, 35.2506220492]}, "type": "Feature", "properties": {"collection_times": [{"days": "Mon-Sat", "time": "12:00pm"}, {"days": "Sun", "time": "Closed"}], "id": "7487300009", "name": "USPS COLLECTION BOX - BLUE BOX", "address": {"city": "TECUMSEH", "state": "OK", "street": "700 S 9TH ST", "postcode": "74873"}}},
{"geometry": {"type": "Point", "coordinates": [-96.937040293, 35.2586767891]}, "type": "Feature", "properties": {"collection_times": [{"days": "Mon-Fri", "time": "4:30pm"}, {"days": "Sat", "time": "11:00am"}, {"days": "Sun", "time": "Closed"}], "id": "7487300010", "name": "USPS COLLECTION BOX - PO LOBBY", "address": {"city": "TECUMSEH", "state": "OK", "street": "116 W PARK ST", "postcode": "74873"}}},
{"geometry": {"type": "Point", "coordinates": [-96.937040293, 35.2586767891]}, "type": "Feature", "properties": {"collection_times": [{"days": "Mon-Fri", "time": "4:30pm"}, {"days": "Sat", "time": "11:00am"}, {"days": "Sun", "time": "Closed"}], "id": "7487300011", "name": "USPS COLLECTION BOX - PO LOBBY", "address": {"city": "TECUMSEH", "state": "OK", "street": "116 W PARK ST", "postcode": "74873"}}},
{"geometry": {"type": "Point", "coordinates": [-96.937040293, 35.2586767891]}, "type": "Feature", "properties": {"collection_times": [{"days": "Mon-Fri", "time": "4:30pm"}, {"days": "Sat", "time": "2:00pm"}, {"days": "Sun", "time": "Closed"}], "id": "7487300012", "name": "USPS COLLECTION BOX - BLUE BOX", "address": {"city": "TECUMSEH", "state": "OK", "street": "116 W PARK ST", "postcode": "74873"}}},
{"geometry": {"type": "Point", "coordinates": [-97.0924176658, 35.8624642459]}, "type": "Feature", "properties": {"collection_times": [{"days": "Mon-Fri", "time": "1:15pm"}, {"days": "Sat", "time": "10:00am"}, {"days": "Sun", "time": "Closed"}], "id": "7487500000", "name": "USPS COLLECTION BOX - BLUE BOX", "address": {"city": "TRYON", "state": "OK", "street": "10 S OKLAHOMA ST", "postcode": "74875"}}},
{"geometry": {"type": "Point", "coordinates": [-97.0924176658, 35.8624642459]}, "type": "Feature", "properties": {"collection_times": [{"days": "Mon-Fri", "time": "1:15pm"}, {"days": "Sat", "time": "10:00am"}, {"days": "Sun", "time": "Closed"}], "id": "7487500001", "name": "USPS COLLECTION BOX - PO LOBBY", "address": {"city": "TRYON", "state": "OK", "street": "10 S OKLAHOMA ST", "postcode": "74875"}}},
{"geometry": {"type": "Point", "coordinates": [-97.0924176658, 35.8624642459]}, "type": "Feature", "properties": {"collection_times": [{"days": "Mon-Fri", "time": "1:15pm"}, {"days": "Sat", "time": "10:00am"}, {"days": "Sun", "time": "Closed"}], "id": "7487500002", "name": "USPS COLLECTION BOX - PO LOBBY", "address": {"city": "TRYON", "state": "OK", "street": "10 S OKLAHOMA ST", "postcode": "74875"}}},
{"geometry": {"type": "Point", "coordinates": [-97.032901022, 34.9622762321]}, "type": "Feature", "properties": {"collection_times": [{"days": "Mon-Fri", "time": "3:30pm"}, {"days": "Sat", "time": "9:30am"}, {"days": "Sun", "time": "Closed"}], "id": "7487800000", "name": "USPS COLLECTION BOX - BLUE BOX", "address": {"city": "WANETTE", "state": "OK", "street": "112 E MAIN ST", "postcode": "74878"}}},
{"geometry": {"type": "Point", "coordinates": [-97.032901022, 34.9622762321]}, "type": "Feature", "properties": {"collection_times": [{"days": "Mon-Fri", "time": "3:30pm"}, {"days": "Sat", "time": "9:30am"}, {"days": "Sun", "time": "Closed"}], "id": "7487800001", "name": "USPS COLLECTION BOX - PO LOBBY", "address": {"city": "WANETTE", "state": "OK", "street": "112 E MAIN ST", "postcode": "74878"}}},
{"geometry": {"type": "Point", "coordinates": [-97.032901022, 34.9622762321]}, "type": "Feature", "properties": {"collection_times": [{"days": "Mon-Fri", "time": "3:30pm"}, {"days": "Sat", "time": "9:30am"}, {"days": "Sun", "time": "Closed"}], "id": "7487800002", "name": "USPS COLLECTION BOX - PO LOBBY", "address": {"city": "WANETTE", "state": "OK", "street": "112 E MAIN ST", "postcode": "74878"}}},
{"geometry": {"type": "Point", "coordinates": [-96.1394680558, 35.3354596913]}, "type": "Feature", "properties": {"collection_times": [{"days": "Mon-Fri", "time": "4:00pm"}, {"days": "Sat", "time": "9:45am"}, {"days": "Sun", "time": "Closed"}], "id": "7488000000", "name": "USPS COLLECTION BOX - BLUE BOX", "address": {"city": "WELEETKA", "state": "OK", "street": "212 W 9TH ST", "postcode": "74880"}}},
{"geometry": {"type": "Point", "coordinates": [-96.1394680558, 35.3354596913]}, "type": "Feature", "properties": {"collection_times": [{"days": "Mon-Fri", "time": "4:00pm"}, {"days": "Sat", "time": "9:45am"}, {"days": "Sun", "time": "Closed"}], "id": "7488000003", "name": "USPS COLLECTION BOX - PO LOBBY", "address": {"city": "WELEETKA", "state": "OK", "street": "212 W 9TH ST", "postcode": "74880"}}},
{"geometry": {"type": "Point", "coordinates": [-96.1394680558, 35.3354596913]}, "type": "Feature", "properties": {"collection_times": [{"days": "Mon-Fri", "time": "4:00pm"}, {"days": "Sat", "time": "9:45am"}, {"days": "Sun", "time": "Closed"}], "id": "7488000005", "name": "USPS COLLECTION BOX - PO LOBBY", "address": {"city": "WELEETKA", "state": "OK", "street": "212 W 9TH ST", "postcode": "74880"}}},
{"geometry": {"type": "Point", "coordinates": [-97.0462208411, 35.6808111989]}, "type": "Feature", "properties": {"collection_times": [{"days": "Mon-Fri", "time": "4:00pm"}, {"days": "Sat", "time": "10:00am"}, {"days": "Sun", "time": "Closed"}], "id": "7488100000", "name": "USPS COLLECTION BOX - BLUE BOX", "address": {"city": "WELLSTON", "state": "OK", "street": "401 2ND ST", "postcode": "74881"}}},
{"geometry": {"type": "Point", "coordinates": [-97.0462208411, 35.6808111989]}, "type": "Feature", "properties": {"collection_times": [{"days": "Mon-Fri", "time": "4:00pm"}, {"days": "Sat", "time": "10:00am"}, {"days": "Sun", "time": "Closed"}], "id": "7488100001", "name": "USPS COLLECTION BOX - PO LOBBY", "address": {"city": "WELLSTON", "state": "OK", "street": "401 2ND ST", "postcode": "74881"}}},
{"geometry": {"type": "Point", "coordinates": [-97.0462208411, 35.6808111989]}, "type": "Feature", "properties": {"collection_times": [{"days": "Mon-Fri", "time": "4:00pm"}, {"days": "Sat", "time": "10:00am"}, {"days": "Sun", "time": "Closed"}], "id": "7488100002", "name": "USPS COLLECTION BOX - PO LOBBY", "address": {"city": "WELLSTON", "state": "OK", "street": "401 2ND ST", "postcode": "74881"}}},
{"geometry": {"type": "Point", "coordinates": [-96.2415486473, 35.2373737577]}, "type": "Feature", "properties": {"collection_times": [{"days": "Mon-Fri", "time": "3:30pm"}, {"days": "Sat", "time": "9:30am"}, {"days": "Sun", "time": "Closed"}], "id": "7488300000", "name": "USPS COLLECTION BOX - BLUE BOX", "address": {"city": "WETUMKA", "state": "OK", "street": "119 N MAIN ST", "postcode": "74883"}}},
{"geometry": {"type": "Point", "coordinates": [-96.2415486473, 35.2373737577]}, "type": "Feature", "properties": {"collection_times": [{"days": "Mon-Fri", "time": "3:30pm"}, {"days": "Sat", "time": "9:30am"}, {"days": "Sun", "time": "Closed"}], "id": "7488300003", "name": "USPS COLLECTION BOX - PO LOBBY", "address": {"city": "WETUMKA", "state": "OK", "street": "119 N MAIN ST", "postcode": "74883"}}},
{"geometry": {"type": "Point", "coordinates": [-96.2415486473, 35.2373737577]}, "type": "Feature", "properties": {"collection_times": [{"days": "Mon-Fri", "time": "3:30pm"}, {"days": "Sat", "time": "9:30am"}, {"days": "Sun", "time": "Closed"}], "id": "7488300004", "name": "USPS COLLECTION BOX - PO LOBBY", "address": {"city": "WETUMKA", "state": "OK", "street": "119 N MAIN ST", "postcode": "74883"}}},
{"geometry": {"type": "Point", "coordinates": [-96.4917614209, 35.157651658]}, "type": "Feature", "properties": {"collection_times": [{"days": "Mon-Fri", "time": "4:45pm"}, {"days": "Sat", "time": "10:00am"}, {"days": "Sun", "time": "Closed"}], "id": "7488400001", "name": "USPS COLLECTION BOX - BLUE BOX", "address": {"city": "WEWOKA", "state": "OK", "street": "115 W 2ND ST", "postcode": "74884"}}},
{"geometry": {"type": "Point", "coordinates": [-96.4917614209, 35.157651658]}, "type": "Feature", "properties": {"collection_times": [{"days": "Mon-Fri", "time": "4:45pm"}, {"days": "Sat", "time": "10:00am"}, {"days": "Sun", "time": "Closed"}], "id": "7488400002", "name": "USPS COLLECTION BOX - BLUE BOX", "address": {"city": "WEWOKA", "state": "OK", "street": "115 W 2ND ST", "postcode": "74884"}}},
{"geometry": {"type": "Point", "coordinates": [-96.4917614209, 35.157651658]}, "type": "Feature", "properties": {"collection_times": [{"days": "Mon-Fri", "time": "4:45pm"}, {"days": "Sat", "time": "10:00am"}, {"days": "Sun", "time": "Closed"}], "id": "7488400003", "name": "USPS COLLECTION BOX - PO LOBBY", "address": {"city": "WEWOKA", "state": "OK", "street": "115 W 2ND ST", "postcode": "74884"}}},
{"geometry": {"type": "Point", "coordinates": [-96.4917614209, 35.157651658]}, "type": "Feature", "properties": {"collection_times": [{"days": "Mon-Fri", "time": "4:45pm"}, {"days": "Sat", "time": "10:00am"}, {"days": "Sun", "time": "Closed"}], "id": "7488400004", "name": "USPS COLLECTION BOX - PO LOBBY", "address": {"city": "WEWOKA", "state": "OK", "street": "115 W 2ND ST", "postcode": "74884"}}}
]}
