{"type": "FeatureCollection", "features": [
{"geometry": {"type": "Point", "coordinates": [-94.4350713018, 35.3532909143]}, "type": "Feature", "properties": {"collection_times": [{"days": "Mon-Fri", "time": "4:00pm"}, {"days": "Sat", "time": "11:00am"}, {"days": "Sun", "time": "Closed"}], "id": "7490100000", "name": "USPS COLLECTION BOX - BLUE BOX", "address": {"city": "ARKOMA", "state": "OK", "street": "308 SICARD AVE", "postcode": "74901"}}},
{"geometry": {"type": "Point", "coordinates": [-94.4350713018, 35.3532909143]}, "type": "Feature", "properties": {"collection_times": [{"days": "Mon-Fri", "time": "4:30pm"}, {"days": "Sat", "time": "11:00am"}, {"days": "Sun", "time": "Closed"}], "id": "7490100001", "name": "USPS COLLECTION BOX - PO LOBBY", "address": {"city": "ARKOMA", "state": "OK", "street": "308 SICARD AVE", "postcode": "74901"}}},
{"geometry": {"type": "Point", "coordinates": [-94.4350713018, 35.3532909143]}, "type": "Feature", "properties": {"collection_times": [{"days": "Mon-Fri", "time": "4:30pm"}, {"days": "Sat", "time": "11:00am"}, {"days": "Sun", "time": "Closed"}], "id": "7490100002", "name": "USPS COLLECTION BOX - PO LOBBY", "address": {"city": "ARKOMA", "state": "OK", "street": "308 SICARD AVE", "postcode": "74901"}}},
{"geometry": {"type": "Point", "coordinates": [-94.4779857803, 35.2556872745]}, "type": "Feature", "properties": {"collection_times": [{"days": "Mon-Fri", "time": "4:15pm"}, {"days": "Sat", "time": "10:00am"}, {"days": "Sun", "time": "Closed"}], "id": "7490200000", "name": "USPS COLLECTION BOX - BLUE BOX", "address": {"city": "POCOLA", "state": "OK", "street": "101 E VICTOR LN", "postcode": "74902"}}},
{"geometry": {"type": "Point", "coordinates": [-94.4779857803, 35.2556872745]}, "type": "Feature", "properties": {"collection_times": [{"days": "Mon-Fri", "time": "4:30pm"}, {"days": "Sat", "time": "10:00am"}, {"days": "Sun", "time": "Closed"}], "id": "7490200002", "name": "USPS COLLECTION BOX - PO LOBBY", "address": {"city": "POCOLA", "state": "OK", "street": "101 E VICTOR LN", "postcode": "74902"}}},
{"geometry": {"type": "Point", "coordinates": [-94.4779857803, 35.2556872745]}, "type": "Feature", "properties": {"collection_times": [{"days": "Mon-Fri", "time": "4:30pm"}, {"days": "Sat", "time": "10:00am"}, {"days": "Sun", "time": "Closed"}], "id": "7490200003", "name": "USPS COLLECTION BOX - PO LOBBY", "address": {"city": "POCOLA", "state": "OK", "street": "101 E VICTOR LN", "postcode": "74902"}}},
{"geometry": {"type": "Point", "coordinates": [-94.4779857803, 35.2556872745]}, "type": "Feature", "properties": {"collection_times": [{"days": "Mon-Fri", "time": "4:30pm"}, {"days": "Sat", "time": "10:00am"}, {"days": "Sun", "time": "Closed"}], "id": "7490200004", "name": "USPS COLLECTION BOX - PO LOBBY", "address": {"city": "POCOLA", "state": "OK", "street": "101 E VICTOR LN", "postcode": "74902"}}},
{"geometry": {"type": "Point", "coordinates": [-94.7450794676, 35.1816305269]}, "type": "Feature", "properties": {"collection_times": [{"days": "Mon-Fri", "time": "3:15pm"}, {"days": "Sat", "time": "10:15am"}, {"days": "Sun", "time": "Closed"}], "id": "7493000000", "name": "USPS COLLECTION BOX - BLUE BOX", "address": {"city": "BOKOSHE", "state": "OK", "street": "100 HIGHWAY 31", "postcode": "74930"}}},
{"geometry": {"type": "Point", "coordinates": [-94.7450794676, 35.1816305269]}, "type": "Feature", "properties": {"collection_times": [{"days": "Mon-Fri", "time": "2:45pm"}, {"days": "Sat", "time": "10:15am"}, {"days": "Sun", "time": "Closed"}], "id": "7493000001", "name": "USPS COLLECTION BOX - PO LOBBY", "address": {"city": "BOKOSHE", "state": "OK", "street": "100 HIGHWAY 31", "postcode": "74930"}}},
{"geometry": {"type": "Point", "coordinates": [-94.7702894431, 35.1887109353]}, "type": "Feature", "properties": {"collection_times": [{"days": "Mon-Fri", "time": "2:45pm"}, {"days": "Sat", "time": "10:15am"}, {"days": "Sun", "time": "Closed"}], "id": "7493000002", "name": "USPS COLLECTION BOX - PO LOBBY", "address": {"city": "BOKOSHE", "state": "OK", "street": "100 HIGHWAY 31", "postcode": "74930"}}},
{"geometry": {"type": "Point", "coordinates": [-94.7424122602, 35.7180854937]}, "type": "Feature", "properties": {"collection_times": [{"days": "Mon-Fri", "time": "1:00pm"}, {"days": "Sat", "time": "10:45am"}, {"days": "Sun", "time": "Closed"}], "id": "7493100000", "name": "USPS COLLECTION BOX - BLUE BOX", "address": {"city": "BUNCH", "state": "OK", "street": "3 E MAIN ST", "postcode": "74931"}}},
{"geometry": {"type": "Point", "coordinates": [-94.7424122602, 35.7180854937]}, "type": "Feature", "properties": {"collection_times": [{"days": "Mon-Fri", "time": "1:00pm"}, {"days": "Sat", "time": "10:45am"}, {"days": "Sun", "time": "Closed"}], "id": "7493100001", "name": "USPS COLLECTION BOX - PO LOBBY", "address": {"city": "BUNCH", "state": "OK", "street": "3 E MAIN ST", "postcode": "74931"}}},
{"geometry": {"type": "Point", "coordinates": [-94.7424122602, 35.7180854937]}, "type": "Feature", "properties": {"collection_times": [{"days": "Mon-Fri", "time": "1:00pm"}, {"days": "Sat", "time": "10:45am"}, {"days": "Sun", "time": "Closed"}], "id": "7493100002", "name": "USPS COLLECTION BOX - PO LOBBY", "address": {"city": "BUNCH", "state": "OK", "street": "3 E MAIN ST", "postcode": "74931"}}},
{"geometry": {"type": "Point", "coordinates": [-94.5362109948, 35.1345665227]}, "type": "Feature", "properties": {"collection_times": [{"days": "Mon-Fri", "time": "4:00pm"}, {"days": "Sat", "time": "10:00am"}, {"days": "Sun", "time": "Closed"}], "id": "7493200000", "name": "USPS COLLECTION BOX - BLUE BOX", "address": {"city": "CAMERON", "state": "OK", "street": "15818 CHURCH ST", "postcode": "74932"}}},
{"geometry": {"type": "Point", "coordinates": [-94.5362109948, 35.1345665227]}, "type": "Feature", "properties": {"collection_times": [{"days": "Mon-Fri", "time": "1:45pm"}, {"days": "Sat", "time": "10:00am"}, {"days": "Sun", "time": "Closed"}], "id": "7493200001", "name": "USPS COLLECTION BOX - PO LOBBY", "address": {"city": "CAMERON", "state": "OK", "street": "15818 CHURCH ST", "postcode": "74932"}}},
{"geometry": {"type": "Point", "coordinates": [-94.5362109948, 35.1345665227]}, "type": "Feature", "properties": {"collection_times": [{"days": "Mon-Fri", "time": "1:45pm"}, {"days": "Sat", "time": "10:00am"}, {"days": "Sun", "time": "Closed"}], "id": "7493200002", "name": "USPS COLLECTION BOX - PO LOBBY", "address": {"city": "CAMERON", "state": "OK", "street": "15818 CHURCH ST", "postcode": "74932"}}},
{"geometry": {"type": "Point", "coordinates": [-94.9085915376, 34.949837201]}, "type": "Feature", "properties": {"collection_times": [{"days": "Mon-Sat", "time": "10:00am"}, {"days": "Sun", "time": "Closed"}], "id": "7493500000", "name": "USPS COLLECTION BOX - PO LOBBY", "address": {"city": "FANSHAWE", "state": "OK", "street": "36968 US HIGHWAY 270", "postcode": "74935"}}},
{"geometry": {"type": "Point", "coordinates": [-94.6897153441, 35.3975762859]}, "type": "Feature", "properties": {"collection_times": [{"days": "Mon-Fri", "time": "4:00pm"}, {"days": "Sat", "time": "10:00am"}, {"days": "Sun", "time": "Closed"}], "id": "7493600000", "name": "USPS COLLECTION BOX - BLUE BOX", "address": {"city": "GANS", "state": "OK", "street": "100 S STACY AVE", "postcode": "74936"}}},
{"geometry": {"type": "Point", "coordinates": [-94.6897153441, 35.3975762859]}, "type": "Feature", "properties": {"collection_times": [{"days": "Mon-Fri", "time": "12:00pm"}, {"days": "Sat", "time": "10:00am"}, {"days": "Sun", "time": "Closed"}], "id": "7493600001", "name": "USPS COLLECTION BOX - PO LOBBY", "address": {"city": "GANS", "state": "OK", "street": "100 S STACY AVE", "postcode": "74936"}}},
{"geometry": {"type": "Point", "coordinates": [-94.6897153441, 35.3975762859]}, "type": "Feature", "properties": {"collection_times": [{"days": "Mon-Fri", "time": "12:00pm"}, {"days": "Sat", "time": "10:00am"}, {"days": "Sun", "time": "Closed"}], "id": "7493600002", "name": "USPS COLLECTION BOX - PO LOBBY", "address": {"city": "GANS", "state": "OK", "street": "100 S STACY AVE", "postcode": "74936"}}},
{"geometry": {"type": "Point", "coordinates": [-94.6019918379, 34.8905397786]}, "type": "Feature", "properties": {"collection_times": [{"days": "Mon-Fri", "time": "4:00pm"}, {"days": "Sat", "time": "11:00am"}, {"days": "Sun", "time": "Closed"}], "id": "7493700006", "name": "USPS COLLECTION BOX - BLUE BOX", "address": {"city": "HEAVENER", "state": "OK", "street": "301 MAIN ST", "postcode": "74937"}}},
{"geometry": {"type": "Point", "coordinates": [-94.6019918379, 34.8905397786]}, "type": "Feature", "properties": {"collection_times": [{"days": "Mon-Fri", "time": "4:00pm"}, {"days": "Sat", "time": "11:00am"}, {"days": "Sun", "time": "Closed"}], "id": "7493700008", "name": "USPS COLLECTION BOX - PO LOBBY", "address": {"city": "HEAVENER", "state": "OK", "street": "301 MAIN ST", "postcode": "74937"}}},
{"geometry": {"type": "Point", "coordinates": [-94.6019918379, 34.8905397786]}, "type": "Feature", "properties": {"collection_times": [{"days": "Mon-Fri", "time": "4:00pm"}, {"days": "Sat", "time": "11:00am"}, {"days": "Sun", "time": "Closed"}], "id": "7493700009", "name": "USPS COLLECTION BOX - PO LOBBY", "address": {"city": "HEAVENER", "state": "OK", "street": "301 MAIN ST", "postcode": "74937"}}},
{"geometry": {"type": "Point", "coordinates": [-94.5600644494, 34.7630735903]}, "type": "Feature", "properties": {"collection_times": [{"days": "Mon-Fri", "time": "11:00am"}, {"days": "Sat", "time": "10:00am"}, {"days": "Sun", "time": "Closed"}], "id": "7493900001", "name": "USPS COLLECTION BOX - PO LOBBY", "address": {"city": "HODGEN", "state": "OK", "street": "47061 US HIGHWAY 59", "postcode": "74939"}}},
{"geometry": {"type": "Point", "coordinates": [-97.5085968103, 35.5826863005]}, "type": "Feature", "properties": {"collection_times": [{"days": "Mon-Fri", "time": "10:00am"}, {"days": "Sat-Sun", "time": "Closed"}], "id": "7494000001", "name": "USPS COLLECTION BOX - BLUE BOX", "address": {"city": "HOWE", "state": "OK", "street": "39124 1/2 CEDAR ST", "postcode": "74940"}}},
{"geometry": {"type": "Point", "coordinates": [-94.683907175, 34.9226078562]}, "type": "Feature", "properties": {"collection_times": [{"days": "Mon-Fri", "time": "3:30pm"}, {"days": "Sat", "time": "12:00pm"}, {"days": "Sun", "time": "Closed"}], "id": "7494000002", "name": "USPS COLLECTION BOX - PO LOBBY", "address": {"city": "HOWE", "state": "OK", "street": "21525 W MAIN ST", "postcode": "74940"}}},
{"geometry": {"type": "Point", "coordinates": [-94.9077816902, 35.2814953088]}, "type": "Feature", "properties": {"collection_times": [{"days": "Mon-Fri", "time": "3:45pm"}, {"days": "Sat", "time": "10:00am"}, {"days": "Sun", "time": "Closed"}], "id": "7494100000", "name": "USPS COLLECTION BOX - BLUE BOX", "address": {"city": "KEOTA", "state": "OK", "street": "307 SW MAIN ST", "postcode": "74941"}}},
{"geometry": {"type": "Point", "coordinates": [-94.9077816902, 35.2814953088]}, "type": "Feature", "properties": {"collection_times": [{"days": "Mon-Fri", "time": "3:45pm"}, {"days": "Sat", "time": "10:00am"}, {"days": "Sun", "time": "Closed"}], "id": "7494100001", "name": "USPS COLLECTION BOX - PO LOBBY", "address": {"city": "KEOTA", "state": "OK", "street": "307 SW MAIN ST", "postcode": "74941"}}},
{"geometry": {"type": "Point", "coordinates": [-94.9077816902, 35.2814953088]}, "type": "Feature", "properties": {"collection_times": [{"days": "Mon-Fri", "time": "3:45pm"}, {"days": "Sat", "time": "10:00am"}, {"days": "Sun", "time": "Closed"}], "id": "7494100002", "name": "USPS COLLECTION BOX - PO LOBBY", "address": {"city": "KEOTA", "state": "OK", "street": "307 SW MAIN ST", "postcode": "74941"}}},
{"geometry": {"type": "Point", "coordinates": [-94.9824354179, 34.8970053103]}, "type": "Feature", "properties": {"collection_times": [{"days": "Mon-Fri", "time": "4:00pm"}, {"days": "Sat", "time": "9:30am"}, {"days": "Sun", "time": "Closed"}], "id": "7494200000", "name": "USPS COLLECTION BOX - BLUE BOX", "address": {"city": "LEFLORE", "state": "OK", "street": "41165 E STATE ST", "postcode": "74942"}}},
{"geometry": {"type": "Point", "coordinates": [-94.9824354179, 34.8970053103]}, "type": "Feature", "properties": {"collection_times": [{"days": "Mon-Fri", "time": "1:00pm"}, {"days": "Sat", "time": "9:30am"}, {"days": "Sun", "time": "Closed"}], "id": "7494200001", "name": "USPS COLLECTION BOX - PO LOBBY", "address": {"city": "LEFLORE", "state": "OK", "street": "41165 E STATE ST", "postcode": "74942"}}},
{"geometry": {"type": "Point", "coordinates": [-95.1073891974, 35.1046445151]}, "type": "Feature", "properties": {"collection_times": [{"days": "Mon-Fri", "time": "3:45pm"}, {"days": "Sat", "time": "9:30am"}, {"days": "Sun", "time": "Closed"}], "id": "7494300000", "name": "USPS COLLECTION BOX - BLUE BOX", "address": {"city": "LEQUIRE", "state": "OK", "street": "104 W FRONT ST", "postcode": "74943"}}},
{"geometry": {"type": "Point", "coordinates": [-95.1073891974, 35.1046445151]}, "type": "Feature", "properties": {"collection_times": [{"days": "Mon-Fri", "time": "3:45pm"}, {"days": "Sat", "time": "9:30am"}, {"days": "Sun", "time": "Closed"}], "id": "7494300001", "name": "USPS COLLECTION BOX - PO LOBBY", "address": {"city": "LEQUIRE", "state": "OK", "street": "104 W FRONT ST", "postcode": "74943"}}},
{"geometry": {"type": "Point", "coordinates": [-95.0313274717, 35.1219596221]}, "type": "Feature", "properties": {"collection_times": [{"days": "Mon-Fri", "time": "4:00pm"}, {"days": "Sat", "time": "10:00am"}, {"days": "Sun", "time": "Closed"}], "id": "7494400001", "name": "USPS COLLECTION BOX - PO LOBBY", "address": {"city": "MCCURTAIN", "state": "OK", "street": "215 MAIN ST", "postcode": "74944"}}},
{"geometry": {"type": "Point", "coordinates": [-94.8207671329, 35.5822172437]}, "type": "Feature", "properties": {"collection_times": [{"days": "Mon-Fri", "time": "11:15am"}, {"days": "Sat", "time": "9:00am"}, {"days": "Sun", "time": "Closed"}], "id": "7494500001", "name": "USPS COLLECTION BOX - PO LOBBY", "address": {"city": "MARBLE CITY", "state": "OK", "street": "105 N MAIN ST", "postcode": "74945"}}},
{"geometry": {"type": "Point", "coordinates": [-94.44682078, 35.3903032874]}, "type": "Feature", "properties": {"collection_times": [{"days": "Mon-Sat", "time": "10:15am"}, {"days": "Sun", "time": "Closed"}], "id": "7494600001", "name": "USPS COLLECTION BOX - PO LOBBY", "address": {"city": "MOFFETT", "state": "OK", "street": "400 BELT AVE", "postcode": "74946"}}},
{"geometry": {"type": "Point", "coordinates": [-94.5171283263, 34.9925516816]}, "type": "Feature", "properties": {"collection_times": [{"days": "Mon-Fri", "time": "10:30am"}, {"days": "Sat", "time": "8:45am"}, {"days": "Sun", "time": "Closed"}], "id": "7494700001", "name": "USPS COLLECTION BOX - PO LOBBY", "address": {"city": "MONROE", "state": "OK", "street": "14577 HICKORY ST", "postcode": "74947"}}},
{"geometry": {"type": "Point", "coordinates": [-94.5896650969, 35.4034566372]}, "type": "Feature", "properties": {"collection_times": [{"days": "Mon-Fri", "time": "4:30pm"}, {"days": "Sat", "time": "1:00pm"}, {"days": "Sun", "time": "Closed"}], "id": "7494800006", "name": "USPS COLLECTION BOX - PO LOBBY", "address": {"city": "MULDROW", "state": "OK", "street": "600 E SHAWNTEL SMITH BLVD", "postcode": "74948"}}},
{"geometry": {"type": "Point", "coordinates": [-94.7048197096, 34.6891600916]}, "type": "Feature", "properties": {"collection_times": [{"days": "Mon-Fri", "time": "2:30pm"}, {"days": "Sat", "time": "10:15am"}, {"days": "Sun", "time": "Closed"}], "id": "7494900000", "name": "USPS COLLECTION BOX - BLUE BOX", "address": {"city": "MUSE", "state": "OK", "street": "1 MAIN ST", "postcode": "74949"}}},
{"geometry": {"type": "Point", "coordinates": [-94.7048197096, 34.6891600916]}, "type": "Feature", "properties": {"collection_times": [{"days": "Mon-Fri", "time": "2:30pm"}, {"days": "Sat", "time": "10:30am"}, {"days": "Sun", "time": "Closed"}], "id": "7494900001", "name": "USPS COLLECTION BOX - PO LOBBY", "address": {"city": "MUSE", "state": "OK", "street": "1 MAIN ST", "postcode": "74949"}}},
{"geometry": {"type": "Point", "coordinates": [-94.6732067773, 35.1754260353]}, "type": "Feature", "properties": {"collection_times": [{"days": "Mon-Fri", "time": "3:45pm"}, {"days": "Sat", "time": "9:45am"}, {"days": "Sun", "time": "Closed"}], "id": "7495100000", "name": "USPS COLLECTION BOX - BLUE BOX", "address": {"city": "PANAMA", "state": "OK", "street": "901 N KENTUCKY ST", "postcode": "74951"}}},
{"geometry": {"type": "Point", "coordinates": [-94.6732067773, 35.1754260353]}, "type": "Feature", "properties": {"collection_times": [{"days": "Mon-Fri", "time": "4:00pm"}, {"days": "Sat", "time": "10:00am"}, {"days": "Sun", "time": "Closed"}], "id": "7495100001", "name": "USPS COLLECTION BOX - PO LOBBY", "address": {"city": "PANAMA", "state": "OK", "street": "901 N KENTUCKY ST", "postcode": "74951"}}},
{"geometry": {"type": "Point", "coordinates": [-94.6732067773, 35.1754260353]}, "type": "Feature", "properties": {"collection_times": [{"days": "Mon-Fri", "time": "4:00pm"}, {"days": "Sat", "time": "10:00am"}, {"days": "Sun", "time": "Closed"}], "id": "7495100002", "name": "USPS COLLECTION BOX - PO LOBBY", "address": {"city": "PANAMA", "state": "OK", "street": "901 N KENTUCKY ST", "postcode": "74951"}}},
{"geometry": {"type": "Point", "coordinates": [-94.6223433149, 35.0515340979]}, "type": "Feature", "properties": {"collection_times": [{"days": "Mon-Sat", "time": "5:00pm"}, {"days": "Sun", "time": "Closed"}], "id": "7495300008", "name": "USPS COLLECTION BOX - BLUE BOX", "address": {"city": "POTEAU", "state": "OK", "street": "115 N WITTE ST", "postcode": "74953"}}},
{"geometry": {"type": "Point", "coordinates": [-94.6223433149, 35.0515340979]}, "type": "Feature", "properties": {"collection_times": [{"days": "Mon-Sat", "time": "5:00pm"}, {"days": "Sun", "time": "Closed"}], "id": "7495300009", "name": "USPS COLLECTION BOX - BLUE BOX", "address": {"city": "POTEAU", "state": "OK", "street": "115 N WITTE ST", "postcode": "74953"}}},
{"geometry": {"type": "Point", "coordinates": [-94.6290319651, 35.0728436155]}, "type": "Feature", "properties": {"collection_times": [{"days": "Mon-Sat", "time": "10:00am"}, {"days": "Sun", "time": "Closed"}], "id": "7495300010", "name": "USPS COLLECTION BOX - BLUE BOX", "address": {"city": "POTEAU", "state": "OK", "street": "3108 N BROADWAY ST", "postcode": "74953"}}},
{"geometry": {"type": "Point", "coordinates": [-94.6223433149, 35.0515340979]}, "type": "Feature", "properties": {"collection_times": [{"days": "Mon-Sat", "time": "5:00pm"}, {"days": "Sun", "time": "Closed"}], "id": "7495300011", "name": "USPS COLLECTION BOX - PO LOBBY", "address": {"city": "POTEAU", "state": "OK", "street": "115 N WITTE ST", "postcode": "74953"}}},
{"geometry": {"type": "Point", "coordinates": [-94.6223433149, 35.0515340979]}, "type": "Feature", "properties": {"collection_times": [{"days": "Mon-Sat", "time": "5:00pm"}, {"days": "Sun", "time": "Closed"}], "id": "7495300012", "name": "USPS COLLECTION BOX - PO LOBBY", "address": {"city": "POTEAU", "state": "OK", "street": "115 N WITTE ST", "postcode": "74953"}}},
{"geometry": {"type": "Point", "coordinates": [-94.5130085049, 35.4107780511]}, "type": "Feature", "properties": {"collection_times": [{"days": "Mon-Fri", "time": "3:45pm"}, {"days": "Sat", "time": "11:00am"}, {"days": "Sun", "time": "Closed"}], "id": "7495400002", "name": "USPS COLLECTION BOX - BLUE BOX", "address": {"city": "ROLAND", "state": "OK", "street": "101 DAVIS LN", "postcode": "74954"}}},
{"geometry": {"type": "Point", "coordinates": [-94.5130085049, 35.4107780511]}, "type": "Feature", "properties": {"collection_times": [{"days": "Mon-Fri", "time": "4:00pm"}, {"days": "Sat", "time": "11:00am"}, {"days": "Sun", "time": "Closed"}], "id": "7495400003", "name": "USPS COLLECTION BOX - PO LOBBY", "address": {"city": "ROLAND", "state": "OK", "street": "101 DAVIS LN", "postcode": "74954"}}},
{"geometry": {"type": "Point", "coordinates": [-94.5130085049, 35.4107780511]}, "type": "Feature", "properties": {"collection_times": [{"days": "Mon-Fri", "time": "4:00pm"}, {"days": "Sat", "time": "11:00am"}, {"days": "Sun", "time": "Closed"}], "id": "7495400004", "name": "USPS COLLECTION BOX - PO LOBBY", "address": {"city": "ROLAND", "state": "OK", "street": "101 DAVIS LN", "postcode": "74954"}}},
{"geometry": {"type": "Point", "coordinates": [-94.5130085049, 35.4107780511]}, "type": "Feature", "properties": {"collection_times": [{"days": "Mon-Fri", "time": "4:00pm"}, {"days": "Sat", "time": "11:00am"}, {"days": "Sun", "time": "Closed"}], "id": "7495400006", "name": "USPS COLLECTION BOX - PO LOBBY", "address": {"city": "ROLAND", "state": "OK", "street": "101 DAVIS LN", "postcode": "74954"}}},
{"geometry": {"type": "Point", "coordinates": [-94.7899199265, 35.4585860292]}, "type": "Feature", "properties": {"collection_times": [{"days": "Mon-Fri", "time": "3:30pm"}, {"days": "Sat", "time": "2:00pm"}, {"days": "Sun", "time": "Closed"}], "id": "7495500011", "name": "USPS COLLECTION BOX - BLUE BOX", "address": {"city": "SALLISAW", "state": "OK", "street": "120 E CHICKASAW AVE", "postcode": "74955"}}},
{"geometry": {"type": "Point", "coordinates": [-94.7902006534, 35.4595339545]}, "type": "Feature", "properties": {"collection_times": [{"days": "Mon-Fri", "time": "3:30pm"}, {"days": "Sat", "time": "2:00pm"}, {"days": "Sun", "time": "Closed"}], "id": "7495500013", "name": "USPS COLLECTION BOX - BLUE BOX", "address": {"city": "SALLISAW", "state": "OK", "street": "100 E CHOCTAW AVE", "postcode": "74955"}}},
{"geometry": {"type": "Point", "coordinates": [-94.770489783, 35.4568111228]}, "type": "Feature", "properties": {"collection_times": [{"days": "Mon-Fri", "time": "4:30pm"}, {"days": "Sat", "time": "2:00pm"}, {"days": "Sun", "time": "Closed"}], "id": "7495500014", "name": "USPS COLLECTION BOX - BLUE BOX", "address": {"city": "SALLISAW", "state": "OK", "street": "111 S MCGEE DR", "postcode": "74955"}}},
{"geometry": {"type": "Point", "coordinates": [-94.770489783, 35.4568111228]}, "type": "Feature", "properties": {"collection_times": [{"days": "Mon-Fri", "time": "4:30pm"}, {"days": "Sat", "time": "2:00pm"}, {"days": "Sun", "time": "Closed"}], "id": "7495500015", "name": "USPS COLLECTION BOX - BLUE BOX", "address": {"city": "SALLISAW", "state": "OK", "street": "111 S MCGEE DR", "postcode": "74955"}}},
{"geometry": {"type": "Point", "coordinates": [-94.770489783, 35.4568111228]}, "type": "Feature", "properties": {"collection_times": [{"days": "Mon-Fri", "time": "4:30pm"}, {"days": "Sat", "time": "2:00pm"}, {"days": "Sun", "time": "Closed"}], "id": "7495500017", "name": "USPS COLLECTION BOX - PO LOBBY", "address": {"city": "SALLISAW", "state": "OK", "street": "111 S MCGEE DR", "postcode": "74955"}}},
{"geometry": {"type": "Point", "coordinates": [-94.770489783, 35.4568111228]}, "type": "Feature", "properties": {"collection_times": [{"days": "Mon-Fri", "time": "4:30pm"}, {"days": "Sat", "time": "2:00pm"}, {"days": "Sun", "time": "Closed"}], "id": "7495500018", "name": "USPS COLLECTION BOX - PO LOBBY", "address": {"city": "SALLISAW", "state": "OK", "street": "111 S MCGEE DR", "postcode": "74955"}}},
{"geometry": {"type": "Point", "coordinates": [-94.770489783, 35.4568111228]}, "type": "Feature", "properties": {"collection_times": [{"days": "Mon-Fri", "time": "4:30pm"}, {"days": "Sat", "time": "2:00pm"}, {"days": "Sun", "time": "Closed"}], "id": "7495500020", "name": "USPS COLLECTION BOX - PO LOBBY", "address": {"city": "SALLISAW", "state": "OK", "street": "111 S MCGEE DR", "postcode": "74955"}}},
{"geometry": {"type": "Point", "coordinates": [-94.7597742531, 35.0926829261]}, "type": "Feature", "properties": {"collection_times": [{"days": "Mon-Fri", "time": "2:30pm"}, {"days": "Sat", "time": "10:00am"}, {"days": "Sun", "time": "Closed"}], "id": "7495600001", "name": "USPS COLLECTION BOX - PO LOBBY", "address": {"city": "SHADY POINT", "state": "OK", "street": "23067 WHEELUS ST", "postcode": "74956"}}},
{"geometry": {"type": "Point", "coordinates": [-94.5801628742, 34.4827882269]}, "type": "Feature", "properties": {"collection_times": [{"days": "Mon-Fri", "time": "3:30pm"}, {"days": "Sat", "time": "10:30am"}, {"days": "Sun", "time": "Closed"}], "id": "7495700001", "name": "USPS COLLECTION BOX - PO LOBBY", "address": {"city": "SMITHVILLE", "state": "OK", "street": "200 HIGHWAY 4", "postcode": "74957"}}},
{"geometry": {"type": "Point", "coordinates": [-94.5801628742, 34.4827882269]}, "type": "Feature", "properties": {"collection_times": [{"days": "Mon-Fri", "time": "3:30pm"}, {"days": "Sat", "time": "10:30am"}, {"days": "Sun", "time": "Closed"}], "id": "7495700002", "name": "USPS COLLECTION BOX - PO LOBBY", "address": {"city": "SMITHVILLE", "state": "OK", "street": "200 HIGHWAY 4", "postcode": "74957"}}},
{"geometry": {"type": "Point", "coordinates": [-94.6212298576, 35.2412904991]}, "type": "Feature", "properties": {"collection_times": [{"days": "Mon-Fri", "time": "3:30pm"}, {"days": "Sat", "time": "12:00pm"}, {"days": "Sun", "time": "Closed"}], "id": "7495900007", "name": "USPS COLLECTION BOX - BLUE BOX", "address": {"city": "SPIRO", "state": "OK", "street": "123 N MAIN ST", "postcode": "74959"}}},
{"geometry": {"type": "Point", "coordinates": [-94.6212298576, 35.2412904991]}, "type": "Feature", "properties": {"collection_times": [{"days": "Mon-Fri", "time": "4:00pm"}, {"days": "Sat", "time": "12:00pm"}, {"days": "Sun", "time": "Closed"}], "id": "7495900008", "name": "USPS COLLECTION BOX - PO LOBBY", "address": {"city": "SPIRO", "state": "OK", "street": "123 N MAIN ST", "postcode": "74959"}}},
{"geometry": {"type": "Point", "coordinates": [-94.6212298576, 35.2412904991]}, "type": "Feature", "properties": {"collection_times": [{"days": "Mon-Fri", "time": "4:00pm"}, {"days": "Sat", "time": "12:00pm"}, {"days": "Sun", "time": "Closed"}], "id": "7495900009", "name": "USPS COLLECTION BOX - PO LOBBY", "address": {"city": "SPIRO", "state": "OK", "street": "123 N MAIN ST", "postcode": "74959"}}},
{"geometry": {"type": "Point", "coordinates": [-94.6337971685, 35.2408589094]}, "type": "Feature", "properties": {"collection_times": [{"days": "Mon-Sat", "time": "10:00am"}, {"days": "Sun", "time": "Closed"}], "id": "7495900010", "name": "USPS COLLECTION BOX - BLUE BOX", "address": {"city": "SPIRO", "state": "OK", "street": "117 N GUTHRIE ST", "postcode": "74959"}}},
{"geometry": {"type": "Point", "coordinates": [-94.6284359071, 35.8143300958]}, "type": "Feature", "properties": {"collection_times": [{"days": "Mon-Fri", "time": "4:00pm"}, {"days": "Sat", "time": "3:00pm"}, {"days": "Sun", "time": "Closed"}], "id": "7496000000", "name": "USPS COLLECTION BOX - BLUE BOX", "address": {"city": "STILWELL", "state": "OK", "street": "16 S 2ND ST", "postcode": "74960"}}},
{"geometry": {"type": "Point", "coordinates": [-94.6284359071, 35.8143300958]}, "type": "Feature", "properties": {"collection_times": [{"days": "Mon-Fri", "time": "4:00pm"}, {"days": "Sat", "time": "3:00pm"}, {"days": "Sun", "time": "Closed"}], "id": "7496000001", "name": "USPS COLLECTION BOX - BLUE BOX", "address": {"city": "STILWELL", "state": "OK", "street": "16 S 2ND ST", "postcode": "74960"}}},
{"geometry": {"type": "Point", "coordinates": [-94.6305573252, 35.8084788017]}, "type": "Feature", "properties": {"collection_times": [{"days": "Mon-Sat", "time": "11:00am"}, {"days": "Sun", "time": "Closed"}], "id": "7496000002", "name": "USPS COLLECTION BOX - BLUE BOX", "address": {"city": "STILWELL", "state": "OK", "street": "308 W LOCUST ST", "postcode": "74960"}}},
{"geometry": {"type": "Point", "coordinates": [-94.6284359071, 35.8143300958]}, "type": "Feature", "properties": {"collection_times": [{"days": "Mon-Fri", "time": "4:00pm"}, {"days": "Sat", "time": "3:45pm"}, {"days": "Sun", "time": "Closed"}], "id": "7496000006", "name": "USPS COLLECTION BOX - PO LOBBY", "address": {"city": "STILWELL", "state": "OK", "street": "16 S 2ND ST", "postcode": "74960"}}},
{"geometry": {"type": "Point", "coordinates": [-94.6284359071, 35.8143300958]}, "type": "Feature", "properties": {"collection_times": [{"days": "Mon-Fri", "time": "4:00pm"}, {"days": "Sat", "time": "3:45pm"}, {"days": "Sun", "time": "Closed"}], "id": "7496000007", "name": "USPS COLLECTION BOX - PO LOBBY", "address": {"city": "STILWELL", "state": "OK", "street": "16 S 2ND ST", "postcode": "74960"}}},
{"geometry": {"type": "Point", "coordinates": [-94.9819691674, 35.5480535307]}, "type": "Feature", "properties": {"collection_times": [{"days": "Mon-Fri", "time": "3:30pm"}, {"days": "Sat", "time": "10:00am"}, {"days": "Sun", "time": "Closed"}], "id": "7496200000", "name": "USPS COLLECTION BOX - BLUE BOX", "address": {"city": "VIAN", "state": "OK", "street": "205 N THORNTON ST", "postcode": "74962"}}},
{"geometry": {"type": "Point", "coordinates": [-94.9819691674, 35.5480535307]}, "type": "Feature", "properties": {"collection_times": [{"days": "Mon-Fri", "time": "4:00pm"}, {"days": "Sat", "time": "10:00am"}, {"days": "Sun", "time": "Closed"}], "id": "7496200001", "name": "USPS COLLECTION BOX - PO LOBBY", "address": {"city": "VIAN", "state": "OK", "street": "205 N THORNTON ST", "postcode": "74962"}}},
{"geometry": {"type": "Point", "coordinates": [-94.9819691674, 35.5480535307]}, "type": "Feature", "properties": {"collection_times": [{"days": "Mon-Fri", "time": "4:00pm"}, {"days": "Sat", "time": "10:00am"}, {"days": "Sun", "time": "Closed"}], "id": "7496200002", "name": "USPS COLLECTION BOX - PO LOBBY", "address": {"city": "VIAN", "state": "OK", "street": "205 N THORNTON ST", "postcode": "74962"}}},
{"geometry": {"type": "Point", "coordinates": [-97.5085968103, 35.5826863005]}, "type": "Feature", "properties": {"collection_times": [{"days": "Mon-Fri", "time": "3:30pm"}, {"days": "Sat", "time": "10:00am"}, {"days": "Sun", "time": "Closed"}], "id": "7496300000", "name": "USPS COLLECTION BOX - BLUE BOX", "address": {"city": "WATSON", "state": "OK", "street": "100 HIGHWAY 4", "postcode": "74963"}}},
{"geometry": {"type": "Point", "coordinates": [-94.5677480547, 34.3156200832]}, "type": "Feature", "properties": {"collection_times": [{"days": "Mon-Fri", "time": "3:30pm"}, {"days": "Sat", "time": "10:00am"}, {"days": "Sun", "time": "Closed"}], "id": "7496300001", "name": "USPS COLLECTION BOX - PO LOBBY", "address": {"city": "WATSON", "state": "OK", "street": "100 HIGHWAY 4", "postcode": "74963"}}},
{"geometry": {"type": "Point", "coordinates": [-94.657082754, 36.1148368669]}, "type": "Feature", "properties": {"collection_times": [{"days": "Mon-Fri", "time": "4:00pm"}, {"days": "Sat", "time": "11:00am"}, {"days": "Sun", "time": "Closed"}], "id": "7496400000", "name": "USPS COLLECTION BOX - BLUE BOX", "address": {"city": "WATTS", "state": "OK", "street": "601 E 6TH ST", "postcode": "74964"}}},
{"geometry": {"type": "Point", "coordinates": [-94.657082754, 36.1148368669]}, "type": "Feature", "properties": {"collection_times": [{"days": "Mon-Sat", "time": "12:45pm"}, {"days": "Sun", "time": "Closed"}], "id": "7496400001", "name": "USPS COLLECTION BOX - BLUE BOX", "address": {"city": "WATTS", "state": "OK", "street": "1 HIGHWAY 412 W", "postcode": "74964"}}},
{"geometry": {"type": "Point", "coordinates": [-94.657082754, 36.1148368669]}, "type": "Feature", "properties": {"collection_times": [{"days": "Mon-Fri", "time": "4:00pm"}, {"days": "Sat", "time": "11:00am"}, {"days": "Sun", "time": "Closed"}], "id": "7496400002", "name": "USPS COLLECTION BOX - PO LOBBY", "address": {"city": "WATTS", "state": "OK", "street": "601 E 6TH ST", "postcode": "74964"}}},
{"geometry": {"type": "Point", "coordinates": [-94.657082754, 36.1148368669]}, "type": "Feature", "properties": {"collection_times": [{"days": "Mon-Fri", "time": "4:00pm"}, {"days": "Sat", "time": "11:00am"}, {"days": "Sun", "time": "Closed"}], "id": "7496400003", "name": "USPS COLLECTION BOX - PO LOBBY", "address": {"city": "WATTS", "state": "OK", "street": "601 E 6TH ST", "postcode": "74964"}}},
{"geometry": {"type": "Point", "coordinates": [-94.6346400339, 36.0065332669]}, "type": "Feature", "properties": {"collection_times": [{"days": "Mon-Sat", "time": "1:00pm"}, {"days": "Sun", "time": "Closed"}], "id": "7496500002", "name": "USPS COLLECTION BOX - BLUE BOX", "address": {"city": "WESTVILLE", "state": "OK", "street": "901 N HWY 59", "postcode": "74965"}}},
{"geometry": {"type": "Point", "coordinates": [-94.5676777136, 35.9922979261]}, "type": "Feature", "properties": {"collection_times": [{"days": "Mon-Fri", "time": "4:00pm"}, {"days": "Sat", "time": "10:45am"}, {"days": "Sun", "time": "Closed"}], "id": "7496500003", "name": "USPS COLLECTION BOX - BLUE BOX", "address": {"city": "WESTVILLE", "state": "OK", "street": "210 S WILLIAMS ST", "postcode": "74965"}}},
{"geometry": {"type": "Point", "coordinates": [-94.5676777136, 35.9922979261]}, "type": "Feature", "properties": {"collection_times": [{"days": "Mon-Fri", "time": "4:00pm"}, {"days": "Sat", "time": "11:00am"}, {"days": "Sun", "time": "Closed"}], "id": "7496500004", "name": "USPS COLLECTION BOX - PO LOBBY", "address": {"city": "WESTVILLE", "state": "OK", "street": "210 S WILLIAMS ST", "postcode": "74965"}}},
{"geometry": {"type": "Point", "coordinates": [-94.5676777136, 35.9922979261]}, "type": "Feature", "properties": {"collection_times": [{"days": "Mon-Fri", "time": "4:00pm"}, {"days": "Sat", "time": "11:00am"}, {"days": "Sun", "time": "Closed"}], "id": "7496500005", "name": "USPS COLLECTION BOX - PO LOBBY", "address": {"city": "WESTVILLE", "state": "OK", "street": "210 S WILLIAMS ST", "postcode": "74965"}}},
{"geometry": {"type": "Point", "coordinates": [-94.7473409634, 34.9951630844]}, "type": "Feature", "properties": {"collection_times": [{"days": "Mon-Fri", "time": "4:00pm"}, {"days": "Sat", "time": "10:00am"}, {"days": "Sun", "time": "Closed"}], "id": "7496600001", "name": "USPS COLLECTION BOX - PO LOBBY", "address": {"city": "WISTER", "state": "OK", "street": "204 PLUM ST", "postcode": "74966"}}},
{"geometry": {"type": "Point", "coordinates": [-94.7473409634, 34.9951630844]}, "type": "Feature", "properties": {"collection_times": [{"days": "Mon-Fri", "time": "4:00pm"}, {"days": "Sat", "time": "10:00am"}, {"days": "Sun", "time": "Closed"}], "id": "7496600002", "name": "USPS COLLECTION BOX - PO LOBBY", "address": {"city": "WISTER", "state": "OK", "street": "204 PLUM ST", "postcode": "74966"}}},
{"geometry": {"type": "Point", "coordinates": [-94.7473409634, 34.9951630844]}, "type": "Feature", "properties": {"collection_times": [{"days": "Mon-Fri", "time": "4:00pm"}, {"days": "Sat", "time": "10:00am"}, {"days": "Sun", "time": "Closed"}], "id": "7496600003", "name": "USPS COLLECTION BOX - PO LOBBY", "address": {"city": "WISTER", "state": "OK", "street": "204 PLUM ST", "postcode": "74966"}}}
]}
