{"type": "FeatureCollection", "features": [
{"geometry": {"type": "Point", "coordinates": [-115.163780284, 37.363345149]}, "type": "Feature", "properties": {"collection_times": [{"days": "Mon-Fri", "time": "4:00pm"}, {"days": "Sat", "time": "9:30am"}, {"days": "Sun", "time": "Closed"}], "id": "8900100000", "name": "USPS COLLECTION BOX - PO LOBBY", "address": {"city": "ALAMO", "state": "NV", "street": "47 N 1ST ST E", "postcode": "89001"}}},
{"geometry": {"type": "Point", "coordinates": [-115.163780284, 37.363345149]}, "type": "Feature", "properties": {"collection_times": [{"days": "Mon-Fri", "time": "4:00pm"}, {"days": "Sat", "time": "9:30am"}, {"days": "Sun", "time": "Closed"}], "id": "8900100001", "name": "USPS COLLECTION BOX - BLUE BOX", "address": {"city": "ALAMO", "state": "NV", "street": "47 N 1ST ST E", "postcode": "89001"}}},
{"geometry": {"type": "Point", "coordinates": [-115.3640169746, 37.1557281204]}, "type": "Feature", "properties": {"collection_times": [{"days": "Mon-Fri", "time": "11:15am"}, {"days": "Sat-Sun", "time": "Closed"}], "id": "8900100002", "name": "USPS COLLECTION BOX - BLUE BOX", "address": {"city": "ALAMO", "state": "NV", "street": "1 HIGHWAY 375", "postcode": "89001"}}},
{"geometry": {"type": "Point", "coordinates": [-115.1657674653, 37.3642464969]}, "type": "Feature", "properties": {"collection_times": [{"days": "Mon-Fri", "time": "12:30pm"}, {"days": "Sat-Sun", "time": "Closed"}], "id": "8900100003", "name": "USPS COLLECTION BOX - BLUE BOX", "address": {"city": "ALAMO", "state": "NV", "street": "1 BROADWAY ST", "postcode": "89001"}}},
{"geometry": {"type": "Point", "coordinates": [-116.7726017062, 36.9005480282]}, "type": "Feature", "properties": {"collection_times": [{"days": "Mon-Fri", "time": "2:30pm"}, {"days": "Sat", "time": "10:15am"}, {"days": "Sun", "time": "Closed"}], "id": "8900300001", "name": "USPS COLLECTION BOX - BLUE BOX", "address": {"city": "BEATTY", "state": "NV", "street": "0 N HIGHWAY 95", "postcode": "89003"}}},
{"geometry": {"type": "Point", "coordinates": [-115.40709379, 36.047813887]}, "type": "Feature", "properties": {"collection_times": [{"days": "Mon-Fri", "time": "4:00pm"}, {"days": "Sat", "time": "11:30am"}, {"days": "Sun", "time": "Closed"}], "id": "8900400000", "name": "USPS COLLECTION BOX - BLUE BOX", "address": {"city": "BLUE DIAMOND", "state": "NV", "street": "2 DIAMOND ST", "postcode": "89004"}}},
{"geometry": {"type": "Point", "coordinates": [-115.40709379, 36.047813887]}, "type": "Feature", "properties": {"collection_times": [{"days": "Mon-Fri", "time": "4:00pm"}, {"days": "Sat", "time": "11:30am"}, {"days": "Sun", "time": "Closed"}], "id": "8900400001", "name": "USPS COLLECTION BOX - PO LOBBY", "address": {"city": "BLUE DIAMOND", "state": "NV", "street": "2 DIAMOND ST", "postcode": "89004"}}},
{"geometry": {"type": "Point", "coordinates": [-114.8453697678, 35.9726210264]}, "type": "Feature", "properties": {"collection_times": [{"days": "Mon-Sat", "time": "2:00pm"}, {"days": "Sun", "time": "Closed"}], "id": "8900500001", "name": "USPS COLLECTION BOX - BLUE BOX", "address": {"city": "BOULDER CITY", "state": "NV", "street": "806 BUCHANAN BLVD", "postcode": "89005"}}},
{"geometry": {"type": "Point", "coordinates": [-114.835947274, 35.979442602]}, "type": "Feature", "properties": {"collection_times": [{"days": "Mon-Fri", "time": "5:30pm"}, {"days": "Sat", "time": "3:00pm"}, {"days": "Sun", "time": "Closed"}], "id": "8900500003", "name": "USPS COLLECTION BOX - EXPRESS", "address": {"city": "BOULDER CITY", "state": "NV", "street": "1101 COLORADO ST", "postcode": "89005"}}},
{"geometry": {"type": "Point", "coordinates": [-114.8355675338, 35.9794636286]}, "type": "Feature", "properties": {"collection_times": [{"days": "Mon-Fri", "time": "5:30pm"}, {"days": "Sat", "time": "3:00pm"}, {"days": "Sun", "time": "Closed"}], "id": "8900500004", "name": "USPS COLLECTION BOX - BLUE BOX", "address": {"city": "BOULDER CITY", "state": "NV", "street": "1101 COLORADO ST", "postcode": "89005"}}},
{"geometry": {"type": "Point", "coordinates": [-114.8341519573, 35.9884078776]}, "type": "Feature", "properties": {"collection_times": [{"days": "Mon-Sat", "time": "2:00pm"}, {"days": "Sun", "time": "Closed"}], "id": "8900500010", "name": "USPS COLLECTION BOX - BLUE BOX", "address": {"city": "BOULDER CITY", "state": "NV", "street": "100 LAKE MOUNTAIN DR", "postcode": "89005"}}},
{"geometry": {"type": "Point", "coordinates": [-114.8279880619, 35.9752181463]}, "type": "Feature", "properties": {"collection_times": [{"days": "Mon-Sat", "time": "2:00pm"}, {"days": "Sun", "time": "Closed"}], "id": "8900500016", "name": "USPS COLLECTION BOX - BLUE BOX", "address": {"city": "BOULDER CITY", "state": "NV", "street": "700 UTAH ST", "postcode": "89005"}}},
{"geometry": {"type": "Point", "coordinates": [-114.8407299539, 35.9683829243]}, "type": "Feature", "properties": {"collection_times": [{"days": "Mon-Sat", "time": "2:00pm"}, {"days": "Sun", "time": "Closed"}], "id": "8900500020", "name": "USPS COLLECTION BOX - BLUE BOX", "address": {"city": "BOULDER CITY", "state": "NV", "street": "889 ADAMS BLVD", "postcode": "89005"}}},
{"geometry": {"type": "Point", "coordinates": [-114.8328500177, 35.9777701469]}, "type": "Feature", "properties": {"collection_times": [{"days": "Mon-Sat", "time": "2:00pm"}, {"days": "Sun", "time": "Closed"}], "id": "8900500022", "name": "USPS COLLECTION BOX - BLUE BOX", "address": {"city": "BOULDER CITY", "state": "NV", "street": "530 AVENUE G", "postcode": "89005"}}},
{"geometry": {"type": "Point", "coordinates": [-114.835947274, 35.979442602]}, "type": "Feature", "properties": {"collection_times": [{"days": "Mon-Fri", "time": "5:30pm"}, {"days": "Sat", "time": "3:00pm"}, {"days": "Sun", "time": "Closed"}], "id": "8900500030", "name": "USPS COLLECTION BOX - PO LOBBY", "address": {"city": "BOULDER CITY", "state": "NV", "street": "1101 COLORADO ST", "postcode": "89005"}}},
{"geometry": {"type": "Point", "coordinates": [-114.8491483675, 35.9772894787]}, "type": "Feature", "properties": {"collection_times": [{"days": "Mon-Sat", "time": "2:00pm"}, {"days": "Sun", "time": "Closed"}], "id": "8900500038", "name": "USPS COLLECTION BOX - BLUE BOX", "address": {"city": "BOULDER CITY", "state": "NV", "street": "736 CANYON RD", "postcode": "89005"}}},
{"geometry": {"type": "Point", "coordinates": [-114.8447020835, 35.9756514674]}, "type": "Feature", "properties": {"collection_times": [{"days": "Mon-Sat", "time": "2:00pm"}, {"days": "Sun", "time": "Closed"}], "id": "8900500040", "name": "USPS COLLECTION BOX - BLUE BOX", "address": {"city": "BOULDER CITY", "state": "NV", "street": "1008 NEVADA HWY", "postcode": "89005"}}},
{"geometry": {"type": "Point", "coordinates": [-114.126685553, 36.770911565]}, "type": "Feature", "properties": {"collection_times": [{"days": "Mon-Fri", "time": "3:30pm"}, {"days": "Sat", "time": "8:00am"}, {"days": "Sun", "time": "Closed"}], "id": "8900700000", "name": "USPS COLLECTION BOX - PO LOBBY", "address": {"city": "BUNKERVILLE", "state": "NV", "street": "170 MAIN ST", "postcode": "89007"}}},
{"geometry": {"type": "Point", "coordinates": [-114.517131637, 37.612316964]}, "type": "Feature", "properties": {"collection_times": [{"days": "Mon-Fri", "time": "3:00pm"}, {"days": "Sat", "time": "12:00pm"}, {"days": "Sun", "time": "Closed"}], "id": "8900800001", "name": "USPS COLLECTION BOX - PO LOBBY", "address": {"city": "CALIENTE", "state": "NV", "street": "700 FRONT ST", "postcode": "89008"}}},
{"geometry": {"type": "Point", "coordinates": [-114.517131637, 37.612316964]}, "type": "Feature", "properties": {"collection_times": [{"days": "Mon-Fri", "time": "3:00pm"}, {"days": "Sat", "time": "12:00pm"}, {"days": "Sun", "time": "Closed"}], "id": "8900800003", "name": "USPS COLLECTION BOX - BLUE BOX", "address": {"city": "CALIENTE", "state": "NV", "street": "700 FRONT ST", "postcode": "89008"}}},
{"geometry": {"type": "Point", "coordinates": [-118.066832185, 37.66769888]}, "type": "Feature", "properties": {"collection_times": [{"days": "Mon-Sat", "time": "12:30pm"}, {"days": "Sun", "time": "Closed"}], "id": "8901000001", "name": "USPS COLLECTION BOX - PO LOBBY", "address": {"city": "DYER", "state": "NV", "street": "1 VALLEY CENTER RD", "postcode": "89010"}}},
{"geometry": {"type": "Point", "coordinates": [-118.066832185, 37.66769888]}, "type": "Feature", "properties": {"collection_times": [{"days": "Mon-Fri", "time": "12:30pm"}, {"days": "Sat", "time": "11:30am"}, {"days": "Sun", "time": "Closed"}], "id": "8901000002", "name": "USPS COLLECTION BOX - BLUE BOX", "address": {"city": "DYER", "state": "NV", "street": "1 VALLEY CENTER RD", "postcode": "89010"}}},
{"geometry": {"type": "Point", "coordinates": [-115.055630954, 36.016607147]}, "type": "Feature", "properties": {"collection_times": [{"days": "Mon-Fri", "time": "6:00pm"}, {"days": "Sat", "time": "4:15pm"}, {"days": "Sun", "time": "Closed"}], "id": "8901200000", "name": "USPS COLLECTION BOX - PO LOBBY", "address": {"city": "HENDERSON", "state": "NV", "street": "1575 W HORIZON RIDGE PKWY", "postcode": "89012"}}},
{"geometry": {"type": "Point", "coordinates": [-115.055630954, 36.016607147]}, "type": "Feature", "properties": {"collection_times": [{"days": "Mon-Fri", "time": "5:30pm"}, {"days": "Sat", "time": "6:00pm"}, {"days": "Sun", "time": "Closed"}], "id": "8901200002", "name": "USPS COLLECTION BOX - BLUE BOX", "address": {"city": "HENDERSON", "state": "NV", "street": "1575 W HORIZON RIDGE PKWY", "postcode": "89012"}}},
{"geometry": {"type": "Point", "coordinates": [-115.055630954, 36.016607147]}, "type": "Feature", "properties": {"collection_times": [{"days": "Mon-Fri", "time": "5:30pm"}, {"days": "Sat", "time": "6:00pm"}, {"days": "Sun", "time": "Closed"}], "id": "8901200003", "name": "USPS COLLECTION BOX - EXPRESS", "address": {"city": "HENDERSON", "state": "NV", "street": "1575 W HORIZON RIDGE PKWY", "postcode": "89012"}}},
{"geometry": {"type": "Point", "coordinates": [-115.0625120371, 36.0259899202]}, "type": "Feature", "properties": {"collection_times": [{"days": "Mon-Fri", "time": "5:00pm"}, {"days": "Sat", "time": "1:45pm"}, {"days": "Sun", "time": "Closed"}], "id": "8901200005", "name": "USPS COLLECTION BOX - BLUE BOX", "address": {"city": "HENDERSON", "state": "NV", "street": "55 S VALLE VERDE DR", "postcode": "89012"}}},
{"geometry": {"type": "Point", "coordinates": [-115.055630954, 36.016607147]}, "type": "Feature", "properties": {"collection_times": [{"days": "Mon-Fri", "time": "6:00pm"}, {"days": "Sat", "time": "4:15pm"}, {"days": "Sun", "time": "Closed"}], "id": "8901200011", "name": "USPS COLLECTION BOX - APC", "address": {"city": "HENDERSON", "state": "NV", "street": "1575 W HORIZON RIDGE PKWY", "postcode": "89012"}}},
{"geometry": {"type": "Point", "coordinates": [-117.3639793143, 37.6055529177]}, "type": "Feature", "properties": {"collection_times": [{"days": "Mon-Fri", "time": "4:30pm"}, {"days": "Sat", "time": "12:00pm"}, {"days": "Sun", "time": "Closed"}], "id": "8901300000", "name": "USPS COLLECTION BOX - BLUE BOX", "address": {"city": "GOLDFIELD", "state": "NV", "street": "0 4TH ST", "postcode": "89013"}}},
{"geometry": {"type": "Point", "coordinates": [-115.087103388, 36.0693051457]}, "type": "Feature", "properties": {"collection_times": [{"days": "Mon-Sat", "time": "1:00pm"}, {"days": "Sun", "time": "Closed"}], "id": "8901400001", "name": "USPS COLLECTION BOX - BLUE BOX", "address": {"city": "HENDERSON", "state": "NV", "street": "6530 ANNIE OAKLEY DR", "postcode": "89014"}}},
{"geometry": {"type": "Point", "coordinates": [-115.0576923675, 36.0379935316]}, "type": "Feature", "properties": {"collection_times": [{"days": "Mon-Sat", "time": "9:30am"}, {"days": "Sun", "time": "Closed"}], "id": "8901400004", "name": "USPS COLLECTION BOX - BLUE BOX", "address": {"city": "HENDERSON", "state": "NV", "street": "150 DAY ST", "postcode": "89014"}}},
{"geometry": {"type": "Point", "coordinates": [-115.0357641519, 36.0387919022]}, "type": "Feature", "properties": {"collection_times": [{"days": "Mon-Fri", "time": "11:30am"}, {"days": "Sat-Sun", "time": "Closed"}], "id": "8901400006", "name": "USPS COLLECTION BOX - BLUE BOX", "address": {"city": "HENDERSON", "state": "NV", "street": "151 GALLAGHER CREST RD", "postcode": "89014"}}},
{"geometry": {"type": "Point", "coordinates": [-115.082283204, 36.07001269]}, "type": "Feature", "properties": {"collection_times": [{"days": "Mon-Fri", "time": "4:30pm"}, {"days": "Sat", "time": "1:00pm"}, {"days": "Sun", "time": "Closed"}], "id": "8901400018", "name": "USPS COLLECTION BOX - BLUE BOX", "address": {"city": "HENDERSON", "state": "NV", "street": "2722 N GREEN VALLEY PKWY", "postcode": "89014"}}},
{"geometry": {"type": "Point", "coordinates": [-115.0839129477, 36.0557460701]}, "type": "Feature", "properties": {"collection_times": [{"days": "Mon-Fri", "time": "4:45pm"}, {"days": "Sat", "time": "3:30pm"}, {"days": "Sun", "time": "Closed"}], "id": "8901400020", "name": "USPS COLLECTION BOX - BLUE BOX", "address": {"city": "HENDERSON", "state": "NV", "street": "2271 N GREEN VALLEY PKWY", "postcode": "89014"}}},
{"geometry": {"type": "Point", "coordinates": [-115.0575124446, 36.0620447582]}, "type": "Feature", "properties": {"collection_times": [{"days": "Mon-Sat", "time": "8:45am"}, {"days": "Sun", "time": "Closed"}], "id": "8901400022", "name": "USPS COLLECTION BOX - BLUE BOX", "address": {"city": "HENDERSON", "state": "NV", "street": "372 KEATING ST", "postcode": "89014"}}},
{"geometry": {"type": "Point", "coordinates": [-115.1003513455, 36.0420107335]}, "type": "Feature", "properties": {"collection_times": [{"days": "Mon-Fri", "time": "2:00pm"}, {"days": "Sat", "time": "12:30pm"}, {"days": "Sun", "time": "Closed"}], "id": "8901400024", "name": "USPS COLLECTION BOX - BLUE BOX", "address": {"city": "HENDERSON", "state": "NV", "street": "199 N PECOS RD", "postcode": "89014"}}},
{"geometry": {"type": "Point", "coordinates": [-115.0662652435, 36.063834263]}, "type": "Feature", "properties": {"collection_times": [{"days": "Mon-Sat", "time": "10:10am"}, {"days": "Sun", "time": "Closed"}], "id": "8901400027", "name": "USPS COLLECTION BOX - BLUE BOX", "address": {"city": "HENDERSON", "state": "NV", "street": "1819 PLUM CT", "postcode": "89014"}}},
{"geometry": {"type": "Point", "coordinates": [-115.0697472851, 36.0473693254]}, "type": "Feature", "properties": {"collection_times": [{"days": "Mon-Sat", "time": "9:00am"}, {"days": "Sun", "time": "Closed"}], "id": "8901400028", "name": "USPS COLLECTION BOX - BLUE BOX", "address": {"city": "HENDERSON", "state": "NV", "street": "260 N VALLE VERDE DR", "postcode": "89014"}}},
{"geometry": {"type": "Point", "coordinates": [-115.0462049477, 36.0658863943]}, "type": "Feature", "properties": {"collection_times": [{"days": "Mon-Fri", "time": "3:30pm"}, {"days": "Sat", "time": "2:00pm"}, {"days": "Sun", "time": "Closed"}], "id": "8901400029", "name": "USPS COLLECTION BOX - BLUE BOX", "address": {"city": "HENDERSON", "state": "NV", "street": "625 N STEPHANIE ST", "postcode": "89014"}}},
{"geometry": {"type": "Point", "coordinates": [-115.071100054, 36.071316097]}, "type": "Feature", "properties": {"collection_times": [{"days": "Mon-Fri", "time": "12:15pm"}, {"days": "Sat-Sun", "time": "Closed"}], "id": "8901400034", "name": "USPS COLLECTION BOX - BLUE BOX", "address": {"city": "HENDERSON", "state": "NV", "street": "2 SUNSET WAY", "postcode": "89014"}}},
{"geometry": {"type": "Point", "coordinates": [-115.0687724481, 36.0563857656]}, "type": "Feature", "properties": {"collection_times": [{"days": "Mon-Sat", "time": "9:30am"}, {"days": "Sun", "time": "Closed"}], "id": "8901400039", "name": "USPS COLLECTION BOX - BLUE BOX", "address": {"city": "HENDERSON", "state": "NV", "street": "418 WEDGEWOOD DR", "postcode": "89014"}}},
{"geometry": {"type": "Point", "coordinates": [-115.0525432419, 36.0642184222]}, "type": "Feature", "properties": {"collection_times": [{"days": "Mon-Sat", "time": "10:00am"}, {"days": "Sun", "time": "Closed"}], "id": "8901400040", "name": "USPS COLLECTION BOX - BLUE BOX", "address": {"city": "HENDERSON", "state": "NV", "street": "600 WHITNEY RANCH DR", "postcode": "89014"}}},
{"geometry": {"type": "Point", "coordinates": [-115.0514243333, 36.0681257835]}, "type": "Feature", "properties": {"collection_times": [{"days": "Mon-Sat", "time": "10:30am"}, {"days": "Sun", "time": "Closed"}], "id": "8901400043", "name": "USPS COLLECTION BOX - BLUE BOX", "address": {"city": "HENDERSON", "state": "NV", "street": "735 ROCKY TRAIL RD", "postcode": "89014"}}},
{"geometry": {"type": "Point", "coordinates": [-115.0995161764, 36.0343108536]}, "type": "Feature", "properties": {"collection_times": [{"days": "Mon-Fri", "time": "3:00pm"}, {"days": "Sat", "time": "3:15pm"}, {"days": "Sun", "time": "Closed"}], "id": "8901400044", "name": "USPS COLLECTION BOX - BLUE BOX", "address": {"city": "HENDERSON", "state": "NV", "street": "2599 WIGWAM PKWY", "postcode": "89014"}}},
{"geometry": {"type": "Point", "coordinates": [-115.0533429221, 36.0798571397]}, "type": "Feature", "properties": {"collection_times": [{"days": "Mon-Sat", "time": "2:15pm"}, {"days": "Sun", "time": "Closed"}], "id": "8901400053", "name": "USPS COLLECTION BOX - BLUE BOX", "address": {"city": "HENDERSON", "state": "NV", "street": "1050 WHITNEY RANCH DR", "postcode": "89014"}}},
{"geometry": {"type": "Point", "coordinates": [-115.0685735188, 36.067826447]}, "type": "Feature", "properties": {"collection_times": [{"days": "Mon-Sat", "time": "12:00pm"}, {"days": "Sun", "time": "Closed"}], "id": "8901400054", "name": "USPS COLLECTION BOX - BLUE BOX", "address": {"city": "HENDERSON", "state": "NV", "street": "695 N VALLE VERDE DR", "postcode": "89014"}}},
{"geometry": {"type": "Point", "coordinates": [-115.085968354, 36.049376257]}, "type": "Feature", "properties": {"collection_times": [{"days": "Mon-Fri", "time": "12:00pm"}, {"days": "Sat", "time": "12:30pm"}, {"days": "Sun", "time": "Closed"}], "id": "8901400060", "name": "USPS COLLECTION BOX - BLUE BOX", "address": {"city": "HENDERSON", "state": "NV", "street": "2298 ROBINDALE RD", "postcode": "89014"}}},
{"geometry": {"type": "Point", "coordinates": [-115.0575124446, 36.0620447582]}, "type": "Feature", "properties": {"collection_times": [{"days": "Mon-Fri", "time": "1:30pm"}, {"days": "Sat", "time": "1:00pm"}, {"days": "Sun", "time": "Closed"}], "id": "8901400063", "name": "USPS COLLECTION BOX - BLUE BOX", "address": {"city": "HENDERSON", "state": "NV", "street": "8120 S EASTERN AVE", "postcode": "89014"}}},
{"geometry": {"type": "Point", "coordinates": [-115.0710425647, 36.0304130877]}, "type": "Feature", "properties": {"collection_times": [{"days": "Mon-Fri", "time": "11:45am"}, {"days": "Sat", "time": "12:00pm"}, {"days": "Sun", "time": "Closed"}], "id": "8901400066", "name": "USPS COLLECTION BOX - BLUE BOX", "address": {"city": "HENDERSON", "state": "NV", "street": "50 GRAND LEGACY PKWY", "postcode": "89014"}}},
{"geometry": {"type": "Point", "coordinates": [-115.0873433496, 36.035241219]}, "type": "Feature", "properties": {"collection_times": [{"days": "Mon-Sat", "time": "12:30pm"}, {"days": "Sun", "time": "Closed"}], "id": "8901400071", "name": "USPS COLLECTION BOX - BLUE BOX", "address": {"city": "HENDERSON", "state": "NV", "street": "2251 WIGWAM PKWY", "postcode": "89014"}}},
{"geometry": {"type": "Point", "coordinates": [-115.0308525063, 36.0418699614]}, "type": "Feature", "properties": {"collection_times": [{"days": "Mon-Fri", "time": "4:15pm"}, {"days": "Sat-Sun", "time": "Closed"}], "id": "8901400075", "name": "USPS COLLECTION BOX - BLUE BOX", "address": {"city": "HENDERSON", "state": "NV", "street": "1000 AMERICAN PACIFIC DR", "postcode": "89014"}}},
{"geometry": {"type": "Point", "coordinates": [-115.1181972294, 36.0351738444]}, "type": "Feature", "properties": {"collection_times": [{"days": "Mon-Fri", "time": "1:30pm"}, {"days": "Sat", "time": "1:00pm"}, {"days": "Sun", "time": "Closed"}], "id": "8901400081", "name": "USPS COLLECTION BOX - BLUE BOX", "address": {"city": "HENDERSON", "state": "NV", "street": "8540 S EASTERN AVE", "postcode": "89014"}}},
{"geometry": {"type": "Point", "coordinates": [-115.089612444, 36.027150403]}, "type": "Feature", "properties": {"collection_times": [{"days": "Mon-Sat", "time": "10:00am"}, {"days": "Sun", "time": "Closed"}], "id": "8901400084", "name": "USPS COLLECTION BOX - BLUE BOX", "address": {"city": "HENDERSON", "state": "NV", "street": "2280 CORPORATE CIR", "postcode": "89014"}}},
{"geometry": {"type": "Point", "coordinates": [-115.089612444, 36.027150403]}, "type": "Feature", "properties": {"collection_times": [{"days": "Mon-Sat", "time": "10:00am"}, {"days": "Sun", "time": "Closed"}], "id": "8901400085", "name": "USPS COLLECTION BOX - BLUE BOX", "address": {"city": "HENDERSON", "state": "NV", "street": "2280 CORPORATE CIR", "postcode": "89014"}}},
{"geometry": {"type": "Point", "coordinates": [-115.082283204, 36.07001269]}, "type": "Feature", "properties": {"collection_times": [{"days": "Mon-Fri", "time": "4:30pm"}, {"days": "Sat", "time": "1:00pm"}, {"days": "Sun", "time": "Closed"}], "id": "8901400088", "name": "USPS COLLECTION BOX - BLUE BOX", "address": {"city": "HENDERSON", "state": "NV", "street": "2722 N GREEN VALLEY PKWY", "postcode": "89014"}}},
{"geometry": {"type": "Point", "coordinates": [-115.0526733673, 36.0641805675]}, "type": "Feature", "properties": {"collection_times": [{"days": "Mon-Sat", "time": "9:00am"}, {"days": "Sun", "time": "Closed"}], "id": "8901400089", "name": "USPS COLLECTION BOX - BLUE BOX", "address": {"city": "HENDERSON", "state": "NV", "street": "601 WHITNEY RANCH DR", "postcode": "89014"}}},
{"geometry": {"type": "Point", "coordinates": [-115.0363130449, 36.0612397315]}, "type": "Feature", "properties": {"collection_times": [{"days": "Mon-Fri", "time": "2:30pm"}, {"days": "Sat-Sun", "time": "Closed"}], "id": "8901400093", "name": "USPS COLLECTION BOX - BLUE BOX", "address": {"city": "HENDERSON", "state": "NV", "street": "540 MARKS ST", "postcode": "89014"}}},
{"geometry": {"type": "Point", "coordinates": [-115.082283204, 36.07001269]}, "type": "Feature", "properties": {"collection_times": [{"days": "Mon-Sat", "time": "5:00pm"}, {"days": "Sun", "time": "Closed"}], "id": "8901400098", "name": "USPS COLLECTION BOX - PO LOBBY", "address": {"city": "HENDERSON", "state": "NV", "street": "2722 N GREEN VALLEY PKWY", "postcode": "89014"}}},
{"geometry": {"type": "Point", "coordinates": [-114.9760424686, 36.0322418584]}, "type": "Feature", "properties": {"collection_times": [{"days": "Mon-Sat", "time": "2:00pm"}, {"days": "Sun", "time": "Closed"}], "id": "8901500002", "name": "USPS COLLECTION BOX - BLUE BOX", "address": {"city": "HENDERSON", "state": "NV", "street": "62 E BASIC RD", "postcode": "89015"}}},
{"geometry": {"type": "Point", "coordinates": [-114.9667189564, 36.0262585348]}, "type": "Feature", "properties": {"collection_times": [{"days": "Mon-Sat", "time": "2:00pm"}, {"days": "Sun", "time": "Closed"}], "id": "8901500010", "name": "USPS COLLECTION BOX - BLUE BOX", "address": {"city": "HENDERSON", "state": "NV", "street": "828 S BOULDER HWY", "postcode": "89015"}}},
{"geometry": {"type": "Point", "coordinates": [-115.0014701715, 36.0571005581]}, "type": "Feature", "properties": {"collection_times": [{"days": "Mon-Sat", "time": "2:00pm"}, {"days": "Sun", "time": "Closed"}], "id": "8901500013", "name": "USPS COLLECTION BOX - BLUE BOX", "address": {"city": "HENDERSON", "state": "NV", "street": "1324 N BOULDER HWY", "postcode": "89015"}}},
{"geometry": {"type": "Point", "coordinates": [-114.9671761911, 36.0382749491]}, "type": "Feature", "properties": {"collection_times": [{"days": "Mon-Sat", "time": "2:00pm"}, {"days": "Sun", "time": "Closed"}], "id": "8901500014", "name": "USPS COLLECTION BOX - BLUE BOX", "address": {"city": "HENDERSON", "state": "NV", "street": "710 CENTER ST", "postcode": "89015"}}},
{"geometry": {"type": "Point", "coordinates": [-114.9737085301, 36.0499589854]}, "type": "Feature", "properties": {"collection_times": [{"days": "Mon-Sat", "time": "2:15pm"}, {"days": "Sun", "time": "Closed"}], "id": "8901500016", "name": "USPS COLLECTION BOX - BLUE BOX", "address": {"city": "HENDERSON", "state": "NV", "street": "45 COUNTRY CLUB DR", "postcode": "89015"}}},
{"geometry": {"type": "Point", "coordinates": [-114.9982055216, 36.0647011257]}, "type": "Feature", "properties": {"collection_times": [{"days": "Mon-Sat", "time": "1:45pm"}, {"days": "Sun", "time": "Closed"}], "id": "8901500017", "name": "USPS COLLECTION BOX - BLUE BOX", "address": {"city": "HENDERSON", "state": "NV", "street": "1850 HAREN DR", "postcode": "89015"}}},
{"geometry": {"type": "Point", "coordinates": [-114.9543540989, 36.0132932217]}, "type": "Feature", "properties": {"collection_times": [{"days": "Mon-Sat", "time": "2:00pm"}, {"days": "Sun", "time": "Closed"}], "id": "8901500018", "name": "USPS COLLECTION BOX - BLUE BOX", "address": {"city": "HENDERSON", "state": "NV", "street": "850 W HORIZON DR", "postcode": "89015"}}},
{"geometry": {"type": "Point", "coordinates": [-114.9687807181, 36.053538115]}, "type": "Feature", "properties": {"collection_times": [{"days": "Mon-Sat", "time": "2:15pm"}, {"days": "Sun", "time": "Closed"}], "id": "8901500019", "name": "USPS COLLECTION BOX - BLUE BOX", "address": {"city": "HENDERSON", "state": "NV", "street": "870 E LAKE MEAD PKWY", "postcode": "89015"}}},
{"geometry": {"type": "Point", "coordinates": [-115.0189968915, 36.0639250483]}, "type": "Feature", "properties": {"collection_times": [{"days": "Mon-Sat", "time": "2:00pm"}, {"days": "Sun", "time": "Closed"}], "id": "8901500021", "name": "USPS COLLECTION BOX - BLUE BOX", "address": {"city": "HENDERSON", "state": "NV", "street": "600 W SUNSET RD", "postcode": "89015"}}},
{"geometry": {"type": "Point", "coordinates": [-114.9498372085, 36.0319891313]}, "type": "Feature", "properties": {"collection_times": [{"days": "Mon-Sat", "time": "2:00pm"}, {"days": "Sun", "time": "Closed"}], "id": "8901500022", "name": "USPS COLLECTION BOX - BLUE BOX", "address": {"city": "HENDERSON", "state": "NV", "street": "300 S RACETRACK RD", "postcode": "89015"}}},
{"geometry": {"type": "Point", "coordinates": [-114.989174496, 36.0292383256]}, "type": "Feature", "properties": {"collection_times": [{"days": "Mon-Sat", "time": "1:45pm"}, {"days": "Sun", "time": "Closed"}], "id": "8901500023", "name": "USPS COLLECTION BOX - BLUE BOX", "address": {"city": "HENDERSON", "state": "NV", "street": "171 W VAN WAGENEN ST", "postcode": "89015"}}},
{"geometry": {"type": "Point", "coordinates": [-114.986553059, 36.0362331619]}, "type": "Feature", "properties": {"collection_times": [{"days": "Mon-Sat", "time": "2:00pm"}, {"days": "Sun", "time": "Closed"}], "id": "8901500024", "name": "USPS COLLECTION BOX - BLUE BOX", "address": {"city": "HENDERSON", "state": "NV", "street": "1 S WATER ST", "postcode": "89015"}}},
{"geometry": {"type": "Point", "coordinates": [-114.9841066998, 36.0338329382]}, "type": "Feature", "properties": {"collection_times": [{"days": "Mon-Sat", "time": "2:00pm"}, {"days": "Sun", "time": "Closed"}], "id": "8901500026", "name": "USPS COLLECTION BOX - BLUE BOX", "address": {"city": "HENDERSON", "state": "NV", "street": "107 S WATER ST", "postcode": "89015"}}},
{"geometry": {"type": "Point", "coordinates": [-114.9839600129, 36.0335608576]}, "type": "Feature", "properties": {"collection_times": [{"days": "Mon-Sat", "time": "2:00pm"}, {"days": "Sun", "time": "Closed"}], "id": "8901500027", "name": "USPS COLLECTION BOX - BLUE BOX", "address": {"city": "HENDERSON", "state": "NV", "street": "112 S WATER ST", "postcode": "89015"}}},
{"geometry": {"type": "Point", "coordinates": [-114.976049763, 36.034852378]}, "type": "Feature", "properties": {"collection_times": [{"days": "Mon-Sat", "time": "6:00pm"}, {"days": "Sun", "time": "Closed"}], "id": "8901500029", "name": "USPS COLLECTION BOX - BLUE BOX", "address": {"city": "HENDERSON", "state": "NV", "street": "404 S BOULDER HWY", "postcode": "89015"}}},
{"geometry": {"type": "Point", "coordinates": [-114.9812782449, 36.0309417865]}, "type": "Feature", "properties": {"collection_times": [{"days": "Mon-Sat", "time": "2:15pm"}, {"days": "Sun", "time": "Closed"}], "id": "8901500030", "name": "USPS COLLECTION BOX - BLUE BOX", "address": {"city": "HENDERSON", "state": "NV", "street": "240 S WATER ST", "postcode": "89015"}}},
{"geometry": {"type": "Point", "coordinates": [-114.9862885331, 36.0123925788]}, "type": "Feature", "properties": {"collection_times": [{"days": "Mon-Sat", "time": "1:45pm"}, {"days": "Sun", "time": "Closed"}], "id": "8901500031", "name": "USPS COLLECTION BOX - BLUE BOX", "address": {"city": "HENDERSON", "state": "NV", "street": "161 E HORIZON DR", "postcode": "89015"}}},
{"geometry": {"type": "Point", "coordinates": [-114.976049763, 36.034852378]}, "type": "Feature", "properties": {"collection_times": [{"days": "Mon-Fri", "time": "6:00pm"}, {"days": "Sat", "time": "4:00pm"}, {"days": "Sun", "time": "Closed"}], "id": "8901500034", "name": "USPS COLLECTION BOX - PO LOBBY", "address": {"city": "HENDERSON", "state": "NV", "street": "404 S BOULDER HWY", "postcode": "89015"}}},
{"geometry": {"type": "Point", "coordinates": [-114.976049763, 36.034852378]}, "type": "Feature", "properties": {"collection_times": [{"days": "Mon-Fri", "time": "6:00pm"}, {"days": "Sat", "time": "4:00pm"}, {"days": "Sun", "time": "Closed"}], "id": "8901500035", "name": "USPS COLLECTION BOX - PO LOBBY", "address": {"city": "HENDERSON", "state": "NV", "street": "404 S BOULDER HWY", "postcode": "89015"}}},
{"geometry": {"type": "Point", "coordinates": [-114.976049763, 36.034852378]}, "type": "Feature", "properties": {"collection_times": [{"days": "Mon-Fri", "time": "6:00pm"}, {"days": "Sat", "time": "4:00pm"}, {"days": "Sun", "time": "Closed"}], "id": "8901500039", "name": "USPS COLLECTION BOX - APC", "address": {"city": "HENDERSON", "state": "NV", "street": "404 S BOULDER HWY", "postcode": "89015"}}},
{"geometry": {"type": "Point", "coordinates": [-115.669166983, 36.578197509]}, "type": "Feature", "properties": {"collection_times": [{"days": "Mon-Fri", "time": "4:00pm"}, {"days": "Sat", "time": "9:00am"}, {"days": "Sun", "time": "Closed"}], "id": "8901800000", "name": "USPS COLLECTION BOX - BLUE BOX", "address": {"city": "INDIAN SPRINGS", "state": "NV", "street": "185 N HWY 95", "postcode": "89018"}}},
{"geometry": {"type": "Point", "coordinates": [-115.669166983, 36.578197509]}, "type": "Feature", "properties": {"collection_times": [{"days": "Mon-Fri", "time": "4:00pm"}, {"days": "Sat", "time": "9:00am"}, {"days": "Sun", "time": "Closed"}], "id": "8901800001", "name": "USPS COLLECTION BOX - PO LOBBY", "address": {"city": "INDIAN SPRINGS", "state": "NV", "street": "185 N HWY 95", "postcode": "89018"}}},
{"geometry": {"type": "Point", "coordinates": [-115.24659291, 35.864445007]}, "type": "Feature", "properties": {"collection_times": [{"days": "Mon-Fri", "time": "4:00pm"}, {"days": "Sat", "time": "10:00am"}, {"days": "Sun", "time": "Closed"}], "id": "8901900000", "name": "USPS COLLECTION BOX - PO LOBBY", "address": {"city": "JEAN", "state": "NV", "street": "18500 LAS VEGAS BLVD S", "postcode": "89019"}}},
{"geometry": {"type": "Point", "coordinates": [-115.24659291, 35.864445007]}, "type": "Feature", "properties": {"collection_times": [{"days": "Mon-Sat", "time": "4:00pm"}, {"days": "Sun", "time": "Closed"}], "id": "8901900001", "name": "USPS COLLECTION BOX - BLUE BOX", "address": {"city": "JEAN", "state": "NV", "street": "18500 LAS VEGAS BLVD S", "postcode": "89019"}}},
{"geometry": {"type": "Point", "coordinates": [-115.4354445826, 35.8317622537]}, "type": "Feature", "properties": {"collection_times": [{"days": "Mon-Sat", "time": "3:45pm"}, {"days": "Sun", "time": "Closed"}], "id": "8901900002", "name": "USPS COLLECTION BOX - BLUE BOX", "address": {"city": "JEAN", "state": "NV", "street": "385 SAN PEDRO ST", "postcode": "89019"}}},
{"geometry": {"type": "Point", "coordinates": [-115.3880564294, 35.6110197449]}, "type": "Feature", "properties": {"collection_times": [{"days": "Mon-Sat", "time": "10:00am"}, {"days": "Sun", "time": "Closed"}], "id": "8901900005", "name": "USPS COLLECTION BOX - BLUE BOX", "address": {"city": "JEAN", "state": "NV", "street": "32100 LAS VEGAS BLVD S", "postcode": "89019"}}},
{"geometry": {"type": "Point", "coordinates": [-116.41834008, 36.525426985]}, "type": "Feature", "properties": {"collection_times": [{"days": "Mon-Fri", "time": "3:30pm"}, {"days": "Sat", "time": "9:30am"}, {"days": "Sun", "time": "Closed"}], "id": "8902000002", "name": "USPS COLLECTION BOX - PO LOBBY", "address": {"city": "AMARGOSA VALLEY", "state": "NV", "street": "1921 E SAGE ST", "postcode": "89020"}}},
{"geometry": {"type": "Point", "coordinates": [-114.483993164, 36.597880318]}, "type": "Feature", "properties": {"collection_times": [{"days": "Mon-Fri", "time": "3:45pm"}, {"days": "Sat", "time": "10:00am"}, {"days": "Sun", "time": "Closed"}], "id": "8902100000", "name": "USPS COLLECTION BOX - PO LOBBY", "address": {"city": "LOGANDALE", "state": "NV", "street": "3145 N MOAPA VALLEY BLVD", "postcode": "89021"}}},
{"geometry": {"type": "Point", "coordinates": [-117.065243521, 38.53685769]}, "type": "Feature", "properties": {"collection_times": [{"days": "Mon-Sat", "time": "1:30pm"}, {"days": "Sun", "time": "Closed"}], "id": "8902200000", "name": "USPS COLLECTION BOX - PO LOBBY", "address": {"city": "MANHATTAN", "state": "NV", "street": "17 MAIN ST", "postcode": "89022"}}},
{"geometry": {"type": "Point", "coordinates": [-115.993598905, 36.660499183]}, "type": "Feature", "properties": {"collection_times": [{"days": "Mon-Fri", "time": "11:30am"}, {"days": "Sat-Sun", "time": "Closed"}], "id": "8902300000", "name": "USPS COLLECTION BOX - BLUE BOX", "address": {"city": "MERCURY", "state": "NV", "street": "525 BUSTER ST", "postcode": "89023"}}},
{"geometry": {"type": "Point", "coordinates": [-115.993598905, 36.660499183]}, "type": "Feature", "properties": {"collection_times": [{"days": "Mon-Fri", "time": "11:30am"}, {"days": "Sat-Sun", "time": "Closed"}], "id": "8902300001", "name": "USPS COLLECTION BOX - PO LOBBY", "address": {"city": "MERCURY", "state": "NV", "street": "525 BUSTER ST", "postcode": "89023"}}},
{"geometry": {"type": "Point", "coordinates": [-114.08006322, 36.803829993]}, "type": "Feature", "properties": {"collection_times": [{"days": "Mon-Fri", "time": "4:45pm"}, {"days": "Sat", "time": "12:45pm"}, {"days": "Sun", "time": "Closed"}], "id": "8902400000", "name": "USPS COLLECTION BOX - BLUE BOX", "address": {"city": "MESQUITE", "state": "NV", "street": "510 W MESQUITE BLVD", "postcode": "89024"}}},
{"geometry": {"type": "Point", "coordinates": [-114.08006322, 36.803829993]}, "type": "Feature", "properties": {"collection_times": [{"days": "Mon-Fri", "time": "4:45pm"}, {"days": "Sat", "time": "12:45pm"}, {"days": "Sun", "time": "Closed"}], "id": "8902400001", "name": "USPS COLLECTION BOX - BLUE BOX", "address": {"city": "MESQUITE", "state": "NV", "street": "510 W MESQUITE BLVD", "postcode": "89024"}}},
{"geometry": {"type": "Point", "coordinates": [-114.08006322, 36.803829993]}, "type": "Feature", "properties": {"collection_times": [{"days": "Mon-Fri", "time": "4:45pm"}, {"days": "Sat", "time": "12:45pm"}, {"days": "Sun", "time": "Closed"}], "id": "8902400002", "name": "USPS COLLECTION BOX - PO LOBBY", "address": {"city": "MESQUITE", "state": "NV", "street": "510 W MESQUITE BLVD", "postcode": "89024"}}},
{"geometry": {"type": "Point", "coordinates": [-114.580045072, 36.664214877]}, "type": "Feature", "properties": {"collection_times": [{"days": "Mon-Fri", "time": "4:00pm"}, {"days": "Sat", "time": "8:00am"}, {"days": "Sun", "time": "Closed"}], "id": "8902500001", "name": "USPS COLLECTION BOX - PO LOBBY", "address": {"city": "MOAPA", "state": "NV", "street": "1800 E STATE HIGHWAY 168", "postcode": "89025"}}},
{"geometry": {"type": "Point", "coordinates": [-114.0643478238, 36.8085196415]}, "type": "Feature", "properties": {"collection_times": [{"days": "Mon-Fri", "time": "9:00am"}, {"days": "Sat", "time": "10:00am"}, {"days": "Sun", "time": "Closed"}], "id": "8902700002", "name": "USPS COLLECTION BOX - BLUE BOX", "address": {"city": "MESQUITE", "state": "NV", "street": "330 N SANDHILL BLVD", "postcode": "89027"}}},
{"geometry": {"type": "Point", "coordinates": [-114.0742361778, 36.8040054701]}, "type": "Feature", "properties": {"collection_times": [{"days": "Mon-Fri", "time": "12:30pm"}, {"days": "Sat", "time": "10:00am"}, {"days": "Sun", "time": "Closed"}], "id": "8902700003", "name": "USPS COLLECTION BOX - BLUE BOX", "address": {"city": "MESQUITE", "state": "NV", "street": "355 W MESQUITE BLVD", "postcode": "89027"}}},
{"geometry": {"type": "Point", "coordinates": [-114.0671987549, 36.8039427733]}, "type": "Feature", "properties": {"collection_times": [{"days": "Mon-Fri", "time": "8:45am"}, {"days": "Sat", "time": "10:00am"}, {"days": "Sun", "time": "Closed"}], "id": "8902700005", "name": "USPS COLLECTION BOX - BLUE BOX", "address": {"city": "MESQUITE", "state": "NV", "street": "10 E MESQUITE BLVD", "postcode": "89027"}}},
{"geometry": {"type": "Point", "coordinates": [-114.0686798195, 36.8174864705]}, "type": "Feature", "properties": {"collection_times": [{"days": "Mon-Fri", "time": "11:00am"}, {"days": "Sat", "time": "10:00am"}, {"days": "Sun", "time": "Closed"}], "id": "8902700006", "name": "USPS COLLECTION BOX - BLUE BOX", "address": {"city": "MESQUITE", "state": "NV", "street": "11 W PIONEER BLVD", "postcode": "89027"}}},
{"geometry": {"type": "Point", "coordinates": [-114.1082099566, 36.807468638]}, "type": "Feature", "properties": {"collection_times": [{"days": "Mon-Fri", "time": "9:30am"}, {"days": "Sat", "time": "11:00am"}, {"days": "Sun", "time": "Closed"}], "id": "8902700009", "name": "USPS COLLECTION BOX - BLUE BOX", "address": {"city": "MESQUITE", "state": "NV", "street": "1120 W PIONEER BLVD", "postcode": "89027"}}},
{"geometry": {"type": "Point", "coordinates": [-114.0770169784, 36.8119721806]}, "type": "Feature", "properties": {"collection_times": [{"days": "Mon-Sat", "time": "10:00am"}, {"days": "Sun", "time": "Closed"}], "id": "8902700010", "name": "USPS COLLECTION BOX - BLUE BOX", "address": {"city": "MESQUITE", "state": "NV", "street": "590 W MESQUITE BLVD", "postcode": "89027"}}},
{"geometry": {"type": "Point", "coordinates": [-114.0770169784, 36.8119721806]}, "type": "Feature", "properties": {"collection_times": [{"days": "Mon-Fri", "time": "9:00am"}, {"days": "Sat", "time": "10:00am"}, {"days": "Sun", "time": "Closed"}], "id": "8902700011", "name": "USPS COLLECTION BOX - BLUE BOX", "address": {"city": "MESQUITE", "state": "NV", "street": "100 N GRAPEVINE RD", "postcode": "89027"}}},
{"geometry": {"type": "Point", "coordinates": [-114.624899946, 35.144442737]}, "type": "Feature", "properties": {"collection_times": [{"days": "Mon-Fri", "time": "4:00pm"}, {"days": "Sat", "time": "2:00pm"}, {"days": "Sun", "time": "Closed"}], "id": "8902900001", "name": "USPS COLLECTION BOX - BLUE BOX", "address": {"city": "LAUGHLIN", "state": "NV", "street": "2850 NEEDLES HWY", "postcode": "89029"}}},
{"geometry": {"type": "Point", "coordinates": [-114.624899946, 35.144442737]}, "type": "Feature", "properties": {"collection_times": [{"days": "Mon-Fri", "time": "4:00pm"}, {"days": "Sat", "time": "2:00pm"}, {"days": "Sun", "time": "Closed"}], "id": "8902900004", "name": "USPS COLLECTION BOX - PO LOBBY", "address": {"city": "LAUGHLIN", "state": "NV", "street": "2850 NEEDLES HWY", "postcode": "89029"}}},
{"geometry": {"type": "Point", "coordinates": [-114.624899946, 35.144442737]}, "type": "Feature", "properties": {"collection_times": [{"days": "Mon-Fri", "time": "4:00pm"}, {"days": "Sat", "time": "2:00pm"}, {"days": "Sun", "time": "Closed"}], "id": "8902900005", "name": "USPS COLLECTION BOX - PO LOBBY", "address": {"city": "LAUGHLIN", "state": "NV", "street": "2850 NEEDLES HWY", "postcode": "89029"}}},
{"geometry": {"type": "Point", "coordinates": [-114.5744917797, 35.1619898151]}, "type": "Feature", "properties": {"collection_times": [{"days": "Mon-Sat", "time": "9:00am"}, {"days": "Sun", "time": "Closed"}], "id": "8902900007", "name": "USPS COLLECTION BOX - BLUE BOX", "address": {"city": "LAUGHLIN", "state": "NV", "street": "1955 S CASINO DR", "postcode": "89029"}}},
{"geometry": {"type": "Point", "coordinates": [-115.1070196852, 36.2035804519]}, "type": "Feature", "properties": {"collection_times": [{"days": "Mon-Sat", "time": "3:30pm"}, {"days": "Sun", "time": "Closed"}], "id": "8903000001", "name": "USPS COLLECTION BOX - BLUE BOX", "address": {"city": "NORTH LAS VEGAS", "state": "NV", "street": "2405 BELMONT ST", "postcode": "89030"}}},
{"geometry": {"type": "Point", "coordinates": [-115.119548908, 36.2051834725]}, "type": "Feature", "properties": {"collection_times": [{"days": "Mon-Sat", "time": "3:00pm"}, {"days": "Sun", "time": "Closed"}], "id": "8903000002", "name": "USPS COLLECTION BOX - EXPRESS", "address": {"city": "NORTH LAS VEGAS", "state": "NV", "street": "1000 E CHEYENNE AVE", "postcode": "89030"}}},
{"geometry": {"type": "Point", "coordinates": [-115.1291161757, 36.217703799]}, "type": "Feature", "properties": {"collection_times": [{"days": "Mon-Sat", "time": "3:00pm"}, {"days": "Sun", "time": "Closed"}], "id": "8903000003", "name": "USPS COLLECTION BOX - BLUE BOX", "address": {"city": "NORTH LAS VEGAS", "state": "NV", "street": "1000 E CHEYENNE AVE", "postcode": "89030"}}},
{"geometry": {"type": "Point", "coordinates": [-115.112217965, 36.2103757008]}, "type": "Feature", "properties": {"collection_times": [{"days": "Mon-Sat", "time": "3:00pm"}, {"days": "Sun", "time": "Closed"}], "id": "8903000006", "name": "USPS COLLECTION BOX - BLUE BOX", "address": {"city": "NORTH LAS VEGAS", "state": "NV", "street": "2715 E EVANS AVE", "postcode": "89030"}}},
{"geometry": {"type": "Point", "coordinates": [-115.1478270376, 36.1957007622]}, "type": "Feature", "properties": {"collection_times": [{"days": "Mon-Sat", "time": "2:45pm"}, {"days": "Sun", "time": "Closed"}], "id": "8903000007", "name": "USPS COLLECTION BOX - BLUE BOX", "address": {"city": "NORTH LAS VEGAS", "state": "NV", "street": "600 W LAKE MEAD BLVD", "postcode": "89030"}}},
{"geometry": {"type": "Point", "coordinates": [-115.1200998387, 36.1957029048]}, "type": "Feature", "properties": {"collection_times": [{"days": "Mon-Sat", "time": "3:45pm"}, {"days": "Sun", "time": "Closed"}], "id": "8903000013", "name": "USPS COLLECTION BOX - BLUE BOX", "address": {"city": "NORTH LAS VEGAS", "state": "NV", "street": "2029 E LAKE MEAD BLVD", "postcode": "89030"}}},
{"geometry": {"type": "Point", "coordinates": [-115.123199608, 36.19584804]}, "type": "Feature", "properties": {"collection_times": [{"days": "Mon-Fri", "time": "5:00pm"}, {"days": "Sat", "time": "1:00pm"}, {"days": "Sun", "time": "Closed"}], "id": "8903000019", "name": "USPS COLLECTION BOX - PO LOBBY", "address": {"city": "NORTH LAS VEGAS", "state": "NV", "street": "1414 E LAKE MEAD BLVD", "postcode": "89030"}}},
{"geometry": {"type": "Point", "coordinates": [-115.1263882723, 36.2213461296]}, "type": "Feature", "properties": {"collection_times": [{"days": "Mon-Sat", "time": "3:00pm"}, {"days": "Sun", "time": "Closed"}], "id": "8903000021", "name": "USPS COLLECTION BOX - BLUE BOX", "address": {"city": "NORTH LAS VEGAS", "state": "NV", "street": "1100 E COLTON AVE", "postcode": "89030"}}},
{"geometry": {"type": "Point", "coordinates": [-115.0973738378, 36.2403113278]}, "type": "Feature", "properties": {"collection_times": [{"days": "Mon-Sat", "time": "3:15pm"}, {"days": "Sun", "time": "Closed"}], "id": "8903000022", "name": "USPS COLLECTION BOX - BLUE BOX", "address": {"city": "NORTH LAS VEGAS", "state": "NV", "street": "3812 E CRAIG RD", "postcode": "89030"}}},
{"geometry": {"type": "Point", "coordinates": [-115.1707646388, 36.2576541763]}, "type": "Feature", "properties": {"collection_times": [{"days": "Mon-Sat", "time": "3:00pm"}, {"days": "Sun", "time": "Closed"}], "id": "8903100000", "name": "USPS COLLECTION BOX - BLUE BOX", "address": {"city": "NORTH LAS VEGAS", "state": "NV", "street": "5200 S MENDENHALL DR", "postcode": "89031"}}},
{"geometry": {"type": "Point", "coordinates": [-115.153077123, 36.249111115]}, "type": "Feature", "properties": {"collection_times": [{"days": "Mon-Sat", "time": "5:00pm"}, {"days": "Sun", "time": "Closed"}], "id": "8903100001", "name": "USPS COLLECTION BOX - BLUE BOX", "address": {"city": "NORTH LAS VEGAS", "state": "NV", "street": "4904 CAMINO AL NORTE", "postcode": "89031"}}},
{"geometry": {"type": "Point", "coordinates": [-115.1763553431, 36.2393223933]}, "type": "Feature", "properties": {"collection_times": [{"days": "Mon-Fri", "time": "3:30pm"}, {"days": "Sat-Sun", "time": "Closed"}], "id": "8903100004", "name": "USPS COLLECTION BOX - BLUE BOX", "address": {"city": "NORTH LAS VEGAS", "state": "NV", "street": "2481 W CRAIG RD", "postcode": "89031"}}},
{"geometry": {"type": "Point", "coordinates": [-115.1167329612, 36.2372297197]}, "type": "Feature", "properties": {"collection_times": [{"days": "Mon-Fri", "time": "3:30pm"}, {"days": "Sat-Sun", "time": "Closed"}], "id": "8903100005", "name": "USPS COLLECTION BOX - BLUE BOX", "address": {"city": "NORTH LAS VEGAS", "state": "NV", "street": "4230 LOSEE RD", "postcode": "89031"}}},
{"geometry": {"type": "Point", "coordinates": [-115.153077123, 36.249111115]}, "type": "Feature", "properties": {"collection_times": [{"days": "Mon-Fri", "time": "5:00pm"}, {"days": "Sat", "time": "3:30pm"}, {"days": "Sun", "time": "Closed"}], "id": "8903100006", "name": "USPS COLLECTION BOX - PO LOBBY", "address": {"city": "NORTH LAS VEGAS", "state": "NV", "street": "4904 CAMINO AL NORTE", "postcode": "89031"}}},
{"geometry": {"type": "Point", "coordinates": [-115.1971816225, 36.2389992975]}, "type": "Feature", "properties": {"collection_times": [{"days": "Mon-Fri", "time": "3:15pm"}, {"days": "Sat-Sun", "time": "Closed"}], "id": "8903100008", "name": "USPS COLLECTION BOX - BLUE BOX", "address": {"city": "NORTH LAS VEGAS", "state": "NV", "street": "4211 W CRAIG RD", "postcode": "89031"}}},
{"geometry": {"type": "Point", "coordinates": [-115.1971816225, 36.2389992975]}, "type": "Feature", "properties": {"collection_times": [{"days": "Mon-Fri", "time": "3:15pm"}, {"days": "Sat-Sun", "time": "Closed"}], "id": "8903100009", "name": "USPS COLLECTION BOX - BLUE BOX", "address": {"city": "NORTH LAS VEGAS", "state": "NV", "street": "4211 W CRAIG RD", "postcode": "89031"}}},
{"geometry": {"type": "Point", "coordinates": [-115.153077123, 36.249111115]}, "type": "Feature", "properties": {"collection_times": [{"days": "Mon-Fri", "time": "5:00pm"}, {"days": "Sat", "time": "3:30pm"}, {"days": "Sun", "time": "Closed"}], "id": "8903100012", "name": "USPS COLLECTION BOX - APC", "address": {"city": "NORTH LAS VEGAS", "state": "NV", "street": "4904 CAMINO AL NORTE", "postcode": "89031"}}},
{"geometry": {"type": "Point", "coordinates": [-115.1899072539, 36.1967535957]}, "type": "Feature", "properties": {"collection_times": [{"days": "Mon-Fri", "time": "11:45am"}, {"days": "Sat-Sun", "time": "Closed"}], "id": "8903200000", "name": "USPS COLLECTION BOX - BLUE BOX", "address": {"city": "NORTH LAS VEGAS", "state": "NV", "street": "2101 TEXAS STAR LN", "postcode": "89032"}}},
{"geometry": {"type": "Point", "coordinates": [-114.1177854427, 36.8279925384]}, "type": "Feature", "properties": {"collection_times": [{"days": "Mon-Sat", "time": "10:00am"}, {"days": "Sun", "time": "Closed"}], "id": "8903400001", "name": "USPS COLLECTION BOX - BLUE BOX", "address": {"city": "MESQUITE", "state": "NV", "street": "1350 FLAT TOP MESA DR", "postcode": "89034"}}},
{"geometry": {"type": "Point", "coordinates": [-114.8799353334, 35.3017978203]}, "type": "Feature", "properties": {"collection_times": [{"days": "Mon-Sat", "time": "2:45pm"}, {"days": "Sun", "time": "Closed"}], "id": "8903900000", "name": "USPS COLLECTION BOX - BLUE BOX", "address": {"city": "SEARCHLIGHT", "state": "NV", "street": "1 PIUTE VALLEY DR", "postcode": "89039"}}},
{"geometry": {"type": "Point", "coordinates": [-114.444805212, 36.544936426]}, "type": "Feature", "properties": {"collection_times": [{"days": "Mon-Fri", "time": "4:00pm"}, {"days": "Sat", "time": "12:00pm"}, {"days": "Sun", "time": "Closed"}], "id": "8904000000", "name": "USPS COLLECTION BOX - PO LOBBY", "address": {"city": "OVERTON", "state": "NV", "street": "275 MOAPA VALLEY BLVD", "postcode": "89040"}}},
{"geometry": {"type": "Point", "coordinates": [-115.971115674, 36.203513649]}, "type": "Feature", "properties": {"collection_times": [{"days": "Mon-Fri", "time": "4:30pm"}, {"days": "Sat", "time": "3:30pm"}, {"days": "Sun", "time": "Closed"}], "id": "8904100000", "name": "USPS COLLECTION BOX - BLUE BOX", "address": {"city": "PAHRUMP", "state": "NV", "street": "2300 POSTAL DR", "postcode": "89041"}}},
{"geometry": {"type": "Point", "coordinates": [-115.9734484979, 36.2028331866]}, "type": "Feature", "properties": {"collection_times": [{"days": "Mon-Fri", "time": "4:30pm"}, {"days": "Sat", "time": "3:30pm"}, {"days": "Sun", "time": "Closed"}], "id": "8904100001", "name": "USPS COLLECTION BOX - BLUE BOX", "address": {"city": "PAHRUMP", "state": "NV", "street": "2300 POSTAL RD", "postcode": "89041"}}},
{"geometry": {"type": "Point", "coordinates": [-115.9734484979, 36.2028331866]}, "type": "Feature", "properties": {"collection_times": [{"days": "Mon-Fri", "time": "4:30pm"}, {"days": "Sat", "time": "3:30pm"}, {"days": "Sun", "time": "Closed"}], "id": "8904100002", "name": "USPS COLLECTION BOX - BLUE BOX", "address": {"city": "PAHRUMP", "state": "NV", "street": "2300 POSTAL RD", "postcode": "89041"}}},
{"geometry": {"type": "Point", "coordinates": [-115.971115674, 36.203513649]}, "type": "Feature", "properties": {"collection_times": [{"days": "Mon-Fri", "time": "4:30pm"}, {"days": "Sat", "time": "3:30pm"}, {"days": "Sun", "time": "Closed"}], "id": "8904100020", "name": "USPS COLLECTION BOX - EXPRESS", "address": {"city": "PAHRUMP", "state": "NV", "street": "2300 POSTAL DR", "postcode": "89041"}}},
{"geometry": {"type": "Point", "coordinates": [-115.971115674, 36.203513649]}, "type": "Feature", "properties": {"collection_times": [{"days": "Mon-Fri", "time": "4:30pm"}, {"days": "Sat", "time": "3:30pm"}, {"days": "Sun", "time": "Closed"}], "id": "8904100021", "name": "USPS COLLECTION BOX - PO LOBBY", "address": {"city": "PAHRUMP", "state": "NV", "street": "2300 POSTAL DR", "postcode": "89041"}}},
{"geometry": {"type": "Point", "coordinates": [-115.971115674, 36.203513649]}, "type": "Feature", "properties": {"collection_times": [{"days": "Mon-Fri", "time": "4:30pm"}, {"days": "Sat", "time": "3:30pm"}, {"days": "Sun", "time": "Closed"}], "id": "8904100022", "name": "USPS COLLECTION BOX - PO LOBBY", "address": {"city": "PAHRUMP", "state": "NV", "street": "2300 POSTAL DR", "postcode": "89041"}}},
{"geometry": {"type": "Point", "coordinates": [-115.971115674, 36.203513649]}, "type": "Feature", "properties": {"collection_times": [{"days": "Mon-Fri", "time": "4:30pm"}, {"days": "Sat", "time": "3:30pm"}, {"days": "Sun", "time": "Closed"}], "id": "8904100023", "name": "USPS COLLECTION BOX - PO LOBBY", "address": {"city": "PAHRUMP", "state": "NV", "street": "2300 POSTAL DR", "postcode": "89041"}}},
{"geometry": {"type": "Point", "coordinates": [-115.9734484979, 36.2028331866]}, "type": "Feature", "properties": {"collection_times": [{"days": "Mon-Fri", "time": "4:30pm"}, {"days": "Sat", "time": "3:30pm"}, {"days": "Sun", "time": "Closed"}], "id": "8904100024", "name": "USPS COLLECTION BOX - APC", "address": {"city": "PAHRUMP", "state": "NV", "street": "2300 POSTAL RD", "postcode": "89041"}}},
{"geometry": {"type": "Point", "coordinates": [-114.399961323, 37.790290245]}, "type": "Feature", "properties": {"collection_times": [{"days": "Mon-Fri", "time": "2:00pm"}, {"days": "Sat", "time": "11:30am"}, {"days": "Sun", "time": "Closed"}], "id": "8904200001", "name": "USPS COLLECTION BOX - PO LOBBY", "address": {"city": "PANACA", "state": "NV", "street": "350 MAIN ST", "postcode": "89042"}}},
{"geometry": {"type": "Point", "coordinates": [-114.399961323, 37.790290245]}, "type": "Feature", "properties": {"collection_times": [{"days": "Mon-Fri", "time": "2:00pm"}, {"days": "Sat", "time": "11:30am"}, {"days": "Sun", "time": "Closed"}], "id": "8904200002", "name": "USPS COLLECTION BOX - PO LOBBY", "address": {"city": "PANACA", "state": "NV", "street": "350 MAIN ST", "postcode": "89042"}}},
{"geometry": {"type": "Point", "coordinates": [-114.399961323, 37.790290245]}, "type": "Feature", "properties": {"collection_times": [{"days": "Mon-Fri", "time": "2:00pm"}, {"days": "Sat", "time": "11:30am"}, {"days": "Sun", "time": "Closed"}], "id": "8904200003", "name": "USPS COLLECTION BOX - BLUE BOX", "address": {"city": "PANACA", "state": "NV", "street": "350 MAIN ST", "postcode": "89042"}}},
{"geometry": {"type": "Point", "coordinates": [-114.446579024, 37.939312502]}, "type": "Feature", "properties": {"collection_times": [{"days": "Mon-Fri", "time": "1:45pm"}, {"days": "Sat", "time": "11:00am"}, {"days": "Sun", "time": "Closed"}], "id": "8904300000", "name": "USPS COLLECTION BOX - BLUE BOX", "address": {"city": "PIOCHE", "state": "NV", "street": "1 MAIN ST", "postcode": "89043"}}},
{"geometry": {"type": "Point", "coordinates": [-114.446579024, 37.939312502]}, "type": "Feature", "properties": {"collection_times": [{"days": "Mon-Fri", "time": "1:45pm"}, {"days": "Sat", "time": "11:00am"}, {"days": "Sun", "time": "Closed"}], "id": "8904300001", "name": "USPS COLLECTION BOX - PO LOBBY", "address": {"city": "PIOCHE", "state": "NV", "street": "1 MAIN ST", "postcode": "89043"}}},
{"geometry": {"type": "Point", "coordinates": [-117.1612175, 38.694139579]}, "type": "Feature", "properties": {"collection_times": [{"days": "Mon-Sat", "time": "1:45pm"}, {"days": "Sun", "time": "Closed"}], "id": "8904500000", "name": "USPS COLLECTION BOX - PO LOBBY", "address": {"city": "ROUND MOUNTAIN", "state": "NV", "street": "83 HADLEY LN", "postcode": "89045"}}},
{"geometry": {"type": "Point", "coordinates": [-114.918060667, 35.46352319]}, "type": "Feature", "properties": {"collection_times": [{"days": "Mon-Fri", "time": "3:15pm"}, {"days": "Sat", "time": "11:45am"}, {"days": "Sun", "time": "Closed"}], "id": "8904600000", "name": "USPS COLLECTION BOX - BLUE BOX", "address": {"city": "SEARCHLIGHT", "state": "NV", "street": "437 S MAIN ST", "postcode": "89046"}}},
{"geometry": {"type": "Point", "coordinates": [-114.918060667, 35.46352319]}, "type": "Feature", "properties": {"collection_times": [{"days": "Mon-Fri", "time": "4:15pm"}, {"days": "Sat", "time": "11:45am"}, {"days": "Sun", "time": "Closed"}], "id": "8904600004", "name": "USPS COLLECTION BOX - PO LOBBY", "address": {"city": "SEARCHLIGHT", "state": "NV", "street": "437 S MAIN ST", "postcode": "89046"}}},
{"geometry": {"type": "Point", "coordinates": [-114.9406273032, 35.530997944]}, "type": "Feature", "properties": {"collection_times": [{"days": "Mon-Fri", "time": "10:00am"}, {"days": "Sat", "time": "9:30am"}, {"days": "Sun", "time": "Closed"}], "id": "8904600006", "name": "USPS COLLECTION BOX - BLUE BOX", "address": {"city": "SEARCHLIGHT", "state": "NV", "street": "57 COTTONWOOD CV", "postcode": "89046"}}},
{"geometry": {"type": "Point", "coordinates": [-117.9469572414, 37.7102548276]}, "type": "Feature", "properties": {"collection_times": [{"days": "Mon-Sat", "time": "1:00pm"}, {"days": "Sun", "time": "Closed"}], "id": "8904700001", "name": "USPS COLLECTION BOX - BLUE BOX", "address": {"city": "SILVERPEAK", "state": "NV", "street": "350 MAIN ST", "postcode": "89047"}}},
{"geometry": {"type": "Point", "coordinates": [-115.9929346408, 36.1460434297]}, "type": "Feature", "properties": {"collection_times": [{"days": "Mon-Sat", "time": "2:45pm"}, {"days": "Sun", "time": "Closed"}], "id": "8904800000", "name": "USPS COLLECTION BOX - BLUE BOX", "address": {"city": "PAHRUMP", "state": "NV", "street": "5020 PAHRUMP VALLEY BLVD", "postcode": "89048"}}},
{"geometry": {"type": "Point", "coordinates": [-116.0322577439, 36.2056676166]}, "type": "Feature", "properties": {"collection_times": [{"days": "Mon-Sat", "time": "2:00pm"}, {"days": "Sun", "time": "Closed"}], "id": "8904800001", "name": "USPS COLLECTION BOX - BLUE BOX", "address": {"city": "PAHRUMP", "state": "NV", "street": "961 S LINDA ST", "postcode": "89048"}}},
{"geometry": {"type": "Point", "coordinates": [-116.0157280562, 36.2043500307]}, "type": "Feature", "properties": {"collection_times": [{"days": "Mon-Sat", "time": "2:15pm"}, {"days": "Sun", "time": "Closed"}], "id": "8904800002", "name": "USPS COLLECTION BOX - BLUE BOX", "address": {"city": "PAHRUMP", "state": "NV", "street": "101 COMSTOCK CIR N", "postcode": "89048"}}},
{"geometry": {"type": "Point", "coordinates": [-116.0157280562, 36.2043500307]}, "type": "Feature", "properties": {"collection_times": [{"days": "Mon-Sat", "time": "2:15pm"}, {"days": "Sun", "time": "Closed"}], "id": "8904800003", "name": "USPS COLLECTION BOX - BLUE BOX", "address": {"city": "PAHRUMP", "state": "NV", "street": "101 COMSTOCK CIR N", "postcode": "89048"}}},
{"geometry": {"type": "Point", "coordinates": [-116.0071162165, 36.1832411947]}, "type": "Feature", "properties": {"collection_times": [{"days": "Mon-Sat", "time": "3:00pm"}, {"days": "Sun", "time": "Closed"}], "id": "8904800004", "name": "USPS COLLECTION BOX - BLUE BOX", "address": {"city": "PAHRUMP", "state": "NV", "street": "2301 WINERY RD", "postcode": "89048"}}},
{"geometry": {"type": "Point", "coordinates": [-115.9921878486, 36.2144395019]}, "type": "Feature", "properties": {"collection_times": [{"days": "Mon-Sat", "time": "2:00pm"}, {"days": "Sun", "time": "Closed"}], "id": "8904800005", "name": "USPS COLLECTION BOX - BLUE BOX", "address": {"city": "PAHRUMP", "state": "NV", "street": "360 S HIGHWAY 160", "postcode": "89048"}}},
{"geometry": {"type": "Point", "coordinates": [-115.9847015423, 36.2088275644]}, "type": "Feature", "properties": {"collection_times": [{"days": "Mon-Sat", "time": "2:00pm"}, {"days": "Sun", "time": "Closed"}], "id": "8904800006", "name": "USPS COLLECTION BOX - BLUE BOX", "address": {"city": "PAHRUMP", "state": "NV", "street": "750 S HIGHWAY 160", "postcode": "89048"}}},
{"geometry": {"type": "Point", "coordinates": [-115.993421279, 36.2172424519]}, "type": "Feature", "properties": {"collection_times": [{"days": "Mon-Sat", "time": "2:00pm"}, {"days": "Sun", "time": "Closed"}], "id": "8904800008", "name": "USPS COLLECTION BOX - BLUE BOX", "address": {"city": "PAHRUMP", "state": "NV", "street": "200 S HIGHWAY 160", "postcode": "89048"}}},
{"geometry": {"type": "Point", "coordinates": [-115.954185379, 36.1842409194]}, "type": "Feature", "properties": {"collection_times": [{"days": "Mon-Sat", "time": "3:00pm"}, {"days": "Sun", "time": "Closed"}], "id": "8904800009", "name": "USPS COLLECTION BOX - BLUE BOX", "address": {"city": "PAHRUMP", "state": "NV", "street": "3250 S HIGHWAY 160", "postcode": "89048"}}},
{"geometry": {"type": "Point", "coordinates": [-115.9874189756, 36.2108000262]}, "type": "Feature", "properties": {"collection_times": [{"days": "Mon-Sat", "time": "2:00pm"}, {"days": "Sun", "time": "Closed"}], "id": "8904800010", "name": "USPS COLLECTION BOX - BLUE BOX", "address": {"city": "PAHRUMP", "state": "NV", "street": "601 S HIGHWAY 160", "postcode": "89048"}}},
{"geometry": {"type": "Point", "coordinates": [-117.230445978, 38.067561433]}, "type": "Feature", "properties": {"collection_times": [{"days": "Mon-Fri", "time": "2:00pm"}, {"days": "Sat", "time": "12:00pm"}, {"days": "Sun", "time": "Closed"}], "id": "8904900000", "name": "USPS COLLECTION BOX - BLUE BOX", "address": {"city": "TONOPAH", "state": "NV", "street": "201 ERIE MAIN", "postcode": "89049"}}},
{"geometry": {"type": "Point", "coordinates": [-117.2195873464, 38.0611308878]}, "type": "Feature", "properties": {"collection_times": [{"days": "Mon-Fri", "time": "2:00pm"}, {"days": "Sat", "time": "12:00pm"}, {"days": "Sun", "time": "Closed"}], "id": "8904900001", "name": "USPS COLLECTION BOX - BLUE BOX", "address": {"city": "TONOPAH", "state": "NV", "street": "1100 ERIE MAIN", "postcode": "89049"}}},
{"geometry": {"type": "Point", "coordinates": [-117.230445978, 38.067561433]}, "type": "Feature", "properties": {"collection_times": [{"days": "Mon-Fri", "time": "4:30pm"}, {"days": "Sat", "time": "12:15pm"}, {"days": "Sun", "time": "Closed"}], "id": "8904900002", "name": "USPS COLLECTION BOX - PO LOBBY", "address": {"city": "TONOPAH", "state": "NV", "street": "201 ERIE MAIN", "postcode": "89049"}}},
{"geometry": {"type": "Point", "coordinates": [-115.0956522122, 35.9698881044]}, "type": "Feature", "properties": {"collection_times": [{"days": "Mon-Fri", "time": "5:00pm"}, {"days": "Sat", "time": "3:00pm"}, {"days": "Sun", "time": "Closed"}], "id": "8905200001", "name": "USPS COLLECTION BOX - BLUE BOX", "address": {"city": "HENDERSON", "state": "NV", "street": "1 ANTHEM CLUB DR", "postcode": "89052"}}},
{"geometry": {"type": "Point", "coordinates": [-115.1147625999, 36.0066571938]}, "type": "Feature", "properties": {"collection_times": [{"days": "Mon-Sat", "time": "10:30am"}, {"days": "Sun", "time": "Closed"}], "id": "8905200002", "name": "USPS COLLECTION BOX - BLUE BOX", "address": {"city": "HENDERSON", "state": "NV", "street": "3001 SAINT ROSE PKWY", "postcode": "89052"}}},
{"geometry": {"type": "Point", "coordinates": [-115.1037724628, 35.9985653826]}, "type": "Feature", "properties": {"collection_times": [{"days": "Mon-Fri", "time": "5:15pm"}, {"days": "Sat", "time": "2:30pm"}, {"days": "Sun", "time": "Closed"}], "id": "8905200005", "name": "USPS COLLECTION BOX - BLUE BOX", "address": {"city": "HENDERSON", "state": "NV", "street": "10616 S EASTERN AVE", "postcode": "89052"}}},
{"geometry": {"type": "Point", "coordinates": [-115.0946021649, 35.9540210627]}, "type": "Feature", "properties": {"collection_times": [{"days": "Mon-Fri", "time": "4:45pm"}, {"days": "Sat", "time": "2:30pm"}, {"days": "Sun", "time": "Closed"}], "id": "8905200007", "name": "USPS COLLECTION BOX - BLUE BOX", "address": {"city": "HENDERSON", "state": "NV", "street": "2450 HAMPTON RD", "postcode": "89052"}}},
{"geometry": {"type": "Point", "coordinates": [-115.1217890038, 36.0015982598]}, "type": "Feature", "properties": {"collection_times": [{"days": "Mon-Sat", "time": "6:00pm"}, {"days": "Sun", "time": "Closed"}], "id": "8905200010", "name": "USPS COLLECTION BOX - BLUE BOX", "address": {"city": "HENDERSON", "state": "NV", "street": "3055 SAINT ROSE PKWY", "postcode": "89052"}}},
{"geometry": {"type": "Point", "coordinates": [-115.1217890038, 36.0015982598]}, "type": "Feature", "properties": {"collection_times": [{"days": "Mon-Sat", "time": "6:00pm"}, {"days": "Sun", "time": "Closed"}], "id": "8905200011", "name": "USPS COLLECTION BOX - BLUE BOX", "address": {"city": "HENDERSON", "state": "NV", "street": "3055 SAINT ROSE PKWY", "postcode": "89052"}}},
{"geometry": {"type": "Point", "coordinates": [-115.1217890038, 36.0015982598]}, "type": "Feature", "properties": {"collection_times": [{"days": "Mon-Fri", "time": "5:45pm"}, {"days": "Sat", "time": "4:45pm"}, {"days": "Sun", "time": "Closed"}], "id": "8905200012", "name": "USPS COLLECTION BOX - PO LOBBY", "address": {"city": "HENDERSON", "state": "NV", "street": "3055 SAINT ROSE PKWY", "postcode": "89052"}}},
{"geometry": {"type": "Point", "coordinates": [-115.1217890038, 36.0015982598]}, "type": "Feature", "properties": {"collection_times": [{"days": "Mon-Fri", "time": "5:45pm"}, {"days": "Sat", "time": "4:45pm"}, {"days": "Sun", "time": "Closed"}], "id": "8905200016", "name": "USPS COLLECTION BOX - APC", "address": {"city": "HENDERSON", "state": "NV", "street": "3055 SAINT ROSE PKWY", "postcode": "89052"}}},
{"geometry": {"type": "Point", "coordinates": [-115.106887562, 35.9874117969]}, "type": "Feature", "properties": {"collection_times": [{"days": "Mon-Fri", "time": "4:00pm"}, {"days": "Sat-Sun", "time": "Closed"}], "id": "8905200018", "name": "USPS COLLECTION BOX - BLUE BOX", "address": {"city": "HENDERSON", "state": "NV", "street": "2225 VILLAGE WALK DR", "postcode": "89052"}}},
{"geometry": {"type": "Point", "coordinates": [-116.0509970273, 36.2638688819]}, "type": "Feature", "properties": {"collection_times": [{"days": "Mon-Sat", "time": "2:00pm"}, {"days": "Sun", "time": "Closed"}], "id": "8906000000", "name": "USPS COLLECTION BOX - BLUE BOX", "address": {"city": "PAHRUMP", "state": "NV", "street": "2040 W BELL VISTA AVE", "postcode": "89060"}}},
{"geometry": {"type": "Point", "coordinates": [-116.0390295252, 36.2196821624]}, "type": "Feature", "properties": {"collection_times": [{"days": "Mon-Sat", "time": "2:00pm"}, {"days": "Sun", "time": "Closed"}], "id": "8906000001", "name": "USPS COLLECTION BOX - BLUE BOX", "address": {"city": "PAHRUMP", "state": "NV", "street": "1370 W BASIN AVE", "postcode": "89060"}}},
{"geometry": {"type": "Point", "coordinates": [-115.9872561127, 36.2196895557]}, "type": "Feature", "properties": {"collection_times": [{"days": "Mon-Fri", "time": "2:00pm"}, {"days": "Sat-Sun", "time": "Closed"}], "id": "8906000002", "name": "USPS COLLECTION BOX - BLUE BOX", "address": {"city": "PAHRUMP", "state": "NV", "street": "1520 E BASIN AVE", "postcode": "89060"}}},
{"geometry": {"type": "Point", "coordinates": [-116.014612886, 36.278001124]}, "type": "Feature", "properties": {"collection_times": [{"days": "Mon-Fri", "time": "2:00pm"}, {"days": "Sat", "time": "12:00pm"}, {"days": "Sun", "time": "Closed"}], "id": "8906000003", "name": "USPS COLLECTION BOX - BLUE BOX", "address": {"city": "PAHRUMP", "state": "NV", "street": "3950 N BLAGG RD", "postcode": "89060"}}},
{"geometry": {"type": "Point", "coordinates": [-116.014612886, 36.278001124]}, "type": "Feature", "properties": {"collection_times": [{"days": "Mon-Fri", "time": "2:00pm"}, {"days": "Sat", "time": "12:00pm"}, {"days": "Sun", "time": "Closed"}], "id": "8906000004", "name": "USPS COLLECTION BOX - PO LOBBY", "address": {"city": "PAHRUMP", "state": "NV", "street": "3950 N BLAGG RD", "postcode": "89060"}}},
{"geometry": {"type": "Point", "coordinates": [-115.9575365159, 36.1173297471]}, "type": "Feature", "properties": {"collection_times": [{"days": "Mon-Sat", "time": "3:00pm"}, {"days": "Sun", "time": "Closed"}], "id": "8906100000", "name": "USPS COLLECTION BOX - BLUE BOX", "address": {"city": "PAHRUMP", "state": "NV", "street": "3001 E KELLOGG RD", "postcode": "89061"}}},
{"geometry": {"type": "Point", "coordinates": [-115.1036092145, 36.03559673]}, "type": "Feature", "properties": {"collection_times": [{"days": "Mon-Sat", "time": "11:00am"}, {"days": "Sun", "time": "Closed"}], "id": "8907400000", "name": "USPS COLLECTION BOX - BLUE BOX", "address": {"city": "HENDERSON", "state": "NV", "street": "121 GAINSWAY WEST DR", "postcode": "89074"}}}
]}
