{"type": "FeatureCollection", "features": [
{"geometry": {"type": "Point", "coordinates": [-115.1450908535, 36.1668968944]}, "type": "Feature", "properties": {"collection_times": [{"days": "Mon-Fri", "time": "5:00pm"}, {"days": "Sat", "time": "1:30pm"}, {"days": "Sun", "time": "Closed"}], "id": "8910100016", "name": "USPS COLLECTION BOX - BLUE BOX", "address": {"city": "LAS VEGAS", "state": "NV", "street": "333 S 3RD ST", "postcode": "89101"}}},
{"geometry": {"type": "Point", "coordinates": [-115.1427497777, 36.1683057985]}, "type": "Feature", "properties": {"collection_times": [{"days": "Mon-Sat", "time": "12:30pm"}, {"days": "Sun", "time": "Closed"}], "id": "8910100020", "name": "USPS COLLECTION BOX - BLUE BOX", "address": {"city": "LAS VEGAS", "state": "NV", "street": "201 S 4TH ST", "postcode": "89101"}}},
{"geometry": {"type": "Point", "coordinates": [-115.1437252943, 36.1668191612]}, "type": "Feature", "properties": {"collection_times": [{"days": "Mon-Fri", "time": "5:00pm"}, {"days": "Sat", "time": "1:30pm"}, {"days": "Sun", "time": "Closed"}], "id": "8910100024", "name": "USPS COLLECTION BOX - BLUE BOX", "address": {"city": "LAS VEGAS", "state": "NV", "street": "300 S 4TH ST", "postcode": "89101"}}},
{"geometry": {"type": "Point", "coordinates": [-115.1438321852, 36.1599257172]}, "type": "Feature", "properties": {"collection_times": [{"days": "Mon-Sat", "time": "10:00am"}, {"days": "Sun", "time": "Closed"}], "id": "8910100033", "name": "USPS COLLECTION BOX - BLUE BOX", "address": {"city": "LAS VEGAS", "state": "NV", "street": "800 S 7TH ST", "postcode": "89101"}}},
{"geometry": {"type": "Point", "coordinates": [-115.1309698392, 36.1740477184]}, "type": "Feature", "properties": {"collection_times": [{"days": "Mon-Fri", "time": "12:30pm"}, {"days": "Sat-Sun", "time": "Closed"}], "id": "8910100037", "name": "USPS COLLECTION BOX - BLUE BOX", "address": {"city": "LAS VEGAS", "state": "NV", "street": "1101 E BONANZA RD", "postcode": "89101"}}},
{"geometry": {"type": "Point", "coordinates": [-115.1176359229, 36.1740250542]}, "type": "Feature", "properties": {"collection_times": [{"days": "Mon-Sat", "time": "11:45am"}, {"days": "Sun", "time": "Closed"}], "id": "8910100038", "name": "USPS COLLECTION BOX - BLUE BOX", "address": {"city": "LAS VEGAS", "state": "NV", "street": "2371 E BONANZA RD", "postcode": "89101"}}},
{"geometry": {"type": "Point", "coordinates": [-115.1159440591, 36.1875987115]}, "type": "Feature", "properties": {"collection_times": [{"days": "Mon-Sat", "time": "11:00am"}, {"days": "Sun", "time": "Closed"}], "id": "8910100061", "name": "USPS COLLECTION BOX - BLUE BOX", "address": {"city": "LAS VEGAS", "state": "NV", "street": "1550 N EASTERN AVE", "postcode": "89101"}}},
{"geometry": {"type": "Point", "coordinates": [-115.1257403894, 36.1628040552]}, "type": "Feature", "properties": {"collection_times": [{"days": "Mon-Sat", "time": "8:30am"}, {"days": "Sun", "time": "Closed"}], "id": "8910100067", "name": "USPS COLLECTION BOX - BLUE BOX", "address": {"city": "LAS VEGAS", "state": "NV", "street": "1738 FREMONT ST", "postcode": "89101"}}},
{"geometry": {"type": "Point", "coordinates": [-115.1473560435, 36.1702385769]}, "type": "Feature", "properties": {"collection_times": [{"days": "Mon-Sat", "time": "8:00am"}, {"days": "Sun", "time": "Closed"}], "id": "8910100080", "name": "USPS COLLECTION BOX - BLUE BOX", "address": {"city": "LAS VEGAS", "state": "NV", "street": "200 S MAIN ST", "postcode": "89101"}}},
{"geometry": {"type": "Point", "coordinates": [-115.1071912142, 36.1852232947]}, "type": "Feature", "properties": {"collection_times": [{"days": "Mon-Sat", "time": "8:15am"}, {"days": "Sun", "time": "Closed"}], "id": "8910100086", "name": "USPS COLLECTION BOX - BLUE BOX", "address": {"city": "LAS VEGAS", "state": "NV", "street": "1316 N MOJAVE RD", "postcode": "89101"}}},
{"geometry": {"type": "Point", "coordinates": [-115.1003864353, 36.1614225635]}, "type": "Feature", "properties": {"collection_times": [{"days": "Mon-Fri", "time": "11:30am"}, {"days": "Sat", "time": "12:15pm"}, {"days": "Sun", "time": "Closed"}], "id": "8910100089", "name": "USPS COLLECTION BOX - BLUE BOX", "address": {"city": "LAS VEGAS", "state": "NV", "street": "71 N PECOS RD", "postcode": "89101"}}},
{"geometry": {"type": "Point", "coordinates": [-115.1337602709, 36.1692245689]}, "type": "Feature", "properties": {"collection_times": [{"days": "Mon-Sat", "time": "12:30pm"}, {"days": "Sun", "time": "Closed"}], "id": "8910100097", "name": "USPS COLLECTION BOX - BLUE BOX", "address": {"city": "LAS VEGAS", "state": "NV", "street": "922 STEWART AVE", "postcode": "89101"}}},
{"geometry": {"type": "Point", "coordinates": [-115.1175930582, 36.1739154086]}, "type": "Feature", "properties": {"collection_times": [{"days": "Mon-Fri", "time": "3:15pm"}, {"days": "Sat", "time": "1:00pm"}, {"days": "Sun", "time": "Closed"}], "id": "8910100110", "name": "USPS COLLECTION BOX - BLUE BOX", "address": {"city": "LAS VEGAS", "state": "NV", "street": "2410 E BONANZA RD", "postcode": "89101"}}},
{"geometry": {"type": "Point", "coordinates": [-115.1446756349, 36.1632119772]}, "type": "Feature", "properties": {"collection_times": [{"days": "Mon-Fri", "time": "4:00pm"}, {"days": "Sat-Sun", "time": "Closed"}], "id": "8910100130", "name": "USPS COLLECTION BOX - BLUE BOX", "address": {"city": "LAS VEGAS", "state": "NV", "street": "600 LAS VEGAS BLVD S", "postcode": "89101"}}},
{"geometry": {"type": "Point", "coordinates": [-115.1438321852, 36.1599257172]}, "type": "Feature", "properties": {"collection_times": [{"days": "Mon-Fri", "time": "2:15pm"}, {"days": "Sat", "time": "1:45pm"}, {"days": "Sun", "time": "Closed"}], "id": "8910100131", "name": "USPS COLLECTION BOX - BLUE BOX", "address": {"city": "LAS VEGAS", "state": "NV", "street": "800 S 7TH ST", "postcode": "89101"}}},
{"geometry": {"type": "Point", "coordinates": [-115.1428976476, 36.1656997399]}, "type": "Feature", "properties": {"collection_times": [{"days": "Mon-Fri", "time": "3:00pm"}, {"days": "Sat-Sun", "time": "Closed"}], "id": "8910100132", "name": "USPS COLLECTION BOX - BLUE BOX", "address": {"city": "LAS VEGAS", "state": "NV", "street": "333 LAS VEGAS BLVD S", "postcode": "89101"}}},
{"geometry": {"type": "Point", "coordinates": [-115.1428976476, 36.1656997399]}, "type": "Feature", "properties": {"collection_times": [{"days": "Mon-Fri", "time": "3:00pm"}, {"days": "Sat-Sun", "time": "Closed"}], "id": "8910100133", "name": "USPS COLLECTION BOX - BLUE BOX", "address": {"city": "LAS VEGAS", "state": "NV", "street": "333 LAS VEGAS BLVD S", "postcode": "89101"}}},
{"geometry": {"type": "Point", "coordinates": [-115.1416484429, 36.1676173164]}, "type": "Feature", "properties": {"collection_times": [{"days": "Mon-Fri", "time": "6:00pm"}, {"days": "Sat", "time": "5:45pm"}, {"days": "Sun", "time": "Closed"}], "id": "8910100141", "name": "USPS COLLECTION BOX - BLUE BOX", "address": {"city": "LAS VEGAS", "state": "NV", "street": "201 LAS VEGAS BLVD S", "postcode": "89101"}}},
{"geometry": {"type": "Point", "coordinates": [-115.1416484429, 36.1676173164]}, "type": "Feature", "properties": {"collection_times": [{"days": "Mon-Fri", "time": "6:00pm"}, {"days": "Sat", "time": "5:45pm"}, {"days": "Sun", "time": "Closed"}], "id": "8910100142", "name": "USPS COLLECTION BOX - BLUE BOX", "address": {"city": "LAS VEGAS", "state": "NV", "street": "201 LAS VEGAS BLVD S", "postcode": "89101"}}},
{"geometry": {"type": "Point", "coordinates": [-115.1259273761, 36.170810134]}, "type": "Feature", "properties": {"collection_times": [{"days": "Mon-Fri", "time": "6:00pm"}, {"days": "Sat", "time": "5:45pm"}, {"days": "Sun", "time": "Closed"}], "id": "8910100143", "name": "USPS COLLECTION BOX - EXPRESS", "address": {"city": "LAS VEGAS", "state": "NV", "street": "201 LAS VEGAS BLVD S", "postcode": "89101"}}},
{"geometry": {"type": "Point", "coordinates": [-115.1426681536, 36.1662900365]}, "type": "Feature", "properties": {"collection_times": [{"days": "Mon-Fri", "time": "11:30am"}, {"days": "Sat-Sun", "time": "Closed"}], "id": "8910100144", "name": "USPS COLLECTION BOX - BLUE BOX", "address": {"city": "LAS VEGAS", "state": "NV", "street": "300 LAS VEGAS BLVD S", "postcode": "89101"}}},
{"geometry": {"type": "Point", "coordinates": [-115.1390352866, 36.1694662813]}, "type": "Feature", "properties": {"collection_times": [{"days": "Mon-Fri", "time": "3:45pm"}, {"days": "Sat", "time": "12:30pm"}, {"days": "Sun", "time": "Closed"}], "id": "8910100148", "name": "USPS COLLECTION BOX - BLUE BOX", "address": {"city": "LAS VEGAS", "state": "NV", "street": "100 N 6TH STREET", "postcode": "89101"}}},
{"geometry": {"type": "Point", "coordinates": [-115.1990049641, 36.129086722]}, "type": "Feature", "properties": {"collection_times": [{"days": "Mon-Fri", "time": "1:45pm"}, {"days": "Sat-Sun", "time": "Closed"}], "id": "8910200001", "name": "USPS COLLECTION BOX - BLUE BOX", "address": {"city": "LAS VEGAS", "state": "NV", "street": "3350 ARVILLE ST", "postcode": "89102"}}},
{"geometry": {"type": "Point", "coordinates": [-115.1872397487, 36.1442621504]}, "type": "Feature", "properties": {"collection_times": [{"days": "Mon-Fri", "time": "4:30pm"}, {"days": "Sat", "time": "3:45pm"}, {"days": "Sun", "time": "Closed"}], "id": "8910200003", "name": "USPS COLLECTION BOX - EXPRESS", "address": {"city": "LAS VEGAS", "state": "NV", "street": "1000 S TONOPAH DR", "postcode": "89102"}}},
{"geometry": {"type": "Point", "coordinates": [-115.1700585264, 36.1595133226]}, "type": "Feature", "properties": {"collection_times": [{"days": "Mon-Sat", "time": "10:00am"}, {"days": "Sun", "time": "Closed"}], "id": "8910200004", "name": "USPS COLLECTION BOX - BLUE BOX", "address": {"city": "LAS VEGAS", "state": "NV", "street": "2100 W CHARLESTON BLVD", "postcode": "89102"}}},
{"geometry": {"type": "Point", "coordinates": [-115.1872397487, 36.1442621504]}, "type": "Feature", "properties": {"collection_times": [{"days": "Mon-Fri", "time": "4:15pm"}, {"days": "Sat", "time": "3:30pm"}, {"days": "Sun", "time": "Closed"}], "id": "8910200007", "name": "USPS COLLECTION BOX - EXPRESS", "address": {"city": "LAS VEGAS", "state": "NV", "street": "2820 W CHARLESTON BLVD", "postcode": "89102"}}},
{"geometry": {"type": "Point", "coordinates": [-115.1808304098, 36.1589923626]}, "type": "Feature", "properties": {"collection_times": [{"days": "Mon-Fri", "time": "4:15pm"}, {"days": "Sat", "time": "3:30pm"}, {"days": "Sun", "time": "Closed"}], "id": "8910200008", "name": "USPS COLLECTION BOX - BLUE BOX", "address": {"city": "LAS VEGAS", "state": "NV", "street": "2820 W CHARLESTON BLVD", "postcode": "89102"}}},
{"geometry": {"type": "Point", "coordinates": [-115.208299105, 36.151148135]}, "type": "Feature", "properties": {"collection_times": [{"days": "Mon-Fri", "time": "5:45pm"}, {"days": "Sat", "time": "5:15pm"}, {"days": "Sun", "time": "Closed"}], "id": "8910200016", "name": "USPS COLLECTION BOX - BLUE BOX", "address": {"city": "LAS VEGAS", "state": "NV", "street": "1801 S DECATUR BLVD", "postcode": "89102"}}},
{"geometry": {"type": "Point", "coordinates": [-115.1994324395, 36.1319274444]}, "type": "Feature", "properties": {"collection_times": [{"days": "Mon-Fri", "time": "1:30pm"}, {"days": "Sat", "time": "2:00pm"}, {"days": "Sun", "time": "Closed"}], "id": "8910200019", "name": "USPS COLLECTION BOX - BLUE BOX", "address": {"city": "LAS VEGAS", "state": "NV", "street": "4410 DEL ORO DR", "postcode": "89102"}}},
{"geometry": {"type": "Point", "coordinates": [-115.1869179166, 36.1427302257]}, "type": "Feature", "properties": {"collection_times": [{"days": "Mon-Fri", "time": "1:30pm"}, {"days": "Sat", "time": "2:00pm"}, {"days": "Sun", "time": "Closed"}], "id": "8910200021", "name": "USPS COLLECTION BOX - BLUE BOX", "address": {"city": "LAS VEGAS", "state": "NV", "street": "3401 EL CONLON AVE", "postcode": "89102"}}},
{"geometry": {"type": "Point", "coordinates": [-115.1872397487, 36.1442621504]}, "type": "Feature", "properties": {"collection_times": [{"days": "Mon-Fri", "time": "5:45pm"}, {"days": "Sat", "time": "10:45am"}, {"days": "Sun", "time": "Closed"}], "id": "8910200028", "name": "USPS COLLECTION BOX - EXPRESS", "address": {"city": "LAS VEGAS", "state": "NV", "street": "2300 W SAHARA AVE", "postcode": "89102"}}},
{"geometry": {"type": "Point", "coordinates": [-115.1739586012, 36.1444159422]}, "type": "Feature", "properties": {"collection_times": [{"days": "Mon-Fri", "time": "5:45pm"}, {"days": "Sat", "time": "10:45am"}, {"days": "Sun", "time": "Closed"}], "id": "8910200029", "name": "USPS COLLECTION BOX - BLUE BOX", "address": {"city": "LAS VEGAS", "state": "NV", "street": "2300 W SAHARA AVE", "postcode": "89102"}}},
{"geometry": {"type": "Point", "coordinates": [-115.1829490893, 36.144452614]}, "type": "Feature", "properties": {"collection_times": [{"days": "Mon-Fri", "time": "12:00pm"}, {"days": "Sat-Sun", "time": "Closed"}], "id": "8910200038", "name": "USPS COLLECTION BOX - BLUE BOX", "address": {"city": "LAS VEGAS", "state": "NV", "street": "3100 W SAHARA AVE", "postcode": "89102"}}},
{"geometry": {"type": "Point", "coordinates": [-115.1883588399, 36.1445184952]}, "type": "Feature", "properties": {"collection_times": [{"days": "Mon-Fri", "time": "4:00pm"}, {"days": "Sat", "time": "2:00pm"}, {"days": "Sun", "time": "Closed"}], "id": "8910200042", "name": "USPS COLLECTION BOX - BLUE BOX", "address": {"city": "LAS VEGAS", "state": "NV", "street": "3540 W SAHARA AVE", "postcode": "89102"}}},
{"geometry": {"type": "Point", "coordinates": [-115.192065193, 36.1445776518]}, "type": "Feature", "properties": {"collection_times": [{"days": "Mon-Fri", "time": "12:30pm"}, {"days": "Sat-Sun", "time": "Closed"}], "id": "8910200044", "name": "USPS COLLECTION BOX - BLUE BOX", "address": {"city": "LAS VEGAS", "state": "NV", "street": "3830 W SAHARA AVE", "postcode": "89102"}}},
{"geometry": {"type": "Point", "coordinates": [-115.2372527054, 36.1439419496]}, "type": "Feature", "properties": {"collection_times": [{"days": "Mon-Fri", "time": "6:15pm"}, {"days": "Sat", "time": "2:00pm"}, {"days": "Sun", "time": "Closed"}], "id": "8910200051", "name": "USPS COLLECTION BOX - BLUE BOX", "address": {"city": "LAS VEGAS", "state": "NV", "street": "6655 W SAHARA AVE", "postcode": "89102"}}},
{"geometry": {"type": "Point", "coordinates": [-115.199074838, 36.1267442585]}, "type": "Feature", "properties": {"collection_times": [{"days": "Mon-Fri", "time": "2:00pm"}, {"days": "Sat-Sun", "time": "Closed"}], "id": "8910200059", "name": "USPS COLLECTION BOX - BLUE BOX", "address": {"city": "LAS VEGAS", "state": "NV", "street": "3480 ARVILLE ST", "postcode": "89102"}}},
{"geometry": {"type": "Point", "coordinates": [-115.2002333027, 36.1263261337]}, "type": "Feature", "properties": {"collection_times": [{"days": "Mon-Fri", "time": "3:15pm"}, {"days": "Sat-Sun", "time": "Closed"}], "id": "8910200061", "name": "USPS COLLECTION BOX - BLUE BOX", "address": {"city": "LAS VEGAS", "state": "NV", "street": "4425 SPRING MOUNTAIN RD", "postcode": "89102"}}},
{"geometry": {"type": "Point", "coordinates": [-115.1898709164, 36.1445598101]}, "type": "Feature", "properties": {"collection_times": [{"days": "Mon-Fri", "time": "5:30pm"}, {"days": "Sat", "time": "2:00pm"}, {"days": "Sun", "time": "Closed"}], "id": "8910200065", "name": "USPS COLLECTION BOX - BLUE BOX", "address": {"city": "LAS VEGAS", "state": "NV", "street": "3441 W SAHARA AVE", "postcode": "89102"}}},
{"geometry": {"type": "Point", "coordinates": [-115.1903047281, 36.1320587529]}, "type": "Feature", "properties": {"collection_times": [{"days": "Mon-Fri", "time": "5:30pm"}, {"days": "Sat", "time": "5:00pm"}, {"days": "Sun", "time": "Closed"}], "id": "8910200068", "name": "USPS COLLECTION BOX - BLUE BOX", "address": {"city": "LAS VEGAS", "state": "NV", "street": "3111 S VALLEY VIEW BLVD", "postcode": "89102"}}},
{"geometry": {"type": "Point", "coordinates": [-115.1739586012, 36.1444159422]}, "type": "Feature", "properties": {"collection_times": [{"days": "Mon-Fri", "time": "5:45pm"}, {"days": "Sat", "time": "10:45am"}, {"days": "Sun", "time": "Closed"}], "id": "8910200076", "name": "USPS COLLECTION BOX - BLUE BOX", "address": {"city": "LAS VEGAS", "state": "NV", "street": "2300 W SAHARA AVE", "postcode": "89102"}}},
{"geometry": {"type": "Point", "coordinates": [-115.208299105, 36.151148135]}, "type": "Feature", "properties": {"collection_times": [{"days": "Mon-Fri", "time": "5:00pm"}, {"days": "Sat", "time": "3:30pm"}, {"days": "Sun", "time": "Closed"}], "id": "8910200086", "name": "USPS COLLECTION BOX - PO LOBBY", "address": {"city": "LAS VEGAS", "state": "NV", "street": "1801 S DECATUR BLVD", "postcode": "89102"}}},
{"geometry": {"type": "Point", "coordinates": [-115.1838102834, 36.1262338629]}, "type": "Feature", "properties": {"collection_times": [{"days": "Mon-Fri", "time": "4:30pm"}, {"days": "Sat", "time": "12:45pm"}, {"days": "Sun", "time": "Closed"}], "id": "8910200091", "name": "USPS COLLECTION BOX - BLUE BOX", "address": {"city": "LAS VEGAS", "state": "NV", "street": "3305 SPRING MOUNTAIN RD", "postcode": "89102"}}},
{"geometry": {"type": "Point", "coordinates": [-115.185347641, 36.1477520585]}, "type": "Feature", "properties": {"collection_times": [{"days": "Mon-Fri", "time": "12:30pm"}, {"days": "Sat", "time": "10:45am"}, {"days": "Sun", "time": "Closed"}], "id": "8910200092", "name": "USPS COLLECTION BOX - BLUE BOX", "address": {"city": "LAS VEGAS", "state": "NV", "street": "2201 SPANISH OAKS DR", "postcode": "89102"}}},
{"geometry": {"type": "Point", "coordinates": [-115.197124124, 36.1263121004]}, "type": "Feature", "properties": {"collection_times": [{"days": "Mon-Fri", "time": "3:15pm"}, {"days": "Sat", "time": "12:45pm"}, {"days": "Sun", "time": "Closed"}], "id": "8910200100", "name": "USPS COLLECTION BOX - BLUE BOX", "address": {"city": "LAS VEGAS", "state": "NV", "street": "4285 SPRING MOUNTAIN RD", "postcode": "89102"}}},
{"geometry": {"type": "Point", "coordinates": [-115.1700585264, 36.1595133226]}, "type": "Feature", "properties": {"collection_times": [{"days": "Mon-Fri", "time": "4:30pm"}, {"days": "Sat", "time": "3:45pm"}, {"days": "Sun", "time": "Closed"}], "id": "8910200103", "name": "USPS COLLECTION BOX - BLUE BOX", "address": {"city": "LAS VEGAS", "state": "NV", "street": "1000 S TONOPAH", "postcode": "89102"}}},
{"geometry": {"type": "Point", "coordinates": [-115.2023070298, 36.1589947285]}, "type": "Feature", "properties": {"collection_times": [{"days": "Mon-Sat", "time": "4:45pm"}, {"days": "Sun", "time": "Closed"}], "id": "8910200104", "name": "USPS COLLECTION BOX - BLUE BOX", "address": {"city": "LAS VEGAS", "state": "NV", "street": "4505 W CHARLESTON BLVD", "postcode": "89102"}}},
{"geometry": {"type": "Point", "coordinates": [-115.1644239519, 36.1588019062]}, "type": "Feature", "properties": {"collection_times": [{"days": "Mon-Fri", "time": "4:30pm"}, {"days": "Sat-Sun", "time": "Closed"}], "id": "8910200105", "name": "USPS COLLECTION BOX - BLUE BOX", "address": {"city": "LAS VEGAS", "state": "NV", "street": "1707 W CHARLESTON BLVD", "postcode": "89102"}}},
{"geometry": {"type": "Point", "coordinates": [-115.173193911, 36.14633912]}, "type": "Feature", "properties": {"collection_times": [{"days": "Mon-Fri", "time": "5:30pm"}, {"days": "Sat-Sun", "time": "Closed"}], "id": "8910200111", "name": "USPS COLLECTION BOX - BLUE BOX", "address": {"city": "LAS VEGAS", "state": "NV", "street": "2300 S RANCHO DR", "postcode": "89102"}}},
{"geometry": {"type": "Point", "coordinates": [-115.208299105, 36.151148135]}, "type": "Feature", "properties": {"collection_times": [{"days": "Mon-Fri", "time": "5:00pm"}, {"days": "Sat", "time": "3:30pm"}, {"days": "Sun", "time": "Closed"}], "id": "8910200112", "name": "USPS COLLECTION BOX - APC", "address": {"city": "LAS VEGAS", "state": "NV", "street": "1801 S DECATUR BLVD", "postcode": "89102"}}},
{"geometry": {"type": "Point", "coordinates": [-115.1994086496, 36.1123047537]}, "type": "Feature", "properties": {"collection_times": [{"days": "Mon-Fri", "time": "12:15pm"}, {"days": "Sat-Sun", "time": "Closed"}], "id": "8910300001", "name": "USPS COLLECTION BOX - BLUE BOX", "address": {"city": "LAS VEGAS", "state": "NV", "street": "4275 ARVILLE ST", "postcode": "89103"}}},
{"geometry": {"type": "Point", "coordinates": [-115.1982018931, 36.115663691]}, "type": "Feature", "properties": {"collection_times": [{"days": "Mon-Fri", "time": "2:45pm"}, {"days": "Sat-Sun", "time": "Closed"}], "id": "8910300004", "name": "USPS COLLECTION BOX - BLUE BOX", "address": {"city": "LAS VEGAS", "state": "NV", "street": "4310 W FLAMINGO RD", "postcode": "89103"}}},
{"geometry": {"type": "Point", "coordinates": [-115.2233317646, 36.1144984104]}, "type": "Feature", "properties": {"collection_times": [{"days": "Mon-Sat", "time": "11:30am"}, {"days": "Sun", "time": "Closed"}], "id": "8910300005", "name": "USPS COLLECTION BOX - BLUE BOX", "address": {"city": "LAS VEGAS", "state": "NV", "street": "6025 W FLAMINGO RD", "postcode": "89103"}}},
{"geometry": {"type": "Point", "coordinates": [-115.2256357676, 36.1146438813]}, "type": "Feature", "properties": {"collection_times": [{"days": "Mon-Fri", "time": "3:00pm"}, {"days": "Sat", "time": "2:30pm"}, {"days": "Sun", "time": "Closed"}], "id": "8910300007", "name": "USPS COLLECTION BOX - BLUE BOX", "address": {"city": "LAS VEGAS", "state": "NV", "street": "6130 W FLAMINGO RD", "postcode": "89103"}}},
{"geometry": {"type": "Point", "coordinates": [-115.1939470588, 36.1082280445]}, "type": "Feature", "properties": {"collection_times": [{"days": "Mon-Sat", "time": "1:45pm"}, {"days": "Sun", "time": "Closed"}], "id": "8910300010", "name": "USPS COLLECTION BOX - BLUE BOX", "address": {"city": "LAS VEGAS", "state": "NV", "street": "4050 W HARMON AVE", "postcode": "89103"}}},
{"geometry": {"type": "Point", "coordinates": [-115.1842373316, 36.1234468116]}, "type": "Feature", "properties": {"collection_times": [{"days": "Mon-Fri", "time": "11:45am"}, {"days": "Sat-Sun", "time": "Closed"}], "id": "8910300011", "name": "USPS COLLECTION BOX - BLUE BOX", "address": {"city": "LAS VEGAS", "state": "NV", "street": "3695 S HIGHLAND DR", "postcode": "89103"}}},
{"geometry": {"type": "Point", "coordinates": [-115.2125580958, 36.1127434805]}, "type": "Feature", "properties": {"collection_times": [{"days": "Mon-Fri", "time": "4:45pm"}, {"days": "Sat-Sun", "time": "Closed"}], "id": "8910300012", "name": "USPS COLLECTION BOX - EXPRESS", "address": {"city": "LAS VEGAS", "state": "NV", "street": "4741 DEAN MARTIN DR", "postcode": "89103"}}},
{"geometry": {"type": "Point", "coordinates": [-115.1812990047, 36.1037900297]}, "type": "Feature", "properties": {"collection_times": [{"days": "Mon-Fri", "time": "4:45pm"}, {"days": "Sat-Sun", "time": "Closed"}], "id": "8910300013", "name": "USPS COLLECTION BOX - BLUE BOX", "address": {"city": "LAS VEGAS", "state": "NV", "street": "4741 DEAN MARTIN DR", "postcode": "89103"}}},
{"geometry": {"type": "Point", "coordinates": [-115.2249121926, 36.1113404096]}, "type": "Feature", "properties": {"collection_times": [{"days": "Mon-Sat", "time": "8:30am"}, {"days": "Sun", "time": "Closed"}], "id": "8910300015", "name": "USPS COLLECTION BOX - BLUE BOX", "address": {"city": "LAS VEGAS", "state": "NV", "street": "4280 S JONES BLVD", "postcode": "89103"}}},
{"geometry": {"type": "Point", "coordinates": [-115.2261790335, 36.0998525947]}, "type": "Feature", "properties": {"collection_times": [{"days": "Mon-Sat", "time": "8:30am"}, {"days": "Sun", "time": "Closed"}], "id": "8910300017", "name": "USPS COLLECTION BOX - BLUE BOX", "address": {"city": "LAS VEGAS", "state": "NV", "street": "6105 W TROPICANA AVE", "postcode": "89103"}}},
{"geometry": {"type": "Point", "coordinates": [-115.2428517654, 36.1154925955]}, "type": "Feature", "properties": {"collection_times": [{"days": "Mon-Sat", "time": "2:00pm"}, {"days": "Sun", "time": "Closed"}], "id": "8910300020", "name": "USPS COLLECTION BOX - BLUE BOX", "address": {"city": "LAS VEGAS", "state": "NV", "street": "4016 S RAINBOW BLVD", "postcode": "89103"}}},
{"geometry": {"type": "Point", "coordinates": [-115.2432299844, 36.100379637]}, "type": "Feature", "properties": {"collection_times": [{"days": "Mon-Sat", "time": "12:30pm"}, {"days": "Sun", "time": "Closed"}], "id": "8910300022", "name": "USPS COLLECTION BOX - BLUE BOX", "address": {"city": "LAS VEGAS", "state": "NV", "street": "4845 S RAINBOW BLVD", "postcode": "89103"}}},
{"geometry": {"type": "Point", "coordinates": [-115.1901320161, 36.1215812853]}, "type": "Feature", "properties": {"collection_times": [{"days": "Mon-Fri", "time": "12:00pm"}, {"days": "Sat-Sun", "time": "Closed"}], "id": "8910300024", "name": "USPS COLLECTION BOX - BLUE BOX", "address": {"city": "LAS VEGAS", "state": "NV", "street": "3855 S VALLEY VIEW BLVD", "postcode": "89103"}}},
{"geometry": {"type": "Point", "coordinates": [-115.2125580958, 36.1127434805]}, "type": "Feature", "properties": {"collection_times": [{"days": "Mon-Fri", "time": "12:00pm"}, {"days": "Sat-Sun", "time": "Closed"}], "id": "8910300025", "name": "USPS COLLECTION BOX - EXPRESS", "address": {"city": "LAS VEGAS", "state": "NV", "street": "4330 S VALLEY VIEW BLVD", "postcode": "89103"}}},
{"geometry": {"type": "Point", "coordinates": [-115.1899297301, 36.1114374122]}, "type": "Feature", "properties": {"collection_times": [{"days": "Mon-Fri", "time": "12:00pm"}, {"days": "Sat-Sun", "time": "Closed"}], "id": "8910300026", "name": "USPS COLLECTION BOX - BLUE BOX", "address": {"city": "LAS VEGAS", "state": "NV", "street": "4330 S VALLEY VIEW BLVD", "postcode": "89103"}}},
{"geometry": {"type": "Point", "coordinates": [-115.1899628158, 36.1092287123]}, "type": "Feature", "properties": {"collection_times": [{"days": "Mon-Sat", "time": "10:30am"}, {"days": "Sun", "time": "Closed"}], "id": "8910300028", "name": "USPS COLLECTION BOX - BLUE BOX", "address": {"city": "LAS VEGAS", "state": "NV", "street": "4445 S VALLEY VIEW BLVD", "postcode": "89103"}}},
{"geometry": {"type": "Point", "coordinates": [-115.208182787, 36.1172019712]}, "type": "Feature", "properties": {"collection_times": [{"days": "Mon-Fri", "time": "2:45pm"}, {"days": "Sat", "time": "2:00pm"}, {"days": "Sun", "time": "Closed"}], "id": "8910300055", "name": "USPS COLLECTION BOX - BLUE BOX", "address": {"city": "LAS VEGAS", "state": "NV", "street": "4001 S DECATUR BLVD", "postcode": "89103"}}},
{"geometry": {"type": "Point", "coordinates": [-115.2067620532, 36.1155552924]}, "type": "Feature", "properties": {"collection_times": [{"days": "Mon-Sat", "time": "3:00pm"}, {"days": "Sun", "time": "Closed"}], "id": "8910300057", "name": "USPS COLLECTION BOX - BLUE BOX", "address": {"city": "LAS VEGAS", "state": "NV", "street": "4850 W FLAMINGO RD", "postcode": "89103"}}},
{"geometry": {"type": "Point", "coordinates": [-115.1834340268, 36.115296694]}, "type": "Feature", "properties": {"collection_times": [{"days": "Mon-Fri", "time": "4:45pm"}, {"days": "Sat-Sun", "time": "Closed"}], "id": "8910300060", "name": "USPS COLLECTION BOX - BLUE BOX", "address": {"city": "LAS VEGAS", "state": "NV", "street": "4051 DEAN MARTIN DR", "postcode": "89103"}}},
{"geometry": {"type": "Point", "coordinates": [-115.2248873505, 36.1160083657]}, "type": "Feature", "properties": {"collection_times": [{"days": "Mon-Fri", "time": "6:00pm"}, {"days": "Sat", "time": "5:30pm"}, {"days": "Sun", "time": "Closed"}], "id": "8910300062", "name": "USPS COLLECTION BOX - BLUE BOX", "address": {"city": "LAS VEGAS", "state": "NV", "street": "4030 S JONES BLVD", "postcode": "89103"}}},
{"geometry": {"type": "Point", "coordinates": [-115.1876720483, 36.1022562128]}, "type": "Feature", "properties": {"collection_times": [{"days": "Mon-Sat", "time": "10:15am"}, {"days": "Sun", "time": "Closed"}], "id": "8910300067", "name": "USPS COLLECTION BOX - BLUE BOX", "address": {"city": "LAS VEGAS", "state": "NV", "street": "4830 PROCYON ST", "postcode": "89103"}}},
{"geometry": {"type": "Point", "coordinates": [-115.2167497758, 36.11504662]}, "type": "Feature", "properties": {"collection_times": [{"days": "Mon-Fri", "time": "4:00pm"}, {"days": "Sat-Sun", "time": "Closed"}], "id": "8910300070", "name": "USPS COLLECTION BOX - BLUE BOX", "address": {"city": "LAS VEGAS", "state": "NV", "street": "5550 W FLAMINGO RD", "postcode": "89103"}}},
{"geometry": {"type": "Point", "coordinates": [-115.1902369355, 36.1253005859]}, "type": "Feature", "properties": {"collection_times": [{"days": "Mon-Fri", "time": "11:00am"}, {"days": "Sat-Sun", "time": "Closed"}], "id": "8910300071", "name": "USPS COLLECTION BOX - BLUE BOX", "address": {"city": "LAS VEGAS", "state": "NV", "street": "3561 S VALLEY VIEW BLVD", "postcode": "89103"}}},
{"geometry": {"type": "Point", "coordinates": [-115.1812759866, 36.1099400499]}, "type": "Feature", "properties": {"collection_times": [{"days": "Mon-Sat", "time": "2:15pm"}, {"days": "Sun", "time": "Closed"}], "id": "8910300072", "name": "USPS COLLECTION BOX - BLUE BOX", "address": {"city": "LAS VEGAS", "state": "NV", "street": "4425 DEAN MARTIN DR", "postcode": "89103"}}},
{"geometry": {"type": "Point", "coordinates": [-115.2125580958, 36.1127434805]}, "type": "Feature", "properties": {"collection_times": [{"days": "Mon-Fri", "time": "4:45pm"}, {"days": "Sat", "time": "1:00pm"}, {"days": "Sun", "time": "Closed"}], "id": "8910300073", "name": "USPS COLLECTION BOX - EXPRESS", "address": {"city": "LAS VEGAS", "state": "NV", "street": "4425 DEAN MARTIN DR", "postcode": "89103"}}},
{"geometry": {"type": "Point", "coordinates": [-115.2248873505, 36.1160083657]}, "type": "Feature", "properties": {"collection_times": [{"days": "Mon-Fri", "time": "5:00pm"}, {"days": "Sat", "time": "4:00pm"}, {"days": "Sun", "time": "Closed"}], "id": "8910300078", "name": "USPS COLLECTION BOX - APC", "address": {"city": "LAS VEGAS", "state": "NV", "street": "4030 S JONES BLVD", "postcode": "89103"}}},
{"geometry": {"type": "Point", "coordinates": [-115.2080726517, 36.1108590082]}, "type": "Feature", "properties": {"collection_times": [{"days": "Mon-Fri", "time": "12:30pm"}, {"days": "Sat-Sun", "time": "Closed"}], "id": "8910300079", "name": "USPS COLLECTION BOX - BLUE BOX", "address": {"city": "LAS VEGAS", "state": "NV", "street": "4360 S DECATUR BLVD", "postcode": "89103"}}},
{"geometry": {"type": "Point", "coordinates": [-115.2431015693, 36.1231685287]}, "type": "Feature", "properties": {"collection_times": [{"days": "Mon-Sat", "time": "9:15am"}, {"days": "Sun", "time": "Closed"}], "id": "8910300082", "name": "USPS COLLECTION BOX - BLUE BOX", "address": {"city": "LAS VEGAS", "state": "NV", "street": "3615 S RAINBOW BLVD", "postcode": "89103"}}},
{"geometry": {"type": "Point", "coordinates": [-115.1534792155, 36.1494659941]}, "type": "Feature", "properties": {"collection_times": [{"days": "Mon-Fri", "time": "12:15pm"}, {"days": "Sat", "time": "3:30pm"}, {"days": "Sun", "time": "Closed"}], "id": "8910400018", "name": "USPS COLLECTION BOX - BLUE BOX", "address": {"city": "LAS VEGAS", "state": "NV", "street": "1901 LAS VEGAS BLVD S", "postcode": "89104"}}},
{"geometry": {"type": "Point", "coordinates": [-115.1098918225, 36.1425325053]}, "type": "Feature", "properties": {"collection_times": [{"days": "Mon-Sat", "time": "11:00am"}, {"days": "Sun", "time": "Closed"}], "id": "8910400024", "name": "USPS COLLECTION BOX - BLUE BOX", "address": {"city": "LAS VEGAS", "state": "NV", "street": "2589 MCLEOD DR", "postcode": "89104"}}},
{"geometry": {"type": "Point", "coordinates": [-115.1470028142, 36.1513738339]}, "type": "Feature", "properties": {"collection_times": [{"days": "Mon-Fri", "time": "11:45am"}, {"days": "Sat", "time": "1:45pm"}, {"days": "Sun", "time": "Closed"}], "id": "8910400026", "name": "USPS COLLECTION BOX - BLUE BOX", "address": {"city": "LAS VEGAS", "state": "NV", "street": "570 E OAKEY BLVD", "postcode": "89104"}}},
{"geometry": {"type": "Point", "coordinates": [-115.1231173908, 36.1517195309]}, "type": "Feature", "properties": {"collection_times": [{"days": "Mon-Sat", "time": "9:00am"}, {"days": "Sun", "time": "Closed"}], "id": "8910400027", "name": "USPS COLLECTION BOX - BLUE BOX", "address": {"city": "LAS VEGAS", "state": "NV", "street": "1900 E OAKEY BLVD", "postcode": "89104"}}},
{"geometry": {"type": "Point", "coordinates": [-115.104899068, 36.155563116]}, "type": "Feature", "properties": {"collection_times": [{"days": "Mon-Sat", "time": "6:00pm"}, {"days": "Sun", "time": "Closed"}], "id": "8910400030", "name": "USPS COLLECTION BOX - BLUE BOX", "address": {"city": "LAS VEGAS", "state": "NV", "street": "3115 OLIVE ST", "postcode": "89104"}}},
{"geometry": {"type": "Point", "coordinates": [-115.1152436159, 36.1521075414]}, "type": "Feature", "properties": {"collection_times": [{"days": "Mon-Sat", "time": "2:30pm"}, {"days": "Sun", "time": "Closed"}], "id": "8910400031", "name": "USPS COLLECTION BOX - BLUE BOX", "address": {"city": "LAS VEGAS", "state": "NV", "street": "1600 PACIFIC ST", "postcode": "89104"}}},
{"geometry": {"type": "Point", "coordinates": [-115.1010244491, 36.1501036089]}, "type": "Feature", "properties": {"collection_times": [{"days": "Mon-Sat", "time": "8:15am"}, {"days": "Sun", "time": "Closed"}], "id": "8910400032", "name": "USPS COLLECTION BOX - BLUE BOX", "address": {"city": "LAS VEGAS", "state": "NV", "street": "2038 PALM ST", "postcode": "89104"}}},
{"geometry": {"type": "Point", "coordinates": [-115.1144261465, 36.1518919801]}, "type": "Feature", "properties": {"collection_times": [{"days": "Mon-Fri", "time": "11:45am"}, {"days": "Sat", "time": "2:00pm"}, {"days": "Sun", "time": "Closed"}], "id": "8910400033", "name": "USPS COLLECTION BOX - BLUE BOX", "address": {"city": "LAS VEGAS", "state": "NV", "street": "410 E SAHARA AVE", "postcode": "89104"}}},
{"geometry": {"type": "Point", "coordinates": [-115.1144261465, 36.1518919801]}, "type": "Feature", "properties": {"collection_times": [{"days": "Mon-Fri", "time": "2:30pm"}, {"days": "Sat", "time": "2:00pm"}, {"days": "Sun", "time": "Closed"}], "id": "8910400047", "name": "USPS COLLECTION BOX - EXPRESS", "address": {"city": "LAS VEGAS", "state": "NV", "street": "1860 E SAHARA AVE", "postcode": "89104"}}},
{"geometry": {"type": "Point", "coordinates": [-115.1481384217, 36.1476109243]}, "type": "Feature", "properties": {"collection_times": [{"days": "Mon-Fri", "time": "11:45am"}, {"days": "Sat", "time": "1:45pm"}, {"days": "Sun", "time": "Closed"}], "id": "8910400053", "name": "USPS COLLECTION BOX - BLUE BOX", "address": {"city": "LAS VEGAS", "state": "NV", "street": "570 E SAINT LOUIS AVE", "postcode": "89104"}}},
{"geometry": {"type": "Point", "coordinates": [-115.1308267343, 36.1480393455]}, "type": "Feature", "properties": {"collection_times": [{"days": "Mon-Fri", "time": "11:30am"}, {"days": "Sat", "time": "1:45pm"}, {"days": "Sun", "time": "Closed"}], "id": "8910400054", "name": "USPS COLLECTION BOX - BLUE BOX", "address": {"city": "LAS VEGAS", "state": "NV", "street": "1600 E SAINT LOUIS AVE", "postcode": "89104"}}},
{"geometry": {"type": "Point", "coordinates": [-115.1144261465, 36.1518919801]}, "type": "Feature", "properties": {"collection_times": [{"days": "Mon-Sat", "time": "2:00pm"}, {"days": "Sun", "time": "Closed"}], "id": "8910400063", "name": "USPS COLLECTION BOX - BLUE BOX", "address": {"city": "LAS VEGAS", "state": "NV", "street": "1785 E SAHARA AVE", "postcode": "89104"}}},
{"geometry": {"type": "Point", "coordinates": [-115.1237715671, 36.1444289548]}, "type": "Feature", "properties": {"collection_times": [{"days": "Mon-Fri", "time": "2:30pm"}, {"days": "Sat", "time": "2:00pm"}, {"days": "Sun", "time": "Closed"}], "id": "8910400064", "name": "USPS COLLECTION BOX - BLUE BOX", "address": {"city": "LAS VEGAS", "state": "NV", "street": "1860 E SAHARA AVE", "postcode": "89104"}}},
{"geometry": {"type": "Point", "coordinates": [-115.104899068, 36.155563116]}, "type": "Feature", "properties": {"collection_times": [{"days": "Mon-Fri", "time": "5:00pm"}, {"days": "Sat", "time": "3:30pm"}, {"days": "Sun", "time": "Closed"}], "id": "8910400072", "name": "USPS COLLECTION BOX - PO LOBBY", "address": {"city": "LAS VEGAS", "state": "NV", "street": "3115 OLIVE ST", "postcode": "89104"}}},
{"geometry": {"type": "Point", "coordinates": [-115.1597913126, 36.1474861073]}, "type": "Feature", "properties": {"collection_times": [{"days": "Mon-Fri", "time": "12:30pm"}, {"days": "Sat-Sun", "time": "Closed"}], "id": "8910400076", "name": "USPS COLLECTION BOX - BLUE BOX", "address": {"city": "LAS VEGAS", "state": "NV", "street": "200 W BOSTON AVE", "postcode": "89104"}}},
{"geometry": {"type": "Point", "coordinates": [-115.0747430138, 36.1442276611]}, "type": "Feature", "properties": {"collection_times": [{"days": "Mon-Fri", "time": "2:30pm"}, {"days": "Sat", "time": "2:45pm"}, {"days": "Sun", "time": "Closed"}], "id": "8910400080", "name": "USPS COLLECTION BOX - BLUE BOX", "address": {"city": "LAS VEGAS", "state": "NV", "street": "4555 E SAHARA AVE", "postcode": "89104"}}},
{"geometry": {"type": "Point", "coordinates": [-115.1046798384, 36.1555170729]}, "type": "Feature", "properties": {"collection_times": [{"days": "Mon-Fri", "time": "3:00pm"}, {"days": "Sat-Sun", "time": "Closed"}], "id": "8910400081", "name": "USPS COLLECTION BOX - PO LOBBY", "address": {"city": "LAS VEGAS", "state": "NV", "street": "3115X E OLIVE ST", "postcode": "89104"}}},
{"geometry": {"type": "Point", "coordinates": [-115.1407848829, 36.1440137362]}, "type": "Feature", "properties": {"collection_times": [{"days": "Mon-Sat", "time": "2:00pm"}, {"days": "Sun", "time": "Closed"}], "id": "8910400082", "name": "USPS COLLECTION BOX - BLUE BOX", "address": {"city": "LAS VEGAS", "state": "NV", "street": "953 E SAHARA AVE", "postcode": "89104"}}},
{"geometry": {"type": "Point", "coordinates": [-115.160843503, 36.191710197]}, "type": "Feature", "properties": {"collection_times": [{"days": "Mon-Fri", "time": "5:00pm"}, {"days": "Sat", "time": "3:00pm"}, {"days": "Sun", "time": "Closed"}], "id": "8910600002", "name": "USPS COLLECTION BOX - PO LOBBY", "address": {"city": "LAS VEGAS", "state": "NV", "street": "1801 N MARTIN LUTHER KING BLVD", "postcode": "89106"}}},
{"geometry": {"type": "Point", "coordinates": [-115.160843503, 36.191710197]}, "type": "Feature", "properties": {"collection_times": [{"days": "Mon-Fri", "time": "5:15pm"}, {"days": "Sat", "time": "5:00pm"}, {"days": "Sun", "time": "Closed"}], "id": "8910600004", "name": "USPS COLLECTION BOX - BLUE BOX", "address": {"city": "LAS VEGAS", "state": "NV", "street": "1801 N MARTIN LUTHER KING BLVD", "postcode": "89106"}}},
{"geometry": {"type": "Point", "coordinates": [-115.1546945654, 36.1956388642]}, "type": "Feature", "properties": {"collection_times": [{"days": "Mon-Fri", "time": "11:15am"}, {"days": "Sat-Sun", "time": "Closed"}], "id": "8910600008", "name": "USPS COLLECTION BOX - BLUE BOX", "address": {"city": "LAS VEGAS", "state": "NV", "street": "951 W LAKE MEAD BLVD", "postcode": "89106"}}},
{"geometry": {"type": "Point", "coordinates": [-115.1608336714, 36.1715057025]}, "type": "Feature", "properties": {"collection_times": [{"days": "Mon-Fri", "time": "1:00pm"}, {"days": "Sat-Sun", "time": "Closed"}], "id": "8910600009", "name": "USPS COLLECTION BOX - BLUE BOX", "address": {"city": "LAS VEGAS", "state": "NV", "street": "222 S MARTIN LUTHER KING BLVD", "postcode": "89106"}}},
{"geometry": {"type": "Point", "coordinates": [-115.1608916364, 36.1659481613]}, "type": "Feature", "properties": {"collection_times": [{"days": "Mon-Fri", "time": "12:45pm"}, {"days": "Sat-Sun", "time": "Closed"}], "id": "8910600010", "name": "USPS COLLECTION BOX - BLUE BOX", "address": {"city": "LAS VEGAS", "state": "NV", "street": "500 S MARTIN LUTHER KING BLVD", "postcode": "89106"}}},
{"geometry": {"type": "Point", "coordinates": [-115.160846684, 36.1612695586]}, "type": "Feature", "properties": {"collection_times": [{"days": "Mon-Sat", "time": "12:30pm"}, {"days": "Sun", "time": "Closed"}], "id": "8910600011", "name": "USPS COLLECTION BOX - BLUE BOX", "address": {"city": "LAS VEGAS", "state": "NV", "street": "920 N MARTIN LUTHER KING BLVD", "postcode": "89106"}}},
{"geometry": {"type": "Point", "coordinates": [-115.17244234, 36.1661209519]}, "type": "Feature", "properties": {"collection_times": [{"days": "Mon-Fri", "time": "4:45pm"}, {"days": "Sat", "time": "4:30pm"}, {"days": "Sun", "time": "Closed"}], "id": "8910600016", "name": "USPS COLLECTION BOX - BLUE BOX", "address": {"city": "LAS VEGAS", "state": "NV", "street": "501 S RANCHO DR", "postcode": "89106"}}},
{"geometry": {"type": "Point", "coordinates": [-115.1727413364, 36.1638282989]}, "type": "Feature", "properties": {"collection_times": [{"days": "Mon-Fri", "time": "4:00pm"}, {"days": "Sat", "time": "3:45pm"}, {"days": "Sun", "time": "Closed"}], "id": "8910600020", "name": "USPS COLLECTION BOX - BLUE BOX", "address": {"city": "LAS VEGAS", "state": "NV", "street": "600 S RANCHO DR", "postcode": "89106"}}},
{"geometry": {"type": "Point", "coordinates": [-115.1762630052, 36.1776251493]}, "type": "Feature", "properties": {"collection_times": [{"days": "Mon-Fri", "time": "4:45pm"}, {"days": "Sat", "time": "4:15pm"}, {"days": "Sun", "time": "Closed"}], "id": "8910600023", "name": "USPS COLLECTION BOX - BLUE BOX", "address": {"city": "LAS VEGAS", "state": "NV", "street": "601 S RANCHO DR", "postcode": "89106"}}},
{"geometry": {"type": "Point", "coordinates": [-115.1782456444, 36.1799200897]}, "type": "Feature", "properties": {"collection_times": [{"days": "Mon-Fri", "time": "4:00pm"}, {"days": "Sat", "time": "3:30pm"}, {"days": "Sun", "time": "Closed"}], "id": "8910600024", "name": "USPS COLLECTION BOX - BLUE BOX", "address": {"city": "LAS VEGAS", "state": "NV", "street": "825 N RANCHO DR", "postcode": "89106"}}},
{"geometry": {"type": "Point", "coordinates": [-115.1869273803, 36.1894086035]}, "type": "Feature", "properties": {"collection_times": [{"days": "Mon-Fri", "time": "11:45am"}, {"days": "Sat-Sun", "time": "Closed"}], "id": "8910600026", "name": "USPS COLLECTION BOX - BLUE BOX", "address": {"city": "LAS VEGAS", "state": "NV", "street": "1631 N RANCHO DR", "postcode": "89106"}}},
{"geometry": {"type": "Point", "coordinates": [-115.1558912689, 36.164515598]}, "type": "Feature", "properties": {"collection_times": [{"days": "Mon-Fri", "time": "2:15pm"}, {"days": "Sat-Sun", "time": "Closed"}], "id": "8910600034", "name": "USPS COLLECTION BOX - BLUE BOX", "address": {"city": "LAS VEGAS", "state": "NV", "street": "500 S GRAND CENTRAL PKWY", "postcode": "89106"}}},
{"geometry": {"type": "Point", "coordinates": [-115.1654200033, 36.1629943128]}, "type": "Feature", "properties": {"collection_times": [{"days": "Mon-Fri", "time": "4:30pm"}, {"days": "Sat", "time": "4:00pm"}, {"days": "Sun", "time": "Closed"}], "id": "8910600045", "name": "USPS COLLECTION BOX - BLUE BOX", "address": {"city": "LAS VEGAS", "state": "NV", "street": "620 SHADOW LN", "postcode": "89106"}}},
{"geometry": {"type": "Point", "coordinates": [-115.2060558267, 36.1637620531]}, "type": "Feature", "properties": {"collection_times": [{"days": "Mon-Sat", "time": "8:00am"}, {"days": "Sun", "time": "Closed"}], "id": "8910700005", "name": "USPS COLLECTION BOX - BLUE BOX", "address": {"city": "LAS VEGAS", "state": "NV", "street": "740 S DECATUR BLVD", "postcode": "89107"}}},
{"geometry": {"type": "Point", "coordinates": [-115.2142091978, 36.1711924945]}, "type": "Feature", "properties": {"collection_times": [{"days": "Mon-Fri", "time": "1:45pm"}, {"days": "Sat", "time": "2:45pm"}, {"days": "Sun", "time": "Closed"}], "id": "8910700008", "name": "USPS COLLECTION BOX - EXPRESS", "address": {"city": "LAS VEGAS", "state": "NV", "street": "4200 MEADOWS LN", "postcode": "89107"}}},
{"geometry": {"type": "Point", "coordinates": [-115.1968050876, 36.1701748737]}, "type": "Feature", "properties": {"collection_times": [{"days": "Mon-Fri", "time": "1:45pm"}, {"days": "Sat", "time": "2:45pm"}, {"days": "Sun", "time": "Closed"}], "id": "8910700009", "name": "USPS COLLECTION BOX - BLUE BOX", "address": {"city": "LAS VEGAS", "state": "NV", "street": "4200 MEADOWS LN", "postcode": "89107"}}},
{"geometry": {"type": "Point", "coordinates": [-115.2408963342, 36.1780723077]}, "type": "Feature", "properties": {"collection_times": [{"days": "Mon-Fri", "time": "12:00pm"}, {"days": "Sat", "time": "12:45pm"}, {"days": "Sun", "time": "Closed"}], "id": "8910700011", "name": "USPS COLLECTION BOX - BLUE BOX", "address": {"city": "LAS VEGAS", "state": "NV", "street": "6660 SILVERSTREAM AVE", "postcode": "89107"}}},
{"geometry": {"type": "Point", "coordinates": [-115.2346503108, 36.1597648348]}, "type": "Feature", "properties": {"collection_times": [{"days": "Mon-Fri", "time": "11:00am"}, {"days": "Sat", "time": "12:45pm"}, {"days": "Sun", "time": "Closed"}], "id": "8910700012", "name": "USPS COLLECTION BOX - BLUE BOX", "address": {"city": "LAS VEGAS", "state": "NV", "street": "1000 S TORREY PINES DR", "postcode": "89107"}}},
{"geometry": {"type": "Point", "coordinates": [-115.2422496392, 36.1826657374]}, "type": "Feature", "properties": {"collection_times": [{"days": "Mon-Fri", "time": "1:30pm"}, {"days": "Sat", "time": "12:00pm"}, {"days": "Sun", "time": "Closed"}], "id": "8910700018", "name": "USPS COLLECTION BOX - BLUE BOX", "address": {"city": "LAS VEGAS", "state": "NV", "street": "1101 N RAINBOW BLVD", "postcode": "89107"}}},
{"geometry": {"type": "Point", "coordinates": [-115.206173273, 36.1656878068]}, "type": "Feature", "properties": {"collection_times": [{"days": "Mon-Fri", "time": "4:45pm"}, {"days": "Sat", "time": "3:00pm"}, {"days": "Sun", "time": "Closed"}], "id": "8910700019", "name": "USPS COLLECTION BOX - BLUE BOX", "address": {"city": "LAS VEGAS", "state": "NV", "street": "528 S DECATUR BLVD", "postcode": "89107"}}},
{"geometry": {"type": "Point", "coordinates": [-115.1957191313, 36.1656595193]}, "type": "Feature", "properties": {"collection_times": [{"days": "Mon-Fri", "time": "1:00pm"}, {"days": "Sat", "time": "3:00pm"}, {"days": "Sun", "time": "Closed"}], "id": "8910700021", "name": "USPS COLLECTION BOX - BLUE BOX", "address": {"city": "LAS VEGAS", "state": "NV", "street": "4040 NIGHTINGALE CT", "postcode": "89107"}}},
{"geometry": {"type": "Point", "coordinates": [-115.2124802921, 36.1683104952]}, "type": "Feature", "properties": {"collection_times": [{"days": "Mon-Fri", "time": "2:00pm"}, {"days": "Sat", "time": "1:00pm"}, {"days": "Sun", "time": "Closed"}], "id": "8910700022", "name": "USPS COLLECTION BOX - BLUE BOX", "address": {"city": "LAS VEGAS", "state": "NV", "street": "401 PROMENADE BLVD", "postcode": "89107"}}},
{"geometry": {"type": "Point", "coordinates": [-115.2061838507, 36.1684935353]}, "type": "Feature", "properties": {"collection_times": [{"days": "Mon-Sat", "time": "11:00am"}, {"days": "Sun", "time": "Closed"}], "id": "8910700024", "name": "USPS COLLECTION BOX - BLUE BOX", "address": {"city": "LAS VEGAS", "state": "NV", "street": "330 S DECATUR BLVD", "postcode": "89107"}}},
{"geometry": {"type": "Point", "coordinates": [-115.2241799411, 36.2169289609]}, "type": "Feature", "properties": {"collection_times": [{"days": "Mon-Fri", "time": "11:45am"}, {"days": "Sat", "time": "1:30pm"}, {"days": "Sun", "time": "Closed"}], "id": "8910800001", "name": "USPS COLLECTION BOX - BLUE BOX", "address": {"city": "LAS VEGAS", "state": "NV", "street": "6000 W CHEYENNE AVE", "postcode": "89108"}}},
{"geometry": {"type": "Point", "coordinates": [-115.2061511316, 36.194667803]}, "type": "Feature", "properties": {"collection_times": [{"days": "Mon-Fri", "time": "11:45am"}, {"days": "Sat-Sun", "time": "Closed"}], "id": "8910800005", "name": "USPS COLLECTION BOX - BLUE BOX", "address": {"city": "LAS VEGAS", "state": "NV", "street": "1941 N DECATUR BLVD", "postcode": "89108"}}},
{"geometry": {"type": "Point", "coordinates": [-115.2238980155, 36.1879001219]}, "type": "Feature", "properties": {"collection_times": [{"days": "Mon-Fri", "time": "11:15am"}, {"days": "Sat", "time": "1:15pm"}, {"days": "Sun", "time": "Closed"}], "id": "8910800006", "name": "USPS COLLECTION BOX - BLUE BOX", "address": {"city": "LAS VEGAS", "state": "NV", "street": "1512 N JONES BLVD", "postcode": "89108"}}},
{"geometry": {"type": "Point", "coordinates": [-115.223775423, 36.1958637807]}, "type": "Feature", "properties": {"collection_times": [{"days": "Mon-Fri", "time": "11:15am"}, {"days": "Sat-Sun", "time": "Closed"}], "id": "8910800007", "name": "USPS COLLECTION BOX - BLUE BOX", "address": {"city": "LAS VEGAS", "state": "NV", "street": "2003 N JONES BLVD", "postcode": "89108"}}},
{"geometry": {"type": "Point", "coordinates": [-115.2147237245, 36.2033599838]}, "type": "Feature", "properties": {"collection_times": [{"days": "Mon-Fri", "time": "11:45am"}, {"days": "Sat", "time": "1:00pm"}, {"days": "Sun", "time": "Closed"}], "id": "8910800010", "name": "USPS COLLECTION BOX - BLUE BOX", "address": {"city": "LAS VEGAS", "state": "NV", "street": "2420 N MICHAEL WAY", "postcode": "89108"}}},
{"geometry": {"type": "Point", "coordinates": [-115.2424126205, 36.2158380311]}, "type": "Feature", "properties": {"collection_times": [{"days": "Mon-Fri", "time": "1:00pm"}, {"days": "Sat", "time": "1:15pm"}, {"days": "Sun", "time": "Closed"}], "id": "8910800012", "name": "USPS COLLECTION BOX - BLUE BOX", "address": {"city": "LAS VEGAS", "state": "NV", "street": "3041 N RAINBOW BLVD", "postcode": "89108"}}},
{"geometry": {"type": "Point", "coordinates": [-115.2421927576, 36.2062688021]}, "type": "Feature", "properties": {"collection_times": [{"days": "Mon-Fri", "time": "12:30pm"}, {"days": "Sat-Sun", "time": "Closed"}], "id": "8910800013", "name": "USPS COLLECTION BOX - BLUE BOX", "address": {"city": "LAS VEGAS", "state": "NV", "street": "2534 N RAINBOW BLVD", "postcode": "89108"}}},
{"geometry": {"type": "Point", "coordinates": [-115.2421495122, 36.2178884728]}, "type": "Feature", "properties": {"collection_times": [{"days": "Mon-Fri", "time": "12:15pm"}, {"days": "Sat", "time": "2:00pm"}, {"days": "Sun", "time": "Closed"}], "id": "8910800015", "name": "USPS COLLECTION BOX - BLUE BOX", "address": {"city": "LAS VEGAS", "state": "NV", "street": "3190 N RAINBOW BLVD", "postcode": "89108"}}},
{"geometry": {"type": "Point", "coordinates": [-115.2330313792, 36.2008406041]}, "type": "Feature", "properties": {"collection_times": [{"days": "Mon-Sat", "time": "12:00pm"}, {"days": "Sun", "time": "Closed"}], "id": "8910800018", "name": "USPS COLLECTION BOX - BLUE BOX", "address": {"city": "LAS VEGAS", "state": "NV", "street": "2200 N TORREY PINES DR", "postcode": "89108"}}},
{"geometry": {"type": "Point", "coordinates": [-115.205833545, 36.2071415044]}, "type": "Feature", "properties": {"collection_times": [{"days": "Mon-Sat", "time": "6:00pm"}, {"days": "Sun", "time": "Closed"}], "id": "8910800028", "name": "USPS COLLECTION BOX - BLUE BOX", "address": {"city": "LAS VEGAS", "state": "NV", "street": "2675 N DECATUR BLVD", "postcode": "89108"}}},
{"geometry": {"type": "Point", "coordinates": [-115.205833193, 36.207141555]}, "type": "Feature", "properties": {"collection_times": [{"days": "Mon-Fri", "time": "5:00pm"}, {"days": "Sat", "time": "3:00pm"}, {"days": "Sun", "time": "Closed"}], "id": "8910800030", "name": "USPS COLLECTION BOX - PO LOBBY", "address": {"city": "LAS VEGAS", "state": "NV", "street": "2675 N DECATUR BLVD", "postcode": "89108"}}},
{"geometry": {"type": "Point", "coordinates": [-115.205833193, 36.207141555]}, "type": "Feature", "properties": {"collection_times": [{"days": "Mon-Fri", "time": "5:00pm"}, {"days": "Sat", "time": "3:00pm"}, {"days": "Sun", "time": "Closed"}], "id": "8910800031", "name": "USPS COLLECTION BOX - PO LOBBY", "address": {"city": "LAS VEGAS", "state": "NV", "street": "2675 N DECATUR BLVD", "postcode": "89108"}}},
{"geometry": {"type": "Point", "coordinates": [-115.1670307148, 36.139160121]}, "type": "Feature", "properties": {"collection_times": [{"days": "Mon-Fri", "time": "2:15pm"}, {"days": "Sat-Sun", "time": "Closed"}], "id": "8910900002", "name": "USPS COLLECTION BOX - BLUE BOX", "address": {"city": "LAS VEGAS", "state": "NV", "street": "1002 CIRCUS CIRCUS DR", "postcode": "89109"}}},
{"geometry": {"type": "Point", "coordinates": [-115.161539481, 36.132367683]}, "type": "Feature", "properties": {"collection_times": [{"days": "Mon-Sat", "time": "10:30am"}, {"days": "Sun", "time": "Closed"}], "id": "8910900006", "name": "USPS COLLECTION BOX - BLUE BOX", "address": {"city": "LAS VEGAS", "state": "NV", "street": "200 CONVENTION CENTER DR", "postcode": "89109"}}},
{"geometry": {"type": "Point", "coordinates": [-115.140059729, 36.1298383389]}, "type": "Feature", "properties": {"collection_times": [{"days": "Mon-Fri", "time": "3:15pm"}, {"days": "Sat-Sun", "time": "Closed"}], "id": "8910900010", "name": "USPS COLLECTION BOX - BLUE BOX", "address": {"city": "LAS VEGAS", "state": "NV", "street": "1090 E DESERT INN RD", "postcode": "89109"}}},
{"geometry": {"type": "Point", "coordinates": [-115.173840513, 36.1090465744]}, "type": "Feature", "properties": {"collection_times": [{"days": "Mon-Fri", "time": "11:30am"}, {"days": "Sat", "time": "1:00pm"}, {"days": "Sun", "time": "Closed"}], "id": "8910900015", "name": "USPS COLLECTION BOX - BLUE BOX", "address": {"city": "LAS VEGAS", "state": "NV", "street": "335 E HARMON AVE", "postcode": "89109"}}},
{"geometry": {"type": "Point", "coordinates": [-115.1776518184, 36.1303335781]}, "type": "Feature", "properties": {"collection_times": [{"days": "Mon-Fri", "time": "2:30pm"}, {"days": "Sat-Sun", "time": "Closed"}], "id": "8910900020", "name": "USPS COLLECTION BOX - BLUE BOX", "address": {"city": "LAS VEGAS", "state": "NV", "street": "3281 S HIGHLAND DR", "postcode": "89109"}}},
{"geometry": {"type": "Point", "coordinates": [-115.1692291312, 36.1257050803]}, "type": "Feature", "properties": {"collection_times": [{"days": "Mon-Fri", "time": "2:45pm"}, {"days": "Sat", "time": "1:30pm"}, {"days": "Sun", "time": "Closed"}], "id": "8910900037", "name": "USPS COLLECTION BOX - BLUE BOX", "address": {"city": "LAS VEGAS", "state": "NV", "street": "3200 LAS VEGAS BLVD S", "postcode": "89109"}}},
{"geometry": {"type": "Point", "coordinates": [-115.1729554519, 36.1176893503]}, "type": "Feature", "properties": {"collection_times": [{"days": "Mon-Fri", "time": "4:45pm"}, {"days": "Sat", "time": "5:15pm"}, {"days": "Sun", "time": "Closed"}], "id": "8910900043", "name": "USPS COLLECTION BOX - BLUE BOX", "address": {"city": "LAS VEGAS", "state": "NV", "street": "3500 LAS VEGAS BLVD S", "postcode": "89109"}}},
{"geometry": {"type": "Point", "coordinates": [-115.1727590808, 36.1017028429]}, "type": "Feature", "properties": {"collection_times": [{"days": "Mon-Fri", "time": "4:30pm"}, {"days": "Sat", "time": "5:00pm"}, {"days": "Sun", "time": "Closed"}], "id": "8910900053", "name": "USPS COLLECTION BOX - BLUE BOX", "address": {"city": "LAS VEGAS", "state": "NV", "street": "3799 LAS VEGAS BLVD S", "postcode": "89109"}}},
{"geometry": {"type": "Point", "coordinates": [-115.1368882161, 36.1355236397]}, "type": "Feature", "properties": {"collection_times": [{"days": "Mon-Fri", "time": "2:30pm"}, {"days": "Sat", "time": "12:00pm"}, {"days": "Sun", "time": "Closed"}], "id": "8910900059", "name": "USPS COLLECTION BOX - BLUE BOX", "address": {"city": "LAS VEGAS", "state": "NV", "street": "3006 S MARYLAND PKWY", "postcode": "89109"}}},
{"geometry": {"type": "Point", "coordinates": [-115.1367959453, 36.1340082693]}, "type": "Feature", "properties": {"collection_times": [{"days": "Mon-Sat", "time": "9:00am"}, {"days": "Sun", "time": "Closed"}], "id": "8910900063", "name": "USPS COLLECTION BOX - BLUE BOX", "address": {"city": "LAS VEGAS", "state": "NV", "street": "3186 S MARYLAND PKWY", "postcode": "89109"}}},
{"geometry": {"type": "Point", "coordinates": [-115.1547296032, 36.1316092285]}, "type": "Feature", "properties": {"collection_times": [{"days": "Mon-Fri", "time": "4:30pm"}, {"days": "Sat-Sun", "time": "Closed"}], "id": "8910900075", "name": "USPS COLLECTION BOX - BLUE BOX", "address": {"city": "LAS VEGAS", "state": "NV", "street": "3150 PARADISE RD", "postcode": "89109"}}},
{"geometry": {"type": "Point", "coordinates": [-115.1578197165, 36.1303233728]}, "type": "Feature", "properties": {"collection_times": [{"days": "Mon-Fri", "time": "4:00pm"}, {"days": "Sat", "time": "2:45pm"}, {"days": "Sun", "time": "Closed"}], "id": "8910900076", "name": "USPS COLLECTION BOX - EXPRESS", "address": {"city": "LAS VEGAS", "state": "NV", "street": "3900 PARADISE RD", "postcode": "89109"}}},
{"geometry": {"type": "Point", "coordinates": [-115.1548727412, 36.1179827242]}, "type": "Feature", "properties": {"collection_times": [{"days": "Mon-Fri", "time": "4:00pm"}, {"days": "Sat", "time": "2:45pm"}, {"days": "Sun", "time": "Closed"}], "id": "8910900077", "name": "USPS COLLECTION BOX - BLUE BOX", "address": {"city": "LAS VEGAS", "state": "NV", "street": "3900 PARADISE RD", "postcode": "89109"}}},
{"geometry": {"type": "Point", "coordinates": [-115.138287224, 36.1291009331]}, "type": "Feature", "properties": {"collection_times": [{"days": "Mon-Fri", "time": "3:30pm"}, {"days": "Sat", "time": "12:45pm"}, {"days": "Sun", "time": "Closed"}], "id": "8910900078", "name": "USPS COLLECTION BOX - BLUE BOX", "address": {"city": "LAS VEGAS", "state": "NV", "street": "3330 ROME ST", "postcode": "89109"}}},
{"geometry": {"type": "Point", "coordinates": [-115.1387490105, 36.12216685]}, "type": "Feature", "properties": {"collection_times": [{"days": "Mon-Fri", "time": "3:30pm"}, {"days": "Sat-Sun", "time": "Closed"}], "id": "8910900081", "name": "USPS COLLECTION BOX - BLUE BOX", "address": {"city": "LAS VEGAS", "state": "NV", "street": "1155 E TWAIN AVE", "postcode": "89109"}}},
{"geometry": {"type": "Point", "coordinates": [-115.1368882161, 36.1355236397]}, "type": "Feature", "properties": {"collection_times": [{"days": "Mon-Sat", "time": "9:00am"}, {"days": "Sun", "time": "Closed"}], "id": "8910900085", "name": "USPS COLLECTION BOX - BLUE BOX", "address": {"city": "LAS VEGAS", "state": "NV", "street": "3006 S MARYLAND PKWY", "postcode": "89109"}}},
{"geometry": {"type": "Point", "coordinates": [-115.1321656596, 36.132681426]}, "type": "Feature", "properties": {"collection_times": [{"days": "Mon-Sat", "time": "9:00am"}, {"days": "Sun", "time": "Closed"}], "id": "8910900118", "name": "USPS COLLECTION BOX - BLUE BOX", "address": {"city": "LAS VEGAS", "state": "NV", "street": "3131 LA CANADA ST", "postcode": "89109"}}},
{"geometry": {"type": "Point", "coordinates": [-115.1638549486, 36.1058715903]}, "type": "Feature", "properties": {"collection_times": [{"days": "Mon-Fri", "time": "12:00pm"}, {"days": "Sat", "time": "1:00pm"}, {"days": "Sun", "time": "Closed"}], "id": "8910900138", "name": "USPS COLLECTION BOX - BLUE BOX", "address": {"city": "LAS VEGAS", "state": "NV", "street": "4630 KOVAL LN", "postcode": "89109"}}},
{"geometry": {"type": "Point", "coordinates": [-115.1368172385, 36.1335078776]}, "type": "Feature", "properties": {"collection_times": [{"days": "Mon-Sat", "time": "8:30am"}, {"days": "Sun", "time": "Closed"}], "id": "8910900141", "name": "USPS COLLECTION BOX - BLUE BOX", "address": {"city": "LAS VEGAS", "state": "NV", "street": "3196 S MARYLAND PKWY", "postcode": "89109"}}},
{"geometry": {"type": "Point", "coordinates": [-115.1368656704, 36.1319309687]}, "type": "Feature", "properties": {"collection_times": [{"days": "Mon-Sat", "time": "8:30am"}, {"days": "Sun", "time": "Closed"}], "id": "8910900142", "name": "USPS COLLECTION BOX - BLUE BOX", "address": {"city": "LAS VEGAS", "state": "NV", "street": "3196 S MARYLAND PKWY", "postcode": "89109"}}},
{"geometry": {"type": "Point", "coordinates": [-115.1369336547, 36.1316509639]}, "type": "Feature", "properties": {"collection_times": [{"days": "Mon-Sat", "time": "12:30pm"}, {"days": "Sun", "time": "Closed"}], "id": "8910900146", "name": "USPS COLLECTION BOX - BLUE BOX", "address": {"city": "LAS VEGAS", "state": "NV", "street": "3201 S MARYLAND PKWY", "postcode": "89109"}}},
{"geometry": {"type": "Point", "coordinates": [-115.0643977532, 36.173934193]}, "type": "Feature", "properties": {"collection_times": [{"days": "Mon-Fri", "time": "1:00pm"}, {"days": "Sat-Sun", "time": "Closed"}], "id": "8911000001", "name": "USPS COLLECTION BOX - EXPRESS", "address": {"city": "LAS VEGAS", "state": "NV", "street": "5068 E BONANZA RD", "postcode": "89110"}}},
{"geometry": {"type": "Point", "coordinates": [-115.0629384628, 36.1741315079]}, "type": "Feature", "properties": {"collection_times": [{"days": "Mon-Sat", "time": "10:30am"}, {"days": "Sun", "time": "Closed"}], "id": "8911000002", "name": "USPS COLLECTION BOX - BLUE BOX", "address": {"city": "LAS VEGAS", "state": "NV", "street": "5068 E BONANZA RD", "postcode": "89110"}}},
{"geometry": {"type": "Point", "coordinates": [-115.0622830774, 36.1637915602]}, "type": "Feature", "properties": {"collection_times": [{"days": "Mon-Sat", "time": "11:00am"}, {"days": "Sun", "time": "Closed"}], "id": "8911000005", "name": "USPS COLLECTION BOX - BLUE BOX", "address": {"city": "LAS VEGAS", "state": "NV", "street": "201 N NELLIS BLVD", "postcode": "89110"}}},
{"geometry": {"type": "Point", "coordinates": [-115.06208, 36.17384]}, "type": "Feature", "properties": {"collection_times": [{"days": "Mon-Fri", "time": "11:30am"}, {"days": "Sat", "time": "1:45pm"}, {"days": "Sun", "time": "Closed"}], "id": "8911000007", "name": "USPS COLLECTION BOX - BLUE BOX", "address": {"city": "LAS VEGAS", "state": "NV", "street": "780 N NELLIS BLVD", "postcode": "89110"}}},
{"geometry": {"type": "Point", "coordinates": [-115.0891957717, 36.1666411539]}, "type": "Feature", "properties": {"collection_times": [{"days": "Mon-Sat", "time": "11:30am"}, {"days": "Sun", "time": "Closed"}], "id": "8911000008", "name": "USPS COLLECTION BOX - BLUE BOX", "address": {"city": "LAS VEGAS", "state": "NV", "street": "304 N SANDHILL RD", "postcode": "89110"}}},
{"geometry": {"type": "Point", "coordinates": [-115.0256734991, 36.1776931706]}, "type": "Feature", "properties": {"collection_times": [{"days": "Mon-Sat", "time": "12:00pm"}, {"days": "Sun", "time": "Closed"}], "id": "8911000014", "name": "USPS COLLECTION BOX - BLUE BOX", "address": {"city": "LAS VEGAS", "state": "NV", "street": "1000 N HOLLYWOOD BLVD", "postcode": "89110"}}},
{"geometry": {"type": "Point", "coordinates": [-115.0803770833, 36.1782722278]}, "type": "Feature", "properties": {"collection_times": [{"days": "Mon-Sat", "time": "11:00am"}, {"days": "Sun", "time": "Closed"}], "id": "8911000022", "name": "USPS COLLECTION BOX - BLUE BOX", "address": {"city": "LAS VEGAS", "state": "NV", "street": "821 N LAMB BLVD", "postcode": "89110"}}},
{"geometry": {"type": "Point", "coordinates": [-115.0802540556, 36.1837315834]}, "type": "Feature", "properties": {"collection_times": [{"days": "Mon-Fri", "time": "11:30am"}, {"days": "Sat", "time": "1:00pm"}, {"days": "Sun", "time": "Closed"}], "id": "8911000024", "name": "USPS COLLECTION BOX - BLUE BOX", "address": {"city": "LAS VEGAS", "state": "NV", "street": "1200 N LAMB BLVD", "postcode": "89110"}}},
{"geometry": {"type": "Point", "coordinates": [-115.0566864443, 36.1640047328]}, "type": "Feature", "properties": {"collection_times": [{"days": "Mon-Sat", "time": "12:00pm"}, {"days": "Sun", "time": "Closed"}], "id": "8911000026", "name": "USPS COLLECTION BOX - BLUE BOX", "address": {"city": "LAS VEGAS", "state": "NV", "street": "230 SIR GEORGE DR", "postcode": "89110"}}},
{"geometry": {"type": "Point", "coordinates": [-115.149817318, 36.084685109]}, "type": "Feature", "properties": {"collection_times": [{"days": "Mon-Sat", "time": "4:30pm"}, {"days": "Sun", "time": "Closed"}], "id": "8911100001", "name": "USPS COLLECTION BOX - BLUE BOX", "address": {"city": "LAS VEGAS", "state": "NV", "street": "5757 WAYNE NEWTON BLVD", "postcode": "89111"}}},
{"geometry": {"type": "Point", "coordinates": [-115.149817318, 36.084685109]}, "type": "Feature", "properties": {"collection_times": [{"days": "Mon-Sat", "time": "4:30pm"}, {"days": "Sun", "time": "Closed"}], "id": "8911100002", "name": "USPS COLLECTION BOX - EXPRESS", "address": {"city": "LAS VEGAS", "state": "NV", "street": "5757 WAYNE NEWTON BLVD", "postcode": "89111"}}},
{"geometry": {"type": "Point", "coordinates": [-115.149817318, 36.084685109]}, "type": "Feature", "properties": {"collection_times": [{"days": "Mon-Sat", "time": "4:30pm"}, {"days": "Sun", "time": "Closed"}], "id": "8911100003", "name": "USPS COLLECTION BOX - PO LOBBY", "address": {"city": "LAS VEGAS", "state": "NV", "street": "5757 WAYNE NEWTON BLVD", "postcode": "89111"}}},
{"geometry": {"type": "Point", "coordinates": [-115.149817318, 36.084685109]}, "type": "Feature", "properties": {"collection_times": [{"days": "Mon-Sat", "time": "4:30pm"}, {"days": "Sun", "time": "Closed"}], "id": "8911100004", "name": "USPS COLLECTION BOX - BLUE BOX", "address": {"city": "LAS VEGAS", "state": "NV", "street": "5757 WAYNE NEWTON BLVD", "postcode": "89111"}}},
{"geometry": {"type": "Point", "coordinates": [-115.2793318539, 36.099192604]}, "type": "Feature", "properties": {"collection_times": [{"days": "Mon-Fri", "time": "12:00pm"}, {"days": "Sat-Sun", "time": "Closed"}], "id": "8911300000", "name": "USPS COLLECTION BOX - BLUE BOX", "address": {"city": "LAS VEGAS", "state": "NV", "street": "4955 S DURANGO DR", "postcode": "89113"}}},
{"geometry": {"type": "Point", "coordinates": [-115.2737989994, 36.0702690135]}, "type": "Feature", "properties": {"collection_times": [{"days": "Mon-Fri", "time": "12:00pm"}, {"days": "Sat-Sun", "time": "Closed"}], "id": "8911300001", "name": "USPS COLLECTION BOX - BLUE BOX", "address": {"city": "LAS VEGAS", "state": "NV", "street": "8363 W SUNSET RD", "postcode": "89113"}}},
{"geometry": {"type": "Point", "coordinates": [-115.2637958246, 36.0848711109]}, "type": "Feature", "properties": {"collection_times": [{"days": "Mon-Sat", "time": "6:00pm"}, {"days": "Sun", "time": "Closed"}], "id": "8911300002", "name": "USPS COLLECTION BOX - BLUE BOX", "address": {"city": "LAS VEGAS", "state": "NV", "street": "7925 W RUSSELL RD", "postcode": "89113"}}},
{"geometry": {"type": "Point", "coordinates": [-115.2637958246, 36.0848711109]}, "type": "Feature", "properties": {"collection_times": [{"days": "Mon-Sat", "time": "5:00pm"}, {"days": "Sun", "time": "Closed"}], "id": "8911300003", "name": "USPS COLLECTION BOX - PO LOBBY", "address": {"city": "LAS VEGAS", "state": "NV", "street": "7925 W RUSSELL RD", "postcode": "89113"}}},
{"geometry": {"type": "Point", "coordinates": [-115.2637958246, 36.0848711109]}, "type": "Feature", "properties": {"collection_times": [{"days": "Mon-Sat", "time": "5:00pm"}, {"days": "Sun", "time": "Closed"}], "id": "8911300005", "name": "USPS COLLECTION BOX - APC", "address": {"city": "LAS VEGAS", "state": "NV", "street": "7925 W RUSSELL RD", "postcode": "89113"}}},
{"geometry": {"type": "Point", "coordinates": [-115.0637975228, 36.1962426783]}, "type": "Feature", "properties": {"collection_times": [{"days": "Mon-Fri", "time": "12:30pm"}, {"days": "Sat-Sun", "time": "Closed"}], "id": "8911500009", "name": "USPS COLLECTION BOX - BLUE BOX", "address": {"city": "LAS VEGAS", "state": "NV", "street": "5076 E LAKE MEAD BLVD", "postcode": "89115"}}},
{"geometry": {"type": "Point", "coordinates": [-115.0622174803, 36.2253646413]}, "type": "Feature", "properties": {"collection_times": [{"days": "Mon-Fri", "time": "11:15am"}, {"days": "Sat-Sun", "time": "Closed"}], "id": "8911500013", "name": "USPS COLLECTION BOX - BLUE BOX", "address": {"city": "LAS VEGAS", "state": "NV", "street": "3589 N NELLIS BLVD", "postcode": "89115"}}},
{"geometry": {"type": "Point", "coordinates": [-115.0350224366, 36.1958971334]}, "type": "Feature", "properties": {"collection_times": [{"days": "Mon-Fri", "time": "12:30pm"}, {"days": "Sat", "time": "2:15pm"}, {"days": "Sun", "time": "Closed"}], "id": "8911500019", "name": "USPS COLLECTION BOX - BLUE BOX", "address": {"city": "LAS VEGAS", "state": "NV", "street": "6310 E LAKE MEAD BLVD", "postcode": "89115"}}},
{"geometry": {"type": "Point", "coordinates": [-115.0524332267, 36.1962721314]}, "type": "Feature", "properties": {"collection_times": [{"days": "Mon-Fri", "time": "12:30pm"}, {"days": "Sat-Sun", "time": "Closed"}], "id": "8911500021", "name": "USPS COLLECTION BOX - BLUE BOX", "address": {"city": "LAS VEGAS", "state": "NV", "street": "5516 E LAKE MEAD BLVD", "postcode": "89115"}}},
{"geometry": {"type": "Point", "coordinates": [-115.1730563288, 36.0854039484]}, "type": "Feature", "properties": {"collection_times": [{"days": "Mon-Fri", "time": "2:00pm"}, {"days": "Sat-Sun", "time": "Closed"}], "id": "8911500028", "name": "USPS COLLECTION BOX - BLUE BOX", "address": {"city": "LAS VEGAS", "state": "NV", "street": "4700 LAS VEGAS BLVD N", "postcode": "89115"}}},
{"geometry": {"type": "Point", "coordinates": [-115.0987494606, 36.232634336]}, "type": "Feature", "properties": {"collection_times": [{"days": "Mon-Sat", "time": "3:15pm"}, {"days": "Sun", "time": "Closed"}], "id": "8911500029", "name": "USPS COLLECTION BOX - BLUE BOX", "address": {"city": "LAS VEGAS", "state": "NV", "street": "4031 N PECOS RD", "postcode": "89115"}}},
{"geometry": {"type": "Point", "coordinates": [-115.066828829, 36.2034531]}, "type": "Feature", "properties": {"collection_times": [{"days": "Mon-Sat", "time": "4:15pm"}, {"days": "Sun", "time": "Closed"}], "id": "8911500031", "name": "USPS COLLECTION BOX - PO LOBBY", "address": {"city": "LAS VEGAS", "state": "NV", "street": "4885 E CAREY AVE", "postcode": "89115"}}},
{"geometry": {"type": "Point", "coordinates": [-115.0106067214, 36.2660178546]}, "type": "Feature", "properties": {"collection_times": [{"days": "Mon-Fri", "time": "4:30pm"}, {"days": "Sat-Sun", "time": "Closed"}], "id": "8911500032", "name": "USPS COLLECTION BOX - BLUE BOX", "address": {"city": "LAS VEGAS", "state": "NV", "street": "7055 LAS VEGAS BLVD N", "postcode": "89115"}}},
{"geometry": {"type": "Point", "coordinates": [-115.0106067214, 36.2660178546]}, "type": "Feature", "properties": {"collection_times": [{"days": "Mon-Fri", "time": "4:30pm"}, {"days": "Sat-Sun", "time": "Closed"}], "id": "8911500033", "name": "USPS COLLECTION BOX - BLUE BOX", "address": {"city": "LAS VEGAS", "state": "NV", "street": "7055 LAS VEGAS BLVD N", "postcode": "89115"}}},
{"geometry": {"type": "Point", "coordinates": [-115.0807769235, 36.2251505257]}, "type": "Feature", "properties": {"collection_times": [{"days": "Mon-Sat", "time": "9:30am"}, {"days": "Sun", "time": "Closed"}], "id": "8911500037", "name": "USPS COLLECTION BOX - BLUE BOX", "address": {"city": "LAS VEGAS", "state": "NV", "street": "3603 LAS VEGAS BLVD N", "postcode": "89115"}}},
{"geometry": {"type": "Point", "coordinates": [-115.011306722, 36.2657454125]}, "type": "Feature", "properties": {"collection_times": [{"days": "Mon-Fri", "time": "4:30pm"}, {"days": "Sat-Sun", "time": "Closed"}], "id": "8911500040", "name": "USPS COLLECTION BOX - BLUE BOX", "address": {"city": "LAS VEGAS", "state": "NV", "street": "7000 LAS VEGAS BLVD N", "postcode": "89115"}}},
{"geometry": {"type": "Point", "coordinates": [-115.024317951, 36.2806717233]}, "type": "Feature", "properties": {"collection_times": [{"days": "Mon-Fri", "time": "4:30pm"}, {"days": "Sat-Sun", "time": "Closed"}], "id": "8911500041", "name": "USPS COLLECTION BOX - BLUE BOX", "address": {"city": "LAS VEGAS", "state": "NV", "street": "6595 N HOLLYWOOD BLVD", "postcode": "89115"}}},
{"geometry": {"type": "Point", "coordinates": [-115.2511726987, 36.1591177563]}, "type": "Feature", "properties": {"collection_times": [{"days": "Mon-Fri", "time": "12:00pm"}, {"days": "Sat-Sun", "time": "Closed"}], "id": "8911700001", "name": "USPS COLLECTION BOX - BLUE BOX", "address": {"city": "LAS VEGAS", "state": "NV", "street": "7000 W CHARLESTON BLVD", "postcode": "89117"}}},
{"geometry": {"type": "Point", "coordinates": [-115.2799115038, 36.1439877111]}, "type": "Feature", "properties": {"collection_times": [{"days": "Mon-Fri", "time": "4:15pm"}, {"days": "Sat", "time": "4:00pm"}, {"days": "Sun", "time": "Closed"}], "id": "8911700006", "name": "USPS COLLECTION BOX - BLUE BOX", "address": {"city": "LAS VEGAS", "state": "NV", "street": "8635 W SAHARA AVE", "postcode": "89117"}}},
{"geometry": {"type": "Point", "coordinates": [-115.2938653414, 36.1441350174]}, "type": "Feature", "properties": {"collection_times": [{"days": "Mon-Fri", "time": "4:30pm"}, {"days": "Sat", "time": "4:00pm"}, {"days": "Sun", "time": "Closed"}], "id": "8911700007", "name": "USPS COLLECTION BOX - BLUE BOX", "address": {"city": "LAS VEGAS", "state": "NV", "street": "9041 W SAHARA AVE", "postcode": "89117"}}},
{"geometry": {"type": "Point", "coordinates": [-115.2990881664, 36.1297088385]}, "type": "Feature", "properties": {"collection_times": [{"days": "Mon-Fri", "time": "12:30pm"}, {"days": "Sat-Sun", "time": "Closed"}], "id": "8911700014", "name": "USPS COLLECTION BOX - BLUE BOX", "address": {"city": "LAS VEGAS", "state": "NV", "street": "9415 W DESERT INN RD", "postcode": "89117"}}},
{"geometry": {"type": "Point", "coordinates": [-115.2551285135, 36.1439167336]}, "type": "Feature", "properties": {"collection_times": [{"days": "Mon-Fri", "time": "4:45pm"}, {"days": "Sat-Sun", "time": "Closed"}], "id": "8911700025", "name": "USPS COLLECTION BOX - BLUE BOX", "address": {"city": "LAS VEGAS", "state": "NV", "street": "7488 W SAHARA AVE", "postcode": "89117"}}},
{"geometry": {"type": "Point", "coordinates": [-115.2938653414, 36.1441350174]}, "type": "Feature", "properties": {"collection_times": [{"days": "Mon-Fri", "time": "4:30pm"}, {"days": "Sat", "time": "4:00pm"}, {"days": "Sun", "time": "Closed"}], "id": "8911700026", "name": "USPS COLLECTION BOX - BLUE BOX", "address": {"city": "LAS VEGAS", "state": "NV", "street": "9041 W SAHARA AVE", "postcode": "89117"}}},
{"geometry": {"type": "Point", "coordinates": [-115.3037966283, 36.1444999323]}, "type": "Feature", "properties": {"collection_times": [{"days": "Mon-Fri", "time": "5:00pm"}, {"days": "Sat-Sun", "time": "Closed"}], "id": "8911700030", "name": "USPS COLLECTION BOX - BLUE BOX", "address": {"city": "LAS VEGAS", "state": "NV", "street": "9580 W SAHARA AVE", "postcode": "89117"}}},
{"geometry": {"type": "Point", "coordinates": [-115.2638599336, 36.1590337662]}, "type": "Feature", "properties": {"collection_times": [{"days": "Mon-Fri", "time": "5:30pm"}, {"days": "Sat-Sun", "time": "Closed"}], "id": "8911700035", "name": "USPS COLLECTION BOX - BLUE BOX", "address": {"city": "LAS VEGAS", "state": "NV", "street": "7881 W CHARLESTON BLVD", "postcode": "89117"}}},
{"geometry": {"type": "Point", "coordinates": [-115.2993143968, 36.1443213055]}, "type": "Feature", "properties": {"collection_times": [{"days": "Mon-Fri", "time": "5:00pm"}, {"days": "Sat", "time": "4:30pm"}, {"days": "Sun", "time": "Closed"}], "id": "8911700036", "name": "USPS COLLECTION BOX - BLUE BOX", "address": {"city": "LAS VEGAS", "state": "NV", "street": "9501 W SAHARA AVE", "postcode": "89117"}}},
{"geometry": {"type": "Point", "coordinates": [-115.2638599336, 36.1590337662]}, "type": "Feature", "properties": {"collection_times": [{"days": "Mon-Fri", "time": "5:30pm"}, {"days": "Sat-Sun", "time": "Closed"}], "id": "8911700037", "name": "USPS COLLECTION BOX - BLUE BOX", "address": {"city": "LAS VEGAS", "state": "NV", "street": "7881 W CHARLESTON BLVD", "postcode": "89117"}}},
{"geometry": {"type": "Point", "coordinates": [-115.243141427, 36.127641492]}, "type": "Feature", "properties": {"collection_times": [{"days": "Mon-Fri", "time": "5:00pm"}, {"days": "Sat", "time": "4:00pm"}, {"days": "Sun", "time": "Closed"}], "id": "8911700042", "name": "USPS COLLECTION BOX - APC", "address": {"city": "LAS VEGAS", "state": "NV", "street": "3375 S RAINBOW BLVD", "postcode": "89117"}}},
{"geometry": {"type": "Point", "coordinates": [-115.2660176508, 36.1438883425]}, "type": "Feature", "properties": {"collection_times": [{"days": "Mon-Fri", "time": "5:00pm"}, {"days": "Sat", "time": "2:30pm"}, {"days": "Sun", "time": "Closed"}], "id": "8911700043", "name": "USPS COLLECTION BOX - BLUE BOX", "address": {"city": "LAS VEGAS", "state": "NV", "street": "8000 W SAHARA AVE", "postcode": "89117"}}},
{"geometry": {"type": "Point", "coordinates": [-115.2652438173, 36.1436275773]}, "type": "Feature", "properties": {"collection_times": [{"days": "Mon-Fri", "time": "5:00pm"}, {"days": "Sat-Sun", "time": "Closed"}], "id": "8911700049", "name": "USPS COLLECTION BOX - BLUE BOX", "address": {"city": "LAS VEGAS", "state": "NV", "street": "7997 W SAHARA AVE", "postcode": "89117"}}},
{"geometry": {"type": "Point", "coordinates": [-115.243141427, 36.127641492]}, "type": "Feature", "properties": {"collection_times": [{"days": "Mon-Fri", "time": "6:30pm"}, {"days": "Sat", "time": "5:30pm"}, {"days": "Sun", "time": "Closed"}], "id": "8911700051", "name": "USPS COLLECTION BOX - BLUE BOX", "address": {"city": "LAS VEGAS", "state": "NV", "street": "3375 S RAINBOW BLVD", "postcode": "89117"}}},
{"geometry": {"type": "Point", "coordinates": [-115.243141427, 36.127641492]}, "type": "Feature", "properties": {"collection_times": [{"days": "Mon-Fri", "time": "6:30pm"}, {"days": "Sat", "time": "5:30pm"}, {"days": "Sun", "time": "Closed"}], "id": "8911700052", "name": "USPS COLLECTION BOX - BLUE BOX", "address": {"city": "LAS VEGAS", "state": "NV", "street": "3375 S RAINBOW BLVD", "postcode": "89117"}}},
{"geometry": {"type": "Point", "coordinates": [-115.2725029294, 36.1440853407]}, "type": "Feature", "properties": {"collection_times": [{"days": "Mon-Fri", "time": "5:00pm"}, {"days": "Sat", "time": "2:30pm"}, {"days": "Sun", "time": "Closed"}], "id": "8911700056", "name": "USPS COLLECTION BOX - BLUE BOX", "address": {"city": "LAS VEGAS", "state": "NV", "street": "8310 W SAHARA AVE", "postcode": "89117"}}},
{"geometry": {"type": "Point", "coordinates": [-115.2725029294, 36.1440853407]}, "type": "Feature", "properties": {"collection_times": [{"days": "Mon-Sat", "time": "9:50am"}, {"days": "Sun", "time": "Closed"}], "id": "8911700057", "name": "USPS COLLECTION BOX - BLUE BOX", "address": {"city": "LAS VEGAS", "state": "NV", "street": "8310 W SAHARA AVE", "postcode": "89117"}}},
{"geometry": {"type": "Point", "coordinates": [-115.243141427, 36.127641492]}, "type": "Feature", "properties": {"collection_times": [{"days": "Mon-Fri", "time": "5:00pm"}, {"days": "Sat", "time": "4:00pm"}, {"days": "Sun", "time": "Closed"}], "id": "8911700059", "name": "USPS COLLECTION BOX - PO LOBBY", "address": {"city": "LAS VEGAS", "state": "NV", "street": "3375 S RAINBOW BLVD", "postcode": "89117"}}},
{"geometry": {"type": "Point", "coordinates": [-115.2039158668, 36.0941098244]}, "type": "Feature", "properties": {"collection_times": [{"days": "Mon-Fri", "time": "4:30pm"}, {"days": "Sat", "time": "4:00pm"}, {"days": "Sun", "time": "Closed"}], "id": "8911800001", "name": "USPS COLLECTION BOX - BLUE BOX", "address": {"city": "LAS VEGAS", "state": "NV", "street": "5277 CAMERON ST", "postcode": "89118"}}},
{"geometry": {"type": "Point", "coordinates": [-115.1898232638, 36.0956957773]}, "type": "Feature", "properties": {"collection_times": [{"days": "Mon-Fri", "time": "5:00pm"}, {"days": "Sat", "time": "4:30pm"}, {"days": "Sun", "time": "Closed"}], "id": "8911800008", "name": "USPS COLLECTION BOX - BLUE BOX", "address": {"city": "LAS VEGAS", "state": "NV", "street": "5190 S VALLEY VIEW BLVD", "postcode": "89118"}}},
{"geometry": {"type": "Point", "coordinates": [-115.1898232638, 36.0956957773]}, "type": "Feature", "properties": {"collection_times": [{"days": "Mon-Sat", "time": "10:30am"}, {"days": "Sun", "time": "Closed"}], "id": "8911800012", "name": "USPS COLLECTION BOX - BLUE BOX", "address": {"city": "LAS VEGAS", "state": "NV", "street": "5190 S VALLEY VIEW BLVD", "postcode": "89118"}}},
{"geometry": {"type": "Point", "coordinates": [-115.2313402681, 36.0926029359]}, "type": "Feature", "properties": {"collection_times": [{"days": "Mon-Fri", "time": "3:30pm"}, {"days": "Sat", "time": "3:00pm"}, {"days": "Sun", "time": "Closed"}], "id": "8911800014", "name": "USPS COLLECTION BOX - BLUE BOX", "address": {"city": "LAS VEGAS", "state": "NV", "street": "6400 W HACIENDA CIR", "postcode": "89118"}}},
{"geometry": {"type": "Point", "coordinates": [-115.1898954243, 36.077744375]}, "type": "Feature", "properties": {"collection_times": [{"days": "Mon-Fri", "time": "5:15pm"}, {"days": "Sat-Sun", "time": "Closed"}], "id": "8911800023", "name": "USPS COLLECTION BOX - BLUE BOX", "address": {"city": "LAS VEGAS", "state": "NV", "street": "6280 S VALLEY VIEW BLVD", "postcode": "89118"}}},
{"geometry": {"type": "Point", "coordinates": [-115.1898954243, 36.077744375]}, "type": "Feature", "properties": {"collection_times": [{"days": "Mon-Fri", "time": "5:15pm"}, {"days": "Sat-Sun", "time": "Closed"}], "id": "8911800024", "name": "USPS COLLECTION BOX - BLUE BOX", "address": {"city": "LAS VEGAS", "state": "NV", "street": "6280 S VALLEY VIEW BLVD", "postcode": "89118"}}},
{"geometry": {"type": "Point", "coordinates": [-115.1901061658, 36.0697345016]}, "type": "Feature", "properties": {"collection_times": [{"days": "Mon-Fri", "time": "5:15pm"}, {"days": "Sat-Sun", "time": "Closed"}], "id": "8911800031", "name": "USPS COLLECTION BOX - BLUE BOX", "address": {"city": "LAS VEGAS", "state": "NV", "street": "6625 S VALLEY VIEW BLVD", "postcode": "89118"}}},
{"geometry": {"type": "Point", "coordinates": [-115.1190089743, 36.0980262064]}, "type": "Feature", "properties": {"collection_times": [{"days": "Mon-Sat", "time": "1:00pm"}, {"days": "Sun", "time": "Closed"}], "id": "8911900003", "name": "USPS COLLECTION BOX - BLUE BOX", "address": {"city": "LAS VEGAS", "state": "NV", "street": "4995 S EASTERN AVE STE B", "postcode": "89119"}}},
{"geometry": {"type": "Point", "coordinates": [-115.1186801117, 36.0803539824]}, "type": "Feature", "properties": {"collection_times": [{"days": "Mon-Sat", "time": "9:00am"}, {"days": "Sun", "time": "Closed"}], "id": "8911900008", "name": "USPS COLLECTION BOX - BLUE BOX", "address": {"city": "LAS VEGAS", "state": "NV", "street": "6000 S EASTERN AVE", "postcode": "89119"}}},
{"geometry": {"type": "Point", "coordinates": [-115.1398422606, 36.1147369307]}, "type": "Feature", "properties": {"collection_times": [{"days": "Mon-Fri", "time": "3:45pm"}, {"days": "Sat", "time": "1:15pm"}, {"days": "Sun", "time": "Closed"}], "id": "8911900009", "name": "USPS COLLECTION BOX - BLUE BOX", "address": {"city": "LAS VEGAS", "state": "NV", "street": "1050 E FLAMINGO RD", "postcode": "89119"}}},
{"geometry": {"type": "Point", "coordinates": [-115.1357222733, 36.1144481418]}, "type": "Feature", "properties": {"collection_times": [{"days": "Mon-Sat", "time": "8:30am"}, {"days": "Sun", "time": "Closed"}], "id": "8911900011", "name": "USPS COLLECTION BOX - BLUE BOX", "address": {"city": "LAS VEGAS", "state": "NV", "street": "1385 E FLAMINGO RD", "postcode": "89119"}}},
{"geometry": {"type": "Point", "coordinates": [-115.1330879926, 36.1146986085]}, "type": "Feature", "properties": {"collection_times": [{"days": "Mon-Sat", "time": "8:30am"}, {"days": "Sun", "time": "Closed"}], "id": "8911900013", "name": "USPS COLLECTION BOX - BLUE BOX", "address": {"city": "LAS VEGAS", "state": "NV", "street": "1500 E FLAMINGO RD", "postcode": "89119"}}},
{"geometry": {"type": "Point", "coordinates": [-115.1315294531, 36.1145234466]}, "type": "Feature", "properties": {"collection_times": [{"days": "Mon-Sat", "time": "8:30am"}, {"days": "Sun", "time": "Closed"}], "id": "8911900015", "name": "USPS COLLECTION BOX - BLUE BOX", "address": {"city": "LAS VEGAS", "state": "NV", "street": "1555 E FLAMINGO RD", "postcode": "89119"}}},
{"geometry": {"type": "Point", "coordinates": [-115.124954526, 36.1145698875]}, "type": "Feature", "properties": {"collection_times": [{"days": "Mon-Sat", "time": "8:00am"}, {"days": "Sun", "time": "Closed"}], "id": "8911900026", "name": "USPS COLLECTION BOX - BLUE BOX", "address": {"city": "LAS VEGAS", "state": "NV", "street": "2075 E FLAMINGO RD", "postcode": "89119"}}},
{"geometry": {"type": "Point", "coordinates": [-115.1231795015, 36.1145630554]}, "type": "Feature", "properties": {"collection_times": [{"days": "Mon-Sat", "time": "8:00am"}, {"days": "Sun", "time": "Closed"}], "id": "8911900030", "name": "USPS COLLECTION BOX - BLUE BOX", "address": {"city": "LAS VEGAS", "state": "NV", "street": "2121 E FLAMINGO RD", "postcode": "89119"}}},
{"geometry": {"type": "Point", "coordinates": [-115.1367985799, 36.0958414091]}, "type": "Feature", "properties": {"collection_times": [{"days": "Mon-Fri", "time": "3:45pm"}, {"days": "Sat", "time": "2:45pm"}, {"days": "Sun", "time": "Closed"}], "id": "8911900035", "name": "USPS COLLECTION BOX - EXPRESS", "address": {"city": "LAS VEGAS", "state": "NV", "street": "941 E HARMON AVE", "postcode": "89119"}}},
{"geometry": {"type": "Point", "coordinates": [-115.1442365622, 36.1077560968]}, "type": "Feature", "properties": {"collection_times": [{"days": "Mon-Fri", "time": "3:45pm"}, {"days": "Sat", "time": "2:45pm"}, {"days": "Sun", "time": "Closed"}], "id": "8911900036", "name": "USPS COLLECTION BOX - BLUE BOX", "address": {"city": "LAS VEGAS", "state": "NV", "street": "941 E HARMON AVE", "postcode": "89119"}}},
{"geometry": {"type": "Point", "coordinates": [-115.1212254718, 36.097426852]}, "type": "Feature", "properties": {"collection_times": [{"days": "Mon-Fri", "time": "1:30pm"}, {"days": "Sat", "time": "1:00pm"}, {"days": "Sun", "time": "Closed"}], "id": "8911900038", "name": "USPS COLLECTION BOX - BLUE BOX", "address": {"city": "LAS VEGAS", "state": "NV", "street": "5055 JEFFREYS ST", "postcode": "89119"}}},
{"geometry": {"type": "Point", "coordinates": [-115.1723853074, 36.073341883]}, "type": "Feature", "properties": {"collection_times": [{"days": "Mon-Sat", "time": "9:30am"}, {"days": "Sun", "time": "Closed"}], "id": "8911900039", "name": "USPS COLLECTION BOX - BLUE BOX", "address": {"city": "LAS VEGAS", "state": "NV", "street": "6005 LAS VEGAS BLVD S", "postcode": "89119"}}},
{"geometry": {"type": "Point", "coordinates": [-115.1376169188, 36.1122938745]}, "type": "Feature", "properties": {"collection_times": [{"days": "Mon-Fri", "time": "4:00pm"}, {"days": "Sat-Sun", "time": "Closed"}], "id": "8911900040", "name": "USPS COLLECTION BOX - BLUE BOX", "address": {"city": "LAS VEGAS", "state": "NV", "street": "4220 S MARYLAND PKWY", "postcode": "89119"}}},
{"geometry": {"type": "Point", "coordinates": [-115.1370940509, 36.1050908374]}, "type": "Feature", "properties": {"collection_times": [{"days": "Mon-Fri", "time": "5:15pm"}, {"days": "Sat", "time": "5:00pm"}, {"days": "Sun", "time": "Closed"}], "id": "8911900043", "name": "USPS COLLECTION BOX - BLUE BOX", "address": {"city": "LAS VEGAS", "state": "NV", "street": "4632 S MARYLAND PKWY", "postcode": "89119"}}},
{"geometry": {"type": "Point", "coordinates": [-115.1370940509, 36.1050908374]}, "type": "Feature", "properties": {"collection_times": [{"days": "Mon-Fri", "time": "5:15pm"}, {"days": "Sat", "time": "5:00pm"}, {"days": "Sun", "time": "Closed"}], "id": "8911900044", "name": "USPS COLLECTION BOX - BLUE BOX", "address": {"city": "LAS VEGAS", "state": "NV", "street": "4632 S MARYLAND PKWY", "postcode": "89119"}}},
{"geometry": {"type": "Point", "coordinates": [-115.1284570629, 36.1124849779]}, "type": "Feature", "properties": {"collection_times": [{"days": "Mon-Sat", "time": "11:30am"}, {"days": "Sun", "time": "Closed"}], "id": "8911900052", "name": "USPS COLLECTION BOX - BLUE BOX", "address": {"city": "LAS VEGAS", "state": "NV", "street": "4217 SPENCER ST", "postcode": "89119"}}},
{"geometry": {"type": "Point", "coordinates": [-115.145973305, 36.099619834]}, "type": "Feature", "properties": {"collection_times": [{"days": "Mon-Fri", "time": "6:00pm"}, {"days": "Sat", "time": "5:00pm"}, {"days": "Sun", "time": "Closed"}], "id": "8911900060", "name": "USPS COLLECTION BOX - BLUE BOX", "address": {"city": "LAS VEGAS", "state": "NV", "street": "4975 SWENSON ST", "postcode": "89119"}}},
{"geometry": {"type": "Point", "coordinates": [-115.1387392802, 36.1009230649]}, "type": "Feature", "properties": {"collection_times": [{"days": "Mon-Sat", "time": "8:30am"}, {"days": "Sun", "time": "Closed"}], "id": "8911900063", "name": "USPS COLLECTION BOX - BLUE BOX", "address": {"city": "LAS VEGAS", "state": "NV", "street": "1131 E TROPICANA AVE", "postcode": "89119"}}},
{"geometry": {"type": "Point", "coordinates": [-115.1318310665, 36.1008901501]}, "type": "Feature", "properties": {"collection_times": [{"days": "Mon-Fri", "time": "5:30pm"}, {"days": "Sat", "time": "3:15pm"}, {"days": "Sun", "time": "Closed"}], "id": "8911900065", "name": "USPS COLLECTION BOX - BLUE BOX", "address": {"city": "LAS VEGAS", "state": "NV", "street": "1515 E TROPICANA AVE STE 600", "postcode": "89119"}}},
{"geometry": {"type": "Point", "coordinates": [-115.1285755634, 36.100893699]}, "type": "Feature", "properties": {"collection_times": [{"days": "Mon-Fri", "time": "1:15pm"}, {"days": "Sat-Sun", "time": "Closed"}], "id": "8911900067", "name": "USPS COLLECTION BOX - BLUE BOX", "address": {"city": "LAS VEGAS", "state": "NV", "street": "1775 E TROPICANA AVE", "postcode": "89119"}}},
{"geometry": {"type": "Point", "coordinates": [-115.1285826612, 36.0576234259]}, "type": "Feature", "properties": {"collection_times": [{"days": "Mon-Fri", "time": "2:30pm"}, {"days": "Sat", "time": "4:00pm"}, {"days": "Sun", "time": "Closed"}], "id": "8911900069", "name": "USPS COLLECTION BOX - BLUE BOX", "address": {"city": "LAS VEGAS", "state": "NV", "street": "1725 E WARM SPRINGS RD", "postcode": "89119"}}},
{"geometry": {"type": "Point", "coordinates": [-115.1370940509, 36.1050908374]}, "type": "Feature", "properties": {"collection_times": [{"days": "Mon-Fri", "time": "5:15pm"}, {"days": "Sat", "time": "5:00pm"}, {"days": "Sun", "time": "Closed"}], "id": "8911900082", "name": "USPS COLLECTION BOX - BLUE BOX", "address": {"city": "LAS VEGAS", "state": "NV", "street": "4632 S MARYLAND PKWY", "postcode": "89119"}}},
{"geometry": {"type": "Point", "coordinates": [-115.1224955968, 36.1030993462]}, "type": "Feature", "properties": {"collection_times": [{"days": "Mon-Fri", "time": "3:30pm"}, {"days": "Sat-Sun", "time": "Closed"}], "id": "8911900084", "name": "USPS COLLECTION BOX - BLUE BOX", "address": {"city": "LAS VEGAS", "state": "NV", "street": "2295 RENAISSANCE DR", "postcode": "89119"}}},
{"geometry": {"type": "Point", "coordinates": [-115.1656392994, 36.0971931286]}, "type": "Feature", "properties": {"collection_times": [{"days": "Mon-Sat", "time": "8:30am"}, {"days": "Sun", "time": "Closed"}], "id": "8911900085", "name": "USPS COLLECTION BOX - BLUE BOX", "address": {"city": "LAS VEGAS", "state": "NV", "street": "175 E RENO AVE", "postcode": "89119"}}},
{"geometry": {"type": "Point", "coordinates": [-115.145973305, 36.099619834]}, "type": "Feature", "properties": {"collection_times": [{"days": "Mon-Fri", "time": "6:00pm"}, {"days": "Sat", "time": "5:00pm"}, {"days": "Sun", "time": "Closed"}], "id": "8911900086", "name": "USPS COLLECTION BOX - BLUE BOX", "address": {"city": "LAS VEGAS", "state": "NV", "street": "4975 SWENSON ST", "postcode": "89119"}}},
{"geometry": {"type": "Point", "coordinates": [-115.1318310665, 36.1008901501]}, "type": "Feature", "properties": {"collection_times": [{"days": "Mon-Fri", "time": "5:30pm"}, {"days": "Sat", "time": "3:15pm"}, {"days": "Sun", "time": "Closed"}], "id": "8911900087", "name": "USPS COLLECTION BOX - BLUE BOX", "address": {"city": "LAS VEGAS", "state": "NV", "street": "1515 E TROPICANA AVE STE 600", "postcode": "89119"}}},
{"geometry": {"type": "Point", "coordinates": [-115.1374607682, 36.1077513121]}, "type": "Feature", "properties": {"collection_times": [{"days": "Mon-Fri", "time": "4:00pm"}, {"days": "Sat-Sun", "time": "Closed"}], "id": "8911900088", "name": "USPS COLLECTION BOX - BLUE BOX", "address": {"city": "LAS VEGAS", "state": "NV", "street": "4505 S MARYLAND PKWY", "postcode": "89119"}}},
{"geometry": {"type": "Point", "coordinates": [-115.1398422606, 36.1147369307]}, "type": "Feature", "properties": {"collection_times": [{"days": "Mon-Fri", "time": "3:45pm"}, {"days": "Sat", "time": "1:15pm"}, {"days": "Sun", "time": "Closed"}], "id": "8911900089", "name": "USPS COLLECTION BOX - BLUE BOX", "address": {"city": "LAS VEGAS", "state": "NV", "street": "1050 E FLAMINGO RD", "postcode": "89119"}}},
{"geometry": {"type": "Point", "coordinates": [-115.1367985799, 36.0958414091]}, "type": "Feature", "properties": {"collection_times": [{"days": "Mon-Fri", "time": "3:45pm"}, {"days": "Sat", "time": "1:15pm"}, {"days": "Sun", "time": "Closed"}], "id": "8911900090", "name": "USPS COLLECTION BOX - EXPRESS", "address": {"city": "LAS VEGAS", "state": "NV", "street": "1050 E FLAMINGO RD", "postcode": "89119"}}},
{"geometry": {"type": "Point", "coordinates": [-115.1374607682, 36.1077513121]}, "type": "Feature", "properties": {"collection_times": [{"days": "Mon-Fri", "time": "4:00pm"}, {"days": "Sat-Sun", "time": "Closed"}], "id": "8911900092", "name": "USPS COLLECTION BOX - BLUE BOX", "address": {"city": "LAS VEGAS", "state": "NV", "street": "4505 S MARYLAND PKWY", "postcode": "89119"}}},
{"geometry": {"type": "Point", "coordinates": [-115.1284570629, 36.1124849779]}, "type": "Feature", "properties": {"collection_times": [{"days": "Mon-Sat", "time": "11:30am"}, {"days": "Sun", "time": "Closed"}], "id": "8911900094", "name": "USPS COLLECTION BOX - BLUE BOX", "address": {"city": "LAS VEGAS", "state": "NV", "street": "4217 SPENCER ST", "postcode": "89119"}}},
{"geometry": {"type": "Point", "coordinates": [-115.145973305, 36.099619834]}, "type": "Feature", "properties": {"collection_times": [{"days": "Mon-Fri", "time": "5:00pm"}, {"days": "Sat", "time": "4:00pm"}, {"days": "Sun", "time": "Closed"}], "id": "8911900102", "name": "USPS COLLECTION BOX - PO LOBBY", "address": {"city": "LAS VEGAS", "state": "NV", "street": "4975 SWENSON ST", "postcode": "89119"}}},
{"geometry": {"type": "Point", "coordinates": [-115.1184044822, 36.0579238975]}, "type": "Feature", "properties": {"collection_times": [{"days": "Mon-Sat", "time": "7:00pm"}, {"days": "Sun", "time": "Closed"}], "id": "8911900104", "name": "USPS COLLECTION BOX - BLUE BOX", "address": {"city": "LAS VEGAS", "state": "NV", "street": "7271 S EASTERN AVE", "postcode": "89119"}}},
{"geometry": {"type": "Point", "coordinates": [-115.1190480119, 36.1159965361]}, "type": "Feature", "properties": {"collection_times": [{"days": "Mon-Fri", "time": "3:15pm"}, {"days": "Sat", "time": "1:00pm"}, {"days": "Sun", "time": "Closed"}], "id": "8911900109", "name": "USPS COLLECTION BOX - BLUE BOX", "address": {"city": "LAS VEGAS", "state": "NV", "street": "4000 S EASTERN AVE", "postcode": "89119"}}},
{"geometry": {"type": "Point", "coordinates": [-115.1367985799, 36.0958414091]}, "type": "Feature", "properties": {"collection_times": [{"days": "Mon-Fri", "time": "5:00pm"}, {"days": "Sat-Sun", "time": "Closed"}], "id": "8911900118", "name": "USPS COLLECTION BOX - EXPRESS", "address": {"city": "LAS VEGAS", "state": "NV", "street": "175 E RENO AVE", "postcode": "89119"}}},
{"geometry": {"type": "Point", "coordinates": [-115.1189224208, 36.0809416861]}, "type": "Feature", "properties": {"collection_times": [{"days": "Mon-Fri", "time": "4:15pm"}, {"days": "Sat-Sun", "time": "Closed"}], "id": "8911900126", "name": "USPS COLLECTION BOX - BLUE BOX", "address": {"city": "LAS VEGAS", "state": "NV", "street": "6005 S EASTERN AVE", "postcode": "89119"}}},
{"geometry": {"type": "Point", "coordinates": [-115.1175385563, 36.0743007814]}, "type": "Feature", "properties": {"collection_times": [{"days": "Mon-Fri", "time": "1:00pm"}, {"days": "Sat", "time": "12:30pm"}, {"days": "Sun", "time": "Closed"}], "id": "8912000002", "name": "USPS COLLECTION BOX - BLUE BOX", "address": {"city": "LAS VEGAS", "state": "NV", "street": "2450 CHANDLER AVE", "postcode": "89120"}}},
{"geometry": {"type": "Point", "coordinates": [-115.0971764747, 36.0842532794]}, "type": "Feature", "properties": {"collection_times": [{"days": "Mon-Sat", "time": "3:15pm"}, {"days": "Sun", "time": "Closed"}], "id": "8912000010", "name": "USPS COLLECTION BOX - BLUE BOX", "address": {"city": "LAS VEGAS", "state": "NV", "street": "3325 E RUSSELL RD", "postcode": "89120"}}},
{"geometry": {"type": "Point", "coordinates": [-115.1062602255, 36.0789675545]}, "type": "Feature", "properties": {"collection_times": [{"days": "Mon-Fri", "time": "1:45pm"}, {"days": "Sat-Sun", "time": "Closed"}], "id": "8912000016", "name": "USPS COLLECTION BOX - BLUE BOX", "address": {"city": "LAS VEGAS", "state": "NV", "street": "3155 E PATRICK LN", "postcode": "89120"}}},
{"geometry": {"type": "Point", "coordinates": [-115.1083540629, 36.0716237453]}, "type": "Feature", "properties": {"collection_times": [{"days": "Mon-Sat", "time": "10:30am"}, {"days": "Sun", "time": "Closed"}], "id": "8912000017", "name": "USPS COLLECTION BOX - BLUE BOX", "address": {"city": "LAS VEGAS", "state": "NV", "street": "3068 E SUNSET RD", "postcode": "89120"}}},
{"geometry": {"type": "Point", "coordinates": [-115.109389152, 36.0949682575]}, "type": "Feature", "properties": {"collection_times": [{"days": "Mon-Sat", "time": "1:15pm"}, {"days": "Sun", "time": "Closed"}], "id": "8912000018", "name": "USPS COLLECTION BOX - BLUE BOX", "address": {"city": "LAS VEGAS", "state": "NV", "street": "5205 MANDALAY SPRINGS DR", "postcode": "89120"}}},
{"geometry": {"type": "Point", "coordinates": [-115.103887813, 36.09545673]}, "type": "Feature", "properties": {"collection_times": [{"days": "Mon-Fri", "time": "1:15pm"}, {"days": "Sat", "time": "1:00pm"}, {"days": "Sun", "time": "Closed"}], "id": "8912000019", "name": "USPS COLLECTION BOX - BLUE BOX", "address": {"city": "LAS VEGAS", "state": "NV", "street": "5205 CASPIAN SPRINGS DR", "postcode": "89120"}}},
{"geometry": {"type": "Point", "coordinates": [-115.1009401956, 36.0746105393]}, "type": "Feature", "properties": {"collection_times": [{"days": "Mon-Fri", "time": "12:45pm"}, {"days": "Sat-Sun", "time": "Closed"}], "id": "8912000021", "name": "USPS COLLECTION BOX - BLUE BOX", "address": {"city": "LAS VEGAS", "state": "NV", "street": "6345 S PECOS RD", "postcode": "89120"}}},
{"geometry": {"type": "Point", "coordinates": [-115.1038791305, 36.0962209024]}, "type": "Feature", "properties": {"collection_times": [{"days": "Mon-Fri", "time": "1:15pm"}, {"days": "Sat", "time": "1:00pm"}, {"days": "Sun", "time": "Closed"}], "id": "8912000030", "name": "USPS COLLECTION BOX - BLUE BOX", "address": {"city": "LAS VEGAS", "state": "NV", "street": "5161 CASPIAN SPRINGS DR", "postcode": "89120"}}},
{"geometry": {"type": "Point", "coordinates": [-115.1008671156, 36.0741647411]}, "type": "Feature", "properties": {"collection_times": [{"days": "Mon-Sat", "time": "11:00am"}, {"days": "Sun", "time": "Closed"}], "id": "8912000031", "name": "USPS COLLECTION BOX - BLUE BOX", "address": {"city": "LAS VEGAS", "state": "NV", "street": "6375 S PECOS RD", "postcode": "89120"}}},
{"geometry": {"type": "Point", "coordinates": [-115.1090691755, 36.0569035944]}, "type": "Feature", "properties": {"collection_times": [{"days": "Mon-Sat", "time": "1:00pm"}, {"days": "Sun", "time": "Closed"}], "id": "8912000037", "name": "USPS COLLECTION BOX - BLUE BOX", "address": {"city": "LAS VEGAS", "state": "NV", "street": "3027 E WARM SPRINGS RD", "postcode": "89120"}}},
{"geometry": {"type": "Point", "coordinates": [-115.104070049, 36.0955765301]}, "type": "Feature", "properties": {"collection_times": [{"days": "Mon-Fri", "time": "1:15pm"}, {"days": "Sat", "time": "12:30pm"}, {"days": "Sun", "time": "Closed"}], "id": "8912000040", "name": "USPS COLLECTION BOX - BLUE BOX", "address": {"city": "LAS VEGAS", "state": "NV", "street": "3295 CASEY DR", "postcode": "89120"}}},
{"geometry": {"type": "Point", "coordinates": [-115.0918277725, 36.1231628495]}, "type": "Feature", "properties": {"collection_times": [{"days": "Mon-Fri", "time": "4:00pm"}, {"days": "Sat", "time": "2:45pm"}, {"days": "Sun", "time": "Closed"}], "id": "8912100003", "name": "USPS COLLECTION BOX - BLUE BOX", "address": {"city": "LAS VEGAS", "state": "NV", "street": "2478 E DESERT INN RD", "postcode": "89121"}}},
{"geometry": {"type": "Point", "coordinates": [-115.092231183, 36.1297266394]}, "type": "Feature", "properties": {"collection_times": [{"days": "Mon-Fri", "time": "3:45pm"}, {"days": "Sat", "time": "2:15pm"}, {"days": "Sun", "time": "Closed"}], "id": "8912100004", "name": "USPS COLLECTION BOX - BLUE BOX", "address": {"city": "LAS VEGAS", "state": "NV", "street": "3780 E DESERT INN RD", "postcode": "89121"}}},
{"geometry": {"type": "Point", "coordinates": [-115.1122152409, 36.1148478829]}, "type": "Feature", "properties": {"collection_times": [{"days": "Mon-Fri", "time": "4:15pm"}, {"days": "Sat-Sun", "time": "Closed"}], "id": "8912100008", "name": "USPS COLLECTION BOX - BLUE BOX", "address": {"city": "LAS VEGAS", "state": "NV", "street": "2832 E FLAMINGO RD", "postcode": "89121"}}},
{"geometry": {"type": "Point", "coordinates": [-115.0919668131, 36.1231932187]}, "type": "Feature", "properties": {"collection_times": [{"days": "Mon-Fri", "time": "4:45pm"}, {"days": "Sat-Sun", "time": "Closed"}], "id": "8912100009", "name": "USPS COLLECTION BOX - EXPRESS", "address": {"city": "LAS VEGAS", "state": "NV", "street": "3200 E FLAMINGO RD", "postcode": "89121"}}},
{"geometry": {"type": "Point", "coordinates": [-115.1053537581, 36.1152568002]}, "type": "Feature", "properties": {"collection_times": [{"days": "Mon-Fri", "time": "4:45pm"}, {"days": "Sat-Sun", "time": "Closed"}], "id": "8912100010", "name": "USPS COLLECTION BOX - BLUE BOX", "address": {"city": "LAS VEGAS", "state": "NV", "street": "3200 E FLAMINGO RD", "postcode": "89121"}}},
{"geometry": {"type": "Point", "coordinates": [-115.0732053761, 36.1148659814]}, "type": "Feature", "properties": {"collection_times": [{"days": "Mon-Fri", "time": "4:15pm"}, {"days": "Sat", "time": "1:30pm"}, {"days": "Sun", "time": "Closed"}], "id": "8912100015", "name": "USPS COLLECTION BOX - BLUE BOX", "address": {"city": "LAS VEGAS", "state": "NV", "street": "4619 E FLAMINGO RD", "postcode": "89121"}}},
{"geometry": {"type": "Point", "coordinates": [-115.0700655568, 36.1149371896]}, "type": "Feature", "properties": {"collection_times": [{"days": "Mon-Sat", "time": "9:00am"}, {"days": "Sun", "time": "Closed"}], "id": "8912100018", "name": "USPS COLLECTION BOX - BLUE BOX", "address": {"city": "LAS VEGAS", "state": "NV", "street": "4754 E FLAMINGO RD", "postcode": "89121"}}},
{"geometry": {"type": "Point", "coordinates": [-115.0741217439, 36.1406283513]}, "type": "Feature", "properties": {"collection_times": [{"days": "Mon-Sat", "time": "10:30am"}, {"days": "Sun", "time": "Closed"}], "id": "8912100022", "name": "USPS COLLECTION BOX - BLUE BOX", "address": {"city": "LAS VEGAS", "state": "NV", "street": "2727 MOUNTAIN VISTA ST", "postcode": "89121"}}},
{"geometry": {"type": "Point", "coordinates": [-115.091888457, 36.1290682326]}, "type": "Feature", "properties": {"collection_times": [{"days": "Mon-Fri", "time": "4:30pm"}, {"days": "Sat", "time": "2:15pm"}, {"days": "Sun", "time": "Closed"}], "id": "8912100036", "name": "USPS COLLECTION BOX - BLUE BOX", "address": {"city": "LAS VEGAS", "state": "NV", "street": "3342 S SANDHILL RD", "postcode": "89121"}}},
{"geometry": {"type": "Point", "coordinates": [-115.0656125725, 36.1373631409]}, "type": "Feature", "properties": {"collection_times": [{"days": "Mon-Fri", "time": "3:15pm"}, {"days": "Sat", "time": "3:30pm"}, {"days": "Sun", "time": "Closed"}], "id": "8912100040", "name": "USPS COLLECTION BOX - BLUE BOX", "address": {"city": "LAS VEGAS", "state": "NV", "street": "2875 S NELLIS BLVD", "postcode": "89121"}}},
{"geometry": {"type": "Point", "coordinates": [-115.0919668131, 36.1231932187]}, "type": "Feature", "properties": {"collection_times": [{"days": "Mon-Fri", "time": "4:45pm"}, {"days": "Sat", "time": "1:45pm"}, {"days": "Sun", "time": "Closed"}], "id": "8912100043", "name": "USPS COLLECTION BOX - BLUE BOX", "address": {"city": "LAS VEGAS", "state": "NV", "street": "3726 E FLAMINGO RD", "postcode": "89121"}}},
{"geometry": {"type": "Point", "coordinates": [-115.1051696134, 36.1018472736]}, "type": "Feature", "properties": {"collection_times": [{"days": "Mon-Fri", "time": "1:30pm"}, {"days": "Sat", "time": "10:45am"}, {"days": "Sun", "time": "Closed"}], "id": "8912100044", "name": "USPS COLLECTION BOX - BLUE BOX", "address": {"city": "LAS VEGAS", "state": "NV", "street": "4800 S MOJAVE RD", "postcode": "89121"}}},
{"geometry": {"type": "Point", "coordinates": [-115.0829192622, 36.1419482898]}, "type": "Feature", "properties": {"collection_times": [{"days": "Mon-Fri", "time": "11:00am"}, {"days": "Sat", "time": "12:30pm"}, {"days": "Sun", "time": "Closed"}], "id": "8912100045", "name": "USPS COLLECTION BOX - BLUE BOX", "address": {"city": "LAS VEGAS", "state": "NV", "street": "2627 S LAMB BLVD", "postcode": "89121"}}},
{"geometry": {"type": "Point", "coordinates": [-115.05867925, 36.1241613188]}, "type": "Feature", "properties": {"collection_times": [{"days": "Mon-Fri", "time": "3:00pm"}, {"days": "Sat", "time": "4:15pm"}, {"days": "Sun", "time": "Closed"}], "id": "8912100047", "name": "USPS COLLECTION BOX - BLUE BOX", "address": {"city": "LAS VEGAS", "state": "NV", "street": "5280 MUIR WOODS PKWY", "postcode": "89121"}}},
{"geometry": {"type": "Point", "coordinates": [-115.073169692, 36.099256958]}, "type": "Feature", "properties": {"collection_times": [{"days": "Mon-Fri", "time": "6:00pm"}, {"days": "Sat", "time": "5:45pm"}, {"days": "Sun", "time": "Closed"}], "id": "8912100053", "name": "USPS COLLECTION BOX - BLUE BOX", "address": {"city": "LAS VEGAS", "state": "NV", "street": "4948 MOUNTAIN VISTA ST", "postcode": "89121"}}},
{"geometry": {"type": "Point", "coordinates": [-115.0725227395, 36.1001579925]}, "type": "Feature", "properties": {"collection_times": [{"days": "Mon-Fri", "time": "6:00pm"}, {"days": "Sat", "time": "5:45pm"}, {"days": "Sun", "time": "Closed"}], "id": "8912100054", "name": "USPS COLLECTION BOX - BLUE BOX", "address": {"city": "LAS VEGAS", "state": "NV", "street": "4631 E TROPICANA AVE", "postcode": "89121"}}},
{"geometry": {"type": "Point", "coordinates": [-115.073169692, 36.099256958]}, "type": "Feature", "properties": {"collection_times": [{"days": "Mon-Fri", "time": "5:00pm"}, {"days": "Sat", "time": "3:00pm"}, {"days": "Sun", "time": "Closed"}], "id": "8912100055", "name": "USPS COLLECTION BOX - PO LOBBY", "address": {"city": "LAS VEGAS", "state": "NV", "street": "4948 MOUNTAIN VISTA ST", "postcode": "89121"}}},
{"geometry": {"type": "Point", "coordinates": [-115.0758818393, 36.1232362449]}, "type": "Feature", "properties": {"collection_times": [{"days": "Mon-Sat", "time": "8:45am"}, {"days": "Sun", "time": "Closed"}], "id": "8912100056", "name": "USPS COLLECTION BOX - BLUE BOX", "address": {"city": "LAS VEGAS", "state": "NV", "street": "4575 BOULDER HWY", "postcode": "89121"}}},
{"geometry": {"type": "Point", "coordinates": [-115.0650589477, 36.1207082616]}, "type": "Feature", "properties": {"collection_times": [{"days": "Mon-Sat", "time": "1:00pm"}, {"days": "Sun", "time": "Closed"}], "id": "8912100059", "name": "USPS COLLECTION BOX - BLUE BOX", "address": {"city": "LAS VEGAS", "state": "NV", "street": "3751 S NELLIS BLVD", "postcode": "89121"}}},
{"geometry": {"type": "Point", "coordinates": [-115.116570045, 36.12986096]}, "type": "Feature", "properties": {"collection_times": [{"days": "Mon-Fri", "time": "4:00pm"}, {"days": "Sat", "time": "2:45pm"}, {"days": "Sun", "time": "Closed"}], "id": "8912100065", "name": "USPS COLLECTION BOX - PO LOBBY", "address": {"city": "LAS VEGAS", "state": "NV", "street": "2478 E DESERT INN RD", "postcode": "89121"}}},
{"geometry": {"type": "Point", "coordinates": [-115.0620885377, 36.2027571125]}, "type": "Feature", "properties": {"collection_times": [{"days": "Mon-Sat", "time": "10:00am"}, {"days": "Sun", "time": "Closed"}], "id": "8912200003", "name": "USPS COLLECTION BOX - BLUE BOX", "address": {"city": "LAS VEGAS", "state": "NV", "street": "2350 S NELLIS BLVD", "postcode": "89122"}}},
{"geometry": {"type": "Point", "coordinates": [-115.0322401171, 36.1000881039]}, "type": "Feature", "properties": {"collection_times": [{"days": "Mon-Fri", "time": "1:30pm"}, {"days": "Sat", "time": "4:30pm"}, {"days": "Sun", "time": "Closed"}], "id": "8912200009", "name": "USPS COLLECTION BOX - BLUE BOX", "address": {"city": "LAS VEGAS", "state": "NV", "street": "6420 E TROPICANA AVE", "postcode": "89122"}}},
{"geometry": {"type": "Point", "coordinates": [-115.0487899935, 36.0948526862]}, "type": "Feature", "properties": {"collection_times": [{"days": "Mon-Fri", "time": "10:40am"}, {"days": "Sat", "time": "10:30am"}, {"days": "Sun", "time": "Closed"}], "id": "8912200026", "name": "USPS COLLECTION BOX - BLUE BOX", "address": {"city": "LAS VEGAS", "state": "NV", "street": "5700 MISSOURI AVE", "postcode": "89122"}}},
{"geometry": {"type": "Point", "coordinates": [-115.0479029423, 36.1011104771]}, "type": "Feature", "properties": {"collection_times": [{"days": "Mon-Fri", "time": "1:45pm"}, {"days": "Sat", "time": "4:45pm"}, {"days": "Sun", "time": "Closed"}], "id": "8912200032", "name": "USPS COLLECTION BOX - BLUE BOX", "address": {"city": "LAS VEGAS", "state": "NV", "street": "5710 E TROPICANA AVE", "postcode": "89122"}}},
{"geometry": {"type": "Point", "coordinates": [-115.0285923548, 36.0971822396]}, "type": "Feature", "properties": {"collection_times": [{"days": "Mon-Sat", "time": "9:00am"}, {"days": "Sun", "time": "Closed"}], "id": "8912200034", "name": "USPS COLLECTION BOX - BLUE BOX", "address": {"city": "LAS VEGAS", "state": "NV", "street": "5040 BROADBENT BLVD", "postcode": "89122"}}},
{"geometry": {"type": "Point", "coordinates": [-115.1723929688, 36.0181643944]}, "type": "Feature", "properties": {"collection_times": [{"days": "Mon-Sat", "time": "10:00am"}, {"days": "Sun", "time": "Closed"}], "id": "8912300001", "name": "USPS COLLECTION BOX - BLUE BOX", "address": {"city": "LAS VEGAS", "state": "NV", "street": "9457 LAS VEGAS BLVD S", "postcode": "89123"}}},
{"geometry": {"type": "Point", "coordinates": [-115.1723929688, 36.0181643944]}, "type": "Feature", "properties": {"collection_times": [{"days": "Mon-Sat", "time": "12:30pm"}, {"days": "Sun", "time": "Closed"}], "id": "8912300002", "name": "USPS COLLECTION BOX - BLUE BOX", "address": {"city": "LAS VEGAS", "state": "NV", "street": "9457 LAS VEGAS BLVD S", "postcode": "89123"}}},
{"geometry": {"type": "Point", "coordinates": [-115.153460833, 36.027612591]}, "type": "Feature", "properties": {"collection_times": [{"days": "Mon-Sat", "time": "6:00pm"}, {"days": "Sun", "time": "Closed"}], "id": "8912300006", "name": "USPS COLLECTION BOX - BLUE BOX", "address": {"city": "LAS VEGAS", "state": "NV", "street": "455 E PEBBLE RD", "postcode": "89123"}}},
{"geometry": {"type": "Point", "coordinates": [-115.1243691742, 36.0205675403]}, "type": "Feature", "properties": {"collection_times": [{"days": "Mon-Sat", "time": "11:45am"}, {"days": "Sun", "time": "Closed"}], "id": "8912300008", "name": "USPS COLLECTION BOX - BLUE BOX", "address": {"city": "LAS VEGAS", "state": "NV", "street": "2060 E SERENE AVE", "postcode": "89123"}}},
{"geometry": {"type": "Point", "coordinates": [-115.1368302511, 36.00821123]}, "type": "Feature", "properties": {"collection_times": [{"days": "Mon-Sat", "time": "1:15pm"}, {"days": "Sun", "time": "Closed"}], "id": "8912300011", "name": "USPS COLLECTION BOX - BLUE BOX", "address": {"city": "LAS VEGAS", "state": "NV", "street": "10000 S MARYLAND PKWY", "postcode": "89123"}}},
{"geometry": {"type": "Point", "coordinates": [-115.153538197, 36.02762167]}, "type": "Feature", "properties": {"collection_times": [{"days": "Mon-Fri", "time": "5:00pm"}, {"days": "Sat", "time": "3:00pm"}, {"days": "Sun", "time": "Closed"}], "id": "8912300013", "name": "USPS COLLECTION BOX - PO LOBBY", "address": {"city": "LAS VEGAS", "state": "NV", "street": "445 E PEBBLE RD", "postcode": "89123"}}},
{"geometry": {"type": "Point", "coordinates": [-115.1723929751, 36.0330474943]}, "type": "Feature", "properties": {"collection_times": [{"days": "Mon-Sat", "time": "9:00am"}, {"days": "Sun", "time": "Closed"}], "id": "8912300014", "name": "USPS COLLECTION BOX - BLUE BOX", "address": {"city": "LAS VEGAS", "state": "NV", "street": "8601 LAS VEGAS BLVD S", "postcode": "89123"}}},
{"geometry": {"type": "Point", "coordinates": [-115.1724396818, 36.0224020057]}, "type": "Feature", "properties": {"collection_times": [{"days": "Mon-Sat", "time": "9:00am"}, {"days": "Sun", "time": "Closed"}], "id": "8912300015", "name": "USPS COLLECTION BOX - BLUE BOX", "address": {"city": "LAS VEGAS", "state": "NV", "street": "9175 LAS VEGAS BLVD S", "postcode": "89123"}}},
{"geometry": {"type": "Point", "coordinates": [-115.153460833, 36.027612591]}, "type": "Feature", "properties": {"collection_times": [{"days": "Mon-Fri", "time": "5:00pm"}, {"days": "Sat", "time": "3:00pm"}, {"days": "Sun", "time": "Closed"}], "id": "8912300017", "name": "USPS COLLECTION BOX - PO LOBBY", "address": {"city": "LAS VEGAS", "state": "NV", "street": "455 E PEBBLE RD", "postcode": "89123"}}},
{"geometry": {"type": "Point", "coordinates": [-115.153460833, 36.027612591]}, "type": "Feature", "properties": {"collection_times": [{"days": "Mon-Fri", "time": "5:00pm"}, {"days": "Sat", "time": "3:00pm"}, {"days": "Sun", "time": "Closed"}], "id": "8912300019", "name": "USPS COLLECTION BOX - APC", "address": {"city": "LAS VEGAS", "state": "NV", "street": "455 E PEBBLE RD", "postcode": "89123"}}},
{"geometry": {"type": "Point", "coordinates": [-115.1723666888, 36.023436168]}, "type": "Feature", "properties": {"collection_times": [{"days": "Mon-Sat", "time": "10:00am"}, {"days": "Sun", "time": "Closed"}], "id": "8912300021", "name": "USPS COLLECTION BOX - BLUE BOX", "address": {"city": "LAS VEGAS", "state": "NV", "street": "9151 LAS VEGAS BLVD S", "postcode": "89123"}}},
{"geometry": {"type": "Point", "coordinates": [-115.14140076, 36.167959091]}, "type": "Feature", "properties": {"collection_times": [{"days": "Mon-Fri", "time": "4:45pm"}, {"days": "Sat", "time": "11:30am"}, {"days": "Sun", "time": "Closed"}], "id": "8912500001", "name": "USPS COLLECTION BOX - PO LOBBY", "address": {"city": "LAS VEGAS", "state": "NV", "street": "201 LAS VEGAS BLVD S", "postcode": "89125"}}},
{"geometry": {"type": "Point", "coordinates": [-115.14140076, 36.167959091]}, "type": "Feature", "properties": {"collection_times": [{"days": "Mon-Fri", "time": "4:45pm"}, {"days": "Sat", "time": "11:30am"}, {"days": "Sun", "time": "Closed"}], "id": "8912500002", "name": "USPS COLLECTION BOX - PO LOBBY", "address": {"city": "LAS VEGAS", "state": "NV", "street": "201 LAS VEGAS BLVD S", "postcode": "89125"}}},
{"geometry": {"type": "Point", "coordinates": [-115.2680780861, 36.1856164587]}, "type": "Feature", "properties": {"collection_times": [{"days": "Mon-Sat", "time": "11:00am"}, {"days": "Sun", "time": "Closed"}], "id": "8912800001", "name": "USPS COLLECTION BOX - BLUE BOX", "address": {"city": "LAS VEGAS", "state": "NV", "street": "1300 CINDER ROCK DR", "postcode": "89128"}}},
{"geometry": {"type": "Point", "coordinates": [-115.2444546748, 36.1713306246]}, "type": "Feature", "properties": {"collection_times": [{"days": "Mon-Fri", "time": "2:00pm"}, {"days": "Sat", "time": "1:00pm"}, {"days": "Sun", "time": "Closed"}], "id": "8912800009", "name": "USPS COLLECTION BOX - BLUE BOX", "address": {"city": "LAS VEGAS", "state": "NV", "street": "240 S RAINBOW BLVD", "postcode": "89128"}}},
{"geometry": {"type": "Point", "coordinates": [-115.2439981691, 36.1609914027]}, "type": "Feature", "properties": {"collection_times": [{"days": "Mon-Fri", "time": "2:00pm"}, {"days": "Sat", "time": "1:15pm"}, {"days": "Sun", "time": "Closed"}], "id": "8912800011", "name": "USPS COLLECTION BOX - BLUE BOX", "address": {"city": "LAS VEGAS", "state": "NV", "street": "937 S RAINBOW BLVD", "postcode": "89128"}}},
{"geometry": {"type": "Point", "coordinates": [-115.2624074326, 36.1865652723]}, "type": "Feature", "properties": {"collection_times": [{"days": "Mon-Sat", "time": "10:00am"}, {"days": "Sun", "time": "Closed"}], "id": "8912800026", "name": "USPS COLLECTION BOX - BLUE BOX", "address": {"city": "LAS VEGAS", "state": "NV", "street": "7700 CORALITE DR", "postcode": "89128"}}},
{"geometry": {"type": "Point", "coordinates": [-115.2442393762, 36.1727915789]}, "type": "Feature", "properties": {"collection_times": [{"days": "Mon-Fri", "time": "1:45pm"}, {"days": "Sat-Sun", "time": "Closed"}], "id": "8912800031", "name": "USPS COLLECTION BOX - BLUE BOX", "address": {"city": "LAS VEGAS", "state": "NV", "street": "101 S RAINBOW BLVD", "postcode": "89128"}}},
{"geometry": {"type": "Point", "coordinates": [-115.2507421017, 36.2154810191]}, "type": "Feature", "properties": {"collection_times": [{"days": "Mon-Fri", "time": "4:00pm"}, {"days": "Sat", "time": "5:00pm"}, {"days": "Sun", "time": "Closed"}], "id": "8912800034", "name": "USPS COLLECTION BOX - BLUE BOX", "address": {"city": "LAS VEGAS", "state": "NV", "street": "3100 N TENAYA WAY", "postcode": "89128"}}},
{"geometry": {"type": "Point", "coordinates": [-115.2510295607, 36.2161411102]}, "type": "Feature", "properties": {"collection_times": [{"days": "Mon-Fri", "time": "4:00pm"}, {"days": "Sat-Sun", "time": "Closed"}], "id": "8912800035", "name": "USPS COLLECTION BOX - BLUE BOX", "address": {"city": "LAS VEGAS", "state": "NV", "street": "3150 N TENAYA WAY", "postcode": "89128"}}},
{"geometry": {"type": "Point", "coordinates": [-115.2507421017, 36.2154810191]}, "type": "Feature", "properties": {"collection_times": [{"days": "Mon-Fri", "time": "4:00pm"}, {"days": "Sat", "time": "5:00pm"}, {"days": "Sun", "time": "Closed"}], "id": "8912800036", "name": "USPS COLLECTION BOX - BLUE BOX", "address": {"city": "LAS VEGAS", "state": "NV", "street": "3100 N TENAYA WAY", "postcode": "89128"}}},
{"geometry": {"type": "Point", "coordinates": [-115.27505649, 36.218632353]}, "type": "Feature", "properties": {"collection_times": [{"days": "Mon-Sat", "time": "5:30pm"}, {"days": "Sun", "time": "Closed"}], "id": "8912800037", "name": "USPS COLLECTION BOX - PO LOBBY", "address": {"city": "LAS VEGAS", "state": "NV", "street": "8350 W CHEYENNE AVE", "postcode": "89128"}}},
{"geometry": {"type": "Point", "coordinates": [-115.2752317181, 36.2186182263]}, "type": "Feature", "properties": {"collection_times": [{"days": "Mon-Sat", "time": "5:30pm"}, {"days": "Sun", "time": "Closed"}], "id": "8912800038", "name": "USPS COLLECTION BOX - BLUE BOX", "address": {"city": "LAS VEGAS", "state": "NV", "street": "8350 W CHEYENNE AVE", "postcode": "89128"}}},
{"geometry": {"type": "Point", "coordinates": [-115.2468028483, 36.1988403353]}, "type": "Feature", "properties": {"collection_times": [{"days": "Mon-Fri", "time": "12:45pm"}, {"days": "Sat", "time": "5:15pm"}, {"days": "Sun", "time": "Closed"}], "id": "8912800040", "name": "USPS COLLECTION BOX - BLUE BOX", "address": {"city": "LAS VEGAS", "state": "NV", "street": "2300 ROCK SPRINGS DR", "postcode": "89128"}}},
{"geometry": {"type": "Point", "coordinates": [-115.2635109607, 36.1967547787]}, "type": "Feature", "properties": {"collection_times": [{"days": "Mon-Fri", "time": "5:00pm"}, {"days": "Sat-Sun", "time": "Closed"}], "id": "8912800046", "name": "USPS COLLECTION BOX - BLUE BOX", "address": {"city": "LAS VEGAS", "state": "NV", "street": "7674 W LAKE MEAD BLVD", "postcode": "89128"}}},
{"geometry": {"type": "Point", "coordinates": [-115.268820788, 36.1813872975]}, "type": "Feature", "properties": {"collection_times": [{"days": "Mon-Fri", "time": "1:15pm"}, {"days": "Sat", "time": "5:30pm"}, {"days": "Sun", "time": "Closed"}], "id": "8912800050", "name": "USPS COLLECTION BOX - BLUE BOX", "address": {"city": "LAS VEGAS", "state": "NV", "street": "7900 W WASHINGTON AVE", "postcode": "89128"}}},
{"geometry": {"type": "Point", "coordinates": [-115.2600016096, 36.1918516854]}, "type": "Feature", "properties": {"collection_times": [{"days": "Mon-Sat", "time": "10:00am"}, {"days": "Sun", "time": "Closed"}], "id": "8912800051", "name": "USPS COLLECTION BOX - BLUE BOX", "address": {"city": "LAS VEGAS", "state": "NV", "street": "1830 N BUFFALO DR", "postcode": "89128"}}},
{"geometry": {"type": "Point", "coordinates": [-115.2510295607, 36.2161411102]}, "type": "Feature", "properties": {"collection_times": [{"days": "Mon-Fri", "time": "4:00pm"}, {"days": "Sat-Sun", "time": "Closed"}], "id": "8912800053", "name": "USPS COLLECTION BOX - BLUE BOX", "address": {"city": "LAS VEGAS", "state": "NV", "street": "3150 N TENAYA WAY", "postcode": "89128"}}},
{"geometry": {"type": "Point", "coordinates": [-115.2629022548, 36.1966269827]}, "type": "Feature", "properties": {"collection_times": [{"days": "Mon-Sat", "time": "9:00am"}, {"days": "Sun", "time": "Closed"}], "id": "8912800055", "name": "USPS COLLECTION BOX - BLUE BOX", "address": {"city": "LAS VEGAS", "state": "NV", "street": "7674 W LAKE MEAD BLVD", "postcode": "89128"}}},
{"geometry": {"type": "Point", "coordinates": [-115.2513974609, 36.2057003144]}, "type": "Feature", "properties": {"collection_times": [{"days": "Mon-Fri", "time": "5:00pm"}, {"days": "Sat", "time": "3:30pm"}, {"days": "Sun", "time": "Closed"}], "id": "8912800057", "name": "USPS COLLECTION BOX - APC", "address": {"city": "LAS VEGAS", "state": "NV", "street": "2449 N TENAYA WAY", "postcode": "89128"}}},
{"geometry": {"type": "Point", "coordinates": [-115.2598959838, 36.1894037906]}, "type": "Feature", "properties": {"collection_times": [{"days": "Mon-Sat", "time": "5:00pm"}, {"days": "Sun", "time": "Closed"}], "id": "8912800061", "name": "USPS COLLECTION BOX - APC", "address": {"city": "LAS VEGAS", "state": "NV", "street": "1650 N BUFFALO DR", "postcode": "89128"}}},
{"geometry": {"type": "Point", "coordinates": [-115.2604021446, 36.2214348516]}, "type": "Feature", "properties": {"collection_times": [{"days": "Mon-Fri", "time": "4:00pm"}, {"days": "Sat-Sun", "time": "Closed"}], "id": "8912900001", "name": "USPS COLLECTION BOX - BLUE BOX", "address": {"city": "LAS VEGAS", "state": "NV", "street": "3320 N BUFFALO DR", "postcode": "89129"}}},
{"geometry": {"type": "Point", "coordinates": [-115.2705850553, 36.2702390066]}, "type": "Feature", "properties": {"collection_times": [{"days": "Mon-Fri", "time": "4:00pm"}, {"days": "Sat", "time": "1:30pm"}, {"days": "Sun", "time": "Closed"}], "id": "8912900004", "name": "USPS COLLECTION BOX - BLUE BOX", "address": {"city": "LAS VEGAS", "state": "NV", "street": "8060 W TROPICAL PKWY", "postcode": "89129"}}},
{"geometry": {"type": "Point", "coordinates": [-115.2697721295, 36.2630020974]}, "type": "Feature", "properties": {"collection_times": [{"days": "Mon-Fri", "time": "12:30pm"}, {"days": "Sat", "time": "1:30pm"}, {"days": "Sun", "time": "Closed"}], "id": "8912900005", "name": "USPS COLLECTION BOX - BLUE BOX", "address": {"city": "LAS VEGAS", "state": "NV", "street": "7850 W ANN RD", "postcode": "89129"}}},
{"geometry": {"type": "Point", "coordinates": [-115.2504435612, 36.2403628874]}, "type": "Feature", "properties": {"collection_times": [{"days": "Mon-Fri", "time": "4:30pm"}, {"days": "Sat", "time": "12:15pm"}, {"days": "Sun", "time": "Closed"}], "id": "8912900007", "name": "USPS COLLECTION BOX - BLUE BOX", "address": {"city": "LAS VEGAS", "state": "NV", "street": "7151 W CRAIG RD", "postcode": "89129"}}},
{"geometry": {"type": "Point", "coordinates": [-115.3216883239, 36.2256399709]}, "type": "Feature", "properties": {"collection_times": [{"days": "Mon-Fri", "time": "1:15pm"}, {"days": "Sat", "time": "2:00pm"}, {"days": "Sun", "time": "Closed"}], "id": "8912900008", "name": "USPS COLLECTION BOX - BLUE BOX", "address": {"city": "LAS VEGAS", "state": "NV", "street": "10300 W GOWAN RD", "postcode": "89129"}}},
{"geometry": {"type": "Point", "coordinates": [-115.3155398619, 36.2247613322]}, "type": "Feature", "properties": {"collection_times": [{"days": "Mon-Fri", "time": "1:15pm"}, {"days": "Sat", "time": "2:00pm"}, {"days": "Sun", "time": "Closed"}], "id": "8912900010", "name": "USPS COLLECTION BOX - BLUE BOX", "address": {"city": "LAS VEGAS", "state": "NV", "street": "3450 N HUALAPAI WAY", "postcode": "89129"}}},
{"geometry": {"type": "Point", "coordinates": [-115.2513974609, 36.2057003144]}, "type": "Feature", "properties": {"collection_times": [{"days": "Mon-Fri", "time": "6:00pm"}, {"days": "Sat", "time": "5:00pm"}, {"days": "Sun", "time": "Closed"}], "id": "8912900011", "name": "USPS COLLECTION BOX - BLUE BOX", "address": {"city": "LAS VEGAS", "state": "NV", "street": "2449 N TENAYA WAY", "postcode": "89129"}}},
{"geometry": {"type": "Point", "coordinates": [-115.29032, 36.233204]}, "type": "Feature", "properties": {"collection_times": [{"days": "Mon-Fri", "time": "6:00pm"}, {"days": "Sat", "time": "5:00pm"}, {"days": "Sun", "time": "Closed"}], "id": "8912900013", "name": "USPS COLLECTION BOX - BLUE BOX", "address": {"city": "LAS VEGAS", "state": "NV", "street": "2449 N TENAYA WAY", "postcode": "89129"}}},
{"geometry": {"type": "Point", "coordinates": [-115.2513974609, 36.2057003144]}, "type": "Feature", "properties": {"collection_times": [{"days": "Mon-Fri", "time": "6:00pm"}, {"days": "Sat", "time": "5:00pm"}, {"days": "Sun", "time": "Closed"}], "id": "8912900014", "name": "USPS COLLECTION BOX - BLUE BOX", "address": {"city": "LAS VEGAS", "state": "NV", "street": "2449 N TENAYA WAY", "postcode": "89129"}}},
{"geometry": {"type": "Point", "coordinates": [-115.2787150182, 36.2200828314]}, "type": "Feature", "properties": {"collection_times": [{"days": "Mon-Fri", "time": "9:30am"}, {"days": "Sat", "time": "4:00pm"}, {"days": "Sun", "time": "Closed"}], "id": "8912900015", "name": "USPS COLLECTION BOX - BLUE BOX", "address": {"city": "LAS VEGAS", "state": "NV", "street": "3250 N DURANGO DR", "postcode": "89129"}}},
{"geometry": {"type": "Point", "coordinates": [-115.2965892138, 36.21866783]}, "type": "Feature", "properties": {"collection_times": [{"days": "Mon-Sat", "time": "9:15am"}, {"days": "Sun", "time": "Closed"}], "id": "8912900017", "name": "USPS COLLECTION BOX - BLUE BOX", "address": {"city": "LAS VEGAS", "state": "NV", "street": "9190 W CHEYENNE AVE", "postcode": "89129"}}},
{"geometry": {"type": "Point", "coordinates": [-115.3097102469, 36.2184984444]}, "type": "Feature", "properties": {"collection_times": [{"days": "Mon-Sat", "time": "9:30am"}, {"days": "Sun", "time": "Closed"}], "id": "8912900018", "name": "USPS COLLECTION BOX - BLUE BOX", "address": {"city": "LAS VEGAS", "state": "NV", "street": "9850 W CHEYENNE AVE", "postcode": "89129"}}},
{"geometry": {"type": "Point", "coordinates": [-115.331971847, 36.2226751208]}, "type": "Feature", "properties": {"collection_times": [{"days": "Mon-Fri", "time": "1:30pm"}, {"days": "Sat-Sun", "time": "Closed"}], "id": "8912900019", "name": "USPS COLLECTION BOX - BLUE BOX", "address": {"city": "LAS VEGAS", "state": "NV", "street": "3455 CLIFF SHADOWS PKWY", "postcode": "89129"}}},
{"geometry": {"type": "Point", "coordinates": [-115.251423486, 36.2326741447]}, "type": "Feature", "properties": {"collection_times": [{"days": "Mon-Fri", "time": "4:00pm"}, {"days": "Sat", "time": "5:30pm"}, {"days": "Sun", "time": "Closed"}], "id": "8912900021", "name": "USPS COLLECTION BOX - BLUE BOX", "address": {"city": "LAS VEGAS", "state": "NV", "street": "3970 N TENAYA WAY", "postcode": "89129"}}},
{"geometry": {"type": "Point", "coordinates": [-115.2103238381, 36.2386382198]}, "type": "Feature", "properties": {"collection_times": [{"days": "Mon-Fri", "time": "3:00pm"}, {"days": "Sat", "time": "3:30pm"}, {"days": "Sun", "time": "Closed"}], "id": "8913000008", "name": "USPS COLLECTION BOX - BLUE BOX", "address": {"city": "LAS VEGAS", "state": "NV", "street": "4933 W CRAIG RD", "postcode": "89130"}}},
{"geometry": {"type": "Point", "coordinates": [-115.220202833, 36.2261962614]}, "type": "Feature", "properties": {"collection_times": [{"days": "Mon-Fri", "time": "2:15pm"}, {"days": "Sat-Sun", "time": "Closed"}], "id": "8913000016", "name": "USPS COLLECTION BOX - BLUE BOX", "address": {"city": "LAS VEGAS", "state": "NV", "street": "3658 N RANCHO DR", "postcode": "89130"}}},
{"geometry": {"type": "Point", "coordinates": [-115.224886174, 36.272126792]}, "type": "Feature", "properties": {"collection_times": [{"days": "Mon-Sat", "time": "5:45pm"}, {"days": "Sun", "time": "Closed"}], "id": "8913000021", "name": "USPS COLLECTION BOX - BLUE BOX", "address": {"city": "LAS VEGAS", "state": "NV", "street": "6210 N JONES BLVD", "postcode": "89130"}}},
{"geometry": {"type": "Point", "coordinates": [-115.224886174, 36.272126792]}, "type": "Feature", "properties": {"collection_times": [{"days": "Mon-Sat", "time": "5:45pm"}, {"days": "Sun", "time": "Closed"}], "id": "8913000022", "name": "USPS COLLECTION BOX - BLUE BOX", "address": {"city": "LAS VEGAS", "state": "NV", "street": "6210 N JONES BLVD", "postcode": "89130"}}},
{"geometry": {"type": "Point", "coordinates": [-115.224886174, 36.272126792]}, "type": "Feature", "properties": {"collection_times": [{"days": "Mon-Sat", "time": "5:45pm"}, {"days": "Sun", "time": "Closed"}], "id": "8913000023", "name": "USPS COLLECTION BOX - BLUE BOX", "address": {"city": "LAS VEGAS", "state": "NV", "street": "6210 N JONES BLVD", "postcode": "89130"}}},
{"geometry": {"type": "Point", "coordinates": [-115.224886174, 36.272126792]}, "type": "Feature", "properties": {"collection_times": [{"days": "Mon-Fri", "time": "5:00pm"}, {"days": "Sat", "time": "3:15pm"}, {"days": "Sun", "time": "Closed"}], "id": "8913000024", "name": "USPS COLLECTION BOX - PO LOBBY", "address": {"city": "LAS VEGAS", "state": "NV", "street": "6210 N JONES BLVD", "postcode": "89130"}}},
{"geometry": {"type": "Point", "coordinates": [-115.224886174, 36.272126792]}, "type": "Feature", "properties": {"collection_times": [{"days": "Mon-Fri", "time": "5:00pm"}, {"days": "Sat", "time": "3:15pm"}, {"days": "Sun", "time": "Closed"}], "id": "8913000026", "name": "USPS COLLECTION BOX - APC", "address": {"city": "LAS VEGAS", "state": "NV", "street": "6210 N JONES BLVD", "postcode": "89130"}}},
{"geometry": {"type": "Point", "coordinates": [-115.2338438314, 36.2600035023]}, "type": "Feature", "properties": {"collection_times": [{"days": "Mon-Fri", "time": "2:45pm"}, {"days": "Sat", "time": "3:00pm"}, {"days": "Sun", "time": "Closed"}], "id": "8913000028", "name": "USPS COLLECTION BOX - BLUE BOX", "address": {"city": "LAS VEGAS", "state": "NV", "street": "6424 TINA LN", "postcode": "89130"}}},
{"geometry": {"type": "Point", "coordinates": [-115.2090035122, 36.2467343263]}, "type": "Feature", "properties": {"collection_times": [{"days": "Mon-Sat", "time": "3:00pm"}, {"days": "Sun", "time": "Closed"}], "id": "8913000030", "name": "USPS COLLECTION BOX - BLUE BOX", "address": {"city": "LAS VEGAS", "state": "NV", "street": "4894 W LONE MOUNTAIN RD", "postcode": "89130"}}},
{"geometry": {"type": "Point", "coordinates": [-115.2693997304, 36.2981686678]}, "type": "Feature", "properties": {"collection_times": [{"days": "Mon-Fri", "time": "1:15pm"}, {"days": "Sat", "time": "2:15pm"}, {"days": "Sun", "time": "Closed"}], "id": "8913100000", "name": "USPS COLLECTION BOX - BLUE BOX", "address": {"city": "LAS VEGAS", "state": "NV", "street": "7591 N CIMARRON RD", "postcode": "89131"}}},
{"geometry": {"type": "Point", "coordinates": [-115.2809761669, 36.2998721287]}, "type": "Feature", "properties": {"collection_times": [{"days": "Mon-Fri", "time": "1:15pm"}, {"days": "Sat", "time": "2:15pm"}, {"days": "Sun", "time": "Closed"}], "id": "8913100001", "name": "USPS COLLECTION BOX - BLUE BOX", "address": {"city": "LAS VEGAS", "state": "NV", "street": "8414 FARM RD", "postcode": "89131"}}},
{"geometry": {"type": "Point", "coordinates": [-115.2936068189, 36.2116089337]}, "type": "Feature", "properties": {"collection_times": [{"days": "Mon-Fri", "time": "12:45pm"}, {"days": "Sat", "time": "1:45pm"}, {"days": "Sun", "time": "Closed"}], "id": "8913400002", "name": "USPS COLLECTION BOX - BLUE BOX", "address": {"city": "LAS VEGAS", "state": "NV", "street": "9105 DEL WEBB BLVD", "postcode": "89134"}}},
{"geometry": {"type": "Point", "coordinates": [-115.305646149, 36.188607102]}, "type": "Feature", "properties": {"collection_times": [{"days": "Mon-Fri", "time": "6:00pm"}, {"days": "Sat", "time": "5:30pm"}, {"days": "Sun", "time": "Closed"}], "id": "8913400003", "name": "USPS COLLECTION BOX - BLUE BOX", "address": {"city": "LAS VEGAS", "state": "NV", "street": "1611 SPRING GATE LN", "postcode": "89134"}}},
{"geometry": {"type": "Point", "coordinates": [-115.305646149, 36.188607102]}, "type": "Feature", "properties": {"collection_times": [{"days": "Mon-Fri", "time": "6:00pm"}, {"days": "Sat", "time": "5:30pm"}, {"days": "Sun", "time": "Closed"}], "id": "8913400004", "name": "USPS COLLECTION BOX - BLUE BOX", "address": {"city": "LAS VEGAS", "state": "NV", "street": "1611 SPRING GATE LN", "postcode": "89134"}}},
{"geometry": {"type": "Point", "coordinates": [-115.305646149, 36.188607102]}, "type": "Feature", "properties": {"collection_times": [{"days": "Mon-Fri", "time": "5:00pm"}, {"days": "Sat", "time": "3:30pm"}, {"days": "Sun", "time": "Closed"}], "id": "8913400005", "name": "USPS COLLECTION BOX - PO LOBBY", "address": {"city": "LAS VEGAS", "state": "NV", "street": "1611 SPRING GATE LN", "postcode": "89134"}}},
{"geometry": {"type": "Point", "coordinates": [-115.3333199629, 36.2019642412]}, "type": "Feature", "properties": {"collection_times": [{"days": "Mon-Fri", "time": "1:00pm"}, {"days": "Sat", "time": "2:00pm"}, {"days": "Sun", "time": "Closed"}], "id": "8913400007", "name": "USPS COLLECTION BOX - BLUE BOX", "address": {"city": "LAS VEGAS", "state": "NV", "street": "2215 THOMAS W RYAN BLVD", "postcode": "89134"}}},
{"geometry": {"type": "Point", "coordinates": [-115.3225132501, 36.2113681246]}, "type": "Feature", "properties": {"collection_times": [{"days": "Mon-Fri", "time": "1:00pm"}, {"days": "Sat", "time": "2:00pm"}, {"days": "Sun", "time": "Closed"}], "id": "8913400008", "name": "USPS COLLECTION BOX - BLUE BOX", "address": {"city": "LAS VEGAS", "state": "NV", "street": "10360 SUN CITY BLVD", "postcode": "89134"}}},
{"geometry": {"type": "Point", "coordinates": [-115.3148785879, 36.1801448519]}, "type": "Feature", "properties": {"collection_times": [{"days": "Mon-Fri", "time": "1:45pm"}, {"days": "Sat-Sun", "time": "Closed"}], "id": "8913400009", "name": "USPS COLLECTION BOX - BLUE BOX", "address": {"city": "LAS VEGAS", "state": "NV", "street": "657 TOWN CENTER DR", "postcode": "89134"}}},
{"geometry": {"type": "Point", "coordinates": [-115.305646149, 36.188607102]}, "type": "Feature", "properties": {"collection_times": [{"days": "Mon-Fri", "time": "5:00pm"}, {"days": "Sat", "time": "3:30pm"}, {"days": "Sun", "time": "Closed"}], "id": "8913400014", "name": "USPS COLLECTION BOX - APC", "address": {"city": "LAS VEGAS", "state": "NV", "street": "1611 SPRING GATE LN", "postcode": "89134"}}},
{"geometry": {"type": "Point", "coordinates": [-115.3383505883, 36.1433444931]}, "type": "Feature", "properties": {"collection_times": [{"days": "Mon-Fri", "time": "1:45pm"}, {"days": "Sat", "time": "2:30pm"}, {"days": "Sun", "time": "Closed"}], "id": "8913500000", "name": "USPS COLLECTION BOX - BLUE BOX", "address": {"city": "LAS VEGAS", "state": "NV", "street": "2455 W RED SPRINGS RD", "postcode": "89135"}}},
{"geometry": {"type": "Point", "coordinates": [-115.3410813846, 36.1442235398]}, "type": "Feature", "properties": {"collection_times": [{"days": "Mon-Fri", "time": "1:45pm"}, {"days": "Sat", "time": "2:30pm"}, {"days": "Sun", "time": "Closed"}], "id": "8913500001", "name": "USPS COLLECTION BOX - BLUE BOX", "address": {"city": "LAS VEGAS", "state": "NV", "street": "2505 RED SPRINGS DR", "postcode": "89135"}}},
{"geometry": {"type": "Point", "coordinates": [-115.3238121333, 36.1089133344]}, "type": "Feature", "properties": {"collection_times": [{"days": "Mon-Fri", "time": "2:00pm"}, {"days": "Sat", "time": "2:45pm"}, {"days": "Sun", "time": "Closed"}], "id": "8913500002", "name": "USPS COLLECTION BOX - BLUE BOX", "address": {"city": "LAS VEGAS", "state": "NV", "street": "10539 SIENA MONTE AVE", "postcode": "89135"}}},
{"geometry": {"type": "Point", "coordinates": [-115.3356666305, 36.1237395058]}, "type": "Feature", "properties": {"collection_times": [{"days": "Mon-Fri", "time": "11:45am"}, {"days": "Sat", "time": "2:45pm"}, {"days": "Sun", "time": "Closed"}], "id": "8913500003", "name": "USPS COLLECTION BOX - BLUE BOX", "address": {"city": "LAS VEGAS", "state": "NV", "street": "10000 W GARDEN MIST DR", "postcode": "89135"}}},
{"geometry": {"type": "Point", "coordinates": [-115.3151668783, 36.1002377441]}, "type": "Feature", "properties": {"collection_times": [{"days": "Mon-Fri", "time": "5:00pm"}, {"days": "Sat", "time": "2:00pm"}, {"days": "Sun", "time": "Closed"}], "id": "8913500008", "name": "USPS COLLECTION BOX - BLUE BOX", "address": {"city": "LAS VEGAS", "state": "NV", "street": "10200 W TROPICANA AVE", "postcode": "89135"}}},
{"geometry": {"type": "Point", "coordinates": [-115.3290259677, 36.131768499]}, "type": "Feature", "properties": {"collection_times": [{"days": "Mon-Sat", "time": "12:00pm"}, {"days": "Sun", "time": "Closed"}], "id": "8913500010", "name": "USPS COLLECTION BOX - BLUE BOX", "address": {"city": "LAS VEGAS", "state": "NV", "street": "1980 FESTIVAL PLAZA DR", "postcode": "89135"}}},
{"geometry": {"type": "Point", "coordinates": [-115.1862388982, 36.0443991277]}, "type": "Feature", "properties": {"collection_times": [{"days": "Mon-Sat", "time": "9:15am"}, {"days": "Sun", "time": "Closed"}], "id": "8913900002", "name": "USPS COLLECTION BOX - BLUE BOX", "address": {"city": "LAS VEGAS", "state": "NV", "street": "8050 INDUSTRIAL RD", "postcode": "89139"}}},
{"geometry": {"type": "Point", "coordinates": [-115.2343471961, 36.0489251396]}, "type": "Feature", "properties": {"collection_times": [{"days": "Mon-Fri", "time": "11:00am"}, {"days": "Sat", "time": "3:00pm"}, {"days": "Sun", "time": "Closed"}], "id": "8913900004", "name": "USPS COLLECTION BOX - BLUE BOX", "address": {"city": "LAS VEGAS", "state": "NV", "street": "6500 W ROBINDALE RD", "postcode": "89139"}}},
{"geometry": {"type": "Point", "coordinates": [-115.2168379262, 36.0395735879]}, "type": "Feature", "properties": {"collection_times": [{"days": "Mon-Fri", "time": "1:15pm"}, {"days": "Sat", "time": "12:00pm"}, {"days": "Sun", "time": "Closed"}], "id": "8913900006", "name": "USPS COLLECTION BOX - BLUE BOX", "address": {"city": "LAS VEGAS", "state": "NV", "street": "7860 S DECATUR BLVD", "postcode": "89139"}}},
{"geometry": {"type": "Point", "coordinates": [-115.2041762123, 35.9908202324]}, "type": "Feature", "properties": {"collection_times": [{"days": "Mon-Sat", "time": "9:30am"}, {"days": "Sun", "time": "Closed"}], "id": "8914100000", "name": "USPS COLLECTION BOX - BLUE BOX", "address": {"city": "LAS VEGAS", "state": "NV", "street": "10950 SOUTHERN HIGHLANDS PKWY", "postcode": "89141"}}},
{"geometry": {"type": "Point", "coordinates": [-115.2074318317, 35.9961721846]}, "type": "Feature", "properties": {"collection_times": [{"days": "Mon-Fri", "time": "1:15pm"}, {"days": "Sat", "time": "12:15pm"}, {"days": "Sun", "time": "Closed"}], "id": "8914100001", "name": "USPS COLLECTION BOX - BLUE BOX", "address": {"city": "LAS VEGAS", "state": "NV", "street": "10620 SOUTHERN HIGHLANDS PKWY", "postcode": "89141"}}},
{"geometry": {"type": "Point", "coordinates": [-115.06378911, 36.137018292]}, "type": "Feature", "properties": {"collection_times": [{"days": "Mon-Fri", "time": "6:15pm"}, {"days": "Sat", "time": "5:00pm"}, {"days": "Sun", "time": "Closed"}], "id": "8914200000", "name": "USPS COLLECTION BOX - BLUE BOX", "address": {"city": "LAS VEGAS", "state": "NV", "street": "5070 VEGAS VALLEY DR", "postcode": "89142"}}},
{"geometry": {"type": "Point", "coordinates": [-115.06378911, 36.137018292]}, "type": "Feature", "properties": {"collection_times": [{"days": "Mon-Fri", "time": "5:00pm"}, {"days": "Sat", "time": "3:15pm"}, {"days": "Sun", "time": "Closed"}], "id": "8914200003", "name": "USPS COLLECTION BOX - PO LOBBY", "address": {"city": "LAS VEGAS", "state": "NV", "street": "5070 VEGAS VALLEY DR", "postcode": "89142"}}},
{"geometry": {"type": "Point", "coordinates": [-115.0511396214, 36.145005874]}, "type": "Feature", "properties": {"collection_times": [{"days": "Mon-Fri", "time": "11:45am"}, {"days": "Sat", "time": "1:00pm"}, {"days": "Sun", "time": "Closed"}], "id": "8914200004", "name": "USPS COLLECTION BOX - BLUE BOX", "address": {"city": "LAS VEGAS", "state": "NV", "street": "5655 E SAHARA AVE", "postcode": "89142"}}},
{"geometry": {"type": "Point", "coordinates": [-115.06378911, 36.137018292]}, "type": "Feature", "properties": {"collection_times": [{"days": "Mon-Fri", "time": "5:00pm"}, {"days": "Sat", "time": "3:15pm"}, {"days": "Sun", "time": "Closed"}], "id": "8914200006", "name": "USPS COLLECTION BOX - APC", "address": {"city": "LAS VEGAS", "state": "NV", "street": "5070 VEGAS VALLEY DR", "postcode": "89142"}}},
{"geometry": {"type": "Point", "coordinates": [-115.3115793153, 36.1825817473]}, "type": "Feature", "properties": {"collection_times": [{"days": "Mon-Fri", "time": "1:45pm"}, {"days": "Sat-Sun", "time": "Closed"}], "id": "8914400000", "name": "USPS COLLECTION BOX - BLUE BOX", "address": {"city": "LAS VEGAS", "state": "NV", "street": "1111 N TOWN CENTER DR", "postcode": "89144"}}},
{"geometry": {"type": "Point", "coordinates": [-115.337498058, 36.1882576039]}, "type": "Feature", "properties": {"collection_times": [{"days": "Mon-Sat", "time": "10:30am"}, {"days": "Sun", "time": "Closed"}], "id": "8914400001", "name": "USPS COLLECTION BOX - BLUE BOX", "address": {"city": "LAS VEGAS", "state": "NV", "street": "1700 SAGEBERRY DR", "postcode": "89144"}}},
{"geometry": {"type": "Point", "coordinates": [-115.3314331381, 36.1692804485]}, "type": "Feature", "properties": {"collection_times": [{"days": "Mon-Fri", "time": "1:00pm"}, {"days": "Sat", "time": "1:45pm"}, {"days": "Sun", "time": "Closed"}], "id": "8914400002", "name": "USPS COLLECTION BOX - BLUE BOX", "address": {"city": "LAS VEGAS", "state": "NV", "street": "500 S PAVILION CENTER DR", "postcode": "89144"}}},
{"geometry": {"type": "Point", "coordinates": [-115.3102794737, 36.1834782954]}, "type": "Feature", "properties": {"collection_times": [{"days": "Mon-Sat", "time": "10:30am"}, {"days": "Sun", "time": "Closed"}], "id": "8914400005", "name": "USPS COLLECTION BOX - BLUE BOX", "address": {"city": "LAS VEGAS", "state": "NV", "street": "1200 N TOWN CENTER DR", "postcode": "89144"}}},
{"geometry": {"type": "Point", "coordinates": [-115.2470477208, 36.1739674401]}, "type": "Feature", "properties": {"collection_times": [{"days": "Mon-Sat", "time": "4:45pm"}, {"days": "Sun", "time": "Closed"}], "id": "8914500001", "name": "USPS COLLECTION BOX - BLUE BOX", "address": {"city": "LAS VEGAS", "state": "NV", "street": "6900 WESTCLIFF DR", "postcode": "89145"}}},
{"geometry": {"type": "Point", "coordinates": [-115.258287785, 36.1740641864]}, "type": "Feature", "properties": {"collection_times": [{"days": "Mon-Fri", "time": "5:00pm"}, {"days": "Sat", "time": "4:45pm"}, {"days": "Sun", "time": "Closed"}], "id": "8914500002", "name": "USPS COLLECTION BOX - BLUE BOX", "address": {"city": "LAS VEGAS", "state": "NV", "street": "7512 WESTCLIFF DR", "postcode": "89145"}}},
{"geometry": {"type": "Point", "coordinates": [-115.2470477208, 36.1739674401]}, "type": "Feature", "properties": {"collection_times": [{"days": "Mon-Sat", "time": "4:45pm"}, {"days": "Sun", "time": "Closed"}], "id": "8914500004", "name": "USPS COLLECTION BOX - BLUE BOX", "address": {"city": "LAS VEGAS", "state": "NV", "street": "6900 WESTCLIFF DR", "postcode": "89145"}}},
{"geometry": {"type": "Point", "coordinates": [-115.2181941687, 36.1257807897]}, "type": "Feature", "properties": {"collection_times": [{"days": "Mon-Fri", "time": "12:30pm"}, {"days": "Sat-Sun", "time": "Closed"}], "id": "8914600000", "name": "USPS COLLECTION BOX - BLUE BOX", "address": {"city": "LAS VEGAS", "state": "NV", "street": "5600 SPRING MOUNTAIN RD", "postcode": "89146"}}},
{"geometry": {"type": "Point", "coordinates": [-115.2104192753, 36.1590234186]}, "type": "Feature", "properties": {"collection_times": [{"days": "Mon-Sat", "time": "9:00am"}, {"days": "Sun", "time": "Closed"}], "id": "8914600005", "name": "USPS COLLECTION BOX - BLUE BOX", "address": {"city": "LAS VEGAS", "state": "NV", "street": "5191 W CHARLESTON BLVD", "postcode": "89146"}}},
{"geometry": {"type": "Point", "coordinates": [-115.2863775575, 36.1000360537]}, "type": "Feature", "properties": {"collection_times": [{"days": "Mon-Fri", "time": "12:00pm"}, {"days": "Sat-Sun", "time": "Closed"}], "id": "8914700005", "name": "USPS COLLECTION BOX - BLUE BOX", "address": {"city": "LAS VEGAS", "state": "NV", "street": "8910 W TROPICANA AVE", "postcode": "89147"}}},
{"geometry": {"type": "Point", "coordinates": [-115.2951066117, 36.1149945698]}, "type": "Feature", "properties": {"collection_times": [{"days": "Mon-Fri", "time": "12:00pm"}, {"days": "Sat", "time": "3:00pm"}, {"days": "Sun", "time": "Closed"}], "id": "8914700006", "name": "USPS COLLECTION BOX - BLUE BOX", "address": {"city": "LAS VEGAS", "state": "NV", "street": "9350 W FLAMINGO RD", "postcode": "89147"}}},
{"geometry": {"type": "Point", "coordinates": [-115.3063129585, 36.1128373167]}, "type": "Feature", "properties": {"collection_times": [{"days": "Mon-Fri", "time": "2:00pm"}, {"days": "Sat-Sun", "time": "Closed"}], "id": "8914700011", "name": "USPS COLLECTION BOX - BLUE BOX", "address": {"city": "LAS VEGAS", "state": "NV", "street": "4205 S GRAND CANYON DR", "postcode": "89147"}}},
{"geometry": {"type": "Point", "coordinates": [-115.3131238972, 36.1153458964]}, "type": "Feature", "properties": {"collection_times": [{"days": "Mon-Fri", "time": "7:00pm"}, {"days": "Sat", "time": "6:00pm"}, {"days": "Sun", "time": "Closed"}], "id": "8914700015", "name": "USPS COLLECTION BOX - APC", "address": {"city": "LAS VEGAS", "state": "NV", "street": "10140 W FLAMINGO RD", "postcode": "89147"}}},
{"geometry": {"type": "Point", "coordinates": [-115.3131238972, 36.1153458964]}, "type": "Feature", "properties": {"collection_times": [{"days": "Mon-Fri", "time": "7:00pm"}, {"days": "Sat", "time": "6:00pm"}, {"days": "Sun", "time": "Closed"}], "id": "8914700016", "name": "USPS COLLECTION BOX - BLUE BOX", "address": {"city": "LAS VEGAS", "state": "NV", "street": "10140 W FLAMINGO RD", "postcode": "89147"}}},
{"geometry": {"type": "Point", "coordinates": [-115.314885102, 36.1211500607]}, "type": "Feature", "properties": {"collection_times": [{"days": "Mon-Sat", "time": "12:30pm"}, {"days": "Sun", "time": "Closed"}], "id": "8914700017", "name": "USPS COLLECTION BOX - BLUE BOX", "address": {"city": "LAS VEGAS", "state": "NV", "street": "3820 S HUALAPAI WAY", "postcode": "89147"}}},
{"geometry": {"type": "Point", "coordinates": [-115.2952738709, 36.0702954748]}, "type": "Feature", "properties": {"collection_times": [{"days": "Mon-Fri", "time": "3:00pm"}, {"days": "Sat-Sun", "time": "Closed"}], "id": "8914800000", "name": "USPS COLLECTION BOX - BLUE BOX", "address": {"city": "LAS VEGAS", "state": "NV", "street": "9280 W SUNSET RD", "postcode": "89148"}}},
{"geometry": {"type": "Point", "coordinates": [-115.3026172182, 36.0851177582]}, "type": "Feature", "properties": {"collection_times": [{"days": "Mon-Sat", "time": "3:00pm"}, {"days": "Sun", "time": "Closed"}], "id": "8914800001", "name": "USPS COLLECTION BOX - BLUE BOX", "address": {"city": "LAS VEGAS", "state": "NV", "street": "9620 W RUSSELL RD", "postcode": "89148"}}},
{"geometry": {"type": "Point", "coordinates": [-115.297339191, 36.0887387416]}, "type": "Feature", "properties": {"collection_times": [{"days": "Mon-Fri", "time": "4:30pm"}, {"days": "Sat-Sun", "time": "Closed"}], "id": "8914800003", "name": "USPS COLLECTION BOX - BLUE BOX", "address": {"city": "LAS VEGAS", "state": "NV", "street": "5500 S FORT APACHE RD", "postcode": "89148"}}},
{"geometry": {"type": "Point", "coordinates": [-115.0256498527, 36.1955126718]}, "type": "Feature", "properties": {"collection_times": [{"days": "Mon-Fri", "time": "12:15pm"}, {"days": "Sat-Sun", "time": "Closed"}], "id": "8915600000", "name": "USPS COLLECTION BOX - BLUE BOX", "address": {"city": "LAS VEGAS", "state": "NV", "street": "6705 E LAKE MEAD BLVD", "postcode": "89156"}}},
{"geometry": {"type": "Point", "coordinates": [-115.0191601399, 36.1972894761]}, "type": "Feature", "properties": {"collection_times": [{"days": "Mon-Fri", "time": "12:15pm"}, {"days": "Sat", "time": "3:00pm"}, {"days": "Sun", "time": "Closed"}], "id": "8915600002", "name": "USPS COLLECTION BOX - BLUE BOX", "address": {"city": "LAS VEGAS", "state": "NV", "street": "7055 E LAKE MEAD BLVD", "postcode": "89156"}}},
{"geometry": {"type": "Point", "coordinates": [-115.047496605, 36.236273952]}, "type": "Feature", "properties": {"collection_times": [{"days": "Mon-Sat", "time": "5:00pm"}, {"days": "Sun", "time": "Closed"}], "id": "8919100000", "name": "USPS COLLECTION BOX - BLUE BOX", "address": {"city": "LAS VEGAS", "state": "NV", "street": "4250 GRIFFISS AVE", "postcode": "89191"}}},
{"geometry": {"type": "Point", "coordinates": [-115.047496605, 36.236273952]}, "type": "Feature", "properties": {"collection_times": [{"days": "Mon-Sat", "time": "5:00pm"}, {"days": "Sun", "time": "Closed"}], "id": "8919100001", "name": "USPS COLLECTION BOX - BLUE BOX", "address": {"city": "LAS VEGAS", "state": "NV", "street": "4250 GRIFFISS AVE", "postcode": "89191"}}},
{"geometry": {"type": "Point", "coordinates": [-115.047496605, 36.236273952]}, "type": "Feature", "properties": {"collection_times": [{"days": "Mon-Fri", "time": "4:00pm"}, {"days": "Sat-Sun", "time": "Closed"}], "id": "8919100002", "name": "USPS COLLECTION BOX - PO LOBBY", "address": {"city": "LAS VEGAS", "state": "NV", "street": "4250 GRIFFISS AVE", "postcode": "89191"}}},
{"geometry": {"type": "Point", "coordinates": [-115.0458620129, 36.2369154145]}, "type": "Feature", "properties": {"collection_times": [{"days": "Mon-Fri", "time": "2:30pm"}, {"days": "Sat-Sun", "time": "Closed"}], "id": "8919100004", "name": "USPS COLLECTION BOX - BLUE BOX", "address": {"city": "LAS VEGAS", "state": "NV", "street": "5691 RICKENBACKER RD BLDG 431", "postcode": "89191"}}},
{"geometry": {"type": "Point", "coordinates": [-115.0420612568, 36.2423354278]}, "type": "Feature", "properties": {"collection_times": [{"days": "Mon-Sat", "time": "11:30am"}, {"days": "Sun", "time": "Closed"}], "id": "8919100005", "name": "USPS COLLECTION BOX - BLUE BOX", "address": {"city": "LAS VEGAS", "state": "NV", "street": "5971 FITZGERALD BLVD", "postcode": "89191"}}},
{"geometry": {"type": "Point", "coordinates": [-114.9602213493, 36.2639851943]}, "type": "Feature", "properties": {"collection_times": [{"days": "Mon-Fri", "time": "2:30pm"}, {"days": "Sat-Sun", "time": "Closed"}], "id": "8919100007", "name": "USPS COLLECTION BOX - BLUE BOX", "address": {"city": "LAS VEGAS", "state": "NV", "street": "0 I ST, BLDG 201", "postcode": "89191"}}},
{"geometry": {"type": "Point", "coordinates": [-115.047496605, 36.236273952]}, "type": "Feature", "properties": {"collection_times": [{"days": "Mon-Sat", "time": "5:00pm"}, {"days": "Sun", "time": "Closed"}], "id": "8919100008", "name": "USPS COLLECTION BOX - BLUE BOX", "address": {"city": "LAS VEGAS", "state": "NV", "street": "4250 GRIFFISS AVE", "postcode": "89191"}}},
{"geometry": {"type": "Point", "coordinates": [-114.9602213493, 36.2639851943]}, "type": "Feature", "properties": {"collection_times": [{"days": "Mon-Fri", "time": "2:15pm"}, {"days": "Sat-Sun", "time": "Closed"}], "id": "8919100009", "name": "USPS COLLECTION BOX - BLUE BOX", "address": {"city": "LAS VEGAS", "state": "NV", "street": "755 N FITZGERALD", "postcode": "89191"}}},
{"geometry": {"type": "Point", "coordinates": [-115.141084552, 36.071638206]}, "type": "Feature", "properties": {"collection_times": [{"days": "Mon-Fri", "time": "5:30pm"}, {"days": "Sat", "time": "3:00pm"}, {"days": "Sun", "time": "Closed"}], "id": "8919900002", "name": "USPS COLLECTION BOX - EXPRESS", "address": {"city": "LAS VEGAS", "state": "NV", "street": "1001 E SUNSET RD", "postcode": "89199"}}},
{"geometry": {"type": "Point", "coordinates": [-115.141084552, 36.0716382064]}, "type": "Feature", "properties": {"collection_times": [{"days": "Mon-Fri", "time": "9:00pm"}, {"days": "Sat", "time": "4:00pm"}, {"days": "Sun", "time": "Closed"}], "id": "8919900003", "name": "USPS COLLECTION BOX - PO LOBBY", "address": {"city": "LAS VEGAS", "state": "NV", "street": "1001 E SUNSET RD", "postcode": "89199"}}},
{"geometry": {"type": "Point", "coordinates": [-115.141084552, 36.071638206]}, "type": "Feature", "properties": {"collection_times": [{"days": "Mon-Sat", "time": "9:00pm"}, {"days": "Sun", "time": "Closed"}], "id": "8919900004", "name": "USPS COLLECTION BOX - BLUE BOX", "address": {"city": "LAS VEGAS", "state": "NV", "street": "1001 E SUNSET RD", "postcode": "89199"}}},
{"geometry": {"type": "Point", "coordinates": [-115.141084552, 36.071638206]}, "type": "Feature", "properties": {"collection_times": [{"days": "Mon-Sat", "time": "9:00pm"}, {"days": "Sun", "time": "Closed"}], "id": "8919900005", "name": "USPS COLLECTION BOX - BLUE BOX", "address": {"city": "LAS VEGAS", "state": "NV", "street": "1001 E SUNSET RD", "postcode": "89199"}}},
{"geometry": {"type": "Point", "coordinates": [-115.141084552, 36.071638206]}, "type": "Feature", "properties": {"collection_times": [{"days": "Mon-Sat", "time": "9:00pm"}, {"days": "Sun", "time": "Closed"}], "id": "8919900006", "name": "USPS COLLECTION BOX - PO LOBBY", "address": {"city": "LAS VEGAS", "state": "NV", "street": "1001 E SUNSET RD", "postcode": "89199"}}},
{"geometry": {"type": "Point", "coordinates": [-115.141084552, 36.071638206]}, "type": "Feature", "properties": {"collection_times": [{"days": "Mon-Sat", "time": "8:30pm"}, {"days": "Sun", "time": "Closed"}], "id": "8919900007", "name": "USPS COLLECTION BOX - BLUE BOX", "address": {"city": "LAS VEGAS", "state": "NV", "street": "1001 E SUNSET RD", "postcode": "89199"}}}
]}
