{"type": "FeatureCollection", "features": [
{"geometry": {"type": "Point", "coordinates": [-114.8908314247, 39.2481559041]}, "type": "Feature", "properties": {"collection_times": [{"days": "Mon-Sat", "time": "3:15pm"}, {"days": "Sun", "time": "Closed"}], "id": "8930100001", "name": "USPS COLLECTION BOX - BLUE BOX", "address": {"city": "ELY", "state": "NV", "street": "701 7TH ST", "postcode": "89301"}}},
{"geometry": {"type": "Point", "coordinates": [-114.8646576327, 39.2564941101]}, "type": "Feature", "properties": {"collection_times": [{"days": "Mon-Sat", "time": "2:15pm"}, {"days": "Sun", "time": "Closed"}], "id": "8930100002", "name": "USPS COLLECTION BOX - BLUE BOX", "address": {"city": "ELY", "state": "NV", "street": "1240 E AVE F", "postcode": "89301"}}},
{"geometry": {"type": "Point", "coordinates": [-115.0265649055, 39.5562609034]}, "type": "Feature", "properties": {"collection_times": [{"days": "Mon-Sat", "time": "11:00am"}, {"days": "Sun", "time": "Closed"}], "id": "8930100003", "name": "USPS COLLECTION BOX - BLUE BOX", "address": {"city": "ELY", "state": "NV", "street": "995 COURT HOUSE ANX", "postcode": "89301"}}},
{"geometry": {"type": "Point", "coordinates": [-114.8914638064, 39.2482957331]}, "type": "Feature", "properties": {"collection_times": [{"days": "Mon-Sat", "time": "12:05pm"}, {"days": "Sun", "time": "Closed"}], "id": "8930100004", "name": "USPS COLLECTION BOX - BLUE BOX", "address": {"city": "ELY", "state": "NV", "street": "636 AULTMAN ST", "postcode": "89301"}}},
{"geometry": {"type": "Point", "coordinates": [-114.8578981207, 39.2577565217]}, "type": "Feature", "properties": {"collection_times": [{"days": "Mon-Sat", "time": "1:20pm"}, {"days": "Sun", "time": "Closed"}], "id": "8930100006", "name": "USPS COLLECTION BOX - BLUE BOX", "address": {"city": "ELY", "state": "NV", "street": "1700 AVE G", "postcode": "89301"}}},
{"geometry": {"type": "Point", "coordinates": [-115.0265649055, 39.5562609034]}, "type": "Feature", "properties": {"collection_times": [{"days": "Mon-Fri", "time": "3:20pm"}, {"days": "Sat-Sun", "time": "Closed"}], "id": "8930100008", "name": "USPS COLLECTION BOX - BLUE BOX", "address": {"city": "ELY", "state": "NV", "street": "1689 7TH ST", "postcode": "89301"}}},
{"geometry": {"type": "Point", "coordinates": [-114.86943922, 39.244004146]}, "type": "Feature", "properties": {"collection_times": [{"days": "Mon-Sat", "time": "3:45pm"}, {"days": "Sun", "time": "Closed"}], "id": "8930100012", "name": "USPS COLLECTION BOX - BLUE BOX", "address": {"city": "ELY", "state": "NV", "street": "2600 BRISTLECONE AVE", "postcode": "89301"}}},
{"geometry": {"type": "Point", "coordinates": [-114.86943922, 39.244004146]}, "type": "Feature", "properties": {"collection_times": [{"days": "Mon-Sat", "time": "3:45pm"}, {"days": "Sun", "time": "Closed"}], "id": "8930100013", "name": "USPS COLLECTION BOX - PO LOBBY", "address": {"city": "ELY", "state": "NV", "street": "2600 BRISTLECONE AVE", "postcode": "89301"}}},
{"geometry": {"type": "Point", "coordinates": [-117.0873794673, 39.7062517564]}, "type": "Feature", "properties": {"collection_times": [{"days": "Mon-Sat", "time": "12:30pm"}, {"days": "Sun", "time": "Closed"}], "id": "8931000000", "name": "USPS COLLECTION BOX - BLUE BOX", "address": {"city": "AUSTIN", "state": "NV", "street": "0 E HIGHWAY 376", "postcode": "89310"}}},
{"geometry": {"type": "Point", "coordinates": [-117.0873794673, 39.7062517564]}, "type": "Feature", "properties": {"collection_times": [{"days": "Mon-Sat", "time": "1:00pm"}, {"days": "Sun", "time": "Closed"}], "id": "8931000001", "name": "USPS COLLECTION BOX - BLUE BOX", "address": {"city": "AUSTIN", "state": "NV", "street": "0 W KINGSTON VLG", "postcode": "89310"}}},
{"geometry": {"type": "Point", "coordinates": [-117.06906367, 39.490765627]}, "type": "Feature", "properties": {"collection_times": [{"days": "Mon-Sat", "time": "11:45am"}, {"days": "Sun", "time": "Closed"}], "id": "8931000002", "name": "USPS COLLECTION BOX - PO LOBBY", "address": {"city": "AUSTIN", "state": "NV", "street": "166 MAIN ST", "postcode": "89310"}}},
{"geometry": {"type": "Point", "coordinates": [-117.06906367, 39.490765627]}, "type": "Feature", "properties": {"collection_times": [{"days": "Mon-Sat", "time": "11:45am"}, {"days": "Sun", "time": "Closed"}], "id": "8931000003", "name": "USPS COLLECTION BOX - PO LOBBY", "address": {"city": "AUSTIN", "state": "NV", "street": "166 MAIN ST", "postcode": "89310"}}},
{"geometry": {"type": "Point", "coordinates": [-117.06906367, 39.490765627]}, "type": "Feature", "properties": {"collection_times": [{"days": "Mon-Sat", "time": "11:45am"}, {"days": "Sun", "time": "Closed"}], "id": "8931000006", "name": "USPS COLLECTION BOX - BLUE BOX", "address": {"city": "AUSTIN", "state": "NV", "street": "166 MAIN ST", "postcode": "89310"}}},
{"geometry": {"type": "Point", "coordinates": [-114.123024506, 39.012100386]}, "type": "Feature", "properties": {"collection_times": [{"days": "Mon-Sat", "time": "11:00am"}, {"days": "Sun", "time": "Closed"}], "id": "8931100000", "name": "USPS COLLECTION BOX - PO LOBBY", "address": {"city": "BAKER", "state": "NV", "street": "101 CARSON ST", "postcode": "89311"}}},
{"geometry": {"type": "Point", "coordinates": [-115.960755234, 39.51205749]}, "type": "Feature", "properties": {"collection_times": [{"days": "Mon-Fri", "time": "1:45pm"}, {"days": "Sat", "time": "12:00pm"}, {"days": "Sun", "time": "Closed"}], "id": "8931600000", "name": "USPS COLLECTION BOX - BLUE BOX", "address": {"city": "EUREKA", "state": "NV", "street": "51 S MAIN ST", "postcode": "89316"}}},
{"geometry": {"type": "Point", "coordinates": [-115.960755234, 39.51205749]}, "type": "Feature", "properties": {"collection_times": [{"days": "Mon-Fri", "time": "1:45pm"}, {"days": "Sat", "time": "12:00pm"}, {"days": "Sun", "time": "Closed"}], "id": "8931600002", "name": "USPS COLLECTION BOX - PO LOBBY", "address": {"city": "EUREKA", "state": "NV", "street": "51 S MAIN ST", "postcode": "89316"}}},
{"geometry": {"type": "Point", "coordinates": [-115.007831363, 38.861357717]}, "type": "Feature", "properties": {"collection_times": [{"days": "Mon-Fri", "time": "12:45pm"}, {"days": "Sat", "time": "11:30am"}, {"days": "Sun", "time": "Closed"}], "id": "8931700000", "name": "USPS COLLECTION BOX - BLUE BOX", "address": {"city": "LUND", "state": "NV", "street": "50 S MAIN ST", "postcode": "89317"}}},
{"geometry": {"type": "Point", "coordinates": [-115.007831363, 38.861357717]}, "type": "Feature", "properties": {"collection_times": [{"days": "Mon-Fri", "time": "12:45pm"}, {"days": "Sat", "time": "11:30am"}, {"days": "Sun", "time": "Closed"}], "id": "8931700001", "name": "USPS COLLECTION BOX - PO LOBBY", "address": {"city": "LUND", "state": "NV", "street": "50 S MAIN ST", "postcode": "89317"}}},
{"geometry": {"type": "Point", "coordinates": [-114.778789727, 39.40513627]}, "type": "Feature", "properties": {"collection_times": [{"days": "Mon-Fri", "time": "3:15pm"}, {"days": "Sat", "time": "8:15am"}, {"days": "Sun", "time": "Closed"}], "id": "8931800000", "name": "USPS COLLECTION BOX - PO LOBBY", "address": {"city": "MCGILL", "state": "NV", "street": "2 4TH ST", "postcode": "89318"}}},
{"geometry": {"type": "Point", "coordinates": [-114.778789727, 39.40513627]}, "type": "Feature", "properties": {"collection_times": [{"days": "Mon-Fri", "time": "3:15pm"}, {"days": "Sat", "time": "8:15am"}, {"days": "Sun", "time": "Closed"}], "id": "8931800001", "name": "USPS COLLECTION BOX - BLUE BOX", "address": {"city": "MCGILL", "state": "NV", "street": "2 4TH ST", "postcode": "89318"}}},
{"geometry": {"type": "Point", "coordinates": [-114.984569141, 39.278979381]}, "type": "Feature", "properties": {"collection_times": [{"days": "Mon-Fri", "time": "2:15pm"}, {"days": "Sat", "time": "10:45am"}, {"days": "Sun", "time": "Closed"}], "id": "8931900000", "name": "USPS COLLECTION BOX - BLUE BOX", "address": {"city": "RUTH", "state": "NV", "street": "12 MAIN ST", "postcode": "89319"}}},
{"geometry": {"type": "Point", "coordinates": [-114.9845691413, 39.2789793812]}, "type": "Feature", "properties": {"collection_times": [{"days": "Mon-Fri", "time": "2:15pm"}, {"days": "Sat", "time": "10:45am"}, {"days": "Sun", "time": "Closed"}], "id": "8931900001", "name": "USPS COLLECTION BOX - PO LOBBY", "address": {"city": "RUTH", "state": "NV", "street": "12 MAIN ST", "postcode": "89319"}}}
]}
