{"type": "FeatureCollection", "features": [
{"geometry": {"type": "Point", "coordinates": [-120.003525612, 39.229073208]}, "type": "Feature", "properties": {"collection_times": [{"days": "Mon-Fri", "time": "4:30pm"}, {"days": "Sat", "time": "11:15am"}, {"days": "Sun", "time": "Closed"}], "id": "8940200000", "name": "USPS COLLECTION BOX - PO LOBBY", "address": {"city": "CRYSTAL BAY", "state": "NV", "street": "26 STATE ROUTE 28", "postcode": "89402"}}},
{"geometry": {"type": "Point", "coordinates": [-119.9619230709, 39.2455437459]}, "type": "Feature", "properties": {"collection_times": [{"days": "Mon-Fri", "time": "4:15pm"}, {"days": "Sat", "time": "11:00am"}, {"days": "Sun", "time": "Closed"}], "id": "8940200001", "name": "USPS COLLECTION BOX - BLUE BOX", "address": {"city": "CRYSTAL BAY", "state": "NV", "street": "0 CRYSTAL BAY LOT", "postcode": "89402"}}},
{"geometry": {"type": "Point", "coordinates": [-119.589649674, 39.2402846]}, "type": "Feature", "properties": {"collection_times": [{"days": "Mon-Fri", "time": "4:00pm"}, {"days": "Sat", "time": "1:00pm"}, {"days": "Sun", "time": "Closed"}], "id": "8940300000", "name": "USPS COLLECTION BOX - BLUE BOX", "address": {"city": "DAYTON", "state": "NV", "street": "50 4TH AVE", "postcode": "89403"}}},
{"geometry": {"type": "Point", "coordinates": [-119.4939172762, 39.3157248854]}, "type": "Feature", "properties": {"collection_times": [{"days": "Mon-Fri", "time": "10:30am"}, {"days": "Sat", "time": "10:00am"}, {"days": "Sun", "time": "Closed"}], "id": "8940300001", "name": "USPS COLLECTION BOX - BLUE BOX", "address": {"city": "DAYTON", "state": "NV", "street": "6950 US HIGHWAY 50 E", "postcode": "89403"}}},
{"geometry": {"type": "Point", "coordinates": [-119.5919357826, 39.2341908759]}, "type": "Feature", "properties": {"collection_times": [{"days": "Mon-Fri", "time": "4:30pm"}, {"days": "Sat", "time": "12:00pm"}, {"days": "Sun", "time": "Closed"}], "id": "8940300003", "name": "USPS COLLECTION BOX - BLUE BOX", "address": {"city": "DAYTON", "state": "NV", "street": "100 DOUGLAS ST", "postcode": "89403"}}},
{"geometry": {"type": "Point", "coordinates": [-119.589649674, 39.2402846]}, "type": "Feature", "properties": {"collection_times": [{"days": "Mon-Fri", "time": "4:30pm"}, {"days": "Sat", "time": "12:00pm"}, {"days": "Sun", "time": "Closed"}], "id": "8940300005", "name": "USPS COLLECTION BOX - PO LOBBY", "address": {"city": "DAYTON", "state": "NV", "street": "50 4TH AVE", "postcode": "89403"}}},
{"geometry": {"type": "Point", "coordinates": [-119.589649674, 39.2402846]}, "type": "Feature", "properties": {"collection_times": [{"days": "Mon-Fri", "time": "4:30pm"}, {"days": "Sat", "time": "12:00pm"}, {"days": "Sun", "time": "Closed"}], "id": "8940300006", "name": "USPS COLLECTION BOX - PO LOBBY", "address": {"city": "DAYTON", "state": "NV", "street": "50 4TH AVE", "postcode": "89403"}}},
{"geometry": {"type": "Point", "coordinates": [-119.589649674, 39.2402846]}, "type": "Feature", "properties": {"collection_times": [{"days": "Mon-Fri", "time": "4:00pm"}, {"days": "Sat", "time": "1:00pm"}, {"days": "Sun", "time": "Closed"}], "id": "8940300007", "name": "USPS COLLECTION BOX - BLUE BOX", "address": {"city": "DAYTON", "state": "NV", "street": "50 4TH AVE", "postcode": "89403"}}},
{"geometry": {"type": "Point", "coordinates": [-118.9075073225, 41.5792278997]}, "type": "Feature", "properties": {"collection_times": [{"days": "Mon-Sat", "time": "1:00pm"}, {"days": "Sun", "time": "Closed"}], "id": "8940400000", "name": "USPS COLLECTION BOX - BLUE BOX", "address": {"city": "DENIO", "state": "NV", "street": "1 MAIN ST", "postcode": "89404"}}},
{"geometry": {"type": "Point", "coordinates": [-118.7278040769, 39.4186936591]}, "type": "Feature", "properties": {"collection_times": [{"days": "Mon-Sat", "time": "12:15pm"}, {"days": "Sun", "time": "Closed"}], "id": "8940600000", "name": "USPS COLLECTION BOX - BLUE BOX", "address": {"city": "FALLON", "state": "NV", "street": "1004 OREGON DR", "postcode": "89406"}}},
{"geometry": {"type": "Point", "coordinates": [-118.776994213, 39.476560296]}, "type": "Feature", "properties": {"collection_times": [{"days": "Mon-Sat", "time": "5:00pm"}, {"days": "Sun", "time": "Closed"}], "id": "8940600004", "name": "USPS COLLECTION BOX - BLUE BOX", "address": {"city": "FALLON", "state": "NV", "street": "120 N MAINE ST", "postcode": "89406"}}},
{"geometry": {"type": "Point", "coordinates": [-118.7771919266, 39.4721267415]}, "type": "Feature", "properties": {"collection_times": [{"days": "Mon-Sat", "time": "4:30pm"}, {"days": "Sun", "time": "Closed"}], "id": "8940600007", "name": "USPS COLLECTION BOX - BLUE BOX", "address": {"city": "FALLON", "state": "NV", "street": "295 S MAINE ST", "postcode": "89406"}}},
{"geometry": {"type": "Point", "coordinates": [-118.7772202516, 39.4702254926]}, "type": "Feature", "properties": {"collection_times": [{"days": "Mon-Sat", "time": "4:15pm"}, {"days": "Sun", "time": "Closed"}], "id": "8940600008", "name": "USPS COLLECTION BOX - BLUE BOX", "address": {"city": "FALLON", "state": "NV", "street": "507 S MAINE ST", "postcode": "89406"}}},
{"geometry": {"type": "Point", "coordinates": [-118.7992047329, 39.4759318082]}, "type": "Feature", "properties": {"collection_times": [{"days": "Mon-Sat", "time": "4:15pm"}, {"days": "Sun", "time": "Closed"}], "id": "8940600014", "name": "USPS COLLECTION BOX - BLUE BOX", "address": {"city": "FALLON", "state": "NV", "street": "1911 W WILLIAMS AVE", "postcode": "89406"}}},
{"geometry": {"type": "Point", "coordinates": [-118.8029677444, 39.4768638572]}, "type": "Feature", "properties": {"collection_times": [{"days": "Mon-Sat", "time": "4:00pm"}, {"days": "Sun", "time": "Closed"}], "id": "8940600016", "name": "USPS COLLECTION BOX - BLUE BOX", "address": {"city": "FALLON", "state": "NV", "street": "2161 W WILLIAMS AVE", "postcode": "89406"}}},
{"geometry": {"type": "Point", "coordinates": [-118.7255282419, 39.3938195838]}, "type": "Feature", "properties": {"collection_times": [{"days": "Mon-Sat", "time": "2:00pm"}, {"days": "Sun", "time": "Closed"}], "id": "8940600024", "name": "USPS COLLECTION BOX - BLUE BOX", "address": {"city": "FALLON", "state": "NV", "street": "4755 PASTURE RD", "postcode": "89406"}}},
{"geometry": {"type": "Point", "coordinates": [-118.800294504, 39.47451154]}, "type": "Feature", "properties": {"collection_times": [{"days": "Mon-Sat", "time": "4:15pm"}, {"days": "Sun", "time": "Closed"}], "id": "8940600030", "name": "USPS COLLECTION BOX - BLUE BOX", "address": {"city": "FALLON", "state": "NV", "street": "120 S ALLEN RD", "postcode": "89406"}}},
{"geometry": {"type": "Point", "coordinates": [-118.800294504, 39.47451154]}, "type": "Feature", "properties": {"collection_times": [{"days": "Mon-Fri", "time": "4:15pm"}, {"days": "Sat", "time": "2:00pm"}, {"days": "Sun", "time": "Closed"}], "id": "8940600031", "name": "USPS COLLECTION BOX - PO LOBBY", "address": {"city": "FALLON", "state": "NV", "street": "120 S ALLEN RD", "postcode": "89406"}}},
{"geometry": {"type": "Point", "coordinates": [-118.7824718974, 39.4747956962]}, "type": "Feature", "properties": {"collection_times": [{"days": "Mon-Sat", "time": "4:00pm"}, {"days": "Sun", "time": "Closed"}], "id": "8940600033", "name": "USPS COLLECTION BOX - BLUE BOX", "address": {"city": "FALLON", "state": "NV", "street": "461 W WILLIAMS AVE", "postcode": "89406"}}},
{"geometry": {"type": "Point", "coordinates": [-118.7874344069, 39.4748973132]}, "type": "Feature", "properties": {"collection_times": [{"days": "Mon-Sat", "time": "4:00pm"}, {"days": "Sun", "time": "Closed"}], "id": "8940600035", "name": "USPS COLLECTION BOX - BLUE BOX", "address": {"city": "FALLON", "state": "NV", "street": "890 W WILLIAMS AVE", "postcode": "89406"}}},
{"geometry": {"type": "Point", "coordinates": [-118.776994213, 39.476560296]}, "type": "Feature", "properties": {"collection_times": [{"days": "Mon-Sat", "time": "5:00pm"}, {"days": "Sun", "time": "Closed"}], "id": "8940600038", "name": "USPS COLLECTION BOX - PO LOBBY", "address": {"city": "FALLON", "state": "NV", "street": "120 N MAINE ST", "postcode": "89406"}}},
{"geometry": {"type": "Point", "coordinates": [-118.8039880178, 39.4772378808]}, "type": "Feature", "properties": {"collection_times": [{"days": "Mon-Fri", "time": "4:00pm"}, {"days": "Sat-Sun", "time": "Closed"}], "id": "8940600039", "name": "USPS COLLECTION BOX - BLUE BOX", "address": {"city": "FALLON", "state": "NV", "street": "2258 RENO HWY", "postcode": "89406"}}},
{"geometry": {"type": "Point", "coordinates": [-119.160618794, 39.5881049579]}, "type": "Feature", "properties": {"collection_times": [{"days": "Mon-Fri", "time": "1:00pm"}, {"days": "Sat", "time": "12:00pm"}, {"days": "Sun", "time": "Closed"}], "id": "8940800000", "name": "USPS COLLECTION BOX - BLUE BOX", "address": {"city": "FERNLEY", "state": "NV", "street": "1400 US HIGHWAY 95A N", "postcode": "89408"}}},
{"geometry": {"type": "Point", "coordinates": [-119.2105892657, 39.6092409586]}, "type": "Feature", "properties": {"collection_times": [{"days": "Mon-Fri", "time": "12:00pm"}, {"days": "Sat", "time": "10:30am"}, {"days": "Sun", "time": "Closed"}], "id": "8940800001", "name": "USPS COLLECTION BOX - BLUE BOX", "address": {"city": "FERNLEY", "state": "NV", "street": "1550 NEWLANDS DR E", "postcode": "89408"}}},
{"geometry": {"type": "Point", "coordinates": [-119.246039744, 39.607623135]}, "type": "Feature", "properties": {"collection_times": [{"days": "Mon-Fri", "time": "5:00pm"}, {"days": "Sat", "time": "3:00pm"}, {"days": "Sun", "time": "Closed"}], "id": "8940800003", "name": "USPS COLLECTION BOX - PO LOBBY", "address": {"city": "FERNLEY", "state": "NV", "street": "315 E MAIN ST", "postcode": "89408"}}},
{"geometry": {"type": "Point", "coordinates": [-119.246039744, 39.607623135]}, "type": "Feature", "properties": {"collection_times": [{"days": "Mon-Fri", "time": "4:45pm"}, {"days": "Sat", "time": "3:00pm"}, {"days": "Sun", "time": "Closed"}], "id": "8940800005", "name": "USPS COLLECTION BOX - BLUE BOX", "address": {"city": "FERNLEY", "state": "NV", "street": "315 E MAIN ST", "postcode": "89408"}}},
{"geometry": {"type": "Point", "coordinates": [-119.2653186399, 39.6134469358]}, "type": "Feature", "properties": {"collection_times": [{"days": "Mon-Sat", "time": "1:00pm"}, {"days": "Sun", "time": "Closed"}], "id": "8940800006", "name": "USPS COLLECTION BOX - BLUE BOX", "address": {"city": "FERNLEY", "state": "NV", "street": "865 W MAIN ST", "postcode": "89408"}}},
{"geometry": {"type": "Point", "coordinates": [-119.2632424485, 39.6087295316]}, "type": "Feature", "properties": {"collection_times": [{"days": "Mon-Sat", "time": "1:00pm"}, {"days": "Sun", "time": "Closed"}], "id": "8940800007", "name": "USPS COLLECTION BOX - BLUE BOX", "address": {"city": "FERNLEY", "state": "NV", "street": "570 W MAIN ST", "postcode": "89408"}}},
{"geometry": {"type": "Point", "coordinates": [-117.932400049, 38.861572161]}, "type": "Feature", "properties": {"collection_times": [{"days": "Mon-Fri", "time": "12:00pm"}, {"days": "Sat", "time": "10:15am"}, {"days": "Sun", "time": "Closed"}], "id": "8940900000", "name": "USPS COLLECTION BOX - BLUE BOX", "address": {"city": "GABBS", "state": "NV", "street": "101 4TH ST", "postcode": "89409"}}},
{"geometry": {"type": "Point", "coordinates": [-117.932400049, 38.861572161]}, "type": "Feature", "properties": {"collection_times": [{"days": "Mon-Fri", "time": "12:00pm"}, {"days": "Sat", "time": "10:15am"}, {"days": "Sun", "time": "Closed"}], "id": "8940900001", "name": "USPS COLLECTION BOX - PO LOBBY", "address": {"city": "GABBS", "state": "NV", "street": "101 4TH ST", "postcode": "89409"}}},
{"geometry": {"type": "Point", "coordinates": [-119.73012601, 38.928200904]}, "type": "Feature", "properties": {"collection_times": [{"days": "Mon-Fri", "time": "4:45pm"}, {"days": "Sat", "time": "2:45pm"}, {"days": "Sun", "time": "Closed"}], "id": "8941000000", "name": "USPS COLLECTION BOX - PO LOBBY", "address": {"city": "GARDNERVILLE", "state": "NV", "street": "1267 US HIGHWAY 395 N", "postcode": "89410"}}},
{"geometry": {"type": "Point", "coordinates": [-119.73012601, 38.928200904]}, "type": "Feature", "properties": {"collection_times": [{"days": "Mon-Fri", "time": "4:45pm"}, {"days": "Sat", "time": "2:45pm"}, {"days": "Sun", "time": "Closed"}], "id": "8941000001", "name": "USPS COLLECTION BOX - BLUE BOX", "address": {"city": "GARDNERVILLE", "state": "NV", "street": "1267 US HIGHWAY 395 N", "postcode": "89410"}}},
{"geometry": {"type": "Point", "coordinates": [-119.711858528, 38.9121266131]}, "type": "Feature", "properties": {"collection_times": [{"days": "Mon-Sat", "time": "12:00pm"}, {"days": "Sun", "time": "Closed"}], "id": "8941000002", "name": "USPS COLLECTION BOX - BLUE BOX", "address": {"city": "GARDNERVILLE", "state": "NV", "street": "1335 US HIGHWAY 395 N", "postcode": "89410"}}},
{"geometry": {"type": "Point", "coordinates": [-119.7166506026, 38.9164136648]}, "type": "Feature", "properties": {"collection_times": [{"days": "Mon-Sat", "time": "12:00pm"}, {"days": "Sun", "time": "Closed"}], "id": "8941000003", "name": "USPS COLLECTION BOX - BLUE BOX", "address": {"city": "GARDNERVILLE", "state": "NV", "street": "1363 US HIGHWAY 395 N", "postcode": "89410"}}},
{"geometry": {"type": "Point", "coordinates": [-119.7421322295, 38.9375836717]}, "type": "Feature", "properties": {"collection_times": [{"days": "Mon-Sat", "time": "12:00pm"}, {"days": "Sun", "time": "Closed"}], "id": "8941000004", "name": "USPS COLLECTION BOX - BLUE BOX", "address": {"city": "GARDNERVILLE", "state": "NV", "street": "1540 US HIGHWAY 395 N", "postcode": "89410"}}},
{"geometry": {"type": "Point", "coordinates": [-119.6847704081, 38.8850692473]}, "type": "Feature", "properties": {"collection_times": [{"days": "Mon-Sat", "time": "11:00am"}, {"days": "Sun", "time": "Closed"}], "id": "8941000008", "name": "USPS COLLECTION BOX - BLUE BOX", "address": {"city": "GARDNERVILLE", "state": "NV", "street": "1901 PALOMINO LN", "postcode": "89410"}}},
{"geometry": {"type": "Point", "coordinates": [-119.5666922439, 38.7316303649]}, "type": "Feature", "properties": {"collection_times": [{"days": "Mon-Sat", "time": "10:00am"}, {"days": "Sun", "time": "Closed"}], "id": "8941000009", "name": "USPS COLLECTION BOX - BLUE BOX", "address": {"city": "GARDNERVILLE", "state": "NV", "street": "3244 REESE LN", "postcode": "89410"}}},
{"geometry": {"type": "Point", "coordinates": [-119.6723009717, 38.9338215862]}, "type": "Feature", "properties": {"collection_times": [{"days": "Mon-Sat", "time": "10:00am"}, {"days": "Sun", "time": "Closed"}], "id": "8941000010", "name": "USPS COLLECTION BOX - BLUE BOX", "address": {"city": "GARDNERVILLE", "state": "NV", "street": "2020 FISH SPRINGS RD", "postcode": "89410"}}},
{"geometry": {"type": "Point", "coordinates": [-119.5484616152, 38.6875983692]}, "type": "Feature", "properties": {"collection_times": [{"days": "Mon-Fri", "time": "10:30am"}, {"days": "Sat", "time": "10:15am"}, {"days": "Sun", "time": "Closed"}], "id": "8941000011", "name": "USPS COLLECTION BOX - BLUE BOX", "address": {"city": "GARDNERVILLE", "state": "NV", "street": "1999 US HIGHWAY 395 S", "postcode": "89410"}}},
{"geometry": {"type": "Point", "coordinates": [-119.8464672392, 39.003790072]}, "type": "Feature", "properties": {"collection_times": [{"days": "Mon-Fri", "time": "4:30pm"}, {"days": "Sat", "time": "12:30pm"}, {"days": "Sun", "time": "Closed"}], "id": "8941100000", "name": "USPS COLLECTION BOX - BLUE BOX", "address": {"city": "GENOA", "state": "NV", "street": "2244 E MAIN ST", "postcode": "89411"}}},
{"geometry": {"type": "Point", "coordinates": [-119.843141831, 38.998234331]}, "type": "Feature", "properties": {"collection_times": [{"days": "Mon-Fri", "time": "5:00pm"}, {"days": "Sat", "time": "12:30pm"}, {"days": "Sun", "time": "Closed"}], "id": "8941100001", "name": "USPS COLLECTION BOX - PO LOBBY", "address": {"city": "GENOA", "state": "NV", "street": "2244 FOOTHILL RD", "postcode": "89411"}}},
{"geometry": {"type": "Point", "coordinates": [-119.3529233411, 40.6533873433]}, "type": "Feature", "properties": {"collection_times": [{"days": "Mon-Fri", "time": "1:30pm"}, {"days": "Sat", "time": "9:00am"}, {"days": "Sun", "time": "Closed"}], "id": "8941200001", "name": "USPS COLLECTION BOX - BLUE BOX", "address": {"city": "GERLACH", "state": "NV", "street": "345 E SUNSET BLVD", "postcode": "89412"}}},
{"geometry": {"type": "Point", "coordinates": [-119.940674399, 39.072724697]}, "type": "Feature", "properties": {"collection_times": [{"days": "Mon-Fri", "time": "3:00pm"}, {"days": "Sat", "time": "10:00am"}, {"days": "Sun", "time": "Closed"}], "id": "8941300001", "name": "USPS COLLECTION BOX - PO LOBBY", "address": {"city": "GLENBROOK", "state": "NV", "street": "1785 US HIGHWAY 50", "postcode": "89413"}}},
{"geometry": {"type": "Point", "coordinates": [-117.253259449, 40.997966099]}, "type": "Feature", "properties": {"collection_times": [{"days": "Mon-Fri", "time": "2:00pm"}, {"days": "Sat", "time": "10:00am"}, {"days": "Sun", "time": "Closed"}], "id": "8941400000", "name": "USPS COLLECTION BOX - BLUE BOX", "address": {"city": "GOLCONDA", "state": "NV", "street": "295 OLD HIGHWAY 40 E", "postcode": "89414"}}},
{"geometry": {"type": "Point", "coordinates": [-117.4857207946, 40.9481948107]}, "type": "Feature", "properties": {"collection_times": [{"days": "Mon-Fri", "time": "12:30pm"}, {"days": "Sat", "time": "10:00am"}, {"days": "Sun", "time": "Closed"}], "id": "8941400002", "name": "USPS COLLECTION BOX - PO LOBBY", "address": {"city": "GOLCONDA", "state": "NV", "street": "295 OLD HIGHWAY 40 E", "postcode": "89414"}}},
{"geometry": {"type": "Point", "coordinates": [-118.622409846, 38.526077596]}, "type": "Feature", "properties": {"collection_times": [{"days": "Mon-Fri", "time": "3:00pm"}, {"days": "Sat", "time": "2:30pm"}, {"days": "Sun", "time": "Closed"}], "id": "8941500001", "name": "USPS COLLECTION BOX - BLUE BOX", "address": {"city": "WALKER LAKE", "state": "NV", "street": "701 6TH ST", "postcode": "89415"}}},
{"geometry": {"type": "Point", "coordinates": [-118.6375965737, 38.5756578203]}, "type": "Feature", "properties": {"collection_times": [{"days": "Mon-Sat", "time": "12:00pm"}, {"days": "Sun", "time": "Closed"}], "id": "8941500003", "name": "USPS COLLECTION BOX - BLUE BOX", "address": {"city": "WALKER LAKE", "state": "NV", "street": "0 MAINE ST", "postcode": "89415"}}},
{"geometry": {"type": "Point", "coordinates": [-118.6375965737, 38.5756578203]}, "type": "Feature", "properties": {"collection_times": [{"days": "Mon-Sat", "time": "11:00am"}, {"days": "Sun", "time": "Closed"}], "id": "8941500004", "name": "USPS COLLECTION BOX - BLUE BOX", "address": {"city": "WALKER LAKE", "state": "NV", "street": "130 GOLDEN WILLOW DR", "postcode": "89415"}}},
{"geometry": {"type": "Point", "coordinates": [-118.622409846, 38.526077596]}, "type": "Feature", "properties": {"collection_times": [{"days": "Mon-Fri", "time": "3:45pm"}, {"days": "Sat", "time": "2:45pm"}, {"days": "Sun", "time": "Closed"}], "id": "8941500005", "name": "USPS COLLECTION BOX - PO LOBBY", "address": {"city": "WALKER LAKE", "state": "NV", "street": "701 6TH ST", "postcode": "89415"}}},
{"geometry": {"type": "Point", "coordinates": [-118.14807995, 40.658597484]}, "type": "Feature", "properties": {"collection_times": [{"days": "Mon-Fri", "time": "3:00pm"}, {"days": "Sat", "time": "9:45am"}, {"days": "Sun", "time": "Closed"}], "id": "8941800000", "name": "USPS COLLECTION BOX - BLUE BOX", "address": {"city": "IMLAY", "state": "NV", "street": "410 MAIN ST", "postcode": "89418"}}},
{"geometry": {"type": "Point", "coordinates": [-118.14807995, 40.658597484]}, "type": "Feature", "properties": {"collection_times": [{"days": "Mon-Fri", "time": "3:00pm"}, {"days": "Sat", "time": "9:45am"}, {"days": "Sun", "time": "Closed"}], "id": "8941800001", "name": "USPS COLLECTION BOX - PO LOBBY", "address": {"city": "IMLAY", "state": "NV", "street": "410 MAIN ST", "postcode": "89418"}}},
{"geometry": {"type": "Point", "coordinates": [-118.0531400284, 40.6979019575]}, "type": "Feature", "properties": {"collection_times": [{"days": "Mon-Fri", "time": "10:45am"}, {"days": "Sat-Sun", "time": "Closed"}], "id": "8941800002", "name": "USPS COLLECTION BOX - BLUE BOX", "address": {"city": "IMLAY", "state": "NV", "street": "6000 FRONTAGE RD", "postcode": "89418"}}},
{"geometry": {"type": "Point", "coordinates": [-118.068078916, 40.6779976415]}, "type": "Feature", "properties": {"collection_times": [{"days": "Mon-Fri", "time": "11:00am"}, {"days": "Sat-Sun", "time": "Closed"}], "id": "8941800003", "name": "USPS COLLECTION BOX - BLUE BOX", "address": {"city": "IMLAY", "state": "NV", "street": "150 HIGHWAY 400", "postcode": "89418"}}},
{"geometry": {"type": "Point", "coordinates": [-118.475544148, 40.180462942]}, "type": "Feature", "properties": {"collection_times": [{"days": "Mon-Fri", "time": "4:30pm"}, {"days": "Sat", "time": "11:00am"}, {"days": "Sun", "time": "Closed"}], "id": "8941900000", "name": "USPS COLLECTION BOX - BLUE BOX", "address": {"city": "LOVELOCK", "state": "NV", "street": "390 MAIN ST", "postcode": "89419"}}},
{"geometry": {"type": "Point", "coordinates": [-118.475544148, 40.180462942]}, "type": "Feature", "properties": {"collection_times": [{"days": "Mon-Fri", "time": "5:00pm"}, {"days": "Sat", "time": "11:00am"}, {"days": "Sun", "time": "Closed"}], "id": "8941900001", "name": "USPS COLLECTION BOX - PO LOBBY", "address": {"city": "LOVELOCK", "state": "NV", "street": "390 MAIN ST", "postcode": "89419"}}},
{"geometry": {"type": "Point", "coordinates": [-118.6235322228, 40.3624015324]}, "type": "Feature", "properties": {"collection_times": [{"days": "Mon-Fri", "time": "10:30am"}, {"days": "Sat", "time": "10:00am"}, {"days": "Sun", "time": "Closed"}], "id": "8941900003", "name": "USPS COLLECTION BOX - BLUE BOX", "address": {"city": "LOVELOCK", "state": "NV", "street": "0 I-80", "postcode": "89419"}}},
{"geometry": {"type": "Point", "coordinates": [-118.1909273399, 38.4163935035]}, "type": "Feature", "properties": {"collection_times": [{"days": "Mon-Fri", "time": "11:30am"}, {"days": "Sat", "time": "10:30am"}, {"days": "Sun", "time": "Closed"}], "id": "8942000000", "name": "USPS COLLECTION BOX - BLUE BOX", "address": {"city": "LUNING", "state": "NV", "street": "0 N HIGHWAY 95", "postcode": "89420"}}},
{"geometry": {"type": "Point", "coordinates": [-118.17847044, 38.50535807]}, "type": "Feature", "properties": {"collection_times": [{"days": "Mon-Fri", "time": "11:30am"}, {"days": "Sat", "time": "10:30am"}, {"days": "Sun", "time": "Closed"}], "id": "8942000001", "name": "USPS COLLECTION BOX - PO LOBBY", "address": {"city": "LUNING", "state": "NV", "street": "202 PLYMIRE ST", "postcode": "89420"}}},
{"geometry": {"type": "Point", "coordinates": [-117.718515051, 41.998190775]}, "type": "Feature", "properties": {"collection_times": [{"days": "Mon-Sat", "time": "1:00pm"}, {"days": "Sun", "time": "Closed"}], "id": "8942100000", "name": "USPS COLLECTION BOX - BLUE BOX", "address": {"city": "MCDERMITT", "state": "NV", "street": "5 US HIGHWAY 95 S", "postcode": "89421"}}},
{"geometry": {"type": "Point", "coordinates": [-117.718515051, 41.998190775]}, "type": "Feature", "properties": {"collection_times": [{"days": "Mon-Sat", "time": "1:00pm"}, {"days": "Sun", "time": "Closed"}], "id": "8942100001", "name": "USPS COLLECTION BOX - PO LOBBY", "address": {"city": "MCDERMITT", "state": "NV", "street": "5 US HIGHWAY 95 S", "postcode": "89421"}}},
{"geometry": {"type": "Point", "coordinates": [-118.108628368, 38.3894440534]}, "type": "Feature", "properties": {"collection_times": [{"days": "Mon-Fri", "time": "12:30pm"}, {"days": "Sat", "time": "9:00am"}, {"days": "Sun", "time": "Closed"}], "id": "8942200000", "name": "USPS COLLECTION BOX - BLUE BOX", "address": {"city": "MINA", "state": "NV", "street": "215 8TH ST", "postcode": "89422"}}},
{"geometry": {"type": "Point", "coordinates": [-119.769139967, 38.956284316]}, "type": "Feature", "properties": {"collection_times": [{"days": "Mon-Fri", "time": "5:15pm"}, {"days": "Sat", "time": "2:15pm"}, {"days": "Sun", "time": "Closed"}], "id": "8942300003", "name": "USPS COLLECTION BOX - BLUE BOX", "address": {"city": "MINDEN", "state": "NV", "street": "1640 US HIGHWAY 395 N", "postcode": "89423"}}},
{"geometry": {"type": "Point", "coordinates": [-119.769139967, 38.956284316]}, "type": "Feature", "properties": {"collection_times": [{"days": "Mon-Fri", "time": "5:15pm"}, {"days": "Sat", "time": "2:15pm"}, {"days": "Sun", "time": "Closed"}], "id": "8942300004", "name": "USPS COLLECTION BOX - BLUE BOX", "address": {"city": "MINDEN", "state": "NV", "street": "1640 US HIGHWAY 395 N", "postcode": "89423"}}},
{"geometry": {"type": "Point", "coordinates": [-119.769139967, 38.956284316]}, "type": "Feature", "properties": {"collection_times": [{"days": "Mon-Fri", "time": "4:45pm"}, {"days": "Sat", "time": "2:15pm"}, {"days": "Sun", "time": "Closed"}], "id": "8942300005", "name": "USPS COLLECTION BOX - EXPRESS", "address": {"city": "MINDEN", "state": "NV", "street": "1640 US HIGHWAY 395 N", "postcode": "89423"}}},
{"geometry": {"type": "Point", "coordinates": [-119.769139967, 38.956284316]}, "type": "Feature", "properties": {"collection_times": [{"days": "Mon-Fri", "time": "5:15pm"}, {"days": "Sat", "time": "2:15pm"}, {"days": "Sun", "time": "Closed"}], "id": "8942300006", "name": "USPS COLLECTION BOX - PO LOBBY", "address": {"city": "MINDEN", "state": "NV", "street": "1640 US HIGHWAY 395 N", "postcode": "89423"}}},
{"geometry": {"type": "Point", "coordinates": [-119.365006586, 39.824431133]}, "type": "Feature", "properties": {"collection_times": [{"days": "Mon-Fri", "time": "3:15pm"}, {"days": "Sat", "time": "9:15am"}, {"days": "Sun", "time": "Closed"}], "id": "8942400001", "name": "USPS COLLECTION BOX - PO LOBBY", "address": {"city": "NIXON", "state": "NV", "street": "199 STATE ROUTE 447", "postcode": "89424"}}},
{"geometry": {"type": "Point", "coordinates": [-118.0924328397, 41.7372497239]}, "type": "Feature", "properties": {"collection_times": [{"days": "Mon-Sat", "time": "2:00pm"}, {"days": "Sun", "time": "Closed"}], "id": "8942500000", "name": "USPS COLLECTION BOX - BLUE BOX", "address": {"city": "OROVADA", "state": "NV", "street": "0 KINGS RIVER RD", "postcode": "89425"}}},
{"geometry": {"type": "Point", "coordinates": [-117.718987043, 41.995906081]}, "type": "Feature", "properties": {"collection_times": [{"days": "Mon-Sat", "time": "2:00pm"}, {"days": "Sun", "time": "Closed"}], "id": "8942500001", "name": "USPS COLLECTION BOX - PO LOBBY", "address": {"city": "OROVADA", "state": "NV", "street": "0 US HIGHWAY 95 RD", "postcode": "89425"}}},
{"geometry": {"type": "Point", "coordinates": [-117.534710147, 41.491640141]}, "type": "Feature", "properties": {"collection_times": [{"days": "Mon-Sat", "time": "11:00am"}, {"days": "Sun", "time": "Closed"}], "id": "8942600000", "name": "USPS COLLECTION BOX - PO LOBBY", "address": {"city": "PARADISE VALLEY", "state": "NV", "street": "130 S MAIN ST", "postcode": "89426"}}},
{"geometry": {"type": "Point", "coordinates": [-118.6799501749, 38.9591149081]}, "type": "Feature", "properties": {"collection_times": [{"days": "Mon-Fri", "time": "4:00pm"}, {"days": "Sat", "time": "10:30am"}, {"days": "Sun", "time": "Closed"}], "id": "8942700000", "name": "USPS COLLECTION BOX - BLUE BOX", "address": {"city": "SCHURZ", "state": "NV", "street": "4000A US HIGHWAY 95 N", "postcode": "89427"}}},
{"geometry": {"type": "Point", "coordinates": [-119.641275879, 39.264239566]}, "type": "Feature", "properties": {"collection_times": [{"days": "Mon-Fri", "time": "4:00pm"}, {"days": "Sat", "time": "9:00am"}, {"days": "Sun", "time": "Closed"}], "id": "8942800000", "name": "USPS COLLECTION BOX - PO LOBBY", "address": {"city": "SILVER CITY", "state": "NV", "street": "270 MAIN ST", "postcode": "89428"}}},
{"geometry": {"type": "Point", "coordinates": [-119.223956263, 39.414496093]}, "type": "Feature", "properties": {"collection_times": [{"days": "Mon-Fri", "time": "5:00pm"}, {"days": "Sat", "time": "11:00am"}, {"days": "Sun", "time": "Closed"}], "id": "8942900001", "name": "USPS COLLECTION BOX - BLUE BOX", "address": {"city": "SILVER SPRINGS", "state": "NV", "street": "1250 DONNER TRL", "postcode": "89429"}}},
{"geometry": {"type": "Point", "coordinates": [-119.3751123482, 39.3616341369]}, "type": "Feature", "properties": {"collection_times": [{"days": "Mon-Sat", "time": "9:30am"}, {"days": "Sun", "time": "Closed"}], "id": "8942900002", "name": "USPS COLLECTION BOX - BLUE BOX", "address": {"city": "SILVER SPRINGS", "state": "NV", "street": "5945 APACHE DR", "postcode": "89429"}}},
{"geometry": {"type": "Point", "coordinates": [-119.223956263, 39.414496093]}, "type": "Feature", "properties": {"collection_times": [{"days": "Mon-Fri", "time": "5:00pm"}, {"days": "Sat", "time": "11:00am"}, {"days": "Sun", "time": "Closed"}], "id": "8942900004", "name": "USPS COLLECTION BOX - PO LOBBY", "address": {"city": "SILVER SPRINGS", "state": "NV", "street": "1250 DONNER TRL", "postcode": "89429"}}},
{"geometry": {"type": "Point", "coordinates": [-119.328934898, 38.799220238]}, "type": "Feature", "properties": {"collection_times": [{"days": "Mon-Fri", "time": "4:00pm"}, {"days": "Sat", "time": "10:00am"}, {"days": "Sun", "time": "Closed"}], "id": "8943000000", "name": "USPS COLLECTION BOX - PO LOBBY", "address": {"city": "SMITH", "state": "NV", "street": "2306 HIGHWAY 208", "postcode": "89430"}}},
{"geometry": {"type": "Point", "coordinates": [-119.328934898, 38.799220238]}, "type": "Feature", "properties": {"collection_times": [{"days": "Mon-Fri", "time": "3:45pm"}, {"days": "Sat", "time": "10:00am"}, {"days": "Sun", "time": "Closed"}], "id": "8943000001", "name": "USPS COLLECTION BOX - BLUE BOX", "address": {"city": "SMITH", "state": "NV", "street": "2306 HIGHWAY 208", "postcode": "89430"}}},
{"geometry": {"type": "Point", "coordinates": [-119.7559490491, 39.535870573]}, "type": "Feature", "properties": {"collection_times": [{"days": "Mon-Fri", "time": "4:00pm"}, {"days": "Sat", "time": "2:00pm"}, {"days": "Sun", "time": "Closed"}], "id": "8943100001", "name": "USPS COLLECTION BOX - BLUE BOX", "address": {"city": "SPARKS", "state": "NV", "street": "1002 C ST", "postcode": "89431"}}},
{"geometry": {"type": "Point", "coordinates": [-119.7584190674, 39.5443003386]}, "type": "Feature", "properties": {"collection_times": [{"days": "Mon-Fri", "time": "4:15pm"}, {"days": "Sat", "time": "1:45pm"}, {"days": "Sun", "time": "Closed"}], "id": "8943100004", "name": "USPS COLLECTION BOX - BLUE BOX", "address": {"city": "SPARKS", "state": "NV", "street": "1125 12TH ST", "postcode": "89431"}}},
{"geometry": {"type": "Point", "coordinates": [-119.751679736, 39.5475046338]}, "type": "Feature", "properties": {"collection_times": [{"days": "Mon-Fri", "time": "4:15pm"}, {"days": "Sat", "time": "1:30pm"}, {"days": "Sun", "time": "Closed"}], "id": "8943100009", "name": "USPS COLLECTION BOX - BLUE BOX", "address": {"city": "SPARKS", "state": "NV", "street": "690 GREENBRAE DR", "postcode": "89431"}}},
{"geometry": {"type": "Point", "coordinates": [-119.7761125846, 39.5485578079]}, "type": "Feature", "properties": {"collection_times": [{"days": "Mon-Fri", "time": "4:45pm"}, {"days": "Sat", "time": "12:00pm"}, {"days": "Sun", "time": "Closed"}], "id": "8943100014", "name": "USPS COLLECTION BOX - BLUE BOX", "address": {"city": "SPARKS", "state": "NV", "street": "1855 EL RANCHO DR", "postcode": "89431"}}},
{"geometry": {"type": "Point", "coordinates": [-119.753732184, 39.5493196334]}, "type": "Feature", "properties": {"collection_times": [{"days": "Mon-Fri", "time": "4:30pm"}, {"days": "Sat", "time": "1:30pm"}, {"days": "Sun", "time": "Closed"}], "id": "8943100017", "name": "USPS COLLECTION BOX - BLUE BOX", "address": {"city": "SPARKS", "state": "NV", "street": "950 HOLMAN WAY", "postcode": "89431"}}},
{"geometry": {"type": "Point", "coordinates": [-119.7354613271, 39.5419287299]}, "type": "Feature", "properties": {"collection_times": [{"days": "Mon-Fri", "time": "5:15pm"}, {"days": "Sat", "time": "1:30pm"}, {"days": "Sun", "time": "Closed"}], "id": "8943100024", "name": "USPS COLLECTION BOX - BLUE BOX", "address": {"city": "SPARKS", "state": "NV", "street": "650 E PRATER WAY", "postcode": "89431"}}},
{"geometry": {"type": "Point", "coordinates": [-119.7741209742, 39.545381877]}, "type": "Feature", "properties": {"collection_times": [{"days": "Mon-Fri", "time": "4:30pm"}, {"days": "Sat", "time": "11:30am"}, {"days": "Sun", "time": "Closed"}], "id": "8943100027", "name": "USPS COLLECTION BOX - BLUE BOX", "address": {"city": "SPARKS", "state": "NV", "street": "2225 ODDIE BLVD", "postcode": "89431"}}},
{"geometry": {"type": "Point", "coordinates": [-119.7758826931, 39.5453836485]}, "type": "Feature", "properties": {"collection_times": [{"days": "Mon-Fri", "time": "4:45pm"}, {"days": "Sat", "time": "11:00am"}, {"days": "Sun", "time": "Closed"}], "id": "8943100029", "name": "USPS COLLECTION BOX - BLUE BOX", "address": {"city": "SPARKS", "state": "NV", "street": "2300 ODDIE BLVD", "postcode": "89431"}}},
{"geometry": {"type": "Point", "coordinates": [-119.7364751786, 39.5360941522]}, "type": "Feature", "properties": {"collection_times": [{"days": "Mon-Fri", "time": "5:00pm"}, {"days": "Sat", "time": "2:00pm"}, {"days": "Sun", "time": "Closed"}], "id": "8943100034", "name": "USPS COLLECTION BOX - BLUE BOX", "address": {"city": "SPARKS", "state": "NV", "street": "200 N MCCARRAN BLVD", "postcode": "89431"}}},
{"geometry": {"type": "Point", "coordinates": [-119.7337733003, 39.5401422378]}, "type": "Feature", "properties": {"collection_times": [{"days": "Mon-Fri", "time": "5:00pm"}, {"days": "Sat", "time": "2:15pm"}, {"days": "Sun", "time": "Closed"}], "id": "8943100035", "name": "USPS COLLECTION BOX - BLUE BOX", "address": {"city": "SPARKS", "state": "NV", "street": "620 N MCCARRAN BLVD", "postcode": "89431"}}},
{"geometry": {"type": "Point", "coordinates": [-119.7076310901, 39.5226143348]}, "type": "Feature", "properties": {"collection_times": [{"days": "Mon-Fri", "time": "2:30pm"}, {"days": "Sat", "time": "1:15pm"}, {"days": "Sun", "time": "Closed"}], "id": "8943100045", "name": "USPS COLLECTION BOX - BLUE BOX", "address": {"city": "SPARKS", "state": "NV", "street": "1950 E GREG ST", "postcode": "89431"}}},
{"geometry": {"type": "Point", "coordinates": [-119.7526556913, 39.5448705248]}, "type": "Feature", "properties": {"collection_times": [{"days": "Mon-Fri", "time": "4:15pm"}, {"days": "Sat", "time": "1:30pm"}, {"days": "Sun", "time": "Closed"}], "id": "8943100046", "name": "USPS COLLECTION BOX - BLUE BOX", "address": {"city": "SPARKS", "state": "NV", "street": "1305 PYRAMID WAY", "postcode": "89431"}}},
{"geometry": {"type": "Point", "coordinates": [-119.7388221653, 39.5273235766]}, "type": "Feature", "properties": {"collection_times": [{"days": "Mon-Fri", "time": "2:30pm"}, {"days": "Sat", "time": "10:00am"}, {"days": "Sun", "time": "Closed"}], "id": "8943100049", "name": "USPS COLLECTION BOX - BLUE BOX", "address": {"city": "SPARKS", "state": "NV", "street": "251 E GLENDALE AVE", "postcode": "89431"}}},
{"geometry": {"type": "Point", "coordinates": [-119.747963332, 39.54108923]}, "type": "Feature", "properties": {"collection_times": [{"days": "Mon-Fri", "time": "5:45pm"}, {"days": "Sat", "time": "4:00pm"}, {"days": "Sun", "time": "Closed"}], "id": "8943100052", "name": "USPS COLLECTION BOX - BLUE BOX", "address": {"city": "SPARKS", "state": "NV", "street": "750 4TH ST", "postcode": "89431"}}},
{"geometry": {"type": "Point", "coordinates": [-119.747963332, 39.54108923]}, "type": "Feature", "properties": {"collection_times": [{"days": "Mon-Fri", "time": "5:45pm"}, {"days": "Sat", "time": "4:00pm"}, {"days": "Sun", "time": "Closed"}], "id": "8943100053", "name": "USPS COLLECTION BOX - BLUE BOX", "address": {"city": "SPARKS", "state": "NV", "street": "750 4TH ST", "postcode": "89431"}}},
{"geometry": {"type": "Point", "coordinates": [-119.747963332, 39.54108923]}, "type": "Feature", "properties": {"collection_times": [{"days": "Mon-Fri", "time": "5:45pm"}, {"days": "Sat", "time": "4:00pm"}, {"days": "Sun", "time": "Closed"}], "id": "8943100054", "name": "USPS COLLECTION BOX - BLUE BOX", "address": {"city": "SPARKS", "state": "NV", "street": "750 4TH ST", "postcode": "89431"}}},
{"geometry": {"type": "Point", "coordinates": [-119.747963332, 39.54108923]}, "type": "Feature", "properties": {"collection_times": [{"days": "Mon-Fri", "time": "5:45pm"}, {"days": "Sat", "time": "4:00pm"}, {"days": "Sun", "time": "Closed"}], "id": "8943100055", "name": "USPS COLLECTION BOX - BLUE BOX", "address": {"city": "SPARKS", "state": "NV", "street": "750 4TH ST", "postcode": "89431"}}},
{"geometry": {"type": "Point", "coordinates": [-119.747963332, 39.54108923]}, "type": "Feature", "properties": {"collection_times": [{"days": "Mon-Fri", "time": "5:45pm"}, {"days": "Sat", "time": "4:00pm"}, {"days": "Sun", "time": "Closed"}], "id": "8943100058", "name": "USPS COLLECTION BOX - PO LOBBY", "address": {"city": "SPARKS", "state": "NV", "street": "750 4TH ST", "postcode": "89431"}}},
{"geometry": {"type": "Point", "coordinates": [-119.7727458834, 39.5594623236]}, "type": "Feature", "properties": {"collection_times": [{"days": "Mon-Fri", "time": "4:30pm"}, {"days": "Sat", "time": "12:30pm"}, {"days": "Sun", "time": "Closed"}], "id": "8943100084", "name": "USPS COLLECTION BOX - BLUE BOX", "address": {"city": "SPARKS", "state": "NV", "street": "2215 GREEN VISTA DR", "postcode": "89431"}}},
{"geometry": {"type": "Point", "coordinates": [-119.7550397507, 39.5419825863]}, "type": "Feature", "properties": {"collection_times": [{"days": "Mon-Fri", "time": "4:30pm"}, {"days": "Sat", "time": "12:30pm"}, {"days": "Sun", "time": "Closed"}], "id": "8943100085", "name": "USPS COLLECTION BOX - EXPRESS", "address": {"city": "SPARKS", "state": "NV", "street": "2215 GREEN VISTA DR", "postcode": "89431"}}},
{"geometry": {"type": "Point", "coordinates": [-119.7727458834, 39.5594623236]}, "type": "Feature", "properties": {"collection_times": [{"days": "Mon-Fri", "time": "4:30pm"}, {"days": "Sat", "time": "12:30pm"}, {"days": "Sun", "time": "Closed"}], "id": "8943100086", "name": "USPS COLLECTION BOX - BLUE BOX", "address": {"city": "SPARKS", "state": "NV", "street": "2215 GREEN VISTA DR", "postcode": "89431"}}},
{"geometry": {"type": "Point", "coordinates": [-119.7538519732, 39.5274089838]}, "type": "Feature", "properties": {"collection_times": [{"days": "Mon-Fri", "time": "2:30pm"}, {"days": "Sat", "time": "10:15am"}, {"days": "Sun", "time": "Closed"}], "id": "8943100087", "name": "USPS COLLECTION BOX - BLUE BOX", "address": {"city": "SPARKS", "state": "NV", "street": "800 MARIETTA WAY", "postcode": "89431"}}},
{"geometry": {"type": "Point", "coordinates": [-119.7727458834, 39.5594623236]}, "type": "Feature", "properties": {"collection_times": [{"days": "Mon-Fri", "time": "4:30pm"}, {"days": "Sat", "time": "12:30pm"}, {"days": "Sun", "time": "Closed"}], "id": "8943100088", "name": "USPS COLLECTION BOX - BLUE BOX", "address": {"city": "SPARKS", "state": "NV", "street": "2215 GREEN VISTA DR", "postcode": "89431"}}},
{"geometry": {"type": "Point", "coordinates": [-119.747978525, 39.540401489]}, "type": "Feature", "properties": {"collection_times": [{"days": "Mon-Fri", "time": "5:45pm"}, {"days": "Sat", "time": "4:00pm"}, {"days": "Sun", "time": "Closed"}], "id": "8943100089", "name": "USPS COLLECTION BOX - PO LOBBY", "address": {"city": "SPARKS", "state": "NV", "street": "740 4TH ST", "postcode": "89431"}}},
{"geometry": {"type": "Point", "coordinates": [-119.7508640365, 39.539873569]}, "type": "Feature", "properties": {"collection_times": [{"days": "Mon-Sat", "time": "1:00pm"}, {"days": "Sun", "time": "Closed"}], "id": "8943100091", "name": "USPS COLLECTION BOX - BLUE BOX", "address": {"city": "SPARKS", "state": "NV", "street": "9732 PYRAMID HWY", "postcode": "89431"}}},
{"geometry": {"type": "Point", "coordinates": [-119.782610142, 39.5963676456]}, "type": "Feature", "properties": {"collection_times": [{"days": "Mon-Fri", "time": "5:00pm"}, {"days": "Sat", "time": "10:00am"}, {"days": "Sun", "time": "Closed"}], "id": "8943300001", "name": "USPS COLLECTION BOX - BLUE BOX", "address": {"city": "SUN VALLEY", "state": "NV", "street": "125 W 6TH AVE", "postcode": "89433"}}},
{"geometry": {"type": "Point", "coordinates": [-119.782610142, 39.596367646]}, "type": "Feature", "properties": {"collection_times": [{"days": "Mon-Fri", "time": "5:00pm"}, {"days": "Sat", "time": "10:00am"}, {"days": "Sun", "time": "Closed"}], "id": "8943300003", "name": "USPS COLLECTION BOX - PO LOBBY", "address": {"city": "SUN VALLEY", "state": "NV", "street": "125 W 6TH AVE", "postcode": "89433"}}},
{"geometry": {"type": "Point", "coordinates": [-119.7343908049, 39.5352566173]}, "type": "Feature", "properties": {"collection_times": [{"days": "Mon-Fri", "time": "5:00pm"}, {"days": "Sat", "time": "2:00pm"}, {"days": "Sun", "time": "Closed"}], "id": "8943400011", "name": "USPS COLLECTION BOX - BLUE BOX", "address": {"city": "SPARKS", "state": "NV", "street": "800 NICHOLS BLVD", "postcode": "89434"}}},
{"geometry": {"type": "Point", "coordinates": [-119.7328943618, 39.5564055576]}, "type": "Feature", "properties": {"collection_times": [{"days": "Mon-Fri", "time": "3:15pm"}, {"days": "Sat", "time": "12:45pm"}, {"days": "Sun", "time": "Closed"}], "id": "8943400017", "name": "USPS COLLECTION BOX - BLUE BOX", "address": {"city": "SPARKS", "state": "NV", "street": "710 BARING BLVD", "postcode": "89434"}}},
{"geometry": {"type": "Point", "coordinates": [-119.6974990466, 39.5424986921]}, "type": "Feature", "properties": {"collection_times": [{"days": "Mon-Fri", "time": "2:45pm"}, {"days": "Sat", "time": "1:00pm"}, {"days": "Sun", "time": "Closed"}], "id": "8943400018", "name": "USPS COLLECTION BOX - BLUE BOX", "address": {"city": "SPARKS", "state": "NV", "street": "2375 E PRATER WAY", "postcode": "89434"}}},
{"geometry": {"type": "Point", "coordinates": [-119.705695331, 39.556911212]}, "type": "Feature", "properties": {"collection_times": [{"days": "Mon-Fri", "time": "5:45pm"}, {"days": "Sat", "time": "5:00pm"}, {"days": "Sun", "time": "Closed"}], "id": "8943400019", "name": "USPS COLLECTION BOX - BLUE BOX", "address": {"city": "SPARKS", "state": "NV", "street": "2929 VISTA BLVD", "postcode": "89434"}}},
{"geometry": {"type": "Point", "coordinates": [-119.705695331, 39.556911212]}, "type": "Feature", "properties": {"collection_times": [{"days": "Mon-Fri", "time": "5:45pm"}, {"days": "Sat", "time": "5:00pm"}, {"days": "Sun", "time": "Closed"}], "id": "8943400020", "name": "USPS COLLECTION BOX - EXPRESS", "address": {"city": "SPARKS", "state": "NV", "street": "2929 VISTA BLVD", "postcode": "89434"}}},
{"geometry": {"type": "Point", "coordinates": [-119.705695331, 39.556911212]}, "type": "Feature", "properties": {"collection_times": [{"days": "Mon-Fri", "time": "5:45pm"}, {"days": "Sat", "time": "5:00pm"}, {"days": "Sun", "time": "Closed"}], "id": "8943400021", "name": "USPS COLLECTION BOX - BLUE BOX", "address": {"city": "SPARKS", "state": "NV", "street": "2929 VISTA BLVD", "postcode": "89434"}}},
{"geometry": {"type": "Point", "coordinates": [-119.705695331, 39.556911212]}, "type": "Feature", "properties": {"collection_times": [{"days": "Mon-Fri", "time": "5:45pm"}, {"days": "Sat", "time": "5:00pm"}, {"days": "Sun", "time": "Closed"}], "id": "8943400022", "name": "USPS COLLECTION BOX - BLUE BOX", "address": {"city": "SPARKS", "state": "NV", "street": "2929 VISTA BLVD", "postcode": "89434"}}},
{"geometry": {"type": "Point", "coordinates": [-119.705695331, 39.556911212]}, "type": "Feature", "properties": {"collection_times": [{"days": "Mon-Fri", "time": "5:45pm"}, {"days": "Sat", "time": "5:00pm"}, {"days": "Sun", "time": "Closed"}], "id": "8943400024", "name": "USPS COLLECTION BOX - APC", "address": {"city": "SPARKS", "state": "NV", "street": "2929 VISTA BLVD", "postcode": "89434"}}},
{"geometry": {"type": "Point", "coordinates": [-119.705695331, 39.556911212]}, "type": "Feature", "properties": {"collection_times": [{"days": "Mon-Fri", "time": "5:45pm"}, {"days": "Sat", "time": "5:00pm"}, {"days": "Sun", "time": "Closed"}], "id": "8943400025", "name": "USPS COLLECTION BOX - PO LOBBY", "address": {"city": "SPARKS", "state": "NV", "street": "2929 VISTA BLVD", "postcode": "89434"}}},
{"geometry": {"type": "Point", "coordinates": [-117.1266911678, 40.7944594131]}, "type": "Feature", "properties": {"collection_times": [{"days": "Mon-Fri", "time": "2:00pm"}, {"days": "Sat", "time": "11:00am"}, {"days": "Sun", "time": "Closed"}], "id": "8943800000", "name": "USPS COLLECTION BOX - BLUE BOX", "address": {"city": "VALMY", "state": "NV", "street": "0 I-80 EXIT 216", "postcode": "89438"}}},
{"geometry": {"type": "Point", "coordinates": [-117.125798713, 40.792699349]}, "type": "Feature", "properties": {"collection_times": [{"days": "Mon-Fri", "time": "2:00pm"}, {"days": "Sat", "time": "11:00am"}, {"days": "Sun", "time": "Closed"}], "id": "8943800001", "name": "USPS COLLECTION BOX - PO LOBBY", "address": {"city": "VALMY", "state": "NV", "street": "1 I 80 W EXIT 216", "postcode": "89438"}}},
{"geometry": {"type": "Point", "coordinates": [-119.985037067, 39.520014756]}, "type": "Feature", "properties": {"collection_times": [{"days": "Mon-Fri", "time": "4:30pm"}, {"days": "Sat", "time": "9:30am"}, {"days": "Sun", "time": "Closed"}], "id": "8943900000", "name": "USPS COLLECTION BOX - BLUE BOX", "address": {"city": "VERDI", "state": "NV", "street": "1675 HIGHWAY 40 W", "postcode": "89439"}}},
{"geometry": {"type": "Point", "coordinates": [-119.985037067, 39.520014756]}, "type": "Feature", "properties": {"collection_times": [{"days": "Mon-Fri", "time": "4:30pm"}, {"days": "Sat", "time": "9:30am"}, {"days": "Sun", "time": "Closed"}], "id": "8943900001", "name": "USPS COLLECTION BOX - PO LOBBY", "address": {"city": "VERDI", "state": "NV", "street": "1675 HIGHWAY 40 W", "postcode": "89439"}}},
{"geometry": {"type": "Point", "coordinates": [-119.650211809, 39.309083048]}, "type": "Feature", "properties": {"collection_times": [{"days": "Mon-Fri", "time": "4:30pm"}, {"days": "Sat", "time": "9:30am"}, {"days": "Sun", "time": "Closed"}], "id": "8944000000", "name": "USPS COLLECTION BOX - BLUE BOX", "address": {"city": "VIRGINIA CITY", "state": "NV", "street": "132 S C ST", "postcode": "89440"}}},
{"geometry": {"type": "Point", "coordinates": [-119.650211809, 39.309083048]}, "type": "Feature", "properties": {"collection_times": [{"days": "Mon-Fri", "time": "4:30pm"}, {"days": "Sat", "time": "9:30am"}, {"days": "Sun", "time": "Closed"}], "id": "8944000001", "name": "USPS COLLECTION BOX - PO LOBBY", "address": {"city": "VIRGINIA CITY", "state": "NV", "street": "132 S C ST", "postcode": "89440"}}},
{"geometry": {"type": "Point", "coordinates": [-119.249137725, 39.735837591]}, "type": "Feature", "properties": {"collection_times": [{"days": "Mon-Fri", "time": "4:15pm"}, {"days": "Sat", "time": "10:30am"}, {"days": "Sun", "time": "Closed"}], "id": "8944200000", "name": "USPS COLLECTION BOX - BLUE BOX", "address": {"city": "WADSWORTH", "state": "NV", "street": "150 US HIGHWAY 40", "postcode": "89442"}}},
{"geometry": {"type": "Point", "coordinates": [-119.249137725, 39.735837591]}, "type": "Feature", "properties": {"collection_times": [{"days": "Mon-Fri", "time": "4:15pm"}, {"days": "Sat", "time": "10:30am"}, {"days": "Sun", "time": "Closed"}], "id": "8944200001", "name": "USPS COLLECTION BOX - PO LOBBY", "address": {"city": "WADSWORTH", "state": "NV", "street": "150 US HIGHWAY 40", "postcode": "89442"}}},
{"geometry": {"type": "Point", "coordinates": [-119.50624179, 38.7315353691]}, "type": "Feature", "properties": {"collection_times": [{"days": "Mon-Sat", "time": "11:30am"}, {"days": "Sun", "time": "Closed"}], "id": "8944400000", "name": "USPS COLLECTION BOX - BLUE BOX", "address": {"city": "WELLINGTON", "state": "NV", "street": "3900 CARTER WAY", "postcode": "89444"}}},
{"geometry": {"type": "Point", "coordinates": [-119.376720025, 38.756053457]}, "type": "Feature", "properties": {"collection_times": [{"days": "Mon-Fri", "time": "3:45pm"}, {"days": "Sat", "time": "10:30am"}, {"days": "Sun", "time": "Closed"}], "id": "8944400001", "name": "USPS COLLECTION BOX - PO LOBBY", "address": {"city": "WELLINGTON", "state": "NV", "street": "2818 STATE ROUTE 208", "postcode": "89444"}}},
{"geometry": {"type": "Point", "coordinates": [-117.733294218, 40.96304532]}, "type": "Feature", "properties": {"collection_times": [{"days": "Mon-Fri", "time": "5:00pm"}, {"days": "Sat", "time": "3:45pm"}, {"days": "Sun", "time": "Closed"}], "id": "8944500000", "name": "USPS COLLECTION BOX - BLUE BOX", "address": {"city": "WINNEMUCCA", "state": "NV", "street": "850 HANSON ST", "postcode": "89445"}}},
{"geometry": {"type": "Point", "coordinates": [-117.7290928407, 40.9707327644]}, "type": "Feature", "properties": {"collection_times": [{"days": "Mon-Fri", "time": "1:30pm"}, {"days": "Sat", "time": "12:00pm"}, {"days": "Sun", "time": "Closed"}], "id": "8944500001", "name": "USPS COLLECTION BOX - BLUE BOX", "address": {"city": "WINNEMUCCA", "state": "NV", "street": "26 E HASKELL ST", "postcode": "89445"}}},
{"geometry": {"type": "Point", "coordinates": [-117.7330578651, 40.9653311081]}, "type": "Feature", "properties": {"collection_times": [{"days": "Mon-Sat", "time": "9:00am"}, {"days": "Sun", "time": "Closed"}], "id": "8944500005", "name": "USPS COLLECTION BOX - BLUE BOX", "address": {"city": "WINNEMUCCA", "state": "NV", "street": "475 W HASKELL ST", "postcode": "89445"}}},
{"geometry": {"type": "Point", "coordinates": [-117.733294218, 40.96304532]}, "type": "Feature", "properties": {"collection_times": [{"days": "Mon-Fri", "time": "5:00pm"}, {"days": "Sat", "time": "3:45pm"}, {"days": "Sun", "time": "Closed"}], "id": "8944500014", "name": "USPS COLLECTION BOX - BLUE BOX", "address": {"city": "WINNEMUCCA", "state": "NV", "street": "850 HANSON ST", "postcode": "89445"}}},
{"geometry": {"type": "Point", "coordinates": [-117.733294218, 40.96304532]}, "type": "Feature", "properties": {"collection_times": [{"days": "Mon-Fri", "time": "5:00pm"}, {"days": "Sat", "time": "3:45pm"}, {"days": "Sun", "time": "Closed"}], "id": "8944500020", "name": "USPS COLLECTION BOX - EXPRESS", "address": {"city": "WINNEMUCCA", "state": "NV", "street": "850 HANSON ST", "postcode": "89445"}}},
{"geometry": {"type": "Point", "coordinates": [-117.733294218, 40.96304532]}, "type": "Feature", "properties": {"collection_times": [{"days": "Mon-Fri", "time": "5:00pm"}, {"days": "Sat", "time": "3:45pm"}, {"days": "Sun", "time": "Closed"}], "id": "8944500022", "name": "USPS COLLECTION BOX - PO LOBBY", "address": {"city": "WINNEMUCCA", "state": "NV", "street": "850 HANSON ST", "postcode": "89445"}}},
{"geometry": {"type": "Point", "coordinates": [-119.2088230991, 38.9891392229]}, "type": "Feature", "properties": {"collection_times": [{"days": "Mon-Sat", "time": "10:30am"}, {"days": "Sun", "time": "Closed"}], "id": "8944700000", "name": "USPS COLLECTION BOX - BLUE BOX", "address": {"city": "YERINGTON", "state": "NV", "street": "25 AUSTIN AVE", "postcode": "89447"}}},
{"geometry": {"type": "Point", "coordinates": [-119.1642170787, 38.9939693625]}, "type": "Feature", "properties": {"collection_times": [{"days": "Mon-Sat", "time": "9:00am"}, {"days": "Sun", "time": "Closed"}], "id": "8944700001", "name": "USPS COLLECTION BOX - BLUE BOX", "address": {"city": "YERINGTON", "state": "NV", "street": "176 W GOLDFIELD AVE", "postcode": "89447"}}},
{"geometry": {"type": "Point", "coordinates": [-119.1681298143, 38.9858247299]}, "type": "Feature", "properties": {"collection_times": [{"days": "Mon-Fri", "time": "11:30am"}, {"days": "Sat", "time": "10:30am"}, {"days": "Sun", "time": "Closed"}], "id": "8944700002", "name": "USPS COLLECTION BOX - BLUE BOX", "address": {"city": "YERINGTON", "state": "NV", "street": "101 S MOUNTAIN VIEW ST", "postcode": "89447"}}},
{"geometry": {"type": "Point", "coordinates": [-119.1632479672, 38.9865996504]}, "type": "Feature", "properties": {"collection_times": [{"days": "Mon-Fri", "time": "2:45pm"}, {"days": "Sat", "time": "12:45pm"}, {"days": "Sun", "time": "Closed"}], "id": "8944700004", "name": "USPS COLLECTION BOX - BLUE BOX", "address": {"city": "YERINGTON", "state": "NV", "street": "31 S MAIN ST", "postcode": "89447"}}},
{"geometry": {"type": "Point", "coordinates": [-119.163194138, 38.988060792]}, "type": "Feature", "properties": {"collection_times": [{"days": "Mon-Fri", "time": "4:45pm"}, {"days": "Sat", "time": "9:00am"}, {"days": "Sun", "time": "Closed"}], "id": "8944700005", "name": "USPS COLLECTION BOX - PO LOBBY", "address": {"city": "YERINGTON", "state": "NV", "street": "26 N MAIN ST", "postcode": "89447"}}},
{"geometry": {"type": "Point", "coordinates": [-119.1646411547, 38.9829273778]}, "type": "Feature", "properties": {"collection_times": [{"days": "Mon-Sat", "time": "10:30am"}, {"days": "Sun", "time": "Closed"}], "id": "8944700007", "name": "USPS COLLECTION BOX - BLUE BOX", "address": {"city": "YERINGTON", "state": "NV", "street": "119 W BRIDGE ST", "postcode": "89447"}}},
{"geometry": {"type": "Point", "coordinates": [-119.163194138, 38.988060792]}, "type": "Feature", "properties": {"collection_times": [{"days": "Mon-Fri", "time": "4:45pm"}, {"days": "Sat", "time": "12:45pm"}, {"days": "Sun", "time": "Closed"}], "id": "8944700010", "name": "USPS COLLECTION BOX - BLUE BOX", "address": {"city": "YERINGTON", "state": "NV", "street": "26 N MAIN ST", "postcode": "89447"}}},
{"geometry": {"type": "Point", "coordinates": [-119.163194138, 38.988060792]}, "type": "Feature", "properties": {"collection_times": [{"days": "Mon-Fri", "time": "4:45pm"}, {"days": "Sat", "time": "12:45pm"}, {"days": "Sun", "time": "Closed"}], "id": "8944700011", "name": "USPS COLLECTION BOX - BLUE BOX", "address": {"city": "YERINGTON", "state": "NV", "street": "26 N MAIN ST", "postcode": "89447"}}},
{"geometry": {"type": "Point", "coordinates": [-119.163324347, 38.976751146]}, "type": "Feature", "properties": {"collection_times": [{"days": "Mon-Fri", "time": "4:30pm"}, {"days": "Sat", "time": "3:00pm"}, {"days": "Sun", "time": "Closed"}], "id": "8944700012", "name": "USPS COLLECTION BOX - PO LOBBY", "address": {"city": "YERINGTON", "state": "NV", "street": "811 S MAIN ST", "postcode": "89447"}}},
{"geometry": {"type": "Point", "coordinates": [-119.163324347, 38.976751146]}, "type": "Feature", "properties": {"collection_times": [{"days": "Mon-Fri", "time": "4:30pm"}, {"days": "Sat", "time": "3:00pm"}, {"days": "Sun", "time": "Closed"}], "id": "8944700013", "name": "USPS COLLECTION BOX - BLUE BOX", "address": {"city": "YERINGTON", "state": "NV", "street": "811 S MAIN ST", "postcode": "89447"}}},
{"geometry": {"type": "Point", "coordinates": [-119.942009894, 38.984643124]}, "type": "Feature", "properties": {"collection_times": [{"days": "Mon-Fri", "time": "4:45pm"}, {"days": "Sat", "time": "1:00pm"}, {"days": "Sun", "time": "Closed"}], "id": "8944800003", "name": "USPS COLLECTION BOX - BLUE BOX", "address": {"city": "ZEPHYR COVE", "state": "NV", "street": "212 ELKS POINT RD", "postcode": "89448"}}},
{"geometry": {"type": "Point", "coordinates": [-119.942009894, 38.984643124]}, "type": "Feature", "properties": {"collection_times": [{"days": "Mon-Fri", "time": "4:45pm"}, {"days": "Sat", "time": "1:00pm"}, {"days": "Sun", "time": "Closed"}], "id": "8944800004", "name": "USPS COLLECTION BOX - PO LOBBY", "address": {"city": "ZEPHYR COVE", "state": "NV", "street": "212 ELKS POINT RD", "postcode": "89448"}}},
{"geometry": {"type": "Point", "coordinates": [-119.933478399, 38.968342945]}, "type": "Feature", "properties": {"collection_times": [{"days": "Mon-Fri", "time": "4:45pm"}, {"days": "Sat", "time": "1:30pm"}, {"days": "Sun", "time": "Closed"}], "id": "8944900000", "name": "USPS COLLECTION BOX - PO LOBBY", "address": {"city": "STATELINE", "state": "NV", "street": "223 KINGSBURY GRADE", "postcode": "89449"}}},
{"geometry": {"type": "Point", "coordinates": [-119.933478399, 38.968342945]}, "type": "Feature", "properties": {"collection_times": [{"days": "Mon-Fri", "time": "4:45pm"}, {"days": "Sat", "time": "1:30pm"}, {"days": "Sun", "time": "Closed"}], "id": "8944900001", "name": "USPS COLLECTION BOX - BLUE BOX", "address": {"city": "STATELINE", "state": "NV", "street": "223 KINGSBURY GRADE", "postcode": "89449"}}},
{"geometry": {"type": "Point", "coordinates": [-119.9485427132, 39.2495836672]}, "type": "Feature", "properties": {"collection_times": [{"days": "Mon-Fri", "time": "11:00am"}, {"days": "Sat-Sun", "time": "Closed"}], "id": "8945100000", "name": "USPS COLLECTION BOX - BLUE BOX", "address": {"city": "INCLINE VILLAGE", "state": "NV", "street": "930 TAHOE BLVD", "postcode": "89451"}}},
{"geometry": {"type": "Point", "coordinates": [-119.96326784, 39.247069026]}, "type": "Feature", "properties": {"collection_times": [{"days": "Mon-Fri", "time": "4:00pm"}, {"days": "Sat", "time": "11:15am"}, {"days": "Sun", "time": "Closed"}], "id": "8945100004", "name": "USPS COLLECTION BOX - BLUE BOX", "address": {"city": "INCLINE VILLAGE", "state": "NV", "street": "770 MAYS BLVD", "postcode": "89451"}}},
{"geometry": {"type": "Point", "coordinates": [-119.96326784, 39.247069026]}, "type": "Feature", "properties": {"collection_times": [{"days": "Mon-Fri", "time": "4:15pm"}, {"days": "Sat", "time": "11:15am"}, {"days": "Sun", "time": "Closed"}], "id": "8945100005", "name": "USPS COLLECTION BOX - PO LOBBY", "address": {"city": "INCLINE VILLAGE", "state": "NV", "street": "770 MAYS BLVD", "postcode": "89451"}}},
{"geometry": {"type": "Point", "coordinates": [-119.9611851528, 39.2476688384]}, "type": "Feature", "properties": {"collection_times": [{"days": "Mon-Fri", "time": "2:30pm"}, {"days": "Sat", "time": "10:45am"}, {"days": "Sun", "time": "Closed"}], "id": "8945200003", "name": "USPS COLLECTION BOX - BLUE BOX", "address": {"city": "INCLINE VILLAGE", "state": "NV", "street": "799 SOUTHWOOD BLVD", "postcode": "89452"}}},
{"geometry": {"type": "Point", "coordinates": [-119.9623268645, 39.2489041952]}, "type": "Feature", "properties": {"collection_times": [{"days": "Mon-Fri", "time": "2:30pm"}, {"days": "Sat", "time": "10:45am"}, {"days": "Sun", "time": "Closed"}], "id": "8945200004", "name": "USPS COLLECTION BOX - BLUE BOX", "address": {"city": "INCLINE VILLAGE", "state": "NV", "street": "779 SOUTHWOOD BLVD", "postcode": "89452"}}},
{"geometry": {"type": "Point", "coordinates": [-119.745484774, 38.895473795]}, "type": "Feature", "properties": {"collection_times": [{"days": "Mon-Fri", "time": "4:00pm"}, {"days": "Sat", "time": "3:00pm"}, {"days": "Sun", "time": "Closed"}], "id": "8946000000", "name": "USPS COLLECTION BOX - BLUE BOX", "address": {"city": "GARDNERVILLE", "state": "NV", "street": "1271 KIMMERLING RD", "postcode": "89460"}}},
{"geometry": {"type": "Point", "coordinates": [-119.745484774, 38.895473795]}, "type": "Feature", "properties": {"collection_times": [{"days": "Mon-Fri", "time": "4:00pm"}, {"days": "Sat", "time": "3:00pm"}, {"days": "Sun", "time": "Closed"}], "id": "8946000001", "name": "USPS COLLECTION BOX - BLUE BOX", "address": {"city": "GARDNERVILLE", "state": "NV", "street": "1271 KIMMERLING RD", "postcode": "89460"}}},
{"geometry": {"type": "Point", "coordinates": [-119.745484774, 38.895473795]}, "type": "Feature", "properties": {"collection_times": [{"days": "Mon-Fri", "time": "4:00pm"}, {"days": "Sat", "time": "3:00pm"}, {"days": "Sun", "time": "Closed"}], "id": "8946000002", "name": "USPS COLLECTION BOX - EXPRESS", "address": {"city": "GARDNERVILLE", "state": "NV", "street": "1271 KIMMERLING RD", "postcode": "89460"}}},
{"geometry": {"type": "Point", "coordinates": [-119.745484774, 38.895473795]}, "type": "Feature", "properties": {"collection_times": [{"days": "Mon-Fri", "time": "4:00pm"}, {"days": "Sat", "time": "3:00pm"}, {"days": "Sun", "time": "Closed"}], "id": "8946000003", "name": "USPS COLLECTION BOX - PO LOBBY", "address": {"city": "GARDNERVILLE", "state": "NV", "street": "1271 KIMMERLING RD", "postcode": "89460"}}}
]}
