{"type": "FeatureCollection", "features": [
{"geometry": {"type": "Point", "coordinates": [-119.8125500867, 39.525981036]}, "type": "Feature", "properties": {"collection_times": [{"days": "Mon-Fri", "time": "5:00pm"}, {"days": "Sat-Sun", "time": "Closed"}], "id": "8950100001", "name": "USPS COLLECTION BOX - BLUE BOX", "address": {"city": "RENO", "state": "NV", "street": "1 E 1ST ST", "postcode": "89501"}}},
{"geometry": {"type": "Point", "coordinates": [-119.8117480405, 39.5229219041]}, "type": "Feature", "properties": {"collection_times": [{"days": "Mon-Fri", "time": "4:30pm"}, {"days": "Sat-Sun", "time": "Closed"}], "id": "8950100008", "name": "USPS COLLECTION BOX - BLUE BOX", "address": {"city": "RENO", "state": "NV", "street": "200 S VIRGINIA ST", "postcode": "89501"}}},
{"geometry": {"type": "Point", "coordinates": [-119.812897844, 39.5254107353]}, "type": "Feature", "properties": {"collection_times": [{"days": "Mon-Fri", "time": "2:45pm"}, {"days": "Sat-Sun", "time": "Closed"}], "id": "8950100009", "name": "USPS COLLECTION BOX - BLUE BOX", "address": {"city": "RENO", "state": "NV", "street": "210 N VIRGINIA ST", "postcode": "89501"}}},
{"geometry": {"type": "Point", "coordinates": [-119.8164644979, 39.5217898124]}, "type": "Feature", "properties": {"collection_times": [{"days": "Mon-Fri", "time": "4:00pm"}, {"days": "Sat", "time": "3:00pm"}, {"days": "Sun", "time": "Closed"}], "id": "8950100012", "name": "USPS COLLECTION BOX - BLUE BOX", "address": {"city": "RENO", "state": "NV", "street": "299 S ARLINGTON AVE", "postcode": "89501"}}},
{"geometry": {"type": "Point", "coordinates": [-119.8164946297, 39.5281126248]}, "type": "Feature", "properties": {"collection_times": [{"days": "Mon-Fri", "time": "3:00pm"}, {"days": "Sat-Sun", "time": "Closed"}], "id": "8950100014", "name": "USPS COLLECTION BOX - BLUE BOX", "address": {"city": "RENO", "state": "NV", "street": "301 WEST ST", "postcode": "89501"}}},
{"geometry": {"type": "Point", "coordinates": [-119.8150917659, 39.5211230968]}, "type": "Feature", "properties": {"collection_times": [{"days": "Mon-Fri", "time": "4:00pm"}, {"days": "Sat", "time": "2:30pm"}, {"days": "Sun", "time": "Closed"}], "id": "8950100016", "name": "USPS COLLECTION BOX - BLUE BOX", "address": {"city": "RENO", "state": "NV", "street": "390 FLINT ST", "postcode": "89501"}}},
{"geometry": {"type": "Point", "coordinates": [-119.8116675993, 39.5217909954]}, "type": "Feature", "properties": {"collection_times": [{"days": "Mon-Fri", "time": "4:15pm"}, {"days": "Sat-Sun", "time": "Closed"}], "id": "8950100018", "name": "USPS COLLECTION BOX - BLUE BOX", "address": {"city": "RENO", "state": "NV", "street": "50 W LIBERTY ST", "postcode": "89501"}}},
{"geometry": {"type": "Point", "coordinates": [-119.812897844, 39.5254107353]}, "type": "Feature", "properties": {"collection_times": [{"days": "Mon-Fri", "time": "2:45pm"}, {"days": "Sat-Sun", "time": "Closed"}], "id": "8950100032", "name": "USPS COLLECTION BOX - BLUE BOX", "address": {"city": "RENO", "state": "NV", "street": "210 N VIRGINIA ST", "postcode": "89501"}}},
{"geometry": {"type": "Point", "coordinates": [-119.8164644979, 39.5217898124]}, "type": "Feature", "properties": {"collection_times": [{"days": "Mon-Fri", "time": "4:00pm"}, {"days": "Sat", "time": "3:00pm"}, {"days": "Sun", "time": "Closed"}], "id": "8950100034", "name": "USPS COLLECTION BOX - BLUE BOX", "address": {"city": "RENO", "state": "NV", "street": "299 S ARLINGTON AVE", "postcode": "89501"}}},
{"geometry": {"type": "Point", "coordinates": [-119.810059958, 39.5225409914]}, "type": "Feature", "properties": {"collection_times": [{"days": "Mon-Fri", "time": "3:30pm"}, {"days": "Sat-Sun", "time": "Closed"}], "id": "8950100038", "name": "USPS COLLECTION BOX - BLUE BOX", "address": {"city": "RENO", "state": "NV", "street": "350 S CENTER ST", "postcode": "89501"}}},
{"geometry": {"type": "Point", "coordinates": [-119.8150917659, 39.5211230968]}, "type": "Feature", "properties": {"collection_times": [{"days": "Mon-Fri", "time": "4:00pm"}, {"days": "Sat", "time": "2:30pm"}, {"days": "Sun", "time": "Closed"}], "id": "8950100040", "name": "USPS COLLECTION BOX - BLUE BOX", "address": {"city": "RENO", "state": "NV", "street": "390 FLINT ST", "postcode": "89501"}}},
{"geometry": {"type": "Point", "coordinates": [-119.8150917659, 39.5211230968]}, "type": "Feature", "properties": {"collection_times": [{"days": "Mon-Fri", "time": "4:00pm"}, {"days": "Sat", "time": "2:30pm"}, {"days": "Sun", "time": "Closed"}], "id": "8950100041", "name": "USPS COLLECTION BOX - BLUE BOX", "address": {"city": "RENO", "state": "NV", "street": "390 FLINT ST", "postcode": "89501"}}},
{"geometry": {"type": "Point", "coordinates": [-119.8116675993, 39.5217909954]}, "type": "Feature", "properties": {"collection_times": [{"days": "Mon-Fri", "time": "4:15pm"}, {"days": "Sat-Sun", "time": "Closed"}], "id": "8950100042", "name": "USPS COLLECTION BOX - BLUE BOX", "address": {"city": "RENO", "state": "NV", "street": "50 W LIBERTY ST", "postcode": "89501"}}},
{"geometry": {"type": "Point", "coordinates": [-119.8085280262, 39.5195007868]}, "type": "Feature", "properties": {"collection_times": [{"days": "Mon-Fri", "time": "3:30pm"}, {"days": "Sat-Sun", "time": "Closed"}], "id": "8950100050", "name": "USPS COLLECTION BOX - BLUE BOX", "address": {"city": "RENO", "state": "NV", "street": "646 S CENTER ST", "postcode": "89501"}}},
{"geometry": {"type": "Point", "coordinates": [-119.8108389972, 39.5240908073]}, "type": "Feature", "properties": {"collection_times": [{"days": "Mon-Fri", "time": "4:30pm"}, {"days": "Sat", "time": "2:30pm"}, {"days": "Sun", "time": "Closed"}], "id": "8950100051", "name": "USPS COLLECTION BOX - BLUE BOX", "address": {"city": "RENO", "state": "NV", "street": "131 S CENTER ST", "postcode": "89501"}}},
{"geometry": {"type": "Point", "coordinates": [-119.8108389972, 39.5240908073]}, "type": "Feature", "properties": {"collection_times": [{"days": "Mon-Fri", "time": "4:30pm"}, {"days": "Sat", "time": "2:30pm"}, {"days": "Sun", "time": "Closed"}], "id": "8950100052", "name": "USPS COLLECTION BOX - BLUE BOX", "address": {"city": "RENO", "state": "NV", "street": "131 S CENTER ST", "postcode": "89501"}}},
{"geometry": {"type": "Point", "coordinates": [-119.8108389972, 39.5240908073]}, "type": "Feature", "properties": {"collection_times": [{"days": "Mon-Fri", "time": "4:30pm"}, {"days": "Sat", "time": "2:30pm"}, {"days": "Sun", "time": "Closed"}], "id": "8950100053", "name": "USPS COLLECTION BOX - BLUE BOX", "address": {"city": "RENO", "state": "NV", "street": "131 S CENTER ST", "postcode": "89501"}}},
{"geometry": {"type": "Point", "coordinates": [-119.812897844, 39.5254107353]}, "type": "Feature", "properties": {"collection_times": [{"days": "Mon-Fri", "time": "4:30pm"}, {"days": "Sat", "time": "2:30pm"}, {"days": "Sun", "time": "Closed"}], "id": "8950100054", "name": "USPS COLLECTION BOX - EXPRESS", "address": {"city": "RENO", "state": "NV", "street": "131 S CENTER ST", "postcode": "89501"}}},
{"geometry": {"type": "Point", "coordinates": [-119.8085026328, 39.522077218]}, "type": "Feature", "properties": {"collection_times": [{"days": "Mon-Fri", "time": "3:30pm"}, {"days": "Sat-Sun", "time": "Closed"}], "id": "8950100096", "name": "USPS COLLECTION BOX - BLUE BOX", "address": {"city": "RENO", "state": "NV", "street": "451 S SINCLAIR ST", "postcode": "89501"}}},
{"geometry": {"type": "Point", "coordinates": [-119.8150917659, 39.5211230968]}, "type": "Feature", "properties": {"collection_times": [{"days": "Mon-Fri", "time": "4:00pm"}, {"days": "Sat", "time": "2:30pm"}, {"days": "Sun", "time": "Closed"}], "id": "8950100101", "name": "USPS COLLECTION BOX - BLUE BOX", "address": {"city": "RENO", "state": "NV", "street": "390 FLINT ST", "postcode": "89501"}}},
{"geometry": {"type": "Point", "coordinates": [-119.8167471367, 39.524935428]}, "type": "Feature", "properties": {"collection_times": [{"days": "Mon-Sat", "time": "2:45pm"}, {"days": "Sun", "time": "Closed"}], "id": "8950100102", "name": "USPS COLLECTION BOX - BLUE BOX", "address": {"city": "RENO", "state": "NV", "street": "100 N ARLINGTON AVE", "postcode": "89501"}}},
{"geometry": {"type": "Point", "coordinates": [-119.812897844, 39.5254107353]}, "type": "Feature", "properties": {"collection_times": [{"days": "Mon-Sat", "time": "2:45pm"}, {"days": "Sun", "time": "Closed"}], "id": "8950100103", "name": "USPS COLLECTION BOX - EXPRESS", "address": {"city": "RENO", "state": "NV", "street": "100 N ARLINGTON AVE", "postcode": "89501"}}},
{"geometry": {"type": "Point", "coordinates": [-119.8116675993, 39.5217909954]}, "type": "Feature", "properties": {"collection_times": [{"days": "Mon-Fri", "time": "4:15pm"}, {"days": "Sat-Sun", "time": "Closed"}], "id": "8950100104", "name": "USPS COLLECTION BOX - BLUE BOX", "address": {"city": "RENO", "state": "NV", "street": "50 W LIBERTY ST", "postcode": "89501"}}},
{"geometry": {"type": "Point", "coordinates": [-119.8125500867, 39.525981036]}, "type": "Feature", "properties": {"collection_times": [{"days": "Mon-Fri", "time": "5:00pm"}, {"days": "Sat-Sun", "time": "Closed"}], "id": "8950100108", "name": "USPS COLLECTION BOX - BLUE BOX", "address": {"city": "RENO", "state": "NV", "street": "1 E 1ST ST", "postcode": "89501"}}},
{"geometry": {"type": "Point", "coordinates": [-119.777428035, 39.5157614535]}, "type": "Feature", "properties": {"collection_times": [{"days": "Mon-Fri", "time": "2:15pm"}, {"days": "Sat-Sun", "time": "Closed"}], "id": "8950200002", "name": "USPS COLLECTION BOX - BLUE BOX", "address": {"city": "RENO", "state": "NV", "street": "1005 TERMINAL WAY", "postcode": "89502"}}},
{"geometry": {"type": "Point", "coordinates": [-119.7787221921, 39.5113135278]}, "type": "Feature", "properties": {"collection_times": [{"days": "Mon-Fri", "time": "2:30pm"}, {"days": "Sat-Sun", "time": "Closed"}], "id": "8950200004", "name": "USPS COLLECTION BOX - BLUE BOX", "address": {"city": "RENO", "state": "NV", "street": "1325 AIRMOTIVE WAY", "postcode": "89502"}}},
{"geometry": {"type": "Point", "coordinates": [-119.7751025129, 39.4696409577]}, "type": "Feature", "properties": {"collection_times": [{"days": "Mon-Fri", "time": "4:15pm"}, {"days": "Sat", "time": "1:15pm"}, {"days": "Sun", "time": "Closed"}], "id": "8950200006", "name": "USPS COLLECTION BOX - BLUE BOX", "address": {"city": "RENO", "state": "NV", "street": "1575 DELUCCHI LN", "postcode": "89502"}}},
{"geometry": {"type": "Point", "coordinates": [-119.7936901719, 39.4923152068]}, "type": "Feature", "properties": {"collection_times": [{"days": "Mon-Fri", "time": "2:45pm"}, {"days": "Sat", "time": "12:15pm"}, {"days": "Sun", "time": "Closed"}], "id": "8950200009", "name": "USPS COLLECTION BOX - BLUE BOX", "address": {"city": "RENO", "state": "NV", "street": "199 E MOANA LN", "postcode": "89502"}}},
{"geometry": {"type": "Point", "coordinates": [-119.7898006028, 39.4839374915]}, "type": "Feature", "properties": {"collection_times": [{"days": "Mon-Fri", "time": "5:15pm"}, {"days": "Sat-Sun", "time": "Closed"}], "id": "8950200017", "name": "USPS COLLECTION BOX - BLUE BOX", "address": {"city": "RENO", "state": "NV", "street": "4600 KIETZKE LN", "postcode": "89502"}}},
{"geometry": {"type": "Point", "coordinates": [-119.7856737578, 39.4725187189]}, "type": "Feature", "properties": {"collection_times": [{"days": "Mon-Fri", "time": "4:15pm"}, {"days": "Sat", "time": "1:30pm"}, {"days": "Sun", "time": "Closed"}], "id": "8950200019", "name": "USPS COLLECTION BOX - BLUE BOX", "address": {"city": "RENO", "state": "NV", "street": "5100 MEADOWOOD MALL CIR", "postcode": "89502"}}},
{"geometry": {"type": "Point", "coordinates": [-119.7794378823, 39.4755940819]}, "type": "Feature", "properties": {"collection_times": [{"days": "Mon-Fri", "time": "4:45pm"}, {"days": "Sat", "time": "1:45pm"}, {"days": "Sun", "time": "Closed"}], "id": "8950200020", "name": "USPS COLLECTION BOX - BLUE BOX", "address": {"city": "RENO", "state": "NV", "street": "5190 NEIL RD", "postcode": "89502"}}},
{"geometry": {"type": "Point", "coordinates": [-119.7861782354, 39.4734298629]}, "type": "Feature", "properties": {"collection_times": [{"days": "Mon-Fri", "time": "4:15pm"}, {"days": "Sat", "time": "1:30pm"}, {"days": "Sun", "time": "Closed"}], "id": "8950200021", "name": "USPS COLLECTION BOX - BLUE BOX", "address": {"city": "RENO", "state": "NV", "street": "5200 MEADOWOOD MALL CIR", "postcode": "89502"}}},
{"geometry": {"type": "Point", "coordinates": [-119.7786299213, 39.4745436143]}, "type": "Feature", "properties": {"collection_times": [{"days": "Mon-Fri", "time": "4:30pm"}, {"days": "Sat", "time": "1:45pm"}, {"days": "Sun", "time": "Closed"}], "id": "8950200022", "name": "USPS COLLECTION BOX - BLUE BOX", "address": {"city": "RENO", "state": "NV", "street": "5250 NEIL RD", "postcode": "89502"}}},
{"geometry": {"type": "Point", "coordinates": [-119.7989472415, 39.5255740981]}, "type": "Feature", "properties": {"collection_times": [{"days": "Mon-Fri", "time": "2:00pm"}, {"days": "Sat", "time": "2:45pm"}, {"days": "Sun", "time": "Closed"}], "id": "8950200028", "name": "USPS COLLECTION BOX - BLUE BOX", "address": {"city": "RENO", "state": "NV", "street": "890 MILL ST", "postcode": "89502"}}},
{"geometry": {"type": "Point", "coordinates": [-119.7859642669, 39.4702317289]}, "type": "Feature", "properties": {"collection_times": [{"days": "Mon-Fri", "time": "2:45pm"}, {"days": "Sat", "time": "12:45pm"}, {"days": "Sun", "time": "Closed"}], "id": "8950200040", "name": "USPS COLLECTION BOX - BLUE BOX", "address": {"city": "RENO", "state": "NV", "street": "6015 S VIRGINIA ST", "postcode": "89502"}}},
{"geometry": {"type": "Point", "coordinates": [-119.7811366113, 39.4776547964]}, "type": "Feature", "properties": {"collection_times": [{"days": "Mon-Fri", "time": "4:45pm"}, {"days": "Sat", "time": "1:30pm"}, {"days": "Sun", "time": "Closed"}], "id": "8950200043", "name": "USPS COLLECTION BOX - BLUE BOX", "address": {"city": "RENO", "state": "NV", "street": "5090 NEIL RD", "postcode": "89502"}}},
{"geometry": {"type": "Point", "coordinates": [-119.7544431423, 39.4781480903]}, "type": "Feature", "properties": {"collection_times": [{"days": "Mon-Fri", "time": "4:00pm"}, {"days": "Sat", "time": "1:30pm"}, {"days": "Sun", "time": "Closed"}], "id": "8950200045", "name": "USPS COLLECTION BOX - BLUE BOX", "address": {"city": "RENO", "state": "NV", "street": "4300 RIO POCO RD", "postcode": "89502"}}},
{"geometry": {"type": "Point", "coordinates": [-119.7528000123, 39.4860940256]}, "type": "Feature", "properties": {"collection_times": [{"days": "Mon-Fri", "time": "4:00pm"}, {"days": "Sat", "time": "1:30pm"}, {"days": "Sun", "time": "Closed"}], "id": "8950200047", "name": "USPS COLLECTION BOX - BLUE BOX", "address": {"city": "RENO", "state": "NV", "street": "4245 MIRA LOMA DR", "postcode": "89502"}}},
{"geometry": {"type": "Point", "coordinates": [-119.8002073681, 39.5154221342]}, "type": "Feature", "properties": {"collection_times": [{"days": "Mon-Fri", "time": "2:30pm"}, {"days": "Sat", "time": "3:00pm"}, {"days": "Sun", "time": "Closed"}], "id": "8950200048", "name": "USPS COLLECTION BOX - BLUE BOX", "address": {"city": "RENO", "state": "NV", "street": "615 BURNS ST", "postcode": "89502"}}},
{"geometry": {"type": "Point", "coordinates": [-119.7787221921, 39.5113135278]}, "type": "Feature", "properties": {"collection_times": [{"days": "Mon-Fri", "time": "2:30pm"}, {"days": "Sat-Sun", "time": "Closed"}], "id": "8950200051", "name": "USPS COLLECTION BOX - BLUE BOX", "address": {"city": "RENO", "state": "NV", "street": "1325 AIRMOTIVE WAY", "postcode": "89502"}}},
{"geometry": {"type": "Point", "coordinates": [-119.7787221921, 39.5113135278]}, "type": "Feature", "properties": {"collection_times": [{"days": "Mon-Fri", "time": "2:30pm"}, {"days": "Sat-Sun", "time": "Closed"}], "id": "8950200052", "name": "USPS COLLECTION BOX - BLUE BOX", "address": {"city": "RENO", "state": "NV", "street": "1325 AIRMOTIVE WAY", "postcode": "89502"}}},
{"geometry": {"type": "Point", "coordinates": [-119.7756883524, 39.5042311295]}, "type": "Feature", "properties": {"collection_times": [{"days": "Mon-Fri", "time": "2:00pm"}, {"days": "Sat", "time": "3:15pm"}, {"days": "Sun", "time": "Closed"}], "id": "8950200053", "name": "USPS COLLECTION BOX - BLUE BOX", "address": {"city": "RENO", "state": "NV", "street": "2001 E PLUMB LN", "postcode": "89502"}}},
{"geometry": {"type": "Point", "coordinates": [-119.8006123235, 39.5058600899]}, "type": "Feature", "properties": {"collection_times": [{"days": "Mon-Fri", "time": "4:45pm"}, {"days": "Sat-Sun", "time": "Closed"}], "id": "8950200054", "name": "USPS COLLECTION BOX - BLUE BOX", "address": {"city": "RENO", "state": "NV", "street": "295 E PLUMB LN", "postcode": "89502"}}},
{"geometry": {"type": "Point", "coordinates": [-119.7791764483, 39.5059499919]}, "type": "Feature", "properties": {"collection_times": [{"days": "Mon-Fri", "time": "2:15pm"}, {"days": "Sat", "time": "3:15pm"}, {"days": "Sun", "time": "Closed"}], "id": "8950200056", "name": "USPS COLLECTION BOX - BLUE BOX", "address": {"city": "RENO", "state": "NV", "street": "1755 E PLUMB LN", "postcode": "89502"}}},
{"geometry": {"type": "Point", "coordinates": [-119.7791764483, 39.5059499919]}, "type": "Feature", "properties": {"collection_times": [{"days": "Mon-Fri", "time": "2:15pm"}, {"days": "Sat", "time": "3:15pm"}, {"days": "Sun", "time": "Closed"}], "id": "8950200057", "name": "USPS COLLECTION BOX - BLUE BOX", "address": {"city": "RENO", "state": "NV", "street": "1755 E PLUMB LN", "postcode": "89502"}}},
{"geometry": {"type": "Point", "coordinates": [-119.778976386, 39.4999142431]}, "type": "Feature", "properties": {"collection_times": [{"days": "Mon-Fri", "time": "2:15pm"}, {"days": "Sat", "time": "3:15pm"}, {"days": "Sun", "time": "Closed"}], "id": "8950200058", "name": "USPS COLLECTION BOX - EXPRESS", "address": {"city": "RENO", "state": "NV", "street": "1755 E PLUMB LN", "postcode": "89502"}}},
{"geometry": {"type": "Point", "coordinates": [-119.7890635358, 39.4893984415]}, "type": "Feature", "properties": {"collection_times": [{"days": "Mon-Fri", "time": "5:30pm"}, {"days": "Sat-Sun", "time": "Closed"}], "id": "8950200064", "name": "USPS COLLECTION BOX - BLUE BOX", "address": {"city": "RENO", "state": "NV", "street": "3650 KIETZKE LN", "postcode": "89502"}}},
{"geometry": {"type": "Point", "coordinates": [-119.7898006028, 39.4839374915]}, "type": "Feature", "properties": {"collection_times": [{"days": "Mon-Fri", "time": "5:15pm"}, {"days": "Sat-Sun", "time": "Closed"}], "id": "8950200066", "name": "USPS COLLECTION BOX - BLUE BOX", "address": {"city": "RENO", "state": "NV", "street": "4600 KIETZKE LN", "postcode": "89502"}}},
{"geometry": {"type": "Point", "coordinates": [-119.7898006028, 39.4839374915]}, "type": "Feature", "properties": {"collection_times": [{"days": "Mon-Fri", "time": "5:15pm"}, {"days": "Sat-Sun", "time": "Closed"}], "id": "8950200068", "name": "USPS COLLECTION BOX - BLUE BOX", "address": {"city": "RENO", "state": "NV", "street": "4600 KIETZKE LN", "postcode": "89502"}}},
{"geometry": {"type": "Point", "coordinates": [-119.7882461947, 39.4752581215]}, "type": "Feature", "properties": {"collection_times": [{"days": "Mon-Fri", "time": "4:30pm"}, {"days": "Sat-Sun", "time": "Closed"}], "id": "8950200072", "name": "USPS COLLECTION BOX - BLUE BOX", "address": {"city": "RENO", "state": "NV", "street": "5250 S VIRGINIA ST", "postcode": "89502"}}},
{"geometry": {"type": "Point", "coordinates": [-119.800794771, 39.505825693]}, "type": "Feature", "properties": {"collection_times": [{"days": "Mon-Fri", "time": "5:00pm"}, {"days": "Sat", "time": "3:00pm"}, {"days": "Sun", "time": "Closed"}], "id": "8950200078", "name": "USPS COLLECTION BOX - BLUE BOX", "address": {"city": "RENO", "state": "NV", "street": "279 E PLUMB LN", "postcode": "89502"}}},
{"geometry": {"type": "Point", "coordinates": [-119.7794378823, 39.4755940819]}, "type": "Feature", "properties": {"collection_times": [{"days": "Mon-Fri", "time": "4:45pm"}, {"days": "Sat", "time": "1:45pm"}, {"days": "Sun", "time": "Closed"}], "id": "8950200085", "name": "USPS COLLECTION BOX - BLUE BOX", "address": {"city": "RENO", "state": "NV", "street": "5190 NEIL RD", "postcode": "89502"}}},
{"geometry": {"type": "Point", "coordinates": [-119.7786299213, 39.4745436143]}, "type": "Feature", "properties": {"collection_times": [{"days": "Mon-Fri", "time": "4:30pm"}, {"days": "Sat", "time": "1:45pm"}, {"days": "Sun", "time": "Closed"}], "id": "8950200086", "name": "USPS COLLECTION BOX - BLUE BOX", "address": {"city": "RENO", "state": "NV", "street": "5250 NEIL RD", "postcode": "89502"}}},
{"geometry": {"type": "Point", "coordinates": [-119.7471716308, 39.5124988796]}, "type": "Feature", "properties": {"collection_times": [{"days": "Mon-Fri", "time": "2:15pm"}, {"days": "Sat-Sun", "time": "Closed"}], "id": "8950200105", "name": "USPS COLLECTION BOX - BLUE BOX", "address": {"city": "RENO", "state": "NV", "street": "1100 FINANCIAL BLVD", "postcode": "89502"}}},
{"geometry": {"type": "Point", "coordinates": [-119.800794771, 39.505825693]}, "type": "Feature", "properties": {"collection_times": [{"days": "Mon-Fri", "time": "5:30pm"}, {"days": "Sat-Sun", "time": "Closed"}], "id": "8950200108", "name": "USPS COLLECTION BOX - PO LOBBY", "address": {"city": "RENO", "state": "NV", "street": "279 E PLUMB LN", "postcode": "89502"}}},
{"geometry": {"type": "Point", "coordinates": [-119.785544316, 39.4770159989]}, "type": "Feature", "properties": {"collection_times": [{"days": "Mon-Fri", "time": "5:00pm"}, {"days": "Sat", "time": "2:00pm"}, {"days": "Sun", "time": "Closed"}], "id": "8950200113", "name": "USPS COLLECTION BOX - BLUE BOX", "address": {"city": "RENO", "state": "NV", "street": "5053 S MCCARRAN BLVD", "postcode": "89502"}}},
{"geometry": {"type": "Point", "coordinates": [-119.785544316, 39.4770159989]}, "type": "Feature", "properties": {"collection_times": [{"days": "Mon-Fri", "time": "5:00pm"}, {"days": "Sat", "time": "2:00pm"}, {"days": "Sun", "time": "Closed"}], "id": "8950200114", "name": "USPS COLLECTION BOX - BLUE BOX", "address": {"city": "RENO", "state": "NV", "street": "5053 S MCCARRAN BLVD", "postcode": "89502"}}},
{"geometry": {"type": "Point", "coordinates": [-119.8186056536, 39.5315421261]}, "type": "Feature", "properties": {"collection_times": [{"days": "Mon-Fri", "time": "3:15pm"}, {"days": "Sat", "time": "2:45pm"}, {"days": "Sun", "time": "Closed"}], "id": "8950300002", "name": "USPS COLLECTION BOX - BLUE BOX", "address": {"city": "RENO", "state": "NV", "street": "236 W 6TH ST", "postcode": "89503"}}},
{"geometry": {"type": "Point", "coordinates": [-119.8212220021, 39.5243513628]}, "type": "Feature", "properties": {"collection_times": [{"days": "Mon-Fri", "time": "3:00pm"}, {"days": "Sat-Sun", "time": "Closed"}], "id": "8950300008", "name": "USPS COLLECTION BOX - BLUE BOX", "address": {"city": "RENO", "state": "NV", "street": "601 W 1ST ST", "postcode": "89503"}}},
{"geometry": {"type": "Point", "coordinates": [-119.8238809842, 39.5294253805]}, "type": "Feature", "properties": {"collection_times": [{"days": "Mon-Fri", "time": "3:15pm"}, {"days": "Sat-Sun", "time": "Closed"}], "id": "8950300009", "name": "USPS COLLECTION BOX - BLUE BOX", "address": {"city": "RENO", "state": "NV", "street": "700 W 5TH ST", "postcode": "89503"}}},
{"geometry": {"type": "Point", "coordinates": [-119.8273737454, 39.5316391288]}, "type": "Feature", "properties": {"collection_times": [{"days": "Mon-Fri", "time": "3:15pm"}, {"days": "Sat-Sun", "time": "Closed"}], "id": "8950300010", "name": "USPS COLLECTION BOX - BLUE BOX", "address": {"city": "RENO", "state": "NV", "street": "855 W 7TH ST", "postcode": "89503"}}},
{"geometry": {"type": "Point", "coordinates": [-119.8243696292, 39.523173251]}, "type": "Feature", "properties": {"collection_times": [{"days": "Mon-Fri", "time": "3:45pm"}, {"days": "Sat-Sun", "time": "Closed"}], "id": "8950300011", "name": "USPS COLLECTION BOX - BLUE BOX", "address": {"city": "RENO", "state": "NV", "street": "900 W 1ST ST", "postcode": "89503"}}},
{"geometry": {"type": "Point", "coordinates": [-119.836878006, 39.528493638]}, "type": "Feature", "properties": {"collection_times": [{"days": "Mon-Fri", "time": "5:30pm"}, {"days": "Sat", "time": "4:15pm"}, {"days": "Sun", "time": "Closed"}], "id": "8950300024", "name": "USPS COLLECTION BOX - BLUE BOX", "address": {"city": "RENO", "state": "NV", "street": "1490 STARDUST ST", "postcode": "89503"}}},
{"geometry": {"type": "Point", "coordinates": [-119.836878006, 39.528493638]}, "type": "Feature", "properties": {"collection_times": [{"days": "Mon-Fri", "time": "5:30pm"}, {"days": "Sat", "time": "4:15pm"}, {"days": "Sun", "time": "Closed"}], "id": "8950300025", "name": "USPS COLLECTION BOX - BLUE BOX", "address": {"city": "RENO", "state": "NV", "street": "1490 STARDUST ST", "postcode": "89503"}}},
{"geometry": {"type": "Point", "coordinates": [-119.836878006, 39.528493638]}, "type": "Feature", "properties": {"collection_times": [{"days": "Mon-Fri", "time": "5:30pm"}, {"days": "Sat", "time": "4:15pm"}, {"days": "Sun", "time": "Closed"}], "id": "8950300026", "name": "USPS COLLECTION BOX - BLUE BOX", "address": {"city": "RENO", "state": "NV", "street": "1490 STARDUST ST", "postcode": "89503"}}},
{"geometry": {"type": "Point", "coordinates": [-119.836878006, 39.528493638]}, "type": "Feature", "properties": {"collection_times": [{"days": "Mon-Fri", "time": "5:30pm"}, {"days": "Sat", "time": "4:15pm"}, {"days": "Sun", "time": "Closed"}], "id": "8950300028", "name": "USPS COLLECTION BOX - EXPRESS", "address": {"city": "RENO", "state": "NV", "street": "1490 STARDUST ST", "postcode": "89503"}}},
{"geometry": {"type": "Point", "coordinates": [-119.8289056773, 39.5259183392]}, "type": "Feature", "properties": {"collection_times": [{"days": "Mon-Fri", "time": "3:30pm"}, {"days": "Sat", "time": "1:00pm"}, {"days": "Sun", "time": "Closed"}], "id": "8950300033", "name": "USPS COLLECTION BOX - BLUE BOX", "address": {"city": "RENO", "state": "NV", "street": "1155 W 4TH ST", "postcode": "89503"}}},
{"geometry": {"type": "Point", "coordinates": [-119.836878006, 39.528493638]}, "type": "Feature", "properties": {"collection_times": [{"days": "Mon-Fri", "time": "5:00pm"}, {"days": "Sat", "time": "4:15pm"}, {"days": "Sun", "time": "Closed"}], "id": "8950300034", "name": "USPS COLLECTION BOX - PO LOBBY", "address": {"city": "RENO", "state": "NV", "street": "1490 STARDUST ST", "postcode": "89503"}}},
{"geometry": {"type": "Point", "coordinates": [-119.8311876052, 39.5315113692]}, "type": "Feature", "properties": {"collection_times": [{"days": "Mon-Fri", "time": "3:30pm"}, {"days": "Sat", "time": "1:00pm"}, {"days": "Sun", "time": "Closed"}], "id": "8950300036", "name": "USPS COLLECTION BOX - BLUE BOX", "address": {"city": "RENO", "state": "NV", "street": "701 KEYSTONE AVE", "postcode": "89503"}}},
{"geometry": {"type": "Point", "coordinates": [-119.8398007294, 39.6040172901]}, "type": "Feature", "properties": {"collection_times": [{"days": "Mon-Fri", "time": "4:45pm"}, {"days": "Sat-Sun", "time": "Closed"}], "id": "8950600001", "name": "USPS COLLECTION BOX - BLUE BOX", "address": {"city": "RENO", "state": "NV", "street": "1075 N HILLS BLVD", "postcode": "89506"}}},
{"geometry": {"type": "Point", "coordinates": [-119.8496192888, 39.6128871164]}, "type": "Feature", "properties": {"collection_times": [{"days": "Mon-Fri", "time": "4:30pm"}, {"days": "Sat", "time": "12:30pm"}, {"days": "Sun", "time": "Closed"}], "id": "8950600002", "name": "USPS COLLECTION BOX - BLUE BOX", "address": {"city": "RENO", "state": "NV", "street": "200 LEMMON DR", "postcode": "89506"}}},
{"geometry": {"type": "Point", "coordinates": [-119.8822015276, 39.6249343705]}, "type": "Feature", "properties": {"collection_times": [{"days": "Mon-Fri", "time": "4:45pm"}, {"days": "Sat-Sun", "time": "Closed"}], "id": "8950600005", "name": "USPS COLLECTION BOX - BLUE BOX", "address": {"city": "RENO", "state": "NV", "street": "10595 STEAD BLVD", "postcode": "89506"}}},
{"geometry": {"type": "Point", "coordinates": [-119.826261764, 39.571185447]}, "type": "Feature", "properties": {"collection_times": [{"days": "Mon-Fri", "time": "4:15pm"}, {"days": "Sat-Sun", "time": "Closed"}], "id": "8950600010", "name": "USPS COLLECTION BOX - BLUE BOX", "address": {"city": "RENO", "state": "NV", "street": "4720 N VIRGINIA ST", "postcode": "89506"}}},
{"geometry": {"type": "Point", "coordinates": [-119.964881849, 39.6707923163]}, "type": "Feature", "properties": {"collection_times": [{"days": "Mon-Sat", "time": "11:00am"}, {"days": "Sun", "time": "Closed"}], "id": "8950600012", "name": "USPS COLLECTION BOX - BLUE BOX", "address": {"city": "RENO", "state": "NV", "street": "3431 WHITE LAKE PKWY", "postcode": "89506"}}},
{"geometry": {"type": "Point", "coordinates": [-119.838366528, 39.604357556]}, "type": "Feature", "properties": {"collection_times": [{"days": "Mon-Fri", "time": "5:30pm"}, {"days": "Sat", "time": "3:15pm"}, {"days": "Sun", "time": "Closed"}], "id": "8950600013", "name": "USPS COLLECTION BOX - PO LOBBY", "address": {"city": "RENO", "state": "NV", "street": "1050 N HILLS BLVD", "postcode": "89506"}}},
{"geometry": {"type": "Point", "coordinates": [-119.838366528, 39.604357556]}, "type": "Feature", "properties": {"collection_times": [{"days": "Mon-Fri", "time": "5:00pm"}, {"days": "Sat", "time": "3:15pm"}, {"days": "Sun", "time": "Closed"}], "id": "8950600016", "name": "USPS COLLECTION BOX - BLUE BOX", "address": {"city": "RENO", "state": "NV", "street": "1050 N HILLS BLVD", "postcode": "89506"}}},
{"geometry": {"type": "Point", "coordinates": [-119.838366528, 39.604357556]}, "type": "Feature", "properties": {"collection_times": [{"days": "Mon-Fri", "time": "5:00pm"}, {"days": "Sat", "time": "3:15pm"}, {"days": "Sun", "time": "Closed"}], "id": "8950600017", "name": "USPS COLLECTION BOX - EXPRESS", "address": {"city": "RENO", "state": "NV", "street": "1050 N HILLS BLVD", "postcode": "89506"}}},
{"geometry": {"type": "Point", "coordinates": [-119.838366528, 39.604357556]}, "type": "Feature", "properties": {"collection_times": [{"days": "Mon-Fri", "time": "5:00pm"}, {"days": "Sat", "time": "3:15pm"}, {"days": "Sun", "time": "Closed"}], "id": "8950600018", "name": "USPS COLLECTION BOX - BLUE BOX", "address": {"city": "RENO", "state": "NV", "street": "1050 N HILLS BLVD", "postcode": "89506"}}},
{"geometry": {"type": "Point", "coordinates": [-119.8815769252, 39.6421073858]}, "type": "Feature", "properties": {"collection_times": [{"days": "Mon-Fri", "time": "4:45pm"}, {"days": "Sat-Sun", "time": "Closed"}], "id": "8950600019", "name": "USPS COLLECTION BOX - BLUE BOX", "address": {"city": "RENO", "state": "NV", "street": "13900 STEAD BLVD", "postcode": "89506"}}},
{"geometry": {"type": "Point", "coordinates": [-119.821259875, 39.548363674]}, "type": "Feature", "properties": {"collection_times": [{"days": "Mon-Fri", "time": "5:00pm"}, {"days": "Sat", "time": "10:30am"}, {"days": "Sun", "time": "Closed"}], "id": "8950700001", "name": "USPS COLLECTION BOX - PO LOBBY", "address": {"city": "RENO", "state": "NV", "street": "1674 N VIRGINIA ST", "postcode": "89507"}}},
{"geometry": {"type": "Point", "coordinates": [-119.821259875, 39.548363674]}, "type": "Feature", "properties": {"collection_times": [{"days": "Mon-Fri", "time": "5:15pm"}, {"days": "Sat", "time": "1:00pm"}, {"days": "Sun", "time": "Closed"}], "id": "8950700004", "name": "USPS COLLECTION BOX - BLUE BOX", "address": {"city": "RENO", "state": "NV", "street": "1674 N VIRGINIA ST", "postcode": "89507"}}},
{"geometry": {"type": "Point", "coordinates": [-119.821259875, 39.548363674]}, "type": "Feature", "properties": {"collection_times": [{"days": "Mon-Fri", "time": "5:15pm"}, {"days": "Sat", "time": "1:00pm"}, {"days": "Sun", "time": "Closed"}], "id": "8950700005", "name": "USPS COLLECTION BOX - BLUE BOX", "address": {"city": "RENO", "state": "NV", "street": "1674 N VIRGINIA ST", "postcode": "89507"}}},
{"geometry": {"type": "Point", "coordinates": [-119.8062129755, 39.5057406081]}, "type": "Feature", "properties": {"collection_times": [{"days": "Mon-Fri", "time": "2:30pm"}, {"days": "Sat", "time": "2:00pm"}, {"days": "Sun", "time": "Closed"}], "id": "8950900004", "name": "USPS COLLECTION BOX - BLUE BOX", "address": {"city": "RENO", "state": "NV", "street": "195 W PLUMB LN", "postcode": "89509"}}},
{"geometry": {"type": "Point", "coordinates": [-119.8210664543, 39.4999924532]}, "type": "Feature", "properties": {"collection_times": [{"days": "Mon-Fri", "time": "4:00pm"}, {"days": "Sat", "time": "2:30pm"}, {"days": "Sun", "time": "Closed"}], "id": "8950900006", "name": "USPS COLLECTION BOX - EXPRESS", "address": {"city": "RENO", "state": "NV", "street": "460 CALIFORNIA AVE", "postcode": "89509"}}},
{"geometry": {"type": "Point", "coordinates": [-119.7992077868, 39.4766151079]}, "type": "Feature", "properties": {"collection_times": [{"days": "Mon-Fri", "time": "5:00pm"}, {"days": "Sat", "time": "12:45pm"}, {"days": "Sun", "time": "Closed"}], "id": "8950900008", "name": "USPS COLLECTION BOX - BLUE BOX", "address": {"city": "RENO", "state": "NV", "street": "6490 S MCCARRAN BLVD", "postcode": "89509"}}},
{"geometry": {"type": "Point", "coordinates": [-119.806861237, 39.4912055913]}, "type": "Feature", "properties": {"collection_times": [{"days": "Mon-Fri", "time": "2:45pm"}, {"days": "Sat", "time": "12:15pm"}, {"days": "Sun", "time": "Closed"}], "id": "8950900009", "name": "USPS COLLECTION BOX - BLUE BOX", "address": {"city": "RENO", "state": "NV", "street": "960 W MOANA LN", "postcode": "89509"}}},
{"geometry": {"type": "Point", "coordinates": [-119.8364207662, 39.5099128645]}, "type": "Feature", "properties": {"collection_times": [{"days": "Mon-Fri", "time": "3:45pm"}, {"days": "Sat", "time": "1:00pm"}, {"days": "Sun", "time": "Closed"}], "id": "8950900011", "name": "USPS COLLECTION BOX - BLUE BOX", "address": {"city": "RENO", "state": "NV", "street": "1441 MAYBERRY DR", "postcode": "89509"}}},
{"geometry": {"type": "Point", "coordinates": [-119.8127134583, 39.514623318]}, "type": "Feature", "properties": {"collection_times": [{"days": "Mon-Fri", "time": "4:15pm"}, {"days": "Sat", "time": "1:00pm"}, {"days": "Sun", "time": "Closed"}], "id": "8950900012", "name": "USPS COLLECTION BOX - BLUE BOX", "address": {"city": "RENO", "state": "NV", "street": "1015 PLUMAS ST", "postcode": "89509"}}},
{"geometry": {"type": "Point", "coordinates": [-119.8039550191, 39.4954471528]}, "type": "Feature", "properties": {"collection_times": [{"days": "Mon-Fri", "time": "3:00pm"}, {"days": "Sat-Sun", "time": "Closed"}], "id": "8950900014", "name": "USPS COLLECTION BOX - BLUE BOX", "address": {"city": "RENO", "state": "NV", "street": "580 BRINKBY AVE", "postcode": "89509"}}},
{"geometry": {"type": "Point", "coordinates": [-119.8171695414, 39.5124503514]}, "type": "Feature", "properties": {"collection_times": [{"days": "Mon-Fri", "time": "2:45pm"}, {"days": "Sat", "time": "2:00pm"}, {"days": "Sun", "time": "Closed"}], "id": "8950900018", "name": "USPS COLLECTION BOX - BLUE BOX", "address": {"city": "RENO", "state": "NV", "street": "1200 S ARLINGTON AVE", "postcode": "89509"}}},
{"geometry": {"type": "Point", "coordinates": [-119.8164266432, 39.5200615094]}, "type": "Feature", "properties": {"collection_times": [{"days": "Mon-Fri", "time": "4:00pm"}, {"days": "Sat", "time": "2:30pm"}, {"days": "Sun", "time": "Closed"}], "id": "8950900020", "name": "USPS COLLECTION BOX - BLUE BOX", "address": {"city": "RENO", "state": "NV", "street": "460 CALIFORNIA AVE", "postcode": "89509"}}},
{"geometry": {"type": "Point", "coordinates": [-119.7965207681, 39.487558107]}, "type": "Feature", "properties": {"collection_times": [{"days": "Mon-Fri", "time": "2:45pm"}, {"days": "Sat", "time": "12:15pm"}, {"days": "Sun", "time": "Closed"}], "id": "8950900022", "name": "USPS COLLECTION BOX - BLUE BOX", "address": {"city": "RENO", "state": "NV", "street": "100 W PECKHAM LN", "postcode": "89509"}}},
{"geometry": {"type": "Point", "coordinates": [-119.7992077868, 39.4766151079]}, "type": "Feature", "properties": {"collection_times": [{"days": "Mon-Fri", "time": "5:00pm"}, {"days": "Sat", "time": "12:45pm"}, {"days": "Sun", "time": "Closed"}], "id": "8950900025", "name": "USPS COLLECTION BOX - BLUE BOX", "address": {"city": "RENO", "state": "NV", "street": "6490 S MCCARRAN BLVD", "postcode": "89509"}}},
{"geometry": {"type": "Point", "coordinates": [-119.7992077868, 39.4766151079]}, "type": "Feature", "properties": {"collection_times": [{"days": "Mon-Fri", "time": "5:00pm"}, {"days": "Sat", "time": "12:45pm"}, {"days": "Sun", "time": "Closed"}], "id": "8950900026", "name": "USPS COLLECTION BOX - BLUE BOX", "address": {"city": "RENO", "state": "NV", "street": "6490 S MCCARRAN BLVD", "postcode": "89509"}}},
{"geometry": {"type": "Point", "coordinates": [-119.8210664543, 39.4999924532]}, "type": "Feature", "properties": {"collection_times": [{"days": "Mon-Fri", "time": "5:00pm"}, {"days": "Sat", "time": "12:45pm"}, {"days": "Sun", "time": "Closed"}], "id": "8950900027", "name": "USPS COLLECTION BOX - EXPRESS", "address": {"city": "RENO", "state": "NV", "street": "6490 S MCCARRAN BLVD", "postcode": "89509"}}},
{"geometry": {"type": "Point", "coordinates": [-119.806861237, 39.4912055913]}, "type": "Feature", "properties": {"collection_times": [{"days": "Mon-Fri", "time": "2:45pm"}, {"days": "Sat", "time": "12:15pm"}, {"days": "Sun", "time": "Closed"}], "id": "8950900028", "name": "USPS COLLECTION BOX - BLUE BOX", "address": {"city": "RENO", "state": "NV", "street": "960 W MOANA LN", "postcode": "89509"}}},
{"geometry": {"type": "Point", "coordinates": [-119.8210664543, 39.4999924532]}, "type": "Feature", "properties": {"collection_times": [{"days": "Mon-Fri", "time": "2:45pm"}, {"days": "Sat", "time": "12:15pm"}, {"days": "Sun", "time": "Closed"}], "id": "8950900029", "name": "USPS COLLECTION BOX - EXPRESS", "address": {"city": "RENO", "state": "NV", "street": "960 W MOANA LN", "postcode": "89509"}}},
{"geometry": {"type": "Point", "coordinates": [-119.8272045823, 39.5146057026]}, "type": "Feature", "properties": {"collection_times": [{"days": "Mon-Fri", "time": "3:45pm"}, {"days": "Sat", "time": "2:30pm"}, {"days": "Sun", "time": "Closed"}], "id": "8950900031", "name": "USPS COLLECTION BOX - BLUE BOX", "address": {"city": "RENO", "state": "NV", "street": "1119 CALIFORNIA AVE", "postcode": "89509"}}},
{"geometry": {"type": "Point", "coordinates": [-119.8062129755, 39.5057406081]}, "type": "Feature", "properties": {"collection_times": [{"days": "Mon-Fri", "time": "2:30pm"}, {"days": "Sat", "time": "2:00pm"}, {"days": "Sun", "time": "Closed"}], "id": "8950900032", "name": "USPS COLLECTION BOX - BLUE BOX", "address": {"city": "RENO", "state": "NV", "street": "195 W PLUMB LN", "postcode": "89509"}}},
{"geometry": {"type": "Point", "coordinates": [-119.806861237, 39.4912055913]}, "type": "Feature", "properties": {"collection_times": [{"days": "Mon-Fri", "time": "2:45pm"}, {"days": "Sat", "time": "12:15pm"}, {"days": "Sun", "time": "Closed"}], "id": "8950900036", "name": "USPS COLLECTION BOX - BLUE BOX", "address": {"city": "RENO", "state": "NV", "street": "960 W MOANA LN", "postcode": "89509"}}},
{"geometry": {"type": "Point", "coordinates": [-119.7939504229, 39.4776476986]}, "type": "Feature", "properties": {"collection_times": [{"days": "Mon-Fri", "time": "2:15pm"}, {"days": "Sat-Sun", "time": "Closed"}], "id": "8950900037", "name": "USPS COLLECTION BOX - BLUE BOX", "address": {"city": "RENO", "state": "NV", "street": "4995 KIETZKE LN", "postcode": "89509"}}},
{"geometry": {"type": "Point", "coordinates": [-119.8062129755, 39.5057406081]}, "type": "Feature", "properties": {"collection_times": [{"days": "Mon-Fri", "time": "2:30pm"}, {"days": "Sat", "time": "2:00pm"}, {"days": "Sun", "time": "Closed"}], "id": "8950900038", "name": "USPS COLLECTION BOX - BLUE BOX", "address": {"city": "RENO", "state": "NV", "street": "195 W PLUMB LN", "postcode": "89509"}}},
{"geometry": {"type": "Point", "coordinates": [-119.8116794289, 39.5201171084]}, "type": "Feature", "properties": {"collection_times": [{"days": "Mon-Fri", "time": "4:00pm"}, {"days": "Sat-Sun", "time": "Closed"}], "id": "8950900039", "name": "USPS COLLECTION BOX - BLUE BOX", "address": {"city": "RENO", "state": "NV", "street": "100 CALIFORNIA AVE", "postcode": "89509"}}},
{"geometry": {"type": "Point", "coordinates": [-119.8264403908, 39.5177571053]}, "type": "Feature", "properties": {"collection_times": [{"days": "Mon-Fri", "time": "3:45pm"}, {"days": "Sat-Sun", "time": "Closed"}], "id": "8950900044", "name": "USPS COLLECTION BOX - BLUE BOX", "address": {"city": "RENO", "state": "NV", "street": "300 BOOTH ST", "postcode": "89509"}}},
{"geometry": {"type": "Point", "coordinates": [-119.7933747425, 39.4808562615]}, "type": "Feature", "properties": {"collection_times": [{"days": "Mon-Fri", "time": "2:15pm"}, {"days": "Sat-Sun", "time": "Closed"}], "id": "8950900047", "name": "USPS COLLECTION BOX - BLUE BOX", "address": {"city": "RENO", "state": "NV", "street": "4819 KIETZKE LN", "postcode": "89509"}}},
{"geometry": {"type": "Point", "coordinates": [-119.781659732, 39.5130035]}, "type": "Feature", "properties": {"collection_times": [{"days": "Mon-Sat", "time": "9:00pm"}, {"days": "Sun", "time": "Closed"}], "id": "8951000000", "name": "USPS COLLECTION BOX - PO LOBBY", "address": {"city": "RENO", "state": "NV", "street": "2000 VASSAR ST", "postcode": "89510"}}},
{"geometry": {"type": "Point", "coordinates": [-119.781659732, 39.5130035]}, "type": "Feature", "properties": {"collection_times": [{"days": "Mon-Sat", "time": "9:00pm"}, {"days": "Sun", "time": "Closed"}], "id": "8951000001", "name": "USPS COLLECTION BOX - PO LOBBY", "address": {"city": "RENO", "state": "NV", "street": "2000 VASSAR ST", "postcode": "89510"}}},
{"geometry": {"type": "Point", "coordinates": [-119.781659732, 39.5130035]}, "type": "Feature", "properties": {"collection_times": [{"days": "Mon-Sat", "time": "9:00pm"}, {"days": "Sun", "time": "Closed"}], "id": "8951000002", "name": "USPS COLLECTION BOX - EXPRESS", "address": {"city": "RENO", "state": "NV", "street": "2000 VASSAR ST", "postcode": "89510"}}},
{"geometry": {"type": "Point", "coordinates": [-119.781659732, 39.5130035]}, "type": "Feature", "properties": {"collection_times": [{"days": "Mon-Sat", "time": "9:00pm"}, {"days": "Sun", "time": "Closed"}], "id": "8951000003", "name": "USPS COLLECTION BOX - BLUE BOX", "address": {"city": "RENO", "state": "NV", "street": "2000 VASSAR ST", "postcode": "89510"}}},
{"geometry": {"type": "Point", "coordinates": [-119.781659732, 39.5130035]}, "type": "Feature", "properties": {"collection_times": [{"days": "Mon-Sat", "time": "9:00pm"}, {"days": "Sun", "time": "Closed"}], "id": "8951000004", "name": "USPS COLLECTION BOX - EXPRESS", "address": {"city": "RENO", "state": "NV", "street": "2000 VASSAR ST", "postcode": "89510"}}},
{"geometry": {"type": "Point", "coordinates": [-119.781659732, 39.5130035]}, "type": "Feature", "properties": {"collection_times": [{"days": "Mon-Sat", "time": "9:00pm"}, {"days": "Sun", "time": "Closed"}], "id": "8951000005", "name": "USPS COLLECTION BOX - BLUE BOX", "address": {"city": "RENO", "state": "NV", "street": "2000 VASSAR ST", "postcode": "89510"}}},
{"geometry": {"type": "Point", "coordinates": [-119.781659732, 39.5130035]}, "type": "Feature", "properties": {"collection_times": [{"days": "Mon-Sat", "time": "9:00pm"}, {"days": "Sun", "time": "Closed"}], "id": "8951000006", "name": "USPS COLLECTION BOX - BLUE BOX", "address": {"city": "RENO", "state": "NV", "street": "2000 VASSAR ST", "postcode": "89510"}}},
{"geometry": {"type": "Point", "coordinates": [-119.7691512998, 39.4728904488]}, "type": "Feature", "properties": {"collection_times": [{"days": "Mon-Fri", "time": "3:45pm"}, {"days": "Sat", "time": "1:15pm"}, {"days": "Sun", "time": "Closed"}], "id": "8951100001", "name": "USPS COLLECTION BOX - BLUE BOX", "address": {"city": "RENO", "state": "NV", "street": "5301 LOUIE LN", "postcode": "89511"}}},
{"geometry": {"type": "Point", "coordinates": [-119.7778948087, 39.4535143392]}, "type": "Feature", "properties": {"collection_times": [{"days": "Mon-Fri", "time": "3:00pm"}, {"days": "Sat", "time": "12:45pm"}, {"days": "Sun", "time": "Closed"}], "id": "8951100006", "name": "USPS COLLECTION BOX - BLUE BOX", "address": {"city": "RENO", "state": "NV", "street": "8175 S VIRGINIA ST", "postcode": "89511"}}},
{"geometry": {"type": "Point", "coordinates": [-119.7913683417, 39.4215129638]}, "type": "Feature", "properties": {"collection_times": [{"days": "Mon-Fri", "time": "3:45pm"}, {"days": "Sat", "time": "1:15pm"}, {"days": "Sun", "time": "Closed"}], "id": "8951100009", "name": "USPS COLLECTION BOX - EXPRESS", "address": {"city": "RENO", "state": "NV", "street": "5301 LOUIE LN", "postcode": "89511"}}},
{"geometry": {"type": "Point", "coordinates": [-119.7691512998, 39.4728904488]}, "type": "Feature", "properties": {"collection_times": [{"days": "Mon-Fri", "time": "3:45pm"}, {"days": "Sat", "time": "1:15pm"}, {"days": "Sun", "time": "Closed"}], "id": "8951100010", "name": "USPS COLLECTION BOX - BLUE BOX", "address": {"city": "RENO", "state": "NV", "street": "5301 LOUIE LN", "postcode": "89511"}}},
{"geometry": {"type": "Point", "coordinates": [-119.7711500718, 39.4525713345]}, "type": "Feature", "properties": {"collection_times": [{"days": "Mon-Fri", "time": "3:45pm"}, {"days": "Sat", "time": "1:30pm"}, {"days": "Sun", "time": "Closed"}], "id": "8951100016", "name": "USPS COLLECTION BOX - BLUE BOX", "address": {"city": "RENO", "state": "NV", "street": "8000 OFFENHAUSER DR", "postcode": "89511"}}},
{"geometry": {"type": "Point", "coordinates": [-119.76239239, 39.426648883]}, "type": "Feature", "properties": {"collection_times": [{"days": "Mon-Fri", "time": "5:00pm"}, {"days": "Sat", "time": "2:45pm"}, {"days": "Sun", "time": "Closed"}], "id": "8951100017", "name": "USPS COLLECTION BOX - BLUE BOX", "address": {"city": "RENO", "state": "NV", "street": "75 MCCABE DR", "postcode": "89511"}}},
{"geometry": {"type": "Point", "coordinates": [-119.76239239, 39.426648883]}, "type": "Feature", "properties": {"collection_times": [{"days": "Mon-Fri", "time": "5:00pm"}, {"days": "Sat", "time": "2:45pm"}, {"days": "Sun", "time": "Closed"}], "id": "8951100018", "name": "USPS COLLECTION BOX - BLUE BOX", "address": {"city": "RENO", "state": "NV", "street": "75 MCCABE DR", "postcode": "89511"}}},
{"geometry": {"type": "Point", "coordinates": [-119.76239239, 39.426648883]}, "type": "Feature", "properties": {"collection_times": [{"days": "Mon-Fri", "time": "5:30pm"}, {"days": "Sat", "time": "2:45pm"}, {"days": "Sun", "time": "Closed"}], "id": "8951100021", "name": "USPS COLLECTION BOX - PO LOBBY", "address": {"city": "RENO", "state": "NV", "street": "75 MCCABE DR", "postcode": "89511"}}},
{"geometry": {"type": "Point", "coordinates": [-119.7918675678, 39.470622674]}, "type": "Feature", "properties": {"collection_times": [{"days": "Mon-Fri", "time": "2:45pm"}, {"days": "Sat-Sun", "time": "Closed"}], "id": "8951100022", "name": "USPS COLLECTION BOX - BLUE BOX", "address": {"city": "RENO", "state": "NV", "street": "5340 KIETZKE LN", "postcode": "89511"}}},
{"geometry": {"type": "Point", "coordinates": [-119.76239239, 39.426648883]}, "type": "Feature", "properties": {"collection_times": [{"days": "Mon-Fri", "time": "5:00pm"}, {"days": "Sat", "time": "2:45pm"}, {"days": "Sun", "time": "Closed"}], "id": "8951100023", "name": "USPS COLLECTION BOX - BLUE BOX", "address": {"city": "RENO", "state": "NV", "street": "75 MCCABE DR", "postcode": "89511"}}},
{"geometry": {"type": "Point", "coordinates": [-119.76239239, 39.426648883]}, "type": "Feature", "properties": {"collection_times": [{"days": "Mon-Fri", "time": "5:00pm"}, {"days": "Sat", "time": "2:45pm"}, {"days": "Sun", "time": "Closed"}], "id": "8951100024", "name": "USPS COLLECTION BOX - BLUE BOX", "address": {"city": "RENO", "state": "NV", "street": "75 MCCABE DR", "postcode": "89511"}}},
{"geometry": {"type": "Point", "coordinates": [-119.76239239, 39.426648883]}, "type": "Feature", "properties": {"collection_times": [{"days": "Mon-Fri", "time": "5:30pm"}, {"days": "Sat", "time": "2:45pm"}, {"days": "Sun", "time": "Closed"}], "id": "8951100025", "name": "USPS COLLECTION BOX - APC", "address": {"city": "RENO", "state": "NV", "street": "75 MCCABE DR", "postcode": "89511"}}},
{"geometry": {"type": "Point", "coordinates": [-119.7625827147, 39.4417866271]}, "type": "Feature", "properties": {"collection_times": [{"days": "Mon-Fri", "time": "3:15pm"}, {"days": "Sat-Sun", "time": "Closed"}], "id": "8951100027", "name": "USPS COLLECTION BOX - BLUE BOX", "address": {"city": "RENO", "state": "NV", "street": "590 DOUBLE EAGLE BLVD", "postcode": "89511"}}},
{"geometry": {"type": "Point", "coordinates": [-119.7569587278, 39.4321723537]}, "type": "Feature", "properties": {"collection_times": [{"days": "Mon-Fri", "time": "3:15pm"}, {"days": "Sat-Sun", "time": "Closed"}], "id": "8951100028", "name": "USPS COLLECTION BOX - BLUE BOX", "address": {"city": "RENO", "state": "NV", "street": "10315 PROFESSIONAL CIR", "postcode": "89511"}}},
{"geometry": {"type": "Point", "coordinates": [-119.7675373151, 39.3949375737]}, "type": "Feature", "properties": {"collection_times": [{"days": "Mon-Fri", "time": "5:15pm"}, {"days": "Sat-Sun", "time": "Closed"}], "id": "8951100030", "name": "USPS COLLECTION BOX - BLUE BOX", "address": {"city": "RENO", "state": "NV", "street": "18144 WEDGE PKWY", "postcode": "89511"}}},
{"geometry": {"type": "Point", "coordinates": [-119.7675373151, 39.3949375737]}, "type": "Feature", "properties": {"collection_times": [{"days": "Mon-Fri", "time": "5:15pm"}, {"days": "Sat-Sun", "time": "Closed"}], "id": "8951100031", "name": "USPS COLLECTION BOX - BLUE BOX", "address": {"city": "RENO", "state": "NV", "street": "18144 WEDGE PKWY", "postcode": "89511"}}},
{"geometry": {"type": "Point", "coordinates": [-119.8006237843, 39.5347620296]}, "type": "Feature", "properties": {"collection_times": [{"days": "Mon-Fri", "time": "2:30pm"}, {"days": "Sat", "time": "12:00pm"}, {"days": "Sun", "time": "Closed"}], "id": "8951200001", "name": "USPS COLLECTION BOX - BLUE BOX", "address": {"city": "RENO", "state": "NV", "street": "1001 E 6TH ST", "postcode": "89512"}}},
{"geometry": {"type": "Point", "coordinates": [-119.7836953516, 39.5431434047]}, "type": "Feature", "properties": {"collection_times": [{"days": "Mon-Fri", "time": "2:30pm"}, {"days": "Sat", "time": "12:00pm"}, {"days": "Sun", "time": "Closed"}], "id": "8951200007", "name": "USPS COLLECTION BOX - BLUE BOX", "address": {"city": "RENO", "state": "NV", "street": "1400 SILVERADA BLVD", "postcode": "89512"}}},
{"geometry": {"type": "Point", "coordinates": [-119.8020253007, 39.5385310477]}, "type": "Feature", "properties": {"collection_times": [{"days": "Mon-Fri", "time": "2:30pm"}, {"days": "Sat-Sun", "time": "Closed"}], "id": "8951200008", "name": "USPS COLLECTION BOX - BLUE BOX", "address": {"city": "RENO", "state": "NV", "street": "1001 E 9TH ST", "postcode": "89512"}}},
{"geometry": {"type": "Point", "coordinates": [-119.8093631952, 39.5730817302]}, "type": "Feature", "properties": {"collection_times": [{"days": "Mon-Fri", "time": "4:15pm"}, {"days": "Sat", "time": "12:15pm"}, {"days": "Sun", "time": "Closed"}], "id": "8951200012", "name": "USPS COLLECTION BOX - BLUE BOX", "address": {"city": "RENO", "state": "NV", "street": "911 E PARR BLVD", "postcode": "89512"}}},
{"geometry": {"type": "Point", "coordinates": [-119.8595774374, 39.5001014427]}, "type": "Feature", "properties": {"collection_times": [{"days": "Mon-Fri", "time": "3:30pm"}, {"days": "Sat", "time": "2:30pm"}, {"days": "Sun", "time": "Closed"}], "id": "8951900001", "name": "USPS COLLECTION BOX - BLUE BOX", "address": {"city": "RENO", "state": "NV", "street": "1000 CAUGHLIN XING", "postcode": "89519"}}},
{"geometry": {"type": "Point", "coordinates": [-119.8541512046, 39.4840546044]}, "type": "Feature", "properties": {"collection_times": [{"days": "Mon-Fri", "time": "3:30pm"}, {"days": "Sat", "time": "2:30pm"}, {"days": "Sun", "time": "Closed"}], "id": "8951900002", "name": "USPS COLLECTION BOX - BLUE BOX", "address": {"city": "RENO", "state": "NV", "street": "4788 CAUGHLIN PKWY", "postcode": "89519"}}},
{"geometry": {"type": "Point", "coordinates": [-119.811272491, 39.472275882]}, "type": "Feature", "properties": {"collection_times": [{"days": "Mon-Fri", "time": "2:30pm"}, {"days": "Sat", "time": "12:30pm"}, {"days": "Sun", "time": "Closed"}], "id": "8951900003", "name": "USPS COLLECTION BOX - BLUE BOX", "address": {"city": "RENO", "state": "NV", "street": "6110 PLUMAS ST", "postcode": "89519"}}},
{"geometry": {"type": "Point", "coordinates": [-119.811272491, 39.472275882]}, "type": "Feature", "properties": {"collection_times": [{"days": "Mon-Fri", "time": "2:30pm"}, {"days": "Sat", "time": "12:30pm"}, {"days": "Sun", "time": "Closed"}], "id": "8951900004", "name": "USPS COLLECTION BOX - BLUE BOX", "address": {"city": "RENO", "state": "NV", "street": "6110 PLUMAS ST", "postcode": "89519"}}},
{"geometry": {"type": "Point", "coordinates": [-119.8089101219, 39.4721504883]}, "type": "Feature", "properties": {"collection_times": [{"days": "Mon-Fri", "time": "2:15pm"}, {"days": "Sat", "time": "12:30pm"}, {"days": "Sun", "time": "Closed"}], "id": "8951900005", "name": "USPS COLLECTION BOX - BLUE BOX", "address": {"city": "RENO", "state": "NV", "street": "1025 RIDGEVIEW DR", "postcode": "89519"}}},
{"geometry": {"type": "Point", "coordinates": [-119.851637913, 39.482490771]}, "type": "Feature", "properties": {"collection_times": [{"days": "Mon-Fri", "time": "2:15pm"}, {"days": "Sat", "time": "12:30pm"}, {"days": "Sun", "time": "Closed"}], "id": "8951900006", "name": "USPS COLLECTION BOX - EXPRESS", "address": {"city": "RENO", "state": "NV", "street": "1025 RIDGEVIEW DR", "postcode": "89519"}}},
{"geometry": {"type": "Point", "coordinates": [-119.7593034905, 39.4452446508]}, "type": "Feature", "properties": {"collection_times": [{"days": "Mon-Fri", "time": "3:30pm"}, {"days": "Sat-Sun", "time": "Closed"}], "id": "8952100001", "name": "USPS COLLECTION BOX - BLUE BOX", "address": {"city": "RENO", "state": "NV", "street": "912 SANDHILL RD", "postcode": "89521"}}},
{"geometry": {"type": "Point", "coordinates": [-119.8812705389, 39.529585512]}, "type": "Feature", "properties": {"collection_times": [{"days": "Mon-Fri", "time": "5:15pm"}, {"days": "Sat", "time": "1:30pm"}, {"days": "Sun", "time": "Closed"}], "id": "8952300001", "name": "USPS COLLECTION BOX - BLUE BOX", "address": {"city": "RENO", "state": "NV", "street": "5150 MAE ANNE AVE", "postcode": "89523"}}},
{"geometry": {"type": "Point", "coordinates": [-119.8687832887, 39.5335833632]}, "type": "Feature", "properties": {"collection_times": [{"days": "Mon-Fri", "time": "5:15pm"}, {"days": "Sat-Sun", "time": "Closed"}], "id": "8952300002", "name": "USPS COLLECTION BOX - BLUE BOX", "address": {"city": "RENO", "state": "NV", "street": "2005 SIERRA HIGHLANDS DR", "postcode": "89523"}}},
{"geometry": {"type": "Point", "coordinates": [-119.87989665, 39.526384984]}, "type": "Feature", "properties": {"collection_times": [{"days": "Mon-Fri", "time": "5:15pm"}, {"days": "Sat", "time": "3:45pm"}, {"days": "Sun", "time": "Closed"}], "id": "8952300007", "name": "USPS COLLECTION BOX - BLUE BOX", "address": {"city": "RENO", "state": "NV", "street": "1580 GRAND POINT WAY", "postcode": "89523"}}},
{"geometry": {"type": "Point", "coordinates": [-119.87989665, 39.526384984]}, "type": "Feature", "properties": {"collection_times": [{"days": "Mon-Fri", "time": "5:30pm"}, {"days": "Sat", "time": "3:45pm"}, {"days": "Sun", "time": "Closed"}], "id": "8952300009", "name": "USPS COLLECTION BOX - PO LOBBY", "address": {"city": "RENO", "state": "NV", "street": "1580 GRAND POINT WAY", "postcode": "89523"}}},
{"geometry": {"type": "Point", "coordinates": [-119.87989665, 39.526384984]}, "type": "Feature", "properties": {"collection_times": [{"days": "Mon-Fri", "time": "5:15pm"}, {"days": "Sat", "time": "3:45pm"}, {"days": "Sun", "time": "Closed"}], "id": "8952300010", "name": "USPS COLLECTION BOX - BLUE BOX", "address": {"city": "RENO", "state": "NV", "street": "1580 GRAND POINT WAY", "postcode": "89523"}}},
{"geometry": {"type": "Point", "coordinates": [-119.87989665, 39.526384984]}, "type": "Feature", "properties": {"collection_times": [{"days": "Mon-Fri", "time": "5:15pm"}, {"days": "Sat", "time": "3:45pm"}, {"days": "Sun", "time": "Closed"}], "id": "8952300011", "name": "USPS COLLECTION BOX - EXPRESS", "address": {"city": "RENO", "state": "NV", "street": "1580 GRAND POINT WAY", "postcode": "89523"}}},
{"geometry": {"type": "Point", "coordinates": [-119.9423119753, 39.5489438606]}, "type": "Feature", "properties": {"collection_times": [{"days": "Mon-Fri", "time": "3:00pm"}, {"days": "Sat", "time": "2:15pm"}, {"days": "Sun", "time": "Closed"}], "id": "8952300012", "name": "USPS COLLECTION BOX - BLUE BOX", "address": {"city": "RENO", "state": "NV", "street": "0 GARSON RD", "postcode": "89523"}}},
{"geometry": {"type": "Point", "coordinates": [-119.8523938321, 39.5202532346]}, "type": "Feature", "properties": {"collection_times": [{"days": "Mon-Fri", "time": "4:00pm"}, {"days": "Sat", "time": "1:00pm"}, {"days": "Sun", "time": "Closed"}], "id": "8952300013", "name": "USPS COLLECTION BOX - BLUE BOX", "address": {"city": "RENO", "state": "NV", "street": "1555 SKY VALLEY DR", "postcode": "89523"}}},
{"geometry": {"type": "Point", "coordinates": [-119.8967247148, 39.5057027534]}, "type": "Feature", "properties": {"collection_times": [{"days": "Mon-Fri", "time": "3:15pm"}, {"days": "Sat-Sun", "time": "Closed"}], "id": "8952300015", "name": "USPS COLLECTION BOX - BLUE BOX", "address": {"city": "RENO", "state": "NV", "street": "120 WOODLAND AVE", "postcode": "89523"}}},
{"geometry": {"type": "Point", "coordinates": [-119.87989665, 39.526384984]}, "type": "Feature", "properties": {"collection_times": [{"days": "Mon-Fri", "time": "5:15pm"}, {"days": "Sat", "time": "3:45pm"}, {"days": "Sun", "time": "Closed"}], "id": "8952300016", "name": "USPS COLLECTION BOX - BLUE BOX", "address": {"city": "RENO", "state": "NV", "street": "1580 GRAND POINT WAY", "postcode": "89523"}}}
]}
