{"type": "FeatureCollection", "features": [
{"geometry": {"type": "Point", "coordinates": [-119.7633355806, 39.1398051013]}, "type": "Feature", "properties": {"collection_times": [{"days": "Mon-Fri", "time": "2:50pm"}, {"days": "Sat-Sun", "time": "Closed"}], "id": "8970100000", "name": "USPS COLLECTION BOX - BLUE BOX", "address": {"city": "CARSON CITY", "state": "NV", "street": "510 STAFFORD WAY", "postcode": "89701"}}},
{"geometry": {"type": "Point", "coordinates": [-119.730177871, 39.1776776119]}, "type": "Feature", "properties": {"collection_times": [{"days": "Mon-Fri", "time": "3:55pm"}, {"days": "Sat", "time": "1:40pm"}, {"days": "Sun", "time": "Closed"}], "id": "8970100005", "name": "USPS COLLECTION BOX - BLUE BOX", "address": {"city": "CARSON CITY", "state": "NV", "street": "3325 US HIGHWAY 50 E", "postcode": "89701"}}},
{"geometry": {"type": "Point", "coordinates": [-119.7599175453, 39.1644799066]}, "type": "Feature", "properties": {"collection_times": [{"days": "Mon-Fri", "time": "3:10pm"}, {"days": "Sat-Sun", "time": "Closed"}], "id": "8970100006", "name": "USPS COLLECTION BOX - BLUE BOX", "address": {"city": "CARSON CITY", "state": "NV", "street": "901 E MUSSER ST", "postcode": "89701"}}},
{"geometry": {"type": "Point", "coordinates": [-119.757053096, 39.1499633025]}, "type": "Feature", "properties": {"collection_times": [{"days": "Mon-Fri", "time": "4:30pm"}, {"days": "Sat", "time": "1:45pm"}, {"days": "Sun", "time": "Closed"}], "id": "8970100008", "name": "USPS COLLECTION BOX - BLUE BOX", "address": {"city": "CARSON CITY", "state": "NV", "street": "1050 HIGHWAY 50 E", "postcode": "89701"}}},
{"geometry": {"type": "Point", "coordinates": [-119.7638286492, 39.1548513612]}, "type": "Feature", "properties": {"collection_times": [{"days": "Mon-Fri", "time": "2:55pm"}, {"days": "Sat-Sun", "time": "Closed"}], "id": "8970100013", "name": "USPS COLLECTION BOX - BLUE BOX", "address": {"city": "CARSON CITY", "state": "NV", "street": "555 WRIGHT WAY", "postcode": "89701"}}},
{"geometry": {"type": "Point", "coordinates": [-119.7471492207, 39.1540431152]}, "type": "Feature", "properties": {"collection_times": [{"days": "Mon-Fri", "time": "4:30pm"}, {"days": "Sat", "time": "2:00pm"}, {"days": "Sun", "time": "Closed"}], "id": "8970100014", "name": "USPS COLLECTION BOX - EXPRESS", "address": {"city": "CARSON CITY", "state": "NV", "street": "1050 HIGHWAY 50 E", "postcode": "89701"}}},
{"geometry": {"type": "Point", "coordinates": [-119.7699172259, 39.1317111572]}, "type": "Feature", "properties": {"collection_times": [{"days": "Mon-Fri", "time": "2:45pm"}, {"days": "Sat", "time": "1:15pm"}, {"days": "Sun", "time": "Closed"}], "id": "8970100019", "name": "USPS COLLECTION BOX - BLUE BOX", "address": {"city": "CARSON CITY", "state": "NV", "street": "3871 S CARSON ST", "postcode": "89701"}}},
{"geometry": {"type": "Point", "coordinates": [-119.7471492207, 39.1540431152]}, "type": "Feature", "properties": {"collection_times": [{"days": "Mon-Fri", "time": "2:45pm"}, {"days": "Sat", "time": "1:15pm"}, {"days": "Sun", "time": "Closed"}], "id": "8970100020", "name": "USPS COLLECTION BOX - EXPRESS", "address": {"city": "CARSON CITY", "state": "NV", "street": "3871 S CARSON ST", "postcode": "89701"}}},
{"geometry": {"type": "Point", "coordinates": [-119.761174243, 39.157220371]}, "type": "Feature", "properties": {"collection_times": [{"days": "Mon-Fri", "time": "6:00pm"}, {"days": "Sat", "time": "4:00pm"}, {"days": "Sun", "time": "Closed"}], "id": "8970100027", "name": "USPS COLLECTION BOX - EXPRESS", "address": {"city": "CARSON CITY", "state": "NV", "street": "1111 S ROOP ST", "postcode": "89701"}}},
{"geometry": {"type": "Point", "coordinates": [-119.761174243, 39.157220371]}, "type": "Feature", "properties": {"collection_times": [{"days": "Mon-Fri", "time": "6:00pm"}, {"days": "Sat", "time": "4:00pm"}, {"days": "Sun", "time": "Closed"}], "id": "8970100031", "name": "USPS COLLECTION BOX - PO LOBBY", "address": {"city": "CARSON CITY", "state": "NV", "street": "1111 S ROOP ST", "postcode": "89701"}}},
{"geometry": {"type": "Point", "coordinates": [-119.7709576068, 39.1275907688]}, "type": "Feature", "properties": {"collection_times": [{"days": "Mon-Fri", "time": "2:30pm"}, {"days": "Sat", "time": "1:00pm"}, {"days": "Sun", "time": "Closed"}], "id": "8970100039", "name": "USPS COLLECTION BOX - BLUE BOX", "address": {"city": "CARSON CITY", "state": "NV", "street": "4348 S CARSON ST", "postcode": "89701"}}},
{"geometry": {"type": "Point", "coordinates": [-119.7651430013, 39.1544111544]}, "type": "Feature", "properties": {"collection_times": [{"days": "Mon-Fri", "time": "2:55pm"}, {"days": "Sat-Sun", "time": "Closed"}], "id": "8970100040", "name": "USPS COLLECTION BOX - BLUE BOX", "address": {"city": "CARSON CITY", "state": "NV", "street": "1263 S STEWART ST", "postcode": "89701"}}},
{"geometry": {"type": "Point", "coordinates": [-119.7668454199, 39.1646035095]}, "type": "Feature", "properties": {"collection_times": [{"days": "Mon-Fri", "time": "3:25pm"}, {"days": "Sat-Sun", "time": "Closed"}], "id": "8970100041", "name": "USPS COLLECTION BOX - BLUE BOX", "address": {"city": "CARSON CITY", "state": "NV", "street": "201 N CARSON ST", "postcode": "89701"}}},
{"geometry": {"type": "Point", "coordinates": [-119.766812576, 39.1789044846]}, "type": "Feature", "properties": {"collection_times": [{"days": "Mon-Fri", "time": "4:25pm"}, {"days": "Sat", "time": "1:30pm"}, {"days": "Sun", "time": "Closed"}], "id": "8970100043", "name": "USPS COLLECTION BOX - BLUE BOX", "address": {"city": "CARSON CITY", "state": "NV", "street": "1987 N CARSON ST", "postcode": "89701"}}},
{"geometry": {"type": "Point", "coordinates": [-119.766812576, 39.1789044846]}, "type": "Feature", "properties": {"collection_times": [{"days": "Mon-Fri", "time": "4:25pm"}, {"days": "Sat", "time": "1:30pm"}, {"days": "Sun", "time": "Closed"}], "id": "8970100045", "name": "USPS COLLECTION BOX - BLUE BOX", "address": {"city": "CARSON CITY", "state": "NV", "street": "1987 N CARSON ST", "postcode": "89701"}}},
{"geometry": {"type": "Point", "coordinates": [-119.760846366, 39.170340365]}, "type": "Feature", "properties": {"collection_times": [{"days": "Mon-Fri", "time": "3:30pm"}, {"days": "Sat", "time": "1:30pm"}, {"days": "Sun", "time": "Closed"}], "id": "8970100048", "name": "USPS COLLECTION BOX - BLUE BOX", "address": {"city": "CARSON CITY", "state": "NV", "street": "599 E WILLIAM ST", "postcode": "89701"}}},
{"geometry": {"type": "Point", "coordinates": [-119.7651853057, 39.1683818949]}, "type": "Feature", "properties": {"collection_times": [{"days": "Mon-Fri", "time": "3:35pm"}, {"days": "Sat-Sun", "time": "Closed"}], "id": "8970100050", "name": "USPS COLLECTION BOX - BLUE BOX", "address": {"city": "CARSON CITY", "state": "NV", "street": "311 E WASHINGTON ST", "postcode": "89701"}}},
{"geometry": {"type": "Point", "coordinates": [-119.761174243, 39.157220371]}, "type": "Feature", "properties": {"collection_times": [{"days": "Mon-Fri", "time": "6:00pm"}, {"days": "Sat", "time": "4:00pm"}, {"days": "Sun", "time": "Closed"}], "id": "8970100051", "name": "USPS COLLECTION BOX - BLUE BOX", "address": {"city": "CARSON CITY", "state": "NV", "street": "1111 S ROOP ST", "postcode": "89701"}}},
{"geometry": {"type": "Point", "coordinates": [-119.761174243, 39.157220371]}, "type": "Feature", "properties": {"collection_times": [{"days": "Mon-Fri", "time": "6:00pm"}, {"days": "Sat", "time": "4:00pm"}, {"days": "Sun", "time": "Closed"}], "id": "8970100052", "name": "USPS COLLECTION BOX - BLUE BOX", "address": {"city": "CARSON CITY", "state": "NV", "street": "1111 S ROOP ST", "postcode": "89701"}}},
{"geometry": {"type": "Point", "coordinates": [-119.761174243, 39.157220371]}, "type": "Feature", "properties": {"collection_times": [{"days": "Mon-Fri", "time": "6:00pm"}, {"days": "Sat", "time": "4:00pm"}, {"days": "Sun", "time": "Closed"}], "id": "8970100053", "name": "USPS COLLECTION BOX - APC", "address": {"city": "CARSON CITY", "state": "NV", "street": "1111 S ROOP ST", "postcode": "89701"}}},
{"geometry": {"type": "Point", "coordinates": [-119.7700562131, 39.1327466223]}, "type": "Feature", "properties": {"collection_times": [{"days": "Mon-Fri", "time": "2:45pm"}, {"days": "Sat", "time": "1:00pm"}, {"days": "Sun", "time": "Closed"}], "id": "8970100054", "name": "USPS COLLECTION BOX - BLUE BOX", "address": {"city": "CARSON CITY", "state": "NV", "street": "3770 US HWY 395 S", "postcode": "89701"}}},
{"geometry": {"type": "Point", "coordinates": [-119.7728160951, 39.1709235969]}, "type": "Feature", "properties": {"collection_times": [{"days": "Mon-Fri", "time": "5:30pm"}, {"days": "Sat", "time": "1:30pm"}, {"days": "Sun", "time": "Closed"}], "id": "8970100055", "name": "USPS COLLECTION BOX - BLUE BOX", "address": {"city": "CARSON CITY", "state": "NV", "street": "1201 MOUNTAIN ST", "postcode": "89701"}}},
{"geometry": {"type": "Point", "coordinates": [-119.7563816502, 39.1888256891]}, "type": "Feature", "properties": {"collection_times": [{"days": "Mon-Fri", "time": "4:30pm"}, {"days": "Sat", "time": "2:15pm"}, {"days": "Sun", "time": "Closed"}], "id": "8970100056", "name": "USPS COLLECTION BOX - BLUE BOX", "address": {"city": "CARSON CITY", "state": "NV", "street": "3200 MARKET ST", "postcode": "89701"}}},
{"geometry": {"type": "Point", "coordinates": [-119.7694600284, 39.1752192645]}, "type": "Feature", "properties": {"collection_times": [{"days": "Mon-Fri", "time": "5:20pm"}, {"days": "Sat-Sun", "time": "Closed"}], "id": "8970300004", "name": "USPS COLLECTION BOX - BLUE BOX", "address": {"city": "CARSON CITY", "state": "NV", "street": "1718 N DIVISION ST", "postcode": "89703"}}},
{"geometry": {"type": "Point", "coordinates": [-119.7677588627, 39.1639257295]}, "type": "Feature", "properties": {"collection_times": [{"days": "Mon-Fri", "time": "3:25pm"}, {"days": "Sat", "time": "1:00pm"}, {"days": "Sun", "time": "Closed"}], "id": "8970300008", "name": "USPS COLLECTION BOX - BLUE BOX", "address": {"city": "CARSON CITY", "state": "NV", "street": "103 N CURRY ST", "postcode": "89703"}}},
{"geometry": {"type": "Point", "coordinates": [-119.7679697276, 39.1558759829]}, "type": "Feature", "properties": {"collection_times": [{"days": "Mon-Fri", "time": "2:30pm"}, {"days": "Sat-Sun", "time": "Closed"}], "id": "8970300009", "name": "USPS COLLECTION BOX - BLUE BOX", "address": {"city": "CARSON CITY", "state": "NV", "street": "1300 S CURRY ST", "postcode": "89703"}}},
{"geometry": {"type": "Point", "coordinates": [-119.7687477196, 39.1685495109]}, "type": "Feature", "properties": {"collection_times": [{"days": "Mon-Fri", "time": "5:25pm"}, {"days": "Sat", "time": "1:25pm"}, {"days": "Sun", "time": "Closed"}], "id": "8970300011", "name": "USPS COLLECTION BOX - BLUE BOX", "address": {"city": "CARSON CITY", "state": "NV", "street": "310 W WASHINGTON ST", "postcode": "89703"}}},
{"geometry": {"type": "Point", "coordinates": [-119.8263247701, 39.1564505801]}, "type": "Feature", "properties": {"collection_times": [{"days": "Mon-Fri", "time": "5:15pm"}, {"days": "Sat-Sun", "time": "Closed"}], "id": "8970300015", "name": "USPS COLLECTION BOX - BLUE BOX", "address": {"city": "CARSON CITY", "state": "NV", "street": "1600 MEDICAL PKWY", "postcode": "89703"}}},
{"geometry": {"type": "Point", "coordinates": [-119.7707339724, 39.1864568342]}, "type": "Feature", "properties": {"collection_times": [{"days": "Mon-Fri", "time": "4:00pm"}, {"days": "Sat-Sun", "time": "Closed"}], "id": "8970300016", "name": "USPS COLLECTION BOX - BLUE BOX", "address": {"city": "CARSON CITY", "state": "NV", "street": "600 W NYE LN", "postcode": "89703"}}},
{"geometry": {"type": "Point", "coordinates": [-119.7714413537, 39.2922795831]}, "type": "Feature", "properties": {"collection_times": [{"days": "Mon-Sat", "time": "11:00am"}, {"days": "Sun", "time": "Closed"}], "id": "8970400000", "name": "USPS COLLECTION BOX - BLUE BOX", "address": {"city": "CARSON CITY", "state": "NV", "street": "3115 EASTLAKE BLVD", "postcode": "89704"}}},
{"geometry": {"type": "Point", "coordinates": [-119.6869088199, 39.2305857212]}, "type": "Feature", "properties": {"collection_times": [{"days": "Mon-Fri", "time": "4:00pm"}, {"days": "Sat-Sun", "time": "Closed"}], "id": "8970600000", "name": "USPS COLLECTION BOX - BLUE BOX", "address": {"city": "CARSON CITY", "state": "NV", "street": "103 HIGHLAND DR", "postcode": "89706"}}},
{"geometry": {"type": "Point", "coordinates": [-119.6869088199, 39.2305857212]}, "type": "Feature", "properties": {"collection_times": [{"days": "Mon-Fri", "time": "4:10pm"}, {"days": "Sat-Sun", "time": "Closed"}], "id": "8970600001", "name": "USPS COLLECTION BOX - BLUE BOX", "address": {"city": "CARSON CITY", "state": "NV", "street": "103 AFFONSO DR", "postcode": "89706"}}},
{"geometry": {"type": "Point", "coordinates": [-119.7735804932, 39.1917912075]}, "type": "Feature", "properties": {"collection_times": [{"days": "Mon-Fri", "time": "5:00pm"}, {"days": "Sat", "time": "2:15pm"}, {"days": "Sun", "time": "Closed"}], "id": "8970600002", "name": "USPS COLLECTION BOX - BLUE BOX", "address": {"city": "CARSON CITY", "state": "NV", "street": "3701 N CARSON ST", "postcode": "89706"}}},
{"geometry": {"type": "Point", "coordinates": [-119.7667620401, 39.1794011245]}, "type": "Feature", "properties": {"collection_times": [{"days": "Mon-Fri", "time": "4:15pm"}, {"days": "Sat", "time": "2:00pm"}, {"days": "Sun", "time": "Closed"}], "id": "8970600011", "name": "USPS COLLECTION BOX - BLUE BOX", "address": {"city": "CARSON CITY", "state": "NV", "street": "2209 N CARSON ST", "postcode": "89706"}}},
{"geometry": {"type": "Point", "coordinates": [-119.7659233145, 39.1843090369]}, "type": "Feature", "properties": {"collection_times": [{"days": "Mon-Fri", "time": "4:10pm"}, {"days": "Sat-Sun", "time": "Closed"}], "id": "8970600012", "name": "USPS COLLECTION BOX - BLUE BOX", "address": {"city": "CARSON CITY", "state": "NV", "street": "2621 NORTHGATE LN", "postcode": "89706"}}},
{"geometry": {"type": "Point", "coordinates": [-119.717040698, 39.183586883]}, "type": "Feature", "properties": {"collection_times": [{"days": "Mon-Fri", "time": "5:00pm"}, {"days": "Sat", "time": "4:00pm"}, {"days": "Sun", "time": "Closed"}], "id": "8970600013", "name": "USPS COLLECTION BOX - PO LOBBY", "address": {"city": "CARSON CITY", "state": "NV", "street": "2613 EMPIRE RANCH RD", "postcode": "89706"}}},
{"geometry": {"type": "Point", "coordinates": [-119.7477711354, 39.1882189624]}, "type": "Feature", "properties": {"collection_times": [{"days": "Mon-Fri", "time": "4:00pm"}, {"days": "Sat-Sun", "time": "Closed"}], "id": "8970600018", "name": "USPS COLLECTION BOX - BLUE BOX", "address": {"city": "CARSON CITY", "state": "NV", "street": "3251 GONI RD", "postcode": "89706"}}},
{"geometry": {"type": "Point", "coordinates": [-119.7715626273, 39.1877806639]}, "type": "Feature", "properties": {"collection_times": [{"days": "Mon-Fri", "time": "5:00pm"}, {"days": "Sat", "time": "2:15pm"}, {"days": "Sun", "time": "Closed"}], "id": "8970600019", "name": "USPS COLLECTION BOX - BLUE BOX", "address": {"city": "CARSON CITY", "state": "NV", "street": "3246 N CARSON ST", "postcode": "89706"}}},
{"geometry": {"type": "Point", "coordinates": [-119.7715626273, 39.1877806639]}, "type": "Feature", "properties": {"collection_times": [{"days": "Mon-Fri", "time": "5:00pm"}, {"days": "Sat", "time": "2:15pm"}, {"days": "Sun", "time": "Closed"}], "id": "8970600020", "name": "USPS COLLECTION BOX - BLUE BOX", "address": {"city": "CARSON CITY", "state": "NV", "street": "3246 N CARSON ST", "postcode": "89706"}}},
{"geometry": {"type": "Point", "coordinates": [-119.717040698, 39.183586883]}, "type": "Feature", "properties": {"collection_times": [{"days": "Mon-Fri", "time": "5:00pm"}, {"days": "Sat", "time": "1:30pm"}, {"days": "Sun", "time": "Closed"}], "id": "8970600021", "name": "USPS COLLECTION BOX - BLUE BOX", "address": {"city": "CARSON CITY", "state": "NV", "street": "2613 EMPIRE RANCH RD", "postcode": "89706"}}},
{"geometry": {"type": "Point", "coordinates": [-119.717040698, 39.183586883]}, "type": "Feature", "properties": {"collection_times": [{"days": "Mon-Fri", "time": "5:00pm"}, {"days": "Sat", "time": "1:30pm"}, {"days": "Sun", "time": "Closed"}], "id": "8970600022", "name": "USPS COLLECTION BOX - BLUE BOX", "address": {"city": "CARSON CITY", "state": "NV", "street": "2613 EMPIRE RANCH RD", "postcode": "89706"}}}
]}
