{"type": "FeatureCollection", "features": [
{"geometry": {"type": "Point", "coordinates": [-115.74474794, 40.8513305829]}, "type": "Feature", "properties": {"collection_times": [{"days": "Mon-Fri", "time": "2:00pm"}, {"days": "Sat", "time": "12:00pm"}, {"days": "Sun", "time": "Closed"}], "id": "8980100005", "name": "USPS COLLECTION BOX - BLUE BOX", "address": {"city": "ELKO", "state": "NV", "street": "2582 IDAHO ST", "postcode": "89801"}}},
{"geometry": {"type": "Point", "coordinates": [-115.7910020705, 40.8379464698]}, "type": "Feature", "properties": {"collection_times": [{"days": "Mon-Fri", "time": "2:00pm"}, {"days": "Sat", "time": "12:00pm"}, {"days": "Sun", "time": "Closed"}], "id": "8980100010", "name": "USPS COLLECTION BOX - BLUE BOX", "address": {"city": "ELKO", "state": "NV", "street": "2511 MOUNTAIN CITY HWY", "postcode": "89801"}}},
{"geometry": {"type": "Point", "coordinates": [-115.76357677, 40.830085826]}, "type": "Feature", "properties": {"collection_times": [{"days": "Mon-Fri", "time": "2:00pm"}, {"days": "Sat", "time": "1:00pm"}, {"days": "Sun", "time": "Closed"}], "id": "8980100012", "name": "USPS COLLECTION BOX - BLUE BOX", "address": {"city": "ELKO", "state": "NV", "street": "275 3RD ST", "postcode": "89801"}}},
{"geometry": {"type": "Point", "coordinates": [-115.78360458, 40.835060227]}, "type": "Feature", "properties": {"collection_times": [{"days": "Mon-Sat", "time": "3:00pm"}, {"days": "Sun", "time": "Closed"}], "id": "8980100014", "name": "USPS COLLECTION BOX - PO LOBBY", "address": {"city": "ELKO", "state": "NV", "street": "500 ASPEN WAY", "postcode": "89801"}}},
{"geometry": {"type": "Point", "coordinates": [-115.76357677, 40.830085826]}, "type": "Feature", "properties": {"collection_times": [{"days": "Mon-Fri", "time": "2:00pm"}, {"days": "Sat", "time": "1:00pm"}, {"days": "Sun", "time": "Closed"}], "id": "8980100015", "name": "USPS COLLECTION BOX - BLUE BOX", "address": {"city": "ELKO", "state": "NV", "street": "275 3RD ST", "postcode": "89801"}}},
{"geometry": {"type": "Point", "coordinates": [-115.76357677, 40.830085826]}, "type": "Feature", "properties": {"collection_times": [{"days": "Mon-Fri", "time": "2:15pm"}, {"days": "Sat", "time": "12:30pm"}, {"days": "Sun", "time": "Closed"}], "id": "8980100017", "name": "USPS COLLECTION BOX - PO LOBBY", "address": {"city": "ELKO", "state": "NV", "street": "275 3RD ST", "postcode": "89801"}}},
{"geometry": {"type": "Point", "coordinates": [-115.763509138, 40.841428586]}, "type": "Feature", "properties": {"collection_times": [{"days": "Mon-Fri", "time": "1:30pm"}, {"days": "Sat", "time": "10:00am"}, {"days": "Sun", "time": "Closed"}], "id": "8980100020", "name": "USPS COLLECTION BOX - PO LOBBY", "address": {"city": "ELKO", "state": "NV", "street": "576 SPRING VALLEY CT", "postcode": "89801"}}},
{"geometry": {"type": "Point", "coordinates": [-115.763509138, 40.841428586]}, "type": "Feature", "properties": {"collection_times": [{"days": "Mon-Fri", "time": "1:15pm"}, {"days": "Sat", "time": "10:30am"}, {"days": "Sun", "time": "Closed"}], "id": "8980100023", "name": "USPS COLLECTION BOX - BLUE BOX", "address": {"city": "ELKO", "state": "NV", "street": "576 SPRING VALLEY CT", "postcode": "89801"}}},
{"geometry": {"type": "Point", "coordinates": [-116.9462149761, 40.6346243526]}, "type": "Feature", "properties": {"collection_times": [{"days": "Mon-Sat", "time": "9:00am"}, {"days": "Sun", "time": "Closed"}], "id": "8982000000", "name": "USPS COLLECTION BOX - BLUE BOX", "address": {"city": "BATTLE MOUNTAIN", "state": "NV", "street": "760 S BROAD ST", "postcode": "89820"}}},
{"geometry": {"type": "Point", "coordinates": [-116.9299034858, 40.6374744812]}, "type": "Feature", "properties": {"collection_times": [{"days": "Mon-Sat", "time": "10:00am"}, {"days": "Sun", "time": "Closed"}], "id": "8982000001", "name": "USPS COLLECTION BOX - BLUE BOX", "address": {"city": "BATTLE MOUNTAIN", "state": "NV", "street": "424 E FRONT ST", "postcode": "89820"}}},
{"geometry": {"type": "Point", "coordinates": [-116.9420011347, 40.6480581623]}, "type": "Feature", "properties": {"collection_times": [{"days": "Mon-Sat", "time": "9:15am"}, {"days": "Sun", "time": "Closed"}], "id": "8982000002", "name": "USPS COLLECTION BOX - BLUE BOX", "address": {"city": "BATTLE MOUNTAIN", "state": "NV", "street": "660 W FRONT ST", "postcode": "89820"}}},
{"geometry": {"type": "Point", "coordinates": [-116.9497232415, 40.6327521057]}, "type": "Feature", "properties": {"collection_times": [{"days": "Mon-Sat", "time": "9:15am"}, {"days": "Sun", "time": "Closed"}], "id": "8982000003", "name": "USPS COLLECTION BOX - BLUE BOX", "address": {"city": "BATTLE MOUNTAIN", "state": "NV", "street": "101 CARSON RD", "postcode": "89820"}}},
{"geometry": {"type": "Point", "coordinates": [-116.943536541, 40.637496688]}, "type": "Feature", "properties": {"collection_times": [{"days": "Mon-Fri", "time": "1:00pm"}, {"days": "Sat", "time": "11:30am"}, {"days": "Sun", "time": "Closed"}], "id": "8982000004", "name": "USPS COLLECTION BOX - BLUE BOX", "address": {"city": "BATTLE MOUNTAIN", "state": "NV", "street": "810 SUNSET DR", "postcode": "89820"}}},
{"geometry": {"type": "Point", "coordinates": [-116.9338896453, 40.6415404345]}, "type": "Feature", "properties": {"collection_times": [{"days": "Mon-Sat", "time": "9:30am"}, {"days": "Sun", "time": "Closed"}], "id": "8982000007", "name": "USPS COLLECTION BOX - BLUE BOX", "address": {"city": "BATTLE MOUNTAIN", "state": "NV", "street": "72 E FRONT ST", "postcode": "89820"}}},
{"geometry": {"type": "Point", "coordinates": [-116.943536541, 40.637496688]}, "type": "Feature", "properties": {"collection_times": [{"days": "Mon-Fri", "time": "1:00pm"}, {"days": "Sat", "time": "11:30am"}, {"days": "Sun", "time": "Closed"}], "id": "8982000009", "name": "USPS COLLECTION BOX - PO LOBBY", "address": {"city": "BATTLE MOUNTAIN", "state": "NV", "street": "810 SUNSET DR", "postcode": "89820"}}},
{"geometry": {"type": "Point", "coordinates": [-116.10533716, 40.718406465]}, "type": "Feature", "properties": {"collection_times": [{"days": "Mon-Fri", "time": "2:00pm"}, {"days": "Sat", "time": "10:30am"}, {"days": "Sun", "time": "Closed"}], "id": "8982200000", "name": "USPS COLLECTION BOX - BLUE BOX", "address": {"city": "CARLIN", "state": "NV", "street": "1106 CHESTNUT ST", "postcode": "89822"}}},
{"geometry": {"type": "Point", "coordinates": [-116.10533716, 40.718406465]}, "type": "Feature", "properties": {"collection_times": [{"days": "Mon-Fri", "time": "2:00pm"}, {"days": "Sat", "time": "10:30am"}, {"days": "Sun", "time": "Closed"}], "id": "8982200001", "name": "USPS COLLECTION BOX - PO LOBBY", "address": {"city": "CARLIN", "state": "NV", "street": "1106 CHESTNUT ST", "postcode": "89822"}}},
{"geometry": {"type": "Point", "coordinates": [-114.67181621, 41.979597926]}, "type": "Feature", "properties": {"collection_times": [{"days": "Mon-Fri", "time": "12:30pm"}, {"days": "Sat", "time": "11:45am"}, {"days": "Sun", "time": "Closed"}], "id": "8982500001", "name": "USPS COLLECTION BOX - BLUE BOX", "address": {"city": "JACKPOT", "state": "NV", "street": "1925 GURLEY DR", "postcode": "89825"}}},
{"geometry": {"type": "Point", "coordinates": [-114.67181621, 41.979597926]}, "type": "Feature", "properties": {"collection_times": [{"days": "Mon-Fri", "time": "12:30pm"}, {"days": "Sat", "time": "11:45am"}, {"days": "Sun", "time": "Closed"}], "id": "8982500002", "name": "USPS COLLECTION BOX - PO LOBBY", "address": {"city": "JACKPOT", "state": "NV", "street": "1925 GURLEY DR", "postcode": "89825"}}},
{"geometry": {"type": "Point", "coordinates": [-115.473170204, 40.7277436113]}, "type": "Feature", "properties": {"collection_times": [{"days": "Mon-Fri", "time": "10:00am"}, {"days": "Sat", "time": "12:45pm"}, {"days": "Sun", "time": "Closed"}], "id": "8982800001", "name": "USPS COLLECTION BOX - BLUE BOX", "address": {"city": "LAMOILLE", "state": "NV", "street": "787 LAMOILLE HWY", "postcode": "89828"}}},
{"geometry": {"type": "Point", "coordinates": [-114.196563379, 41.260216496]}, "type": "Feature", "properties": {"collection_times": [{"days": "Mon-Fri", "time": "1:45pm"}, {"days": "Sat", "time": "10:45am"}, {"days": "Sun", "time": "Closed"}], "id": "8983000000", "name": "USPS COLLECTION BOX - PO LOBBY", "address": {"city": "MONTELLO", "state": "NV", "street": "143 FRONT ST", "postcode": "89830"}}},
{"geometry": {"type": "Point", "coordinates": [-115.964289156, 41.836464348]}, "type": "Feature", "properties": {"collection_times": [{"days": "Mon-Fri", "time": "1:15pm"}, {"days": "Sat", "time": "12:45pm"}, {"days": "Sun", "time": "Closed"}], "id": "8983100000", "name": "USPS COLLECTION BOX - PO LOBBY", "address": {"city": "MOUNTAIN CITY", "state": "NV", "street": "519 DAVIDSON ST", "postcode": "89831"}}},
{"geometry": {"type": "Point", "coordinates": [-115.964289156, 41.836464348]}, "type": "Feature", "properties": {"collection_times": [{"days": "Mon-Fri", "time": "1:15pm"}, {"days": "Sat", "time": "12:45pm"}, {"days": "Sun", "time": "Closed"}], "id": "8983100001", "name": "USPS COLLECTION BOX - BLUE BOX", "address": {"city": "MOUNTAIN CITY", "state": "NV", "street": "519 DAVIDSON ST", "postcode": "89831"}}},
{"geometry": {"type": "Point", "coordinates": [-116.097941943, 41.9468680823]}, "type": "Feature", "properties": {"collection_times": [{"days": "Mon-Sat", "time": "12:00pm"}, {"days": "Sun", "time": "Closed"}], "id": "8983200000", "name": "USPS COLLECTION BOX - BLUE BOX", "address": {"city": "OWYHEE", "state": "NV", "street": "0 MAIN ST", "postcode": "89832"}}},
{"geometry": {"type": "Point", "coordinates": [-116.102024134, 41.953743776]}, "type": "Feature", "properties": {"collection_times": [{"days": "Mon-Sat", "time": "12:00pm"}, {"days": "Sun", "time": "Closed"}], "id": "8983200001", "name": "USPS COLLECTION BOX - PO LOBBY", "address": {"city": "OWYHEE", "state": "NV", "street": "23830 NV STATE HWY 225", "postcode": "89832"}}},
{"geometry": {"type": "Point", "coordinates": [-114.973742895, 41.107777678]}, "type": "Feature", "properties": {"collection_times": [{"days": "Mon-Fri", "time": "4:00pm"}, {"days": "Sat", "time": "12:00pm"}, {"days": "Sun", "time": "Closed"}], "id": "8983500000", "name": "USPS COLLECTION BOX - BLUE BOX", "address": {"city": "WELLS", "state": "NV", "street": "201 CASTLE ST", "postcode": "89835"}}},
{"geometry": {"type": "Point", "coordinates": [-114.973742895, 41.107777678]}, "type": "Feature", "properties": {"collection_times": [{"days": "Mon-Fri", "time": "4:00pm"}, {"days": "Sat", "time": "12:00pm"}, {"days": "Sun", "time": "Closed"}], "id": "8983500002", "name": "USPS COLLECTION BOX - PO LOBBY", "address": {"city": "WELLS", "state": "NV", "street": "201 CASTLE ST", "postcode": "89835"}}},
{"geometry": {"type": "Point", "coordinates": [-114.080049349, 40.73758619]}, "type": "Feature", "properties": {"collection_times": [{"days": "Mon-Fri", "time": "4:00pm"}, {"days": "Sat", "time": "10:45am"}, {"days": "Sun", "time": "Closed"}], "id": "8988300000", "name": "USPS COLLECTION BOX - PO LOBBY", "address": {"city": "WEST WENDOVER", "state": "NV", "street": "810 ALPINE ST", "postcode": "89883"}}},
{"geometry": {"type": "Point", "coordinates": [-114.080049349, 40.73758619]}, "type": "Feature", "properties": {"collection_times": [{"days": "Mon-Fri", "time": "4:00pm"}, {"days": "Sat", "time": "10:45am"}, {"days": "Sun", "time": "Closed"}], "id": "8988300002", "name": "USPS COLLECTION BOX - BLUE BOX", "address": {"city": "WEST WENDOVER", "state": "NV", "street": "810 ALPINE ST", "postcode": "89883"}}}
]}
