{"type": "FeatureCollection", "features": [
{"geometry": {"type": "Point", "coordinates": [-72.5895879277, 42.1031330892]}, "type": "Feature", "properties": {"collection_times": [{"days": "Mon-Fri", "time": "3:00pm"}, {"days": "Sat", "time": "10:00am"}, {"days": "Sun", "time": "Closed"}], "id": "0110300002", "name": "USPS COLLECTION BOX - BLUE BOX", "address": {"city": "SPRINGFIELD", "state": "MA", "street": "191 CHESTNUT ST", "postcode": "01103"}}},
{"geometry": {"type": "Point", "coordinates": [-72.5895879277, 42.1031330892]}, "type": "Feature", "properties": {"collection_times": [{"days": "Mon-Fri", "time": "4:00pm"}, {"days": "Sat-Sun", "time": "Closed"}], "id": "0110300010", "name": "USPS COLLECTION BOX - BLUE BOX", "address": {"city": "SPRINGFIELD", "state": "MA", "street": "436 DWIGHT ST", "postcode": "01103"}}},
{"geometry": {"type": "Point", "coordinates": [-72.5895879277, 42.1031330892]}, "type": "Feature", "properties": {"collection_times": [{"days": "Mon-Fri", "time": "4:00pm"}, {"days": "Sat-Sun", "time": "Closed"}], "id": "0110300011", "name": "USPS COLLECTION BOX - BLUE BOX", "address": {"city": "SPRINGFIELD", "state": "MA", "street": "436 DWIGHT ST", "postcode": "01103"}}},
{"geometry": {"type": "Point", "coordinates": [-72.5895879277, 42.1031417333]}, "type": "Feature", "properties": {"collection_times": [{"days": "Mon-Fri", "time": "3:30pm"}, {"days": "Sat-Sun", "time": "Closed"}], "id": "0110300023", "name": "USPS COLLECTION BOX - BLUE BOX", "address": {"city": "SPRINGFIELD", "state": "MA", "street": "150 BRIDGE ST", "postcode": "01103"}}},
{"geometry": {"type": "Point", "coordinates": [-72.5922343541, 42.1034691631]}, "type": "Feature", "properties": {"collection_times": [{"days": "Mon-Fri", "time": "3:30pm"}, {"days": "Sat", "time": "2:00pm"}, {"days": "Sun", "time": "Closed"}], "id": "0110300026", "name": "USPS COLLECTION BOX - BLUE BOX", "address": {"city": "SPRINGFIELD", "state": "MA", "street": "1537 MAIN ST", "postcode": "01103"}}},
{"geometry": {"type": "Point", "coordinates": [-72.5972965479, 42.1062967437]}, "type": "Feature", "properties": {"collection_times": [{"days": "Mon-Fri", "time": "6:00pm"}, {"days": "Sat", "time": "5:00pm"}, {"days": "Sun", "time": "Closed"}], "id": "0110300029", "name": "USPS COLLECTION BOX - BLUE BOX", "address": {"city": "SPRINGFIELD", "state": "MA", "street": "1883 MAIN ST", "postcode": "01103"}}},
{"geometry": {"type": "Point", "coordinates": [-72.5973618591, 42.1063035646]}, "type": "Feature", "properties": {"collection_times": [{"days": "Mon-Fri", "time": "6:00pm"}, {"days": "Sat", "time": "5:00pm"}, {"days": "Sun", "time": "Closed"}], "id": "0110300031", "name": "USPS COLLECTION BOX - BLUE BOX", "address": {"city": "SPRINGFIELD", "state": "MA", "street": "1883 MAIN ST", "postcode": "01103"}}},
{"geometry": {"type": "Point", "coordinates": [-72.5972965479, 42.1062967437]}, "type": "Feature", "properties": {"collection_times": [{"days": "Mon-Fri", "time": "6:00pm"}, {"days": "Sat", "time": "5:00pm"}, {"days": "Sun", "time": "Closed"}], "id": "0110300033", "name": "USPS COLLECTION BOX - BLUE BOX", "address": {"city": "SPRINGFIELD", "state": "MA", "street": "1883 MAIN ST", "postcode": "01103"}}},
{"geometry": {"type": "Point", "coordinates": [-72.5895879277, 42.1031330892]}, "type": "Feature", "properties": {"collection_times": [{"days": "Mon-Fri", "time": "5:00pm"}, {"days": "Sat", "time": "2:00pm"}, {"days": "Sun", "time": "Closed"}], "id": "0110300035", "name": "USPS COLLECTION BOX - BLUE BOX", "address": {"city": "SPRINGFIELD", "state": "MA", "street": "1985 MAIN ST", "postcode": "01103"}}},
{"geometry": {"type": "Point", "coordinates": [-72.5895879277, 42.1031330892]}, "type": "Feature", "properties": {"collection_times": [{"days": "Mon-Fri", "time": "4:45pm"}, {"days": "Sat", "time": "2:00pm"}, {"days": "Sun", "time": "Closed"}], "id": "0110300036", "name": "USPS COLLECTION BOX - BLUE BOX", "address": {"city": "SPRINGFIELD", "state": "MA", "street": "1149 MAIN ST", "postcode": "01103"}}},
{"geometry": {"type": "Point", "coordinates": [-72.5895879277, 42.1031330892]}, "type": "Feature", "properties": {"collection_times": [{"days": "Mon-Fri", "time": "4:45pm"}, {"days": "Sat", "time": "2:00pm"}, {"days": "Sun", "time": "Closed"}], "id": "0110300038", "name": "USPS COLLECTION BOX - EXPRESS", "address": {"city": "SPRINGFIELD", "state": "MA", "street": "1149 MAIN ST", "postcode": "01103"}}},
{"geometry": {"type": "Point", "coordinates": [-72.5898325068, 42.1022766408]}, "type": "Feature", "properties": {"collection_times": [{"days": "Mon-Fri", "time": "3:30pm"}, {"days": "Sat", "time": "2:00pm"}, {"days": "Sun", "time": "Closed"}], "id": "0110300039", "name": "USPS COLLECTION BOX - BLUE BOX", "address": {"city": "SPRINGFIELD", "state": "MA", "street": "1380 MAIN ST", "postcode": "01103"}}},
{"geometry": {"type": "Point", "coordinates": [-72.5895879277, 42.1031330892]}, "type": "Feature", "properties": {"collection_times": [{"days": "Mon-Fri", "time": "3:30pm"}, {"days": "Sat", "time": "2:00pm"}, {"days": "Sun", "time": "Closed"}], "id": "0110300049", "name": "USPS COLLECTION BOX - BLUE BOX", "address": {"city": "SPRINGFIELD", "state": "MA", "street": "1391 MAIN ST", "postcode": "01103"}}},
{"geometry": {"type": "Point", "coordinates": [-72.5950147307, 42.1068604551]}, "type": "Feature", "properties": {"collection_times": [{"days": "Mon-Fri", "time": "3:30pm"}, {"days": "Sat-Sun", "time": "Closed"}], "id": "0110300055", "name": "USPS COLLECTION BOX - BLUE BOX", "address": {"city": "SPRINGFIELD", "state": "MA", "street": "125 LIBERTY ST", "postcode": "01103"}}},
{"geometry": {"type": "Point", "coordinates": [-72.5892899176, 42.1012505798]}, "type": "Feature", "properties": {"collection_times": [{"days": "Mon-Fri", "time": "2:00pm"}, {"days": "Sat-Sun", "time": "Closed"}], "id": "0110300056", "name": "USPS COLLECTION BOX - BLUE BOX", "address": {"city": "SPRINGFIELD", "state": "MA", "street": "165 LIBERTY ST", "postcode": "01103"}}},
{"geometry": {"type": "Point", "coordinates": [-72.5895879277, 42.1031330892]}, "type": "Feature", "properties": {"collection_times": [{"days": "Mon-Fri", "time": "4:30pm"}, {"days": "Sat-Sun", "time": "Closed"}], "id": "0110300062", "name": "USPS COLLECTION BOX - BLUE BOX", "address": {"city": "SPRINGFIELD", "state": "MA", "street": "36 COURT ST", "postcode": "01103"}}},
{"geometry": {"type": "Point", "coordinates": [-72.5895879277, 42.1031330892]}, "type": "Feature", "properties": {"collection_times": [{"days": "Mon-Fri", "time": "4:30pm"}, {"days": "Sat-Sun", "time": "Closed"}], "id": "0110300063", "name": "USPS COLLECTION BOX - BLUE BOX", "address": {"city": "SPRINGFIELD", "state": "MA", "street": "36 COURT ST", "postcode": "01103"}}},
{"geometry": {"type": "Point", "coordinates": [-72.5906975143, 42.1042419516]}, "type": "Feature", "properties": {"collection_times": [{"days": "Mon-Fri", "time": "3:00pm"}, {"days": "Sat", "time": "10:00am"}, {"days": "Sun", "time": "Closed"}], "id": "0110300064", "name": "USPS COLLECTION BOX - BLUE BOX", "address": {"city": "SPRINGFIELD", "state": "MA", "street": "315 BRIDGE ST", "postcode": "01103"}}},
{"geometry": {"type": "Point", "coordinates": [-72.5891059469, 42.1054120637]}, "type": "Feature", "properties": {"collection_times": [{"days": "Mon-Sat", "time": "10:00am"}, {"days": "Sun", "time": "Closed"}], "id": "0110300065", "name": "USPS COLLECTION BOX - BLUE BOX", "address": {"city": "SPRINGFIELD", "state": "MA", "street": "140 CHESTNUT ST", "postcode": "01103"}}},
{"geometry": {"type": "Point", "coordinates": [-72.588845616, 42.099501928]}, "type": "Feature", "properties": {"collection_times": [{"days": "Mon-Fri", "time": "5:00pm"}, {"days": "Sat", "time": "10:00am"}, {"days": "Sun", "time": "Closed"}], "id": "0110300074", "name": "USPS COLLECTION BOX - BLUE BOX", "address": {"city": "SPRINGFIELD", "state": "MA", "street": "50 STATE ST", "postcode": "01103"}}},
{"geometry": {"type": "Point", "coordinates": [-72.5895879277, 42.1031330892]}, "type": "Feature", "properties": {"collection_times": [{"days": "Mon-Fri", "time": "5:00pm"}, {"days": "Sat", "time": "10:00am"}, {"days": "Sun", "time": "Closed"}], "id": "0110300075", "name": "USPS COLLECTION BOX - BLUE BOX", "address": {"city": "SPRINGFIELD", "state": "MA", "street": "50 STATE ST", "postcode": "01103"}}},
{"geometry": {"type": "Point", "coordinates": [-72.5870350119, 42.1008624794]}, "type": "Feature", "properties": {"collection_times": [{"days": "Mon-Fri", "time": "4:30pm"}, {"days": "Sat", "time": "10:00am"}, {"days": "Sun", "time": "Closed"}], "id": "0110300077", "name": "USPS COLLECTION BOX - BLUE BOX", "address": {"city": "SPRINGFIELD", "state": "MA", "street": "117 STATE ST", "postcode": "01103"}}},
{"geometry": {"type": "Point", "coordinates": [-72.5895879277, 42.1031330892]}, "type": "Feature", "properties": {"collection_times": [{"days": "Mon-Fri", "time": "3:30pm"}, {"days": "Sat", "time": "10:00am"}, {"days": "Sun", "time": "Closed"}], "id": "0110300079", "name": "USPS COLLECTION BOX - BLUE BOX", "address": {"city": "SPRINGFIELD", "state": "MA", "street": "293 BRIDGE ST", "postcode": "01103"}}},
{"geometry": {"type": "Point", "coordinates": [-72.5894216026, 42.1022150747]}, "type": "Feature", "properties": {"collection_times": [{"days": "Mon-Fri", "time": "4:30pm"}, {"days": "Sat", "time": "2:00pm"}, {"days": "Sun", "time": "Closed"}], "id": "0110300080", "name": "USPS COLLECTION BOX - BLUE BOX", "address": {"city": "SPRINGFIELD", "state": "MA", "street": "1351 MAIN ST", "postcode": "01103"}}},
{"geometry": {"type": "Point", "coordinates": [-72.5934417625, 42.1038654976]}, "type": "Feature", "properties": {"collection_times": [{"days": "Mon-Fri", "time": "3:30pm"}, {"days": "Sat", "time": "2:00pm"}, {"days": "Sun", "time": "Closed"}], "id": "0110300086", "name": "USPS COLLECTION BOX - BLUE BOX", "address": {"city": "SPRINGFIELD", "state": "MA", "street": "8 FORT ST", "postcode": "01103"}}},
{"geometry": {"type": "Point", "coordinates": [-72.587369437, 42.1031218222]}, "type": "Feature", "properties": {"collection_times": [{"days": "Mon-Sat", "time": "10:00am"}, {"days": "Sun", "time": "Closed"}], "id": "0110300089", "name": "USPS COLLECTION BOX - BLUE BOX", "address": {"city": "SPRINGFIELD", "state": "MA", "street": "115 DWIGHT ST", "postcode": "01103"}}},
{"geometry": {"type": "Point", "coordinates": [-72.5886677198, 42.1039383195]}, "type": "Feature", "properties": {"collection_times": [{"days": "Mon-Sat", "time": "10:00am"}, {"days": "Sun", "time": "Closed"}], "id": "0110300090", "name": "USPS COLLECTION BOX - BLUE BOX", "address": {"city": "SPRINGFIELD", "state": "MA", "street": "205 DWIGHT ST", "postcode": "01103"}}},
{"geometry": {"type": "Point", "coordinates": [-72.5873456587, 42.1040047865]}, "type": "Feature", "properties": {"collection_times": [{"days": "Mon-Fri", "time": "3:30pm"}, {"days": "Sat", "time": "10:00am"}, {"days": "Sun", "time": "Closed"}], "id": "0110300091", "name": "USPS COLLECTION BOX - BLUE BOX", "address": {"city": "SPRINGFIELD", "state": "MA", "street": "73 CHESTNUT ST", "postcode": "01103"}}},
{"geometry": {"type": "Point", "coordinates": [-72.5895879277, 42.1031330892]}, "type": "Feature", "properties": {"collection_times": [{"days": "Mon-Fri", "time": "3:30pm"}, {"days": "Sat", "time": "10:00am"}, {"days": "Sun", "time": "Closed"}], "id": "0110300093", "name": "USPS COLLECTION BOX - BLUE BOX", "address": {"city": "SPRINGFIELD", "state": "MA", "street": "146 CHESTNUT ST", "postcode": "01103"}}},
{"geometry": {"type": "Point", "coordinates": [-72.5895879277, 42.1031330892]}, "type": "Feature", "properties": {"collection_times": [{"days": "Mon-Fri", "time": "4:30pm"}, {"days": "Sat", "time": "10:00am"}, {"days": "Sun", "time": "Closed"}], "id": "0110300094", "name": "USPS COLLECTION BOX - BLUE BOX", "address": {"city": "SPRINGFIELD", "state": "MA", "street": "195 STATE ST", "postcode": "01103"}}},
{"geometry": {"type": "Point", "coordinates": [-72.5895879277, 42.1031330892]}, "type": "Feature", "properties": {"collection_times": [{"days": "Mon-Fri", "time": "6:00pm"}, {"days": "Sat", "time": "5:00pm"}, {"days": "Sun", "time": "Closed"}], "id": "0110300104", "name": "USPS COLLECTION BOX - PO LOBBY", "address": {"city": "SPRINGFIELD", "state": "MA", "street": "1883 MAIN ST LBBY", "postcode": "01103"}}},
{"geometry": {"type": "Point", "coordinates": [-72.5972965479, 42.1062967437]}, "type": "Feature", "properties": {"collection_times": [{"days": "Mon-Fri", "time": "6:00pm"}, {"days": "Sat", "time": "5:00pm"}, {"days": "Sun", "time": "Closed"}], "id": "0110300105", "name": "USPS COLLECTION BOX - PO LOBBY", "address": {"city": "SPRINGFIELD", "state": "MA", "street": "1883 MAIN ST", "postcode": "01103"}}},
{"geometry": {"type": "Point", "coordinates": [-72.5945598987, 42.1037902413]}, "type": "Feature", "properties": {"collection_times": [{"days": "Mon-Fri", "time": "5:00pm"}, {"days": "Sat", "time": "2:00pm"}, {"days": "Sun", "time": "Closed"}], "id": "0110300107", "name": "USPS COLLECTION BOX - BLUE BOX", "address": {"city": "SPRINGFIELD", "state": "MA", "street": "44 HAMPDEN ST", "postcode": "01103"}}},
{"geometry": {"type": "Point", "coordinates": [-72.5895879277, 42.1031330892]}, "type": "Feature", "properties": {"collection_times": [{"days": "Mon-Fri", "time": "4:30pm"}, {"days": "Sat", "time": "2:00pm"}, {"days": "Sun", "time": "Closed"}], "id": "0110300108", "name": "USPS COLLECTION BOX - BLUE BOX", "address": {"city": "SPRINGFIELD", "state": "MA", "street": "1351 MAIN ST", "postcode": "01103"}}},
{"geometry": {"type": "Point", "coordinates": [-72.5895879277, 42.1031330892]}, "type": "Feature", "properties": {"collection_times": [{"days": "Mon-Fri", "time": "4:30pm"}, {"days": "Sat", "time": "2:00pm"}, {"days": "Sun", "time": "Closed"}], "id": "0110300109", "name": "USPS COLLECTION BOX - BLUE BOX", "address": {"city": "SPRINGFIELD", "state": "MA", "street": "1391 MAIN ST", "postcode": "01103"}}},
{"geometry": {"type": "Point", "coordinates": [-72.5895879277, 42.1031417333]}, "type": "Feature", "properties": {"collection_times": [{"days": "Mon-Fri", "time": "5:30pm"}, {"days": "Sat", "time": "2:00pm"}, {"days": "Sun", "time": "Closed"}], "id": "0110300111", "name": "USPS COLLECTION BOX - BLUE BOX", "address": {"city": "SPRINGFIELD", "state": "MA", "street": "150 BRIDGE ST", "postcode": "01103"}}},
{"geometry": {"type": "Point", "coordinates": [-72.5895879277, 42.1031417333]}, "type": "Feature", "properties": {"collection_times": [{"days": "Mon-Fri", "time": "5:30pm"}, {"days": "Sat", "time": "2:00pm"}, {"days": "Sun", "time": "Closed"}], "id": "0110300112", "name": "USPS COLLECTION BOX - BLUE BOX", "address": {"city": "SPRINGFIELD", "state": "MA", "street": "150 BRIDGE ST", "postcode": "01103"}}},
{"geometry": {"type": "Point", "coordinates": [-72.588845616, 42.099501928]}, "type": "Feature", "properties": {"collection_times": [{"days": "Mon-Fri", "time": "5:00pm"}, {"days": "Sat", "time": "10:00am"}, {"days": "Sun", "time": "Closed"}], "id": "0110300118", "name": "USPS COLLECTION BOX - BLUE BOX", "address": {"city": "SPRINGFIELD", "state": "MA", "street": "50 STATE ST", "postcode": "01103"}}},
{"geometry": {"type": "Point", "coordinates": [-72.5895879277, 42.1031417333]}, "type": "Feature", "properties": {"collection_times": [{"days": "Mon-Fri", "time": "5:30pm"}, {"days": "Sat", "time": "2:00pm"}, {"days": "Sun", "time": "Closed"}], "id": "0110300120", "name": "USPS COLLECTION BOX - BLUE BOX", "address": {"city": "SPRINGFIELD", "state": "MA", "street": "150 BRIDGE ST", "postcode": "01103"}}},
{"geometry": {"type": "Point", "coordinates": [-72.5928124885, 42.1136866668]}, "type": "Feature", "properties": {"collection_times": [{"days": "Mon-Fri", "time": "3:30pm"}, {"days": "Sat", "time": "10:00am"}, {"days": "Sun", "time": "Closed"}], "id": "0110400004", "name": "USPS COLLECTION BOX - BLUE BOX", "address": {"city": "SPRINGFIELD", "state": "MA", "street": "300 STAFFORD ST", "postcode": "01104"}}},
{"geometry": {"type": "Point", "coordinates": [-72.5929310971, 42.1113369161]}, "type": "Feature", "properties": {"collection_times": [{"days": "Mon-Sat", "time": "10:00am"}, {"days": "Sun", "time": "Closed"}], "id": "0110400009", "name": "USPS COLLECTION BOX - BLUE BOX", "address": {"city": "SPRINGFIELD", "state": "MA", "street": "25 SAAB CT", "postcode": "01104"}}},
{"geometry": {"type": "Point", "coordinates": [-72.5692113121, 42.1352056158]}, "type": "Feature", "properties": {"collection_times": [{"days": "Mon-Sat", "time": "9:30am"}, {"days": "Sun", "time": "Closed"}], "id": "0110400010", "name": "USPS COLLECTION BOX - BLUE BOX", "address": {"city": "SPRINGFIELD", "state": "MA", "street": "50 SAINT JAMES BLVD", "postcode": "01104"}}},
{"geometry": {"type": "Point", "coordinates": [-72.5670182551, 42.1287100059]}, "type": "Feature", "properties": {"collection_times": [{"days": "Mon-Sat", "time": "10:00am"}, {"days": "Sun", "time": "Closed"}], "id": "0110400012", "name": "USPS COLLECTION BOX - BLUE BOX", "address": {"city": "SPRINGFIELD", "state": "MA", "street": "744 SAINT JAMES AVE", "postcode": "01104"}}},
{"geometry": {"type": "Point", "coordinates": [-72.5701752189, 42.1375991032]}, "type": "Feature", "properties": {"collection_times": [{"days": "Mon-Sat", "time": "10:00am"}, {"days": "Sun", "time": "Closed"}], "id": "0110400013", "name": "USPS COLLECTION BOX - BLUE BOX", "address": {"city": "SPRINGFIELD", "state": "MA", "street": "1116 SAINT JAMES AVE", "postcode": "01104"}}},
{"geometry": {"type": "Point", "coordinates": [-72.5668040447, 42.1312847472]}, "type": "Feature", "properties": {"collection_times": [{"days": "Mon-Sat", "time": "10:00am"}, {"days": "Sun", "time": "Closed"}], "id": "0110400014", "name": "USPS COLLECTION BOX - BLUE BOX", "address": {"city": "SPRINGFIELD", "state": "MA", "street": "850 SAINT JAMES AVE", "postcode": "01104"}}},
{"geometry": {"type": "Point", "coordinates": [-72.5886877275, 42.1304412745]}, "type": "Feature", "properties": {"collection_times": [{"days": "Mon-Sat", "time": "9:30am"}, {"days": "Sun", "time": "Closed"}], "id": "0110400015", "name": "USPS COLLECTION BOX - BLUE BOX", "address": {"city": "SPRINGFIELD", "state": "MA", "street": "245 CONNECTICUT AVE", "postcode": "01104"}}},
{"geometry": {"type": "Point", "coordinates": [-72.5746367635, 42.1299634982]}, "type": "Feature", "properties": {"collection_times": [{"days": "Mon-Sat", "time": "10:00am"}, {"days": "Sun", "time": "Closed"}], "id": "0110400017", "name": "USPS COLLECTION BOX - BLUE BOX", "address": {"city": "SPRINGFIELD", "state": "MA", "street": "494 PAGE BLVD", "postcode": "01104"}}},
{"geometry": {"type": "Point", "coordinates": [-72.5746367635, 42.1299634982]}, "type": "Feature", "properties": {"collection_times": [{"days": "Mon-Sat", "time": "10:00am"}, {"days": "Sun", "time": "Closed"}], "id": "0110400018", "name": "USPS COLLECTION BOX - BLUE BOX", "address": {"city": "SPRINGFIELD", "state": "MA", "street": "655 PAGE BLVD", "postcode": "01104"}}},
{"geometry": {"type": "Point", "coordinates": [-72.5746367635, 42.1299634982]}, "type": "Feature", "properties": {"collection_times": [{"days": "Mon-Fri", "time": "5:00pm"}, {"days": "Sat", "time": "10:00am"}, {"days": "Sun", "time": "Closed"}], "id": "0110400019", "name": "USPS COLLECTION BOX - BLUE BOX", "address": {"city": "SPRINGFIELD", "state": "MA", "street": "66 INDUSTRY AVE", "postcode": "01104"}}},
{"geometry": {"type": "Point", "coordinates": [-72.5886815672, 42.11714156]}, "type": "Feature", "properties": {"collection_times": [{"days": "Mon-Sat", "time": "10:00am"}, {"days": "Sun", "time": "Closed"}], "id": "0110400020", "name": "USPS COLLECTION BOX - BLUE BOX", "address": {"city": "SPRINGFIELD", "state": "MA", "street": "143 NURSERY ST", "postcode": "01104"}}},
{"geometry": {"type": "Point", "coordinates": [-72.5953770712, 42.1223921363]}, "type": "Feature", "properties": {"collection_times": [{"days": "Mon-Sat", "time": "10:00am"}, {"days": "Sun", "time": "Closed"}], "id": "0110400021", "name": "USPS COLLECTION BOX - BLUE BOX", "address": {"city": "SPRINGFIELD", "state": "MA", "street": "110 MELHA AVE", "postcode": "01104"}}},
{"geometry": {"type": "Point", "coordinates": [-72.6004956616, 42.1087999729]}, "type": "Feature", "properties": {"collection_times": [{"days": "Mon-Fri", "time": "5:00pm"}, {"days": "Sat", "time": "10:00am"}, {"days": "Sun", "time": "Closed"}], "id": "0110400024", "name": "USPS COLLECTION BOX - BLUE BOX", "address": {"city": "SPRINGFIELD", "state": "MA", "street": "2150 MAIN ST", "postcode": "01104"}}},
{"geometry": {"type": "Point", "coordinates": [-72.5746367635, 42.1299634982]}, "type": "Feature", "properties": {"collection_times": [{"days": "Mon-Sat", "time": "10:00am"}, {"days": "Sun", "time": "Closed"}], "id": "0110400025", "name": "USPS COLLECTION BOX - BLUE BOX", "address": {"city": "SPRINGFIELD", "state": "MA", "street": "1116 LIBERTY ST", "postcode": "01104"}}},
{"geometry": {"type": "Point", "coordinates": [-72.5746367635, 42.1299634982]}, "type": "Feature", "properties": {"collection_times": [{"days": "Mon-Sat", "time": "10:00am"}, {"days": "Sun", "time": "Closed"}], "id": "0110400026", "name": "USPS COLLECTION BOX - BLUE BOX", "address": {"city": "SPRINGFIELD", "state": "MA", "street": "576 NEWBURY ST", "postcode": "01104"}}},
{"geometry": {"type": "Point", "coordinates": [-72.5831360768, 42.137983122]}, "type": "Feature", "properties": {"collection_times": [{"days": "Mon-Fri", "time": "3:00pm"}, {"days": "Sat", "time": "10:00am"}, {"days": "Sun", "time": "Closed"}], "id": "0110400027", "name": "USPS COLLECTION BOX - BLUE BOX", "address": {"city": "SPRINGFIELD", "state": "MA", "street": "1300 LIBERTY ST", "postcode": "01104"}}},
{"geometry": {"type": "Point", "coordinates": [-72.5829334766, 42.1380732592]}, "type": "Feature", "properties": {"collection_times": [{"days": "Mon-Sat", "time": "10:00am"}, {"days": "Sun", "time": "Closed"}], "id": "0110400028", "name": "USPS COLLECTION BOX - BLUE BOX", "address": {"city": "SPRINGFIELD", "state": "MA", "street": "1307 LIBERTY ST", "postcode": "01104"}}},
{"geometry": {"type": "Point", "coordinates": [-72.5824047452, 42.1391589041]}, "type": "Feature", "properties": {"collection_times": [{"days": "Mon-Sat", "time": "10:00am"}, {"days": "Sun", "time": "Closed"}], "id": "0110400029", "name": "USPS COLLECTION BOX - BLUE BOX", "address": {"city": "SPRINGFIELD", "state": "MA", "street": "1355 LIBERTY ST", "postcode": "01104"}}},
{"geometry": {"type": "Point", "coordinates": [-72.5746367635, 42.1299634982]}, "type": "Feature", "properties": {"collection_times": [{"days": "Mon-Sat", "time": "10:00am"}, {"days": "Sun", "time": "Closed"}], "id": "0110400036", "name": "USPS COLLECTION BOX - BLUE BOX", "address": {"city": "SPRINGFIELD", "state": "MA", "street": "736 LIBERTY ST", "postcode": "01104"}}},
{"geometry": {"type": "Point", "coordinates": [-72.5746367635, 42.1299634982]}, "type": "Feature", "properties": {"collection_times": [{"days": "Mon-Fri", "time": "5:00pm"}, {"days": "Sat", "time": "10:00am"}, {"days": "Sun", "time": "Closed"}], "id": "0110400039", "name": "USPS COLLECTION BOX - BLUE BOX", "address": {"city": "SPRINGFIELD", "state": "MA", "street": "276 COTTAGE ST", "postcode": "01104"}}},
{"geometry": {"type": "Point", "coordinates": [-72.5933236841, 42.10904191]}, "type": "Feature", "properties": {"collection_times": [{"days": "Mon-Fri", "time": "10:00am"}, {"days": "Sat-Sun", "time": "Closed"}], "id": "0110400043", "name": "USPS COLLECTION BOX - BLUE BOX", "address": {"city": "SPRINGFIELD", "state": "MA", "street": "280 CHESTNUT ST", "postcode": "01104"}}},
{"geometry": {"type": "Point", "coordinates": [-72.5964645503, 42.1128495579]}, "type": "Feature", "properties": {"collection_times": [{"days": "Mon-Sat", "time": "10:00am"}, {"days": "Sun", "time": "Closed"}], "id": "0110400045", "name": "USPS COLLECTION BOX - BLUE BOX", "address": {"city": "SPRINGFIELD", "state": "MA", "street": "401 CHESTNUT ST", "postcode": "01104"}}},
{"geometry": {"type": "Point", "coordinates": [-72.5966900784, 42.1126951251]}, "type": "Feature", "properties": {"collection_times": [{"days": "Mon-Sat", "time": "10:00am"}, {"days": "Sun", "time": "Closed"}], "id": "0110400046", "name": "USPS COLLECTION BOX - BLUE BOX", "address": {"city": "SPRINGFIELD", "state": "MA", "street": "414 CHESTNUT ST", "postcode": "01104"}}},
{"geometry": {"type": "Point", "coordinates": [-72.5360336789, 42.144547384]}, "type": "Feature", "properties": {"collection_times": [{"days": "Mon-Sat", "time": "10:00am"}, {"days": "Sun", "time": "Closed"}], "id": "0110400049", "name": "USPS COLLECTION BOX - BLUE BOX", "address": {"city": "SPRINGFIELD", "state": "MA", "street": "20 CARANDO DR", "postcode": "01104"}}},
{"geometry": {"type": "Point", "coordinates": [-72.5746367635, 42.1299634982]}, "type": "Feature", "properties": {"collection_times": [{"days": "Mon-Sat", "time": "10:00am"}, {"days": "Sun", "time": "Closed"}], "id": "0110400050", "name": "USPS COLLECTION BOX - BLUE BOX", "address": {"city": "SPRINGFIELD", "state": "MA", "street": "190 CARANDO DR", "postcode": "01104"}}},
{"geometry": {"type": "Point", "coordinates": [-72.5962789204, 42.1140900838]}, "type": "Feature", "properties": {"collection_times": [{"days": "Mon-Fri", "time": "3:00pm"}, {"days": "Sat-Sun", "time": "Closed"}], "id": "0110400051", "name": "USPS COLLECTION BOX - BLUE BOX", "address": {"city": "SPRINGFIELD", "state": "MA", "street": "222 CAREW ST", "postcode": "01104"}}},
{"geometry": {"type": "Point", "coordinates": [-72.5746367635, 42.1299634982]}, "type": "Feature", "properties": {"collection_times": [{"days": "Mon-Sat", "time": "10:00am"}, {"days": "Sun", "time": "Closed"}], "id": "0110400053", "name": "USPS COLLECTION BOX - BLUE BOX", "address": {"city": "SPRINGFIELD", "state": "MA", "street": "596 CAREW ST", "postcode": "01104"}}},
{"geometry": {"type": "Point", "coordinates": [-72.5848198933, 42.1251416267]}, "type": "Feature", "properties": {"collection_times": [{"days": "Mon-Sat", "time": "10:00am"}, {"days": "Sun", "time": "Closed"}], "id": "0110400054", "name": "USPS COLLECTION BOX - BLUE BOX", "address": {"city": "SPRINGFIELD", "state": "MA", "street": "770 CAREW ST", "postcode": "01104"}}},
{"geometry": {"type": "Point", "coordinates": [-72.5746367635, 42.1299634982]}, "type": "Feature", "properties": {"collection_times": [{"days": "Mon-Sat", "time": "9:30am"}, {"days": "Sun", "time": "Closed"}], "id": "0110400055", "name": "USPS COLLECTION BOX - BLUE BOX", "address": {"city": "SPRINGFIELD", "state": "MA", "street": "889 CAREW ST", "postcode": "01104"}}},
{"geometry": {"type": "Point", "coordinates": [-72.5746367635, 42.1299634982]}, "type": "Feature", "properties": {"collection_times": [{"days": "Mon-Sat", "time": "10:00am"}, {"days": "Sun", "time": "Closed"}], "id": "0110400056", "name": "USPS COLLECTION BOX - BLUE BOX", "address": {"city": "SPRINGFIELD", "state": "MA", "street": "1658 CAREW ST", "postcode": "01104"}}},
{"geometry": {"type": "Point", "coordinates": [-72.5710342556, 42.1337678051]}, "type": "Feature", "properties": {"collection_times": [{"days": "Mon-Sat", "time": "10:00am"}, {"days": "Sun", "time": "Closed"}], "id": "0110400059", "name": "USPS COLLECTION BOX - BLUE BOX", "address": {"city": "SPRINGFIELD", "state": "MA", "street": "1251 CAREW ST", "postcode": "01104"}}},
{"geometry": {"type": "Point", "coordinates": [-72.5746367635, 42.1299634982]}, "type": "Feature", "properties": {"collection_times": [{"days": "Mon-Sat", "time": "10:00am"}, {"days": "Sun", "time": "Closed"}], "id": "0110400060", "name": "USPS COLLECTION BOX - BLUE BOX", "address": {"city": "SPRINGFIELD", "state": "MA", "street": "6 CARLOS ST", "postcode": "01104"}}},
{"geometry": {"type": "Point", "coordinates": [-72.5603709194, 42.1463369276]}, "type": "Feature", "properties": {"collection_times": [{"days": "Mon-Sat", "time": "10:00am"}, {"days": "Sun", "time": "Closed"}], "id": "0110400061", "name": "USPS COLLECTION BOX - BLUE BOX", "address": {"city": "SPRINGFIELD", "state": "MA", "street": "108 EAST ST", "postcode": "01104"}}},
{"geometry": {"type": "Point", "coordinates": [-72.5746367635, 42.1299634982]}, "type": "Feature", "properties": {"collection_times": [{"days": "Mon-Sat", "time": "10:00am"}, {"days": "Sun", "time": "Closed"}], "id": "0110400062", "name": "USPS COLLECTION BOX - BLUE BOX", "address": {"city": "SPRINGFIELD", "state": "MA", "street": "95 AVOCADO ST", "postcode": "01104"}}},
{"geometry": {"type": "Point", "coordinates": [-72.5747497339, 42.1298808971]}, "type": "Feature", "properties": {"collection_times": [{"days": "Mon-Sat", "time": "10:00am"}, {"days": "Sun", "time": "Closed"}], "id": "0110400065", "name": "USPS COLLECTION BOX - BLUE BOX", "address": {"city": "SPRINGFIELD", "state": "MA", "street": "307 CHESTNUT ST", "postcode": "01104"}}},
{"geometry": {"type": "Point", "coordinates": [-72.5746367635, 42.1299634982]}, "type": "Feature", "properties": {"collection_times": [{"days": "Mon-Fri", "time": "3:00pm"}, {"days": "Sat", "time": "10:00am"}, {"days": "Sun", "time": "Closed"}], "id": "0110400067", "name": "USPS COLLECTION BOX - BLUE BOX", "address": {"city": "SPRINGFIELD", "state": "MA", "street": "209 PAGE BLVD", "postcode": "01104"}}},
{"geometry": {"type": "Point", "coordinates": [-72.5954163156, 42.1162413511]}, "type": "Feature", "properties": {"collection_times": [{"days": "Mon-Fri", "time": "3:30pm"}, {"days": "Sat-Sun", "time": "Closed"}], "id": "0110400068", "name": "USPS COLLECTION BOX - BLUE BOX", "address": {"city": "SPRINGFIELD", "state": "MA", "street": "300 CAREW ST", "postcode": "01104"}}},
{"geometry": {"type": "Point", "coordinates": [-72.5746367635, 42.1299634982]}, "type": "Feature", "properties": {"collection_times": [{"days": "Mon-Fri", "time": "5:00pm"}, {"days": "Sat", "time": "9:00am"}, {"days": "Sun", "time": "Closed"}], "id": "0110400070", "name": "USPS COLLECTION BOX - BLUE BOX", "address": {"city": "SPRINGFIELD", "state": "MA", "street": "246 BROOKDALE DR", "postcode": "01104"}}},
{"geometry": {"type": "Point", "coordinates": [-72.5746367635, 42.1299634982]}, "type": "Feature", "properties": {"collection_times": [{"days": "Mon-Fri", "time": "5:00pm"}, {"days": "Sat", "time": "10:00am"}, {"days": "Sun", "time": "Closed"}], "id": "0110400071", "name": "USPS COLLECTION BOX - BLUE BOX", "address": {"city": "SPRINGFIELD", "state": "MA", "street": "66 INDUSTRY AVE", "postcode": "01104"}}},
{"geometry": {"type": "Point", "coordinates": [-72.5832530578, 42.1374324235]}, "type": "Feature", "properties": {"collection_times": [{"days": "Mon-Fri", "time": "4:30pm"}, {"days": "Sat", "time": "10:00am"}, {"days": "Sun", "time": "Closed"}], "id": "0110400072", "name": "USPS COLLECTION BOX - BLUE BOX", "address": {"city": "SPRINGFIELD", "state": "MA", "street": "1277 LIBERTY ST", "postcode": "01104"}}},
{"geometry": {"type": "Point", "coordinates": [-72.5268014269, 42.1457071853]}, "type": "Feature", "properties": {"collection_times": [{"days": "Mon-Fri", "time": "12:00pm"}, {"days": "Sat-Sun", "time": "Closed"}], "id": "0110400073", "name": "USPS COLLECTION BOX - BLUE BOX", "address": {"city": "SPRINGFIELD", "state": "MA", "street": "155 BROOKDALE DR", "postcode": "01104"}}},
{"geometry": {"type": "Point", "coordinates": [-72.5928124885, 42.1136866668]}, "type": "Feature", "properties": {"collection_times": [{"days": "Mon-Fri", "time": "3:30pm"}, {"days": "Sat", "time": "10:00am"}, {"days": "Sun", "time": "Closed"}], "id": "0110400074", "name": "USPS COLLECTION BOX - BLUE BOX", "address": {"city": "SPRINGFIELD", "state": "MA", "street": "300 STAFFORD ST", "postcode": "01104"}}},
{"geometry": {"type": "Point", "coordinates": [-72.5746367635, 42.1299634982]}, "type": "Feature", "properties": {"collection_times": [{"days": "Mon-Fri", "time": "5:00pm"}, {"days": "Sat", "time": "10:00am"}, {"days": "Sun", "time": "Closed"}], "id": "0110400075", "name": "USPS COLLECTION BOX - BLUE BOX", "address": {"city": "SPRINGFIELD", "state": "MA", "street": "66 INDUSTRY AVE", "postcode": "01104"}}},
{"geometry": {"type": "Point", "coordinates": [-72.579273265, 42.0999488102]}, "type": "Feature", "properties": {"collection_times": [{"days": "Mon-Fri", "time": "3:30pm"}, {"days": "Sat", "time": "10:00am"}, {"days": "Sun", "time": "Closed"}], "id": "0110500004", "name": "USPS COLLECTION BOX - BLUE BOX", "address": {"city": "SPRINGFIELD", "state": "MA", "street": "155 MAPLE ST", "postcode": "01105"}}},
{"geometry": {"type": "Point", "coordinates": [-72.584364223, 42.09735649]}, "type": "Feature", "properties": {"collection_times": [{"days": "Mon-Sat", "time": "10:00am"}, {"days": "Sun", "time": "Closed"}], "id": "0110500008", "name": "USPS COLLECTION BOX - BLUE BOX", "address": {"city": "SPRINGFIELD", "state": "MA", "street": "85 WILLIAM ST", "postcode": "01105"}}},
{"geometry": {"type": "Point", "coordinates": [-72.5792685391, 42.1025117539]}, "type": "Feature", "properties": {"collection_times": [{"days": "Mon-Sat", "time": "10:00am"}, {"days": "Sun", "time": "Closed"}], "id": "0110500009", "name": "USPS COLLECTION BOX - BLUE BOX", "address": {"city": "SPRINGFIELD", "state": "MA", "street": "119 ASHLEY ST", "postcode": "01105"}}},
{"geometry": {"type": "Point", "coordinates": [-72.577937993, 42.109115102]}, "type": "Feature", "properties": {"collection_times": [{"days": "Mon-Fri", "time": "4:00pm"}, {"days": "Sat", "time": "10:00am"}, {"days": "Sun", "time": "Closed"}], "id": "0110500012", "name": "USPS COLLECTION BOX - BLUE BOX", "address": {"city": "SPRINGFIELD", "state": "MA", "street": "1 ARMORY SQ", "postcode": "01105"}}},
{"geometry": {"type": "Point", "coordinates": [-72.5862771945, 42.1073250926]}, "type": "Feature", "properties": {"collection_times": [{"days": "Mon-Sat", "time": "10:00am"}, {"days": "Sun", "time": "Closed"}], "id": "0110500013", "name": "USPS COLLECTION BOX - BLUE BOX", "address": {"city": "SPRINGFIELD", "state": "MA", "street": "121 SPRING ST", "postcode": "01105"}}},
{"geometry": {"type": "Point", "coordinates": [-72.5818843777, 42.1039341288]}, "type": "Feature", "properties": {"collection_times": [{"days": "Mon-Sat", "time": "10:00am"}, {"days": "Sun", "time": "Closed"}], "id": "0110500014", "name": "USPS COLLECTION BOX - BLUE BOX", "address": {"city": "SPRINGFIELD", "state": "MA", "street": "84 TEMPLE ST", "postcode": "01105"}}},
{"geometry": {"type": "Point", "coordinates": [-72.5792685391, 42.1025117539]}, "type": "Feature", "properties": {"collection_times": [{"days": "Mon-Sat", "time": "10:00am"}, {"days": "Sun", "time": "Closed"}], "id": "0110500015", "name": "USPS COLLECTION BOX - BLUE BOX", "address": {"city": "SPRINGFIELD", "state": "MA", "street": "276 UNION ST", "postcode": "01105"}}},
{"geometry": {"type": "Point", "coordinates": [-72.5849962324, 42.1084274973]}, "type": "Feature", "properties": {"collection_times": [{"days": "Mon-Sat", "time": "10:00am"}, {"days": "Sun", "time": "Closed"}], "id": "0110500016", "name": "USPS COLLECTION BOX - BLUE BOX", "address": {"city": "SPRINGFIELD", "state": "MA", "street": "130 PEARL ST", "postcode": "01105"}}},
{"geometry": {"type": "Point", "coordinates": [-72.5775791951, 42.1025548105]}, "type": "Feature", "properties": {"collection_times": [{"days": "Mon-Sat", "time": "10:00am"}, {"days": "Sun", "time": "Closed"}], "id": "0110500018", "name": "USPS COLLECTION BOX - BLUE BOX", "address": {"city": "SPRINGFIELD", "state": "MA", "street": "101 MULBERRY ST", "postcode": "01105"}}},
{"geometry": {"type": "Point", "coordinates": [-72.5804599586, 42.0923453599]}, "type": "Feature", "properties": {"collection_times": [{"days": "Mon-Sat", "time": "10:00am"}, {"days": "Sun", "time": "Closed"}], "id": "0110500020", "name": "USPS COLLECTION BOX - BLUE BOX", "address": {"city": "SPRINGFIELD", "state": "MA", "street": "450 MAIN ST", "postcode": "01105"}}},
{"geometry": {"type": "Point", "coordinates": [-72.5796057877, 42.0910029603]}, "type": "Feature", "properties": {"collection_times": [{"days": "Mon-Fri", "time": "4:30pm"}, {"days": "Sat", "time": "10:00am"}, {"days": "Sun", "time": "Closed"}], "id": "0110500027", "name": "USPS COLLECTION BOX - BLUE BOX", "address": {"city": "SPRINGFIELD", "state": "MA", "street": "322 MAIN ST", "postcode": "01105"}}},
{"geometry": {"type": "Point", "coordinates": [-72.5672765311, 42.0951569001]}, "type": "Feature", "properties": {"collection_times": [{"days": "Mon-Sat", "time": "10:00am"}, {"days": "Sun", "time": "Closed"}], "id": "0110500028", "name": "USPS COLLECTION BOX - BLUE BOX", "address": {"city": "SPRINGFIELD", "state": "MA", "street": "500 HANCOCK ST", "postcode": "01105"}}},
{"geometry": {"type": "Point", "coordinates": [-72.5792468146, 42.1023422523]}, "type": "Feature", "properties": {"collection_times": [{"days": "Mon-Sat", "time": "10:00am"}, {"days": "Sun", "time": "Closed"}], "id": "0110500029", "name": "USPS COLLECTION BOX - BLUE BOX", "address": {"city": "SPRINGFIELD", "state": "MA", "street": "140 HIGH ST", "postcode": "01105"}}},
{"geometry": {"type": "Point", "coordinates": [-72.5792685391, 42.1025117539]}, "type": "Feature", "properties": {"collection_times": [{"days": "Mon-Sat", "time": "11:00am"}, {"days": "Sun", "time": "Closed"}], "id": "0110500031", "name": "USPS COLLECTION BOX - BLUE BOX", "address": {"city": "SPRINGFIELD", "state": "MA", "street": "76 ELLIOT ST", "postcode": "01105"}}},
{"geometry": {"type": "Point", "coordinates": [-72.5810581657, 42.0898648802]}, "type": "Feature", "properties": {"collection_times": [{"days": "Mon-Fri", "time": "4:30pm"}, {"days": "Sat", "time": "10:00am"}, {"days": "Sun", "time": "Closed"}], "id": "0110500037", "name": "USPS COLLECTION BOX - BLUE BOX", "address": {"city": "SPRINGFIELD", "state": "MA", "street": "583 E COLUMBUS AVE", "postcode": "01105"}}},
{"geometry": {"type": "Point", "coordinates": [-71.7181843228, 42.3586676083]}, "type": "Feature", "properties": {"collection_times": [{"days": "Mon-Fri", "time": "4:45pm"}, {"days": "Sat", "time": "2:00pm"}, {"days": "Sun", "time": "Closed"}], "id": "0110500039", "name": "USPS COLLECTION BOX - BLUE BOX", "address": {"city": "SPRINGFIELD", "state": "MA", "street": "924 MAIN ST", "postcode": "01105"}}},
{"geometry": {"type": "Point", "coordinates": [-72.5801389945, 42.0869760133]}, "type": "Feature", "properties": {"collection_times": [{"days": "Mon-Fri", "time": "4:30pm"}, {"days": "Sat", "time": "10:00am"}, {"days": "Sun", "time": "Closed"}], "id": "0110500044", "name": "USPS COLLECTION BOX - BLUE BOX", "address": {"city": "SPRINGFIELD", "state": "MA", "street": "487 E COLUMBUS AVE", "postcode": "01105"}}},
{"geometry": {"type": "Point", "coordinates": [-72.5858440308, 42.0964959972]}, "type": "Feature", "properties": {"collection_times": [{"days": "Mon-Fri", "time": "5:00pm"}, {"days": "Sat", "time": "10:00am"}, {"days": "Sun", "time": "Closed"}], "id": "0110500046", "name": "USPS COLLECTION BOX - BLUE BOX", "address": {"city": "SPRINGFIELD", "state": "MA", "street": "1333 E COLUMBUS AVE", "postcode": "01105"}}},
{"geometry": {"type": "Point", "coordinates": [-72.5769579261, 42.1080682306]}, "type": "Feature", "properties": {"collection_times": [{"days": "Mon-Fri", "time": "4:00pm"}, {"days": "Sat", "time": "10:00am"}, {"days": "Sun", "time": "Closed"}], "id": "0110500047", "name": "USPS COLLECTION BOX - BLUE BOX", "address": {"city": "SPRINGFIELD", "state": "MA", "street": "1 FEDERAL ST", "postcode": "01105"}}},
{"geometry": {"type": "Point", "coordinates": [-72.5792685391, 42.1025117539]}, "type": "Feature", "properties": {"collection_times": [{"days": "Mon-Fri", "time": "4:30pm"}, {"days": "Sat", "time": "10:00am"}, {"days": "Sun", "time": "Closed"}], "id": "0110500049", "name": "USPS COLLECTION BOX - BLUE BOX", "address": {"city": "SPRINGFIELD", "state": "MA", "street": "322 MAIN ST", "postcode": "01105"}}},
{"geometry": {"type": "Point", "coordinates": [-72.5568354564, 42.0710982992]}, "type": "Feature", "properties": {"collection_times": [{"days": "Mon-Sat", "time": "10:00am"}, {"days": "Sun", "time": "Closed"}], "id": "0110600001", "name": "USPS COLLECTION BOX - BLUE BOX", "address": {"city": "LONGMEADOW", "state": "MA", "street": "415 PORTER LAKE DR", "postcode": "01106"}}},
{"geometry": {"type": "Point", "coordinates": [-72.5827362567, 42.0505436353]}, "type": "Feature", "properties": {"collection_times": [{"days": "Mon-Fri", "time": "3:00pm"}, {"days": "Sat", "time": "10:00am"}, {"days": "Sun", "time": "Closed"}], "id": "0110600003", "name": "USPS COLLECTION BOX - BLUE BOX", "address": {"city": "LONGMEADOW", "state": "MA", "street": "20 WILLIAMS ST", "postcode": "01106"}}},
{"geometry": {"type": "Point", "coordinates": [-72.5654296968, 42.050732323]}, "type": "Feature", "properties": {"collection_times": [{"days": "Mon-Sat", "time": "10:00am"}, {"days": "Sun", "time": "Closed"}], "id": "0110600004", "name": "USPS COLLECTION BOX - BLUE BOX", "address": {"city": "LONGMEADOW", "state": "MA", "street": "776 LONGMEADOW ST", "postcode": "01106"}}},
{"geometry": {"type": "Point", "coordinates": [-72.5796697355, 42.0601867084]}, "type": "Feature", "properties": {"collection_times": [{"days": "Mon-Sat", "time": "10:00am"}, {"days": "Sun", "time": "Closed"}], "id": "0110600005", "name": "USPS COLLECTION BOX - BLUE BOX", "address": {"city": "LONGMEADOW", "state": "MA", "street": "384 LONGMEADOW ST", "postcode": "01106"}}},
{"geometry": {"type": "Point", "coordinates": [-72.5654296971, 42.0507409669]}, "type": "Feature", "properties": {"collection_times": [{"days": "Mon-Fri", "time": "4:30pm"}, {"days": "Sat", "time": "9:30am"}, {"days": "Sun", "time": "Closed"}], "id": "0110600006", "name": "USPS COLLECTION BOX - BLUE BOX", "address": {"city": "LONGMEADOW", "state": "MA", "street": "588 LONGMEADOW ST", "postcode": "01106"}}},
{"geometry": {"type": "Point", "coordinates": [-72.5548692863, 42.0556601024]}, "type": "Feature", "properties": {"collection_times": [{"days": "Mon-Sat", "time": "10:00am"}, {"days": "Sun", "time": "Closed"}], "id": "0110600008", "name": "USPS COLLECTION BOX - BLUE BOX", "address": {"city": "LONGMEADOW", "state": "MA", "street": "1650 LONGMEADOW ST", "postcode": "01106"}}},
{"geometry": {"type": "Point", "coordinates": [-72.55648419, 42.0567372547]}, "type": "Feature", "properties": {"collection_times": [{"days": "Mon-Fri", "time": "3:30pm"}, {"days": "Sat", "time": "10:00am"}, {"days": "Sun", "time": "Closed"}], "id": "0110600009", "name": "USPS COLLECTION BOX - BLUE BOX", "address": {"city": "LONGMEADOW", "state": "MA", "street": "720 BLISS RD", "postcode": "01106"}}},
{"geometry": {"type": "Point", "coordinates": [-72.5654296968, 42.050732323]}, "type": "Feature", "properties": {"collection_times": [{"days": "Mon-Sat", "time": "10:00am"}, {"days": "Sun", "time": "Closed"}], "id": "0110600010", "name": "USPS COLLECTION BOX - BLUE BOX", "address": {"city": "LONGMEADOW", "state": "MA", "street": "556 LAUREL ST", "postcode": "01106"}}},
{"geometry": {"type": "Point", "coordinates": [-72.5652660271, 42.0576705547]}, "type": "Feature", "properties": {"collection_times": [{"days": "Mon-Sat", "time": "10:00am"}, {"days": "Sun", "time": "Closed"}], "id": "0110600011", "name": "USPS COLLECTION BOX - BLUE BOX", "address": {"city": "LONGMEADOW", "state": "MA", "street": "288 BURBANK RD", "postcode": "01106"}}},
{"geometry": {"type": "Point", "coordinates": [-72.5548692863, 42.0556601024]}, "type": "Feature", "properties": {"collection_times": [{"days": "Mon-Sat", "time": "10:00am"}, {"days": "Sun", "time": "Closed"}], "id": "0110600012", "name": "USPS COLLECTION BOX - BLUE BOX", "address": {"city": "LONGMEADOW", "state": "MA", "street": "165 FARMINGTON RD", "postcode": "01106"}}},
{"geometry": {"type": "Point", "coordinates": [-72.5718775848, 42.0318938788]}, "type": "Feature", "properties": {"collection_times": [{"days": "Mon-Sat", "time": "10:00am"}, {"days": "Sun", "time": "Closed"}], "id": "0110600015", "name": "USPS COLLECTION BOX - BLUE BOX", "address": {"city": "LONGMEADOW", "state": "MA", "street": "284 MAPLE RD", "postcode": "01106"}}},
{"geometry": {"type": "Point", "coordinates": [-72.5654296968, 42.050732323]}, "type": "Feature", "properties": {"collection_times": [{"days": "Mon-Fri", "time": "3:00pm"}, {"days": "Sat", "time": "10:00am"}, {"days": "Sun", "time": "Closed"}], "id": "0110600017", "name": "USPS COLLECTION BOX - BLUE BOX", "address": {"city": "LONGMEADOW", "state": "MA", "street": "912 SHAKER RD", "postcode": "01106"}}},
{"geometry": {"type": "Point", "coordinates": [-72.5793270971, 42.0665392426]}, "type": "Feature", "properties": {"collection_times": [{"days": "Mon-Fri", "time": "3:30pm"}, {"days": "Sat", "time": "10:00am"}, {"days": "Sun", "time": "Closed"}], "id": "0110600020", "name": "USPS COLLECTION BOX - BLUE BOX", "address": {"city": "LONGMEADOW", "state": "MA", "street": "153 LONGMEADOW ST", "postcode": "01106"}}},
{"geometry": {"type": "Point", "coordinates": [-72.580517795, 42.057900524]}, "type": "Feature", "properties": {"collection_times": [{"days": "Mon-Fri", "time": "3:00pm"}, {"days": "Sat", "time": "10:00am"}, {"days": "Sun", "time": "Closed"}], "id": "0110600021", "name": "USPS COLLECTION BOX - BLUE BOX", "address": {"city": "LONGMEADOW", "state": "MA", "street": "475 LONGMEADOW ST", "postcode": "01106"}}},
{"geometry": {"type": "Point", "coordinates": [-72.5654296971, 42.0507409669]}, "type": "Feature", "properties": {"collection_times": [{"days": "Mon-Fri", "time": "5:00pm"}, {"days": "Sat", "time": "12:45pm"}, {"days": "Sun", "time": "Closed"}], "id": "0110600025", "name": "USPS COLLECTION BOX - EXPRESS", "address": {"city": "LONGMEADOW", "state": "MA", "street": "817 WILLIAMS ST", "postcode": "01106"}}},
{"geometry": {"type": "Point", "coordinates": [-72.5534835802, 42.0559814796]}, "type": "Feature", "properties": {"collection_times": [{"days": "Mon-Fri", "time": "5:00pm"}, {"days": "Sat", "time": "12:45pm"}, {"days": "Sun", "time": "Closed"}], "id": "0110600026", "name": "USPS COLLECTION BOX - BLUE BOX", "address": {"city": "LONGMEADOW", "state": "MA", "street": "817 WILLIAMS ST", "postcode": "01106"}}},
{"geometry": {"type": "Point", "coordinates": [-72.5654296968, 42.050732323]}, "type": "Feature", "properties": {"collection_times": [{"days": "Mon-Fri", "time": "5:15pm"}, {"days": "Sat", "time": "10:00am"}, {"days": "Sun", "time": "Closed"}], "id": "0110600029", "name": "USPS COLLECTION BOX - BLUE BOX", "address": {"city": "LONGMEADOW", "state": "MA", "street": "167 DWIGHT RD", "postcode": "01106"}}},
{"geometry": {"type": "Point", "coordinates": [-72.5378959056, 42.0600222771]}, "type": "Feature", "properties": {"collection_times": [{"days": "Mon-Fri", "time": "3:30pm"}, {"days": "Sat", "time": "10:00am"}, {"days": "Sun", "time": "Closed"}], "id": "0110600031", "name": "USPS COLLECTION BOX - BLUE BOX", "address": {"city": "LONGMEADOW", "state": "MA", "street": "123 DWIGHT RD", "postcode": "01106"}}},
{"geometry": {"type": "Point", "coordinates": [-72.5548692863, 42.0556601024]}, "type": "Feature", "properties": {"collection_times": [{"days": "Mon-Sat", "time": "10:00am"}, {"days": "Sun", "time": "Closed"}], "id": "0110600034", "name": "USPS COLLECTION BOX - BLUE BOX", "address": {"city": "LONGMEADOW", "state": "MA", "street": "316 LONGMEADOW ST", "postcode": "01106"}}},
{"geometry": {"type": "Point", "coordinates": [-72.5554463994, 42.0555081606]}, "type": "Feature", "properties": {"collection_times": [{"days": "Mon-Fri", "time": "5:00pm"}, {"days": "Sat", "time": "10:00am"}, {"days": "Sun", "time": "Closed"}], "id": "0110600037", "name": "USPS COLLECTION BOX - BLUE BOX", "address": {"city": "LONGMEADOW", "state": "MA", "street": "802 WILLIAMS ST", "postcode": "01106"}}},
{"geometry": {"type": "Point", "coordinates": [-72.6069462246, 42.1198700508]}, "type": "Feature", "properties": {"collection_times": [{"days": "Mon-Fri", "time": "3:30pm"}, {"days": "Sat", "time": "10:00am"}, {"days": "Sun", "time": "Closed"}], "id": "0110700003", "name": "USPS COLLECTION BOX - BLUE BOX", "address": {"city": "SPRINGFIELD", "state": "MA", "street": "759 CHESTNUT ST", "postcode": "01107"}}},
{"geometry": {"type": "Point", "coordinates": [-72.6043506175, 42.122844696]}, "type": "Feature", "properties": {"collection_times": [{"days": "Mon-Fri", "time": "4:00pm"}, {"days": "Sat", "time": "10:00am"}, {"days": "Sun", "time": "Closed"}], "id": "0110700005", "name": "USPS COLLECTION BOX - BLUE BOX", "address": {"city": "SPRINGFIELD", "state": "MA", "street": "85 SPRINGFIELD ST", "postcode": "01107"}}},
{"geometry": {"type": "Point", "coordinates": [-72.6069462246, 42.1198700508]}, "type": "Feature", "properties": {"collection_times": [{"days": "Mon-Sat", "time": "10:00am"}, {"days": "Sun", "time": "Closed"}], "id": "0110700007", "name": "USPS COLLECTION BOX - BLUE BOX", "address": {"city": "SPRINGFIELD", "state": "MA", "street": "192 SPRINGFIELD ST", "postcode": "01107"}}},
{"geometry": {"type": "Point", "coordinates": [-72.6149119843, 42.1190668844]}, "type": "Feature", "properties": {"collection_times": [{"days": "Mon-Sat", "time": "10:00am"}, {"days": "Sun", "time": "Closed"}], "id": "0110700008", "name": "USPS COLLECTION BOX - BLUE BOX", "address": {"city": "SPRINGFIELD", "state": "MA", "street": "445 PLAINFIELD ST", "postcode": "01107"}}},
{"geometry": {"type": "Point", "coordinates": [-72.5960506054, 42.1328995541]}, "type": "Feature", "properties": {"collection_times": [{"days": "Mon-Sat", "time": "10:00am"}, {"days": "Sun", "time": "Closed"}], "id": "0110700010", "name": "USPS COLLECTION BOX - BLUE BOX", "address": {"city": "SPRINGFIELD", "state": "MA", "street": "31 MILFORD ST", "postcode": "01107"}}},
{"geometry": {"type": "Point", "coordinates": [-72.6013595468, 42.1204481404]}, "type": "Feature", "properties": {"collection_times": [{"days": "Mon-Fri", "time": "4:30pm"}, {"days": "Sat-Sun", "time": "Closed"}], "id": "0110700011", "name": "USPS COLLECTION BOX - BLUE BOX", "address": {"city": "SPRINGFIELD", "state": "MA", "street": "2 MEDICAL CENTER DR", "postcode": "01107"}}},
{"geometry": {"type": "Point", "coordinates": [-72.6069462246, 42.1198700508]}, "type": "Feature", "properties": {"collection_times": [{"days": "Mon-Fri", "time": "4:00pm"}, {"days": "Sat", "time": "12:00pm"}, {"days": "Sun", "time": "Closed"}], "id": "0110700012", "name": "USPS COLLECTION BOX - BLUE BOX", "address": {"city": "SPRINGFIELD", "state": "MA", "street": "3065 MAIN ST", "postcode": "01107"}}},
{"geometry": {"type": "Point", "coordinates": [-72.6123004331, 42.1119836707]}, "type": "Feature", "properties": {"collection_times": [{"days": "Mon-Sat", "time": "10:00am"}, {"days": "Sun", "time": "Closed"}], "id": "0110700014", "name": "USPS COLLECTION BOX - BLUE BOX", "address": {"city": "SPRINGFIELD", "state": "MA", "street": "101 LOWELL ST", "postcode": "01107"}}},
{"geometry": {"type": "Point", "coordinates": [-72.6154971913, 42.1161662961]}, "type": "Feature", "properties": {"collection_times": [{"days": "Mon-Sat", "time": "10:00am"}, {"days": "Sun", "time": "Closed"}], "id": "0110700015", "name": "USPS COLLECTION BOX - BLUE BOX", "address": {"city": "SPRINGFIELD", "state": "MA", "street": "105 DIVISION ST", "postcode": "01107"}}},
{"geometry": {"type": "Point", "coordinates": [-72.6054927978, 42.121286749]}, "type": "Feature", "properties": {"collection_times": [{"days": "Mon-Fri", "time": "3:00pm"}, {"days": "Sat", "time": "10:00am"}, {"days": "Sun", "time": "Closed"}], "id": "0110700018", "name": "USPS COLLECTION BOX - BLUE BOX", "address": {"city": "SPRINGFIELD", "state": "MA", "street": "780 CHESTNUT ST", "postcode": "01107"}}},
{"geometry": {"type": "Point", "coordinates": [-72.6069462246, 42.1198700508]}, "type": "Feature", "properties": {"collection_times": [{"days": "Mon-Sat", "time": "10:00am"}, {"days": "Sun", "time": "Closed"}], "id": "0110700022", "name": "USPS COLLECTION BOX - BLUE BOX", "address": {"city": "SPRINGFIELD", "state": "MA", "street": "893 ARMORY ST", "postcode": "01107"}}},
{"geometry": {"type": "Point", "coordinates": [-72.6069462246, 42.1198700508]}, "type": "Feature", "properties": {"collection_times": [{"days": "Mon-Fri", "time": "4:30pm"}, {"days": "Sat-Sun", "time": "Closed"}], "id": "0110700024", "name": "USPS COLLECTION BOX - BLUE BOX", "address": {"city": "SPRINGFIELD", "state": "MA", "street": "2 MEDICAL CENTER DR", "postcode": "01107"}}},
{"geometry": {"type": "Point", "coordinates": [-72.6069462246, 42.1198700508]}, "type": "Feature", "properties": {"collection_times": [{"days": "Mon-Fri", "time": "4:00pm"}, {"days": "Sat-Sun", "time": "Closed"}], "id": "0110700025", "name": "USPS COLLECTION BOX - BLUE BOX", "address": {"city": "SPRINGFIELD", "state": "MA", "street": "340 BIRNIE AVE", "postcode": "01107"}}},
{"geometry": {"type": "Point", "coordinates": [-72.6102401809, 42.1244000609]}, "type": "Feature", "properties": {"collection_times": [{"days": "Mon-Fri", "time": "4:00pm"}, {"days": "Sat-Sun", "time": "Closed"}], "id": "0110700026", "name": "USPS COLLECTION BOX - BLUE BOX", "address": {"city": "SPRINGFIELD", "state": "MA", "street": "3400 MAIN ST", "postcode": "01107"}}},
{"geometry": {"type": "Point", "coordinates": [-72.6165936696, 42.1147460586]}, "type": "Feature", "properties": {"collection_times": [{"days": "Mon-Sat", "time": "10:00am"}, {"days": "Sun", "time": "Closed"}], "id": "0110700027", "name": "USPS COLLECTION BOX - BLUE BOX", "address": {"city": "SPRINGFIELD", "state": "MA", "street": "120 CLYDE ST", "postcode": "01107"}}},
{"geometry": {"type": "Point", "coordinates": [-72.6103759398, 42.1251310691]}, "type": "Feature", "properties": {"collection_times": [{"days": "Mon-Fri", "time": "4:00pm"}, {"days": "Sat-Sun", "time": "Closed"}], "id": "0110700028", "name": "USPS COLLECTION BOX - BLUE BOX", "address": {"city": "SPRINGFIELD", "state": "MA", "street": "3455 MAIN ST", "postcode": "01107"}}},
{"geometry": {"type": "Point", "coordinates": [-72.6069462246, 42.1198700508]}, "type": "Feature", "properties": {"collection_times": [{"days": "Mon-Fri", "time": "4:00pm"}, {"days": "Sat-Sun", "time": "Closed"}], "id": "0110700030", "name": "USPS COLLECTION BOX - BLUE BOX", "address": {"city": "SPRINGFIELD", "state": "MA", "street": "3601 MAIN ST", "postcode": "01107"}}},
{"geometry": {"type": "Point", "coordinates": [-72.6111705488, 42.1226880553]}, "type": "Feature", "properties": {"collection_times": [{"days": "Mon-Fri", "time": "3:00pm"}, {"days": "Sat-Sun", "time": "Closed"}], "id": "0110700031", "name": "USPS COLLECTION BOX - BLUE BOX", "address": {"city": "SPRINGFIELD", "state": "MA", "street": "340 BIRNIE AVE", "postcode": "01107"}}},
{"geometry": {"type": "Point", "coordinates": [-72.6069462246, 42.1198700508]}, "type": "Feature", "properties": {"collection_times": [{"days": "Mon-Fri", "time": "4:00pm"}, {"days": "Sat-Sun", "time": "Closed"}], "id": "0110700032", "name": "USPS COLLECTION BOX - BLUE BOX", "address": {"city": "SPRINGFIELD", "state": "MA", "street": "300 BIRNIE AVE", "postcode": "01107"}}},
{"geometry": {"type": "Point", "coordinates": [-72.6108736478, 42.1212552299]}, "type": "Feature", "properties": {"collection_times": [{"days": "Mon-Fri", "time": "4:00pm"}, {"days": "Sat-Sun", "time": "Closed"}], "id": "0110700033", "name": "USPS COLLECTION BOX - BLUE BOX", "address": {"city": "SPRINGFIELD", "state": "MA", "street": "300 BIRNIE AVE", "postcode": "01107"}}},
{"geometry": {"type": "Point", "coordinates": [-72.6069462246, 42.1198700508]}, "type": "Feature", "properties": {"collection_times": [{"days": "Mon-Fri", "time": "10:00am"}, {"days": "Sat-Sun", "time": "Closed"}], "id": "0110700034", "name": "USPS COLLECTION BOX - BLUE BOX", "address": {"city": "SPRINGFIELD", "state": "MA", "street": "3640 MAIN ST", "postcode": "01107"}}},
{"geometry": {"type": "Point", "coordinates": [-72.6134688711, 42.1247119771]}, "type": "Feature", "properties": {"collection_times": [{"days": "Mon-Fri", "time": "12:00pm"}, {"days": "Sat-Sun", "time": "Closed"}], "id": "0110700035", "name": "USPS COLLECTION BOX - BLUE BOX", "address": {"city": "SPRINGFIELD", "state": "MA", "street": "100 WASON AVE", "postcode": "01107"}}},
{"geometry": {"type": "Point", "coordinates": [-72.5578896153, 42.0842680182]}, "type": "Feature", "properties": {"collection_times": [{"days": "Mon-Sat", "time": "9:00am"}, {"days": "Sun", "time": "Closed"}], "id": "0110800004", "name": "USPS COLLECTION BOX - BLUE BOX", "address": {"city": "SPRINGFIELD", "state": "MA", "street": "25 BARNEY LN", "postcode": "01108"}}},
{"geometry": {"type": "Point", "coordinates": [-72.5591598537, 42.0851317312]}, "type": "Feature", "properties": {"collection_times": [{"days": "Mon-Fri", "time": "5:00pm"}, {"days": "Sat", "time": "4:00pm"}, {"days": "Sun", "time": "Closed"}], "id": "0110800006", "name": "USPS COLLECTION BOX - EXPRESS", "address": {"city": "SPRINGFIELD", "state": "MA", "street": "393 BELMONT AVE", "postcode": "01108"}}},
{"geometry": {"type": "Point", "coordinates": [-72.5591598537, 42.0851317312]}, "type": "Feature", "properties": {"collection_times": [{"days": "Mon-Fri", "time": "5:00pm"}, {"days": "Sat", "time": "4:00pm"}, {"days": "Sun", "time": "Closed"}], "id": "0110800008", "name": "USPS COLLECTION BOX - BLUE BOX", "address": {"city": "SPRINGFIELD", "state": "MA", "street": "393 BELMONT AVE", "postcode": "01108"}}},
{"geometry": {"type": "Point", "coordinates": [-72.5591598537, 42.0851317312]}, "type": "Feature", "properties": {"collection_times": [{"days": "Mon-Sat", "time": "9:00am"}, {"days": "Sun", "time": "Closed"}], "id": "0110800009", "name": "USPS COLLECTION BOX - BLUE BOX", "address": {"city": "SPRINGFIELD", "state": "MA", "street": "176 BELMONT AVE", "postcode": "01108"}}},
{"geometry": {"type": "Point", "coordinates": [-72.5591598537, 42.0851317312]}, "type": "Feature", "properties": {"collection_times": [{"days": "Mon-Sat", "time": "10:00am"}, {"days": "Sun", "time": "Closed"}], "id": "0110800010", "name": "USPS COLLECTION BOX - BLUE BOX", "address": {"city": "SPRINGFIELD", "state": "MA", "street": "922 BELMONT AVE", "postcode": "01108"}}},
{"geometry": {"type": "Point", "coordinates": [-72.5591598537, 42.0851317312]}, "type": "Feature", "properties": {"collection_times": [{"days": "Mon-Sat", "time": "9:00am"}, {"days": "Sun", "time": "Closed"}], "id": "0110800011", "name": "USPS COLLECTION BOX - BLUE BOX", "address": {"city": "SPRINGFIELD", "state": "MA", "street": "686 BELMONT AVE", "postcode": "01108"}}},
{"geometry": {"type": "Point", "coordinates": [-72.5480319854, 42.0844233964]}, "type": "Feature", "properties": {"collection_times": [{"days": "Mon-Sat", "time": "10:00am"}, {"days": "Sun", "time": "Closed"}], "id": "0110800012", "name": "USPS COLLECTION BOX - BLUE BOX", "address": {"city": "SPRINGFIELD", "state": "MA", "street": "823 BELMONT AVE", "postcode": "01108"}}},
{"geometry": {"type": "Point", "coordinates": [-72.5472476846, 42.0903482714]}, "type": "Feature", "properties": {"collection_times": [{"days": "Mon-Sat", "time": "10:00am"}, {"days": "Sun", "time": "Closed"}], "id": "0110800015", "name": "USPS COLLECTION BOX - BLUE BOX", "address": {"city": "SPRINGFIELD", "state": "MA", "street": "71 DAVISTON ST", "postcode": "01108"}}},
{"geometry": {"type": "Point", "coordinates": [-72.5591598537, 42.0851317312]}, "type": "Feature", "properties": {"collection_times": [{"days": "Mon-Sat", "time": "10:00am"}, {"days": "Sun", "time": "Closed"}], "id": "0110800016", "name": "USPS COLLECTION BOX - BLUE BOX", "address": {"city": "SPRINGFIELD", "state": "MA", "street": "1160 DICKINSON ST", "postcode": "01108"}}},
{"geometry": {"type": "Point", "coordinates": [-72.5591598537, 42.0851317312]}, "type": "Feature", "properties": {"collection_times": [{"days": "Mon-Sat", "time": "10:00am"}, {"days": "Sun", "time": "Closed"}], "id": "0110800018", "name": "USPS COLLECTION BOX - BLUE BOX", "address": {"city": "SPRINGFIELD", "state": "MA", "street": "561 SUMNER AVE", "postcode": "01108"}}},
{"geometry": {"type": "Point", "coordinates": [-72.5591598537, 42.0851317312]}, "type": "Feature", "properties": {"collection_times": [{"days": "Mon-Sat", "time": "9:00am"}, {"days": "Sun", "time": "Closed"}], "id": "0110800019", "name": "USPS COLLECTION BOX - BLUE BOX", "address": {"city": "SPRINGFIELD", "state": "MA", "street": "598 DICKINSON ST", "postcode": "01108"}}},
{"geometry": {"type": "Point", "coordinates": [-72.5591598537, 42.0851317312]}, "type": "Feature", "properties": {"collection_times": [{"days": "Mon-Sat", "time": "10:00am"}, {"days": "Sun", "time": "Closed"}], "id": "0110800020", "name": "USPS COLLECTION BOX - BLUE BOX", "address": {"city": "SPRINGFIELD", "state": "MA", "street": "6 BRONSON TER", "postcode": "01108"}}},
{"geometry": {"type": "Point", "coordinates": [-72.5390924407, 42.0768324034]}, "type": "Feature", "properties": {"collection_times": [{"days": "Mon-Sat", "time": "10:00am"}, {"days": "Sun", "time": "Closed"}], "id": "0110800025", "name": "USPS COLLECTION BOX - BLUE BOX", "address": {"city": "SPRINGFIELD", "state": "MA", "street": "170 DWIGHT ST", "postcode": "01108"}}},
{"geometry": {"type": "Point", "coordinates": [-72.5591598537, 42.0851317312]}, "type": "Feature", "properties": {"collection_times": [{"days": "Mon-Sat", "time": "10:00am"}, {"days": "Sun", "time": "Closed"}], "id": "0110800026", "name": "USPS COLLECTION BOX - BLUE BOX", "address": {"city": "SPRINGFIELD", "state": "MA", "street": "246 DWIGHT RD", "postcode": "01108"}}},
{"geometry": {"type": "Point", "coordinates": [-72.5692652111, 42.0856438268]}, "type": "Feature", "properties": {"collection_times": [{"days": "Mon-Sat", "time": "10:00am"}, {"days": "Sun", "time": "Closed"}], "id": "0110800027", "name": "USPS COLLECTION BOX - BLUE BOX", "address": {"city": "SPRINGFIELD", "state": "MA", "street": "201 FOREST PARK AVE", "postcode": "01108"}}},
{"geometry": {"type": "Point", "coordinates": [-72.5591598537, 42.0851317312]}, "type": "Feature", "properties": {"collection_times": [{"days": "Mon-Sat", "time": "10:00am"}, {"days": "Sun", "time": "Closed"}], "id": "0110800028", "name": "USPS COLLECTION BOX - BLUE BOX", "address": {"city": "SPRINGFIELD", "state": "MA", "street": "98 FOREST PARK AVE", "postcode": "01108"}}},
{"geometry": {"type": "Point", "coordinates": [-72.5769259229, 42.089858432]}, "type": "Feature", "properties": {"collection_times": [{"days": "Mon-Sat", "time": "10:00am"}, {"days": "Sun", "time": "Closed"}], "id": "0110800029", "name": "USPS COLLECTION BOX - BLUE BOX", "address": {"city": "SPRINGFIELD", "state": "MA", "street": "24 FORT PLEASANT AVE", "postcode": "01108"}}},
{"geometry": {"type": "Point", "coordinates": [-72.5740791587, 42.0844723043]}, "type": "Feature", "properties": {"collection_times": [{"days": "Mon-Sat", "time": "10:00am"}, {"days": "Sun", "time": "Closed"}], "id": "0110800030", "name": "USPS COLLECTION BOX - BLUE BOX", "address": {"city": "SPRINGFIELD", "state": "MA", "street": "215 FORT PLEASANT AVE", "postcode": "01108"}}},
{"geometry": {"type": "Point", "coordinates": [-72.5437760797, 42.0857934278]}, "type": "Feature", "properties": {"collection_times": [{"days": "Mon-Sat", "time": "10:00am"}, {"days": "Sun", "time": "Closed"}], "id": "0110800032", "name": "USPS COLLECTION BOX - BLUE BOX", "address": {"city": "SPRINGFIELD", "state": "MA", "street": "72 LARKSPUR ST", "postcode": "01108"}}},
{"geometry": {"type": "Point", "coordinates": [-72.578094551, 42.0855501889]}, "type": "Feature", "properties": {"collection_times": [{"days": "Mon-Sat", "time": "10:00am"}, {"days": "Sun", "time": "Closed"}], "id": "0110800034", "name": "USPS COLLECTION BOX - BLUE BOX", "address": {"city": "SPRINGFIELD", "state": "MA", "street": "85 LONGHILL ST", "postcode": "01108"}}},
{"geometry": {"type": "Point", "coordinates": [-72.5591598537, 42.0851317312]}, "type": "Feature", "properties": {"collection_times": [{"days": "Mon-Sat", "time": "10:00am"}, {"days": "Sun", "time": "Closed"}], "id": "0110800035", "name": "USPS COLLECTION BOX - BLUE BOX", "address": {"city": "SPRINGFIELD", "state": "MA", "street": "267 LONGHILL ST", "postcode": "01108"}}},
{"geometry": {"type": "Point", "coordinates": [-72.5591598537, 42.0851317312]}, "type": "Feature", "properties": {"collection_times": [{"days": "Mon-Sat", "time": "9:30am"}, {"days": "Sun", "time": "Closed"}], "id": "0110800036", "name": "USPS COLLECTION BOX - BLUE BOX", "address": {"city": "SPRINGFIELD", "state": "MA", "street": "67 LOCUST ST", "postcode": "01108"}}},
{"geometry": {"type": "Point", "coordinates": [-72.5730919579, 42.0937090001]}, "type": "Feature", "properties": {"collection_times": [{"days": "Mon-Sat", "time": "9:30am"}, {"days": "Sun", "time": "Closed"}], "id": "0110800037", "name": "USPS COLLECTION BOX - BLUE BOX", "address": {"city": "SPRINGFIELD", "state": "MA", "street": "184 MILL ST", "postcode": "01108"}}},
{"geometry": {"type": "Point", "coordinates": [-72.5720980834, 42.0833549057]}, "type": "Feature", "properties": {"collection_times": [{"days": "Mon-Sat", "time": "10:00am"}, {"days": "Sun", "time": "Closed"}], "id": "0110800041", "name": "USPS COLLECTION BOX - BLUE BOX", "address": {"city": "SPRINGFIELD", "state": "MA", "street": "115 SUMNER AVE", "postcode": "01108"}}},
{"geometry": {"type": "Point", "coordinates": [-72.5591598537, 42.0851317312]}, "type": "Feature", "properties": {"collection_times": [{"days": "Mon-Sat", "time": "10:00am"}, {"days": "Sun", "time": "Closed"}], "id": "0110800043", "name": "USPS COLLECTION BOX - BLUE BOX", "address": {"city": "SPRINGFIELD", "state": "MA", "street": "179 LONGHILL ST", "postcode": "01108"}}},
{"geometry": {"type": "Point", "coordinates": [-72.5652910262, 42.0847989223]}, "type": "Feature", "properties": {"collection_times": [{"days": "Mon-Sat", "time": "9:30am"}, {"days": "Sun", "time": "Closed"}], "id": "0110800044", "name": "USPS COLLECTION BOX - BLUE BOX", "address": {"city": "SPRINGFIELD", "state": "MA", "street": "310 SUMNER AVE", "postcode": "01108"}}},
{"geometry": {"type": "Point", "coordinates": [-72.5591598537, 42.0851317312]}, "type": "Feature", "properties": {"collection_times": [{"days": "Mon-Sat", "time": "9:00am"}, {"days": "Sun", "time": "Closed"}], "id": "0110800046", "name": "USPS COLLECTION BOX - BLUE BOX", "address": {"city": "SPRINGFIELD", "state": "MA", "street": "685 SUMNER AVE", "postcode": "01108"}}},
{"geometry": {"type": "Point", "coordinates": [-72.5592315409, 42.0858677478]}, "type": "Feature", "properties": {"collection_times": [{"days": "Mon-Sat", "time": "10:00am"}, {"days": "Sun", "time": "Closed"}], "id": "0110800047", "name": "USPS COLLECTION BOX - BLUE BOX", "address": {"city": "SPRINGFIELD", "state": "MA", "street": "473 SUMNER AVE REAR", "postcode": "01108"}}},
{"geometry": {"type": "Point", "coordinates": [-72.5423441109, 42.0698205607]}, "type": "Feature", "properties": {"collection_times": [{"days": "Mon-Sat", "time": "10:00am"}, {"days": "Sun", "time": "Closed"}], "id": "0110800048", "name": "USPS COLLECTION BOX - BLUE BOX", "address": {"city": "SPRINGFIELD", "state": "MA", "street": "443 TIFFANY ST", "postcode": "01108"}}},
{"geometry": {"type": "Point", "coordinates": [-72.5499423526, 42.0913287699]}, "type": "Feature", "properties": {"collection_times": [{"days": "Mon-Sat", "time": "10:00am"}, {"days": "Sun", "time": "Closed"}], "id": "0110800049", "name": "USPS COLLECTION BOX - BLUE BOX", "address": {"city": "SPRINGFIELD", "state": "MA", "street": "151 W ALVORD ST", "postcode": "01108"}}},
{"geometry": {"type": "Point", "coordinates": [-72.5591598537, 42.0851317312]}, "type": "Feature", "properties": {"collection_times": [{"days": "Mon-Sat", "time": "10:00am"}, {"days": "Sun", "time": "Closed"}], "id": "0110800050", "name": "USPS COLLECTION BOX - BLUE BOX", "address": {"city": "SPRINGFIELD", "state": "MA", "street": "529 WHITE ST", "postcode": "01108"}}},
{"geometry": {"type": "Point", "coordinates": [-72.557060928, 42.093291429]}, "type": "Feature", "properties": {"collection_times": [{"days": "Mon-Sat", "time": "10:00am"}, {"days": "Sun", "time": "Closed"}], "id": "0110800051", "name": "USPS COLLECTION BOX - BLUE BOX", "address": {"city": "SPRINGFIELD", "state": "MA", "street": "172 WHITE ST", "postcode": "01108"}}},
{"geometry": {"type": "Point", "coordinates": [-72.552494237, 42.090073358]}, "type": "Feature", "properties": {"collection_times": [{"days": "Mon-Sat", "time": "9:00am"}, {"days": "Sun", "time": "Closed"}], "id": "0110800052", "name": "USPS COLLECTION BOX - BLUE BOX", "address": {"city": "SPRINGFIELD", "state": "MA", "street": "337 WHITE ST", "postcode": "01108"}}},
{"geometry": {"type": "Point", "coordinates": [-72.5407331807, 42.0818168006]}, "type": "Feature", "properties": {"collection_times": [{"days": "Mon-Sat", "time": "10:00am"}, {"days": "Sun", "time": "Closed"}], "id": "0110800053", "name": "USPS COLLECTION BOX - BLUE BOX", "address": {"city": "SPRINGFIELD", "state": "MA", "street": "775 WHITE ST", "postcode": "01108"}}},
{"geometry": {"type": "Point", "coordinates": [-72.5591598537, 42.0851317312]}, "type": "Feature", "properties": {"collection_times": [{"days": "Mon-Sat", "time": "9:00am"}, {"days": "Sun", "time": "Closed"}], "id": "0110800054", "name": "USPS COLLECTION BOX - BLUE BOX", "address": {"city": "SPRINGFIELD", "state": "MA", "street": "590 SUMNER AVE", "postcode": "01108"}}},
{"geometry": {"type": "Point", "coordinates": [-72.5446514978, 42.0887981384]}, "type": "Feature", "properties": {"collection_times": [{"days": "Mon-Sat", "time": "10:00am"}, {"days": "Sun", "time": "Closed"}], "id": "0110800056", "name": "USPS COLLECTION BOX - BLUE BOX", "address": {"city": "SPRINGFIELD", "state": "MA", "street": "878 SUMNER AVE", "postcode": "01108"}}},
{"geometry": {"type": "Point", "coordinates": [-72.5591598537, 42.0851317312]}, "type": "Feature", "properties": {"collection_times": [{"days": "Mon-Sat", "time": "9:30am"}, {"days": "Sun", "time": "Closed"}], "id": "0110800060", "name": "USPS COLLECTION BOX - BLUE BOX", "address": {"city": "SPRINGFIELD", "state": "MA", "street": "73 SYLVAN ST", "postcode": "01108"}}},
{"geometry": {"type": "Point", "coordinates": [-72.5591598537, 42.0851317312]}, "type": "Feature", "properties": {"collection_times": [{"days": "Mon-Fri", "time": "5:00pm"}, {"days": "Sat", "time": "4:00pm"}, {"days": "Sun", "time": "Closed"}], "id": "0110800063", "name": "USPS COLLECTION BOX - PO LOBBY", "address": {"city": "SPRINGFIELD", "state": "MA", "street": "393 BELMONT AVE", "postcode": "01108"}}},
{"geometry": {"type": "Point", "coordinates": [-72.5591598537, 42.0851317312]}, "type": "Feature", "properties": {"collection_times": [{"days": "Mon-Sat", "time": "10:00am"}, {"days": "Sun", "time": "Closed"}], "id": "0110800064", "name": "USPS COLLECTION BOX - BLUE BOX", "address": {"city": "SPRINGFIELD", "state": "MA", "street": "59 WILLIAMSBURG DR", "postcode": "01108"}}},
{"geometry": {"type": "Point", "coordinates": [-72.5591598537, 42.0851317312]}, "type": "Feature", "properties": {"collection_times": [{"days": "Mon-Sat", "time": "10:00am"}, {"days": "Sun", "time": "Closed"}], "id": "0110800065", "name": "USPS COLLECTION BOX - BLUE BOX", "address": {"city": "SPRINGFIELD", "state": "MA", "street": "561 SUMNER AVE", "postcode": "01108"}}},
{"geometry": {"type": "Point", "coordinates": [-72.551399674, 42.1169111014]}, "type": "Feature", "properties": {"collection_times": [{"days": "Mon-Sat", "time": "10:00am"}, {"days": "Sun", "time": "Closed"}], "id": "0110900004", "name": "USPS COLLECTION BOX - BLUE BOX", "address": {"city": "SPRINGFIELD", "state": "MA", "street": "263 ALDEN ST", "postcode": "01109"}}},
{"geometry": {"type": "Point", "coordinates": [-72.5424219963, 42.1127254939]}, "type": "Feature", "properties": {"collection_times": [{"days": "Mon-Sat", "time": "10:00am"}, {"days": "Sun", "time": "Closed"}], "id": "0110900005", "name": "USPS COLLECTION BOX - BLUE BOX", "address": {"city": "SPRINGFIELD", "state": "MA", "street": "884 ALDEN ST", "postcode": "01109"}}},
{"geometry": {"type": "Point", "coordinates": [-72.5413459905, 42.1328573562]}, "type": "Feature", "properties": {"collection_times": [{"days": "Mon-Sat", "time": "10:00am"}, {"days": "Sun", "time": "Closed"}], "id": "0110900008", "name": "USPS COLLECTION BOX - BLUE BOX", "address": {"city": "SPRINGFIELD", "state": "MA", "street": "5 BAY MEADOW RD", "postcode": "01109"}}},
{"geometry": {"type": "Point", "coordinates": [-72.5293446501, 42.1357186321]}, "type": "Feature", "properties": {"collection_times": [{"days": "Mon-Sat", "time": "10:00am"}, {"days": "Sun", "time": "Closed"}], "id": "0110900011", "name": "USPS COLLECTION BOX - BLUE BOX", "address": {"city": "SPRINGFIELD", "state": "MA", "street": "545 BERKSHIRE AVE", "postcode": "01109"}}},
{"geometry": {"type": "Point", "coordinates": [-72.5241729326, 42.1170645099]}, "type": "Feature", "properties": {"collection_times": [{"days": "Mon-Fri", "time": "4:00pm"}, {"days": "Sat", "time": "11:45am"}, {"days": "Sun", "time": "Closed"}], "id": "0110900016", "name": "USPS COLLECTION BOX - BLUE BOX", "address": {"city": "SPRINGFIELD", "state": "MA", "street": "471 BRECKWOOD BLVD", "postcode": "01109"}}},
{"geometry": {"type": "Point", "coordinates": [-72.5744697681, 42.1151491021]}, "type": "Feature", "properties": {"collection_times": [{"days": "Mon-Sat", "time": "10:00am"}, {"days": "Sun", "time": "Closed"}], "id": "0110900025", "name": "USPS COLLECTION BOX - BLUE BOX", "address": {"city": "SPRINGFIELD", "state": "MA", "street": "1104 WORTHINGTON ST", "postcode": "01109"}}},
{"geometry": {"type": "Point", "coordinates": [-72.5712737814, 42.1053067524]}, "type": "Feature", "properties": {"collection_times": [{"days": "Mon-Sat", "time": "10:00am"}, {"days": "Sun", "time": "Closed"}], "id": "0110900029", "name": "USPS COLLECTION BOX - BLUE BOX", "address": {"city": "SPRINGFIELD", "state": "MA", "street": "35 PENDLETON AVE", "postcode": "01109"}}},
{"geometry": {"type": "Point", "coordinates": [-72.551399674, 42.1169111014]}, "type": "Feature", "properties": {"collection_times": [{"days": "Mon-Fri", "time": "9:45am"}, {"days": "Sat", "time": "9:30am"}, {"days": "Sun", "time": "Closed"}], "id": "0110900038", "name": "USPS COLLECTION BOX - BLUE BOX", "address": {"city": "SPRINGFIELD", "state": "MA", "street": "622 STATE ST", "postcode": "01109"}}},
{"geometry": {"type": "Point", "coordinates": [-72.551399674, 42.1169111014]}, "type": "Feature", "properties": {"collection_times": [{"days": "Mon-Sat", "time": "10:00am"}, {"days": "Sun", "time": "Closed"}], "id": "0110900039", "name": "USPS COLLECTION BOX - BLUE BOX", "address": {"city": "SPRINGFIELD", "state": "MA", "street": "756 STATE ST", "postcode": "01109"}}},
{"geometry": {"type": "Point", "coordinates": [-72.5648593461, 42.1111785729]}, "type": "Feature", "properties": {"collection_times": [{"days": "Mon-Sat", "time": "10:00am"}, {"days": "Sun", "time": "Closed"}], "id": "0110900040", "name": "USPS COLLECTION BOX - BLUE BOX", "address": {"city": "SPRINGFIELD", "state": "MA", "street": "811 STATE ST", "postcode": "01109"}}},
{"geometry": {"type": "Point", "coordinates": [-72.551399674, 42.1169111014]}, "type": "Feature", "properties": {"collection_times": [{"days": "Mon-Fri", "time": "5:00pm"}, {"days": "Sat", "time": "12:00pm"}, {"days": "Sun", "time": "Closed"}], "id": "0110900041", "name": "USPS COLLECTION BOX - BLUE BOX", "address": {"city": "SPRINGFIELD", "state": "MA", "street": "914 STATE ST", "postcode": "01109"}}},
{"geometry": {"type": "Point", "coordinates": [-72.551399674, 42.1169111014]}, "type": "Feature", "properties": {"collection_times": [{"days": "Mon-Sat", "time": "9:45am"}, {"days": "Sun", "time": "Closed"}], "id": "0110900042", "name": "USPS COLLECTION BOX - BLUE BOX", "address": {"city": "SPRINGFIELD", "state": "MA", "street": "985 STATE ST", "postcode": "01109"}}},
{"geometry": {"type": "Point", "coordinates": [-72.546033002, 42.1200506437]}, "type": "Feature", "properties": {"collection_times": [{"days": "Mon-Fri", "time": "1:00pm"}, {"days": "Sat", "time": "10:00am"}, {"days": "Sun", "time": "Closed"}], "id": "0110900044", "name": "USPS COLLECTION BOX - BLUE BOX", "address": {"city": "SPRINGFIELD", "state": "MA", "street": "1400 STATE ST", "postcode": "01109"}}},
{"geometry": {"type": "Point", "coordinates": [-72.54505892, 42.1222474551]}, "type": "Feature", "properties": {"collection_times": [{"days": "Mon-Sat", "time": "10:00am"}, {"days": "Sun", "time": "Closed"}], "id": "0110900045", "name": "USPS COLLECTION BOX - BLUE BOX", "address": {"city": "SPRINGFIELD", "state": "MA", "street": "27 EDGEMONT ST", "postcode": "01109"}}},
{"geometry": {"type": "Point", "coordinates": [-72.5262442452, 42.1250245762]}, "type": "Feature", "properties": {"collection_times": [{"days": "Mon-Sat", "time": "10:00am"}, {"days": "Sun", "time": "Closed"}], "id": "0110900048", "name": "USPS COLLECTION BOX - BLUE BOX", "address": {"city": "SPRINGFIELD", "state": "MA", "street": "204 ROSEWELL ST", "postcode": "01109"}}},
{"geometry": {"type": "Point", "coordinates": [-72.5263633116, 42.1312889311]}, "type": "Feature", "properties": {"collection_times": [{"days": "Mon-Sat", "time": "10:00am"}, {"days": "Sun", "time": "Closed"}], "id": "0110900049", "name": "USPS COLLECTION BOX - BLUE BOX", "address": {"city": "SPRINGFIELD", "state": "MA", "street": "471 BOSTON RD", "postcode": "01109"}}},
{"geometry": {"type": "Point", "coordinates": [-72.551399674, 42.1169111014]}, "type": "Feature", "properties": {"collection_times": [{"days": "Mon-Fri", "time": "4:15pm"}, {"days": "Sat", "time": "12:00pm"}, {"days": "Sun", "time": "Closed"}], "id": "0110900050", "name": "USPS COLLECTION BOX - PO LOBBY", "address": {"city": "SPRINGFIELD", "state": "MA", "street": "914 STATE ST", "postcode": "01109"}}},
{"geometry": {"type": "Point", "coordinates": [-72.551399674, 42.1169111014]}, "type": "Feature", "properties": {"collection_times": [{"days": "Mon-Sat", "time": "10:00am"}, {"days": "Sun", "time": "Closed"}], "id": "0110900052", "name": "USPS COLLECTION BOX - BLUE BOX", "address": {"city": "SPRINGFIELD", "state": "MA", "street": "209 DENVER ST", "postcode": "01109"}}},
{"geometry": {"type": "Point", "coordinates": [-72.551399674, 42.1169111014]}, "type": "Feature", "properties": {"collection_times": [{"days": "Mon-Sat", "time": "10:00am"}, {"days": "Sun", "time": "Closed"}], "id": "0110900053", "name": "USPS COLLECTION BOX - BLUE BOX", "address": {"city": "SPRINGFIELD", "state": "MA", "street": "419 SAINT JAMES AVE", "postcode": "01109"}}},
{"geometry": {"type": "Point", "coordinates": [-72.571052882, 42.1177890471]}, "type": "Feature", "properties": {"collection_times": [{"days": "Mon-Sat", "time": "10:00am"}, {"days": "Sun", "time": "Closed"}], "id": "0110900054", "name": "USPS COLLECTION BOX - BLUE BOX", "address": {"city": "SPRINGFIELD", "state": "MA", "street": "85 HARVARD ST", "postcode": "01109"}}},
{"geometry": {"type": "Point", "coordinates": [-72.5892899176, 42.1012505798]}, "type": "Feature", "properties": {"collection_times": [{"days": "Mon-Sat", "time": "9:30am"}, {"days": "Sun", "time": "Closed"}], "id": "0111800001", "name": "USPS COLLECTION BOX - BLUE BOX", "address": {"city": "SPRINGFIELD", "state": "MA", "street": "98 ELLSWORTH ST", "postcode": "01118"}}},
{"geometry": {"type": "Point", "coordinates": [-72.5314739802, 42.094826177]}, "type": "Feature", "properties": {"collection_times": [{"days": "Mon-Sat", "time": "10:00am"}, {"days": "Sun", "time": "Closed"}], "id": "0111800003", "name": "USPS COLLECTION BOX - BLUE BOX", "address": {"city": "SPRINGFIELD", "state": "MA", "street": "127 ABBOTT ST", "postcode": "01118"}}},
{"geometry": {"type": "Point", "coordinates": [-72.5049237506, 42.0864230641]}, "type": "Feature", "properties": {"collection_times": [{"days": "Mon-Sat", "time": "10:00am"}, {"days": "Sun", "time": "Closed"}], "id": "0111800004", "name": "USPS COLLECTION BOX - BLUE BOX", "address": {"city": "SPRINGFIELD", "state": "MA", "street": "170 CANNON CIR", "postcode": "01118"}}},
{"geometry": {"type": "Point", "coordinates": [-72.5278367097, 42.0935132472]}, "type": "Feature", "properties": {"collection_times": [{"days": "Mon-Fri", "time": "10:00am"}, {"days": "Sat", "time": "9:30am"}, {"days": "Sun", "time": "Closed"}], "id": "0111800005", "name": "USPS COLLECTION BOX - BLUE BOX", "address": {"city": "SPRINGFIELD", "state": "MA", "street": "126 ISLAND POND RD", "postcode": "01118"}}},
{"geometry": {"type": "Point", "coordinates": [-72.5500920134, 42.0980207407]}, "type": "Feature", "properties": {"collection_times": [{"days": "Mon-Sat", "time": "10:00am"}, {"days": "Sun", "time": "Closed"}], "id": "0111800007", "name": "USPS COLLECTION BOX - BLUE BOX", "address": {"city": "SPRINGFIELD", "state": "MA", "street": "7 SURREY RD", "postcode": "01118"}}},
{"geometry": {"type": "Point", "coordinates": [-72.4995693644, 42.0922447354]}, "type": "Feature", "properties": {"collection_times": [{"days": "Mon-Sat", "time": "10:00am"}, {"days": "Sun", "time": "Closed"}], "id": "0111800009", "name": "USPS COLLECTION BOX - BLUE BOX", "address": {"city": "SPRINGFIELD", "state": "MA", "street": "415 COOLEY ST", "postcode": "01118"}}},
{"geometry": {"type": "Point", "coordinates": [-72.5312756581, 42.0981531678]}, "type": "Feature", "properties": {"collection_times": [{"days": "Mon-Sat", "time": "10:00am"}, {"days": "Sun", "time": "Closed"}], "id": "0111800010", "name": "USPS COLLECTION BOX - BLUE BOX", "address": {"city": "SPRINGFIELD", "state": "MA", "street": "454 PLUMTREE RD", "postcode": "01118"}}},
{"geometry": {"type": "Point", "coordinates": [-72.5354833664, 42.0969350634]}, "type": "Feature", "properties": {"collection_times": [{"days": "Mon-Sat", "time": "10:00am"}, {"days": "Sun", "time": "Closed"}], "id": "0111800011", "name": "USPS COLLECTION BOX - BLUE BOX", "address": {"city": "SPRINGFIELD", "state": "MA", "street": "7 OREGON ST", "postcode": "01118"}}},
{"geometry": {"type": "Point", "coordinates": [-72.5278367097, 42.0935132472]}, "type": "Feature", "properties": {"collection_times": [{"days": "Mon-Sat", "time": "10:00am"}, {"days": "Sun", "time": "Closed"}], "id": "0111800012", "name": "USPS COLLECTION BOX - BLUE BOX", "address": {"city": "SPRINGFIELD", "state": "MA", "street": "198 PLUMTREE RD", "postcode": "01118"}}},
{"geometry": {"type": "Point", "coordinates": [-72.5364882622, 42.0940303255]}, "type": "Feature", "properties": {"collection_times": [{"days": "Mon-Sat", "time": "10:00am"}, {"days": "Sun", "time": "Closed"}], "id": "0111800013", "name": "USPS COLLECTION BOX - BLUE BOX", "address": {"city": "SPRINGFIELD", "state": "MA", "street": "80 ARVILLA ST", "postcode": "01118"}}},
{"geometry": {"type": "Point", "coordinates": [-72.5892899176, 42.1012505798]}, "type": "Feature", "properties": {"collection_times": [{"days": "Mon-Sat", "time": "9:00am"}, {"days": "Sun", "time": "Closed"}], "id": "0111800014", "name": "USPS COLLECTION BOX - BLUE BOX", "address": {"city": "SPRINGFIELD", "state": "MA", "street": "16 WHITTUM ST", "postcode": "01118"}}},
{"geometry": {"type": "Point", "coordinates": [-72.5454388438, 42.0921613241]}, "type": "Feature", "properties": {"collection_times": [{"days": "Mon-Sat", "time": "10:00am"}, {"days": "Sun", "time": "Closed"}], "id": "0111800015", "name": "USPS COLLECTION BOX - BLUE BOX", "address": {"city": "SPRINGFIELD", "state": "MA", "street": "520 ALLEN ST", "postcode": "01118"}}},
{"geometry": {"type": "Point", "coordinates": [-72.5321916495, 42.0911811207]}, "type": "Feature", "properties": {"collection_times": [{"days": "Mon-Sat", "time": "9:30am"}, {"days": "Sun", "time": "Closed"}], "id": "0111800016", "name": "USPS COLLECTION BOX - BLUE BOX", "address": {"city": "SPRINGFIELD", "state": "MA", "street": "1223 SUMNER AVE", "postcode": "01118"}}},
{"geometry": {"type": "Point", "coordinates": [-72.5278367097, 42.0935132472]}, "type": "Feature", "properties": {"collection_times": [{"days": "Mon-Sat", "time": "10:00am"}, {"days": "Sun", "time": "Closed"}], "id": "0111800019", "name": "USPS COLLECTION BOX - BLUE BOX", "address": {"city": "SPRINGFIELD", "state": "MA", "street": "1363 ALLEN ST", "postcode": "01118"}}},
{"geometry": {"type": "Point", "coordinates": [-72.5102792455, 42.0948633557]}, "type": "Feature", "properties": {"collection_times": [{"days": "Mon-Fri", "time": "10:00am"}, {"days": "Sat", "time": "9:30am"}, {"days": "Sun", "time": "Closed"}], "id": "0111800020", "name": "USPS COLLECTION BOX - BLUE BOX", "address": {"city": "SPRINGFIELD", "state": "MA", "street": "1510 ALLEN ST", "postcode": "01118"}}},
{"geometry": {"type": "Point", "coordinates": [-72.5062428797, 42.0907925734]}, "type": "Feature", "properties": {"collection_times": [{"days": "Mon-Sat", "time": "10:00am"}, {"days": "Sun", "time": "Closed"}], "id": "0111800021", "name": "USPS COLLECTION BOX - BLUE BOX", "address": {"city": "SPRINGFIELD", "state": "MA", "street": "177 ALLEN PARK RD", "postcode": "01118"}}},
{"geometry": {"type": "Point", "coordinates": [-72.5264598286, 42.0912228007]}, "type": "Feature", "properties": {"collection_times": [{"days": "Mon-Sat", "time": "10:00am"}, {"days": "Sun", "time": "Closed"}], "id": "0111800022", "name": "USPS COLLECTION BOX - BLUE BOX", "address": {"city": "SPRINGFIELD", "state": "MA", "street": "7 CANTERBURY RD", "postcode": "01118"}}},
{"geometry": {"type": "Point", "coordinates": [-72.5202911291, 42.1166303738]}, "type": "Feature", "properties": {"collection_times": [{"days": "Mon-Fri", "time": "3:30pm"}, {"days": "Sat", "time": "10:00am"}, {"days": "Sun", "time": "Closed"}], "id": "0111900003", "name": "USPS COLLECTION BOX - BLUE BOX", "address": {"city": "SPRINGFIELD", "state": "MA", "street": "1215 WILBRAHAM RD", "postcode": "01119"}}},
{"geometry": {"type": "Point", "coordinates": [-72.5086674836, 42.136364863]}, "type": "Feature", "properties": {"collection_times": [{"days": "Mon-Sat", "time": "9:30am"}, {"days": "Sun", "time": "Closed"}], "id": "0111900004", "name": "USPS COLLECTION BOX - BLUE BOX", "address": {"city": "SPRINGFIELD", "state": "MA", "street": "70 SHUMWAY ST", "postcode": "01119"}}},
{"geometry": {"type": "Point", "coordinates": [-72.5055880299, 42.139458743]}, "type": "Feature", "properties": {"collection_times": [{"days": "Mon-Sat", "time": "9:30am"}, {"days": "Sun", "time": "Closed"}], "id": "0111900007", "name": "USPS COLLECTION BOX - BLUE BOX", "address": {"city": "SPRINGFIELD", "state": "MA", "street": "1157 BOSTON RD", "postcode": "01119"}}},
{"geometry": {"type": "Point", "coordinates": [-72.5043163021, 42.1302697035]}, "type": "Feature", "properties": {"collection_times": [{"days": "Mon-Sat", "time": "10:00am"}, {"days": "Sun", "time": "Closed"}], "id": "0111900008", "name": "USPS COLLECTION BOX - BLUE BOX", "address": {"city": "SPRINGFIELD", "state": "MA", "street": "153 BEACON TER", "postcode": "01119"}}},
{"geometry": {"type": "Point", "coordinates": [-72.5101959871, 42.1274520847]}, "type": "Feature", "properties": {"collection_times": [{"days": "Mon-Fri", "time": "3:30pm"}, {"days": "Sat", "time": "10:00am"}, {"days": "Sun", "time": "Closed"}], "id": "0111900014", "name": "USPS COLLECTION BOX - BLUE BOX", "address": {"city": "SPRINGFIELD", "state": "MA", "street": "1215 WILBRAHAM RD", "postcode": "01119"}}},
{"geometry": {"type": "Point", "coordinates": [-72.4983512472, 42.0954668138]}, "type": "Feature", "properties": {"collection_times": [{"days": "Mon-Fri", "time": "10:00am"}, {"days": "Sat", "time": "9:30am"}, {"days": "Sun", "time": "Closed"}], "id": "0112800002", "name": "USPS COLLECTION BOX - BLUE BOX", "address": {"city": "SPRINGFIELD", "state": "MA", "street": "300 COOLEY ST", "postcode": "01128"}}},
{"geometry": {"type": "Point", "coordinates": [-72.4892487157, 42.0959811642]}, "type": "Feature", "properties": {"collection_times": [{"days": "Mon-Fri", "time": "10:00am"}, {"days": "Sat", "time": "9:30am"}, {"days": "Sun", "time": "Closed"}], "id": "0112800003", "name": "USPS COLLECTION BOX - BLUE BOX", "address": {"city": "SPRINGFIELD", "state": "MA", "street": "300 COOLEY ST", "postcode": "01128"}}},
{"geometry": {"type": "Point", "coordinates": [-72.4895267956, 42.1256011127]}, "type": "Feature", "properties": {"collection_times": [{"days": "Mon-Fri", "time": "3:30pm"}, {"days": "Sat", "time": "9:30am"}, {"days": "Sun", "time": "Closed"}], "id": "0112900001", "name": "USPS COLLECTION BOX - BLUE BOX", "address": {"city": "SPRINGFIELD", "state": "MA", "street": "1919 WILBRAHAM RD", "postcode": "01129"}}},
{"geometry": {"type": "Point", "coordinates": [-72.4967505273, 42.1249939096]}, "type": "Feature", "properties": {"collection_times": [{"days": "Mon-Fri", "time": "3:00pm"}, {"days": "Sat", "time": "10:00am"}, {"days": "Sun", "time": "Closed"}], "id": "0112900004", "name": "USPS COLLECTION BOX - BLUE BOX", "address": {"city": "SPRINGFIELD", "state": "MA", "street": "1 NASSAU DR", "postcode": "01129"}}},
{"geometry": {"type": "Point", "coordinates": [-72.4895267956, 42.1256011127]}, "type": "Feature", "properties": {"collection_times": [{"days": "Mon-Sat", "time": "10:00am"}, {"days": "Sun", "time": "Closed"}], "id": "0112900006", "name": "USPS COLLECTION BOX - BLUE BOX", "address": {"city": "SPRINGFIELD", "state": "MA", "street": "8 CASTLEGATE DR", "postcode": "01129"}}},
{"geometry": {"type": "Point", "coordinates": [-72.4895267956, 42.1256011127]}, "type": "Feature", "properties": {"collection_times": [{"days": "Mon-Fri", "time": "3:30pm"}, {"days": "Sat", "time": "10:00am"}, {"days": "Sun", "time": "Closed"}], "id": "0112900012", "name": "USPS COLLECTION BOX - BLUE BOX", "address": {"city": "SPRINGFIELD", "state": "MA", "street": "1600 BOSTON RD", "postcode": "01129"}}},
{"geometry": {"type": "Point", "coordinates": [-72.4895267956, 42.1256011127]}, "type": "Feature", "properties": {"collection_times": [{"days": "Mon-Fri", "time": "3:30pm"}, {"days": "Sat", "time": "10:00am"}, {"days": "Sun", "time": "Closed"}], "id": "0112900014", "name": "USPS COLLECTION BOX - BLUE BOX", "address": {"city": "SPRINGFIELD", "state": "MA", "street": "1655 BOSTON RD", "postcode": "01129"}}},
{"geometry": {"type": "Point", "coordinates": [-72.4875134258, 42.143685131]}, "type": "Feature", "properties": {"collection_times": [{"days": "Mon-Fri", "time": "3:30pm"}, {"days": "Sat", "time": "10:00am"}, {"days": "Sun", "time": "Closed"}], "id": "0112900017", "name": "USPS COLLECTION BOX - BLUE BOX", "address": {"city": "SPRINGFIELD", "state": "MA", "street": "1690 BOSTON RD", "postcode": "01129"}}},
{"geometry": {"type": "Point", "coordinates": [-72.502926793, 42.1542433894]}, "type": "Feature", "properties": {"collection_times": [{"days": "Mon-Sat", "time": "10:00am"}, {"days": "Sun", "time": "Closed"}], "id": "0115100001", "name": "USPS COLLECTION BOX - BLUE BOX", "address": {"city": "SPRINGFIELD", "state": "MA", "street": "1093 WORCESTER ST", "postcode": "01151"}}},
{"geometry": {"type": "Point", "coordinates": [-72.4870427629, 42.1555856304]}, "type": "Feature", "properties": {"collection_times": [{"days": "Mon-Sat", "time": "9:30am"}, {"days": "Sun", "time": "Closed"}], "id": "0115100002", "name": "USPS COLLECTION BOX - BLUE BOX", "address": {"city": "SPRINGFIELD", "state": "MA", "street": "10 PARKER ST", "postcode": "01151"}}},
{"geometry": {"type": "Point", "coordinates": [-72.502926793, 42.1542433894]}, "type": "Feature", "properties": {"collection_times": [{"days": "Mon-Fri", "time": "4:00pm"}, {"days": "Sat", "time": "12:00pm"}, {"days": "Sun", "time": "Closed"}], "id": "0115100006", "name": "USPS COLLECTION BOX - BLUE BOX", "address": {"city": "SPRINGFIELD", "state": "MA", "street": "19 OAK ST", "postcode": "01151"}}},
{"geometry": {"type": "Point", "coordinates": [-72.502926793, 42.1542433894]}, "type": "Feature", "properties": {"collection_times": [{"days": "Mon-Fri", "time": "4:00pm"}, {"days": "Sat", "time": "12:00pm"}, {"days": "Sun", "time": "Closed"}], "id": "0115100007", "name": "USPS COLLECTION BOX - BLUE BOX", "address": {"city": "SPRINGFIELD", "state": "MA", "street": "19 OAK ST", "postcode": "01151"}}},
{"geometry": {"type": "Point", "coordinates": [-72.502926793, 42.1542433894]}, "type": "Feature", "properties": {"collection_times": [{"days": "Mon-Fri", "time": "4:00pm"}, {"days": "Sat", "time": "12:00pm"}, {"days": "Sun", "time": "Closed"}], "id": "0115100008", "name": "USPS COLLECTION BOX - EXPRESS", "address": {"city": "SPRINGFIELD", "state": "MA", "street": "19 OAK ST", "postcode": "01151"}}},
{"geometry": {"type": "Point", "coordinates": [-72.5037343595, 42.1550443123]}, "type": "Feature", "properties": {"collection_times": [{"days": "Mon-Sat", "time": "10:00am"}, {"days": "Sun", "time": "Closed"}], "id": "0115100009", "name": "USPS COLLECTION BOX - BLUE BOX", "address": {"city": "SPRINGFIELD", "state": "MA", "street": "138 OAK ST", "postcode": "01151"}}},
{"geometry": {"type": "Point", "coordinates": [-72.502926793, 42.1542433894]}, "type": "Feature", "properties": {"collection_times": [{"days": "Mon-Sat", "time": "10:00am"}, {"days": "Sun", "time": "Closed"}], "id": "0115100010", "name": "USPS COLLECTION BOX - BLUE BOX", "address": {"city": "SPRINGFIELD", "state": "MA", "street": "98 MYRTLE ST", "postcode": "01151"}}},
{"geometry": {"type": "Point", "coordinates": [-72.4944776242, 42.1558369829]}, "type": "Feature", "properties": {"collection_times": [{"days": "Mon-Sat", "time": "9:30am"}, {"days": "Sun", "time": "Closed"}], "id": "0115100011", "name": "USPS COLLECTION BOX - BLUE BOX", "address": {"city": "SPRINGFIELD", "state": "MA", "street": "2 MILTON CT", "postcode": "01151"}}},
{"geometry": {"type": "Point", "coordinates": [-72.502926793, 42.1542433894]}, "type": "Feature", "properties": {"collection_times": [{"days": "Mon-Sat", "time": "9:00am"}, {"days": "Sun", "time": "Closed"}], "id": "0115100012", "name": "USPS COLLECTION BOX - BLUE BOX", "address": {"city": "SPRINGFIELD", "state": "MA", "street": "459 MAIN ST", "postcode": "01151"}}},
{"geometry": {"type": "Point", "coordinates": [-72.502926793, 42.1542433894]}, "type": "Feature", "properties": {"collection_times": [{"days": "Mon-Sat", "time": "10:00am"}, {"days": "Sun", "time": "Closed"}], "id": "0115100013", "name": "USPS COLLECTION BOX - BLUE BOX", "address": {"city": "SPRINGFIELD", "state": "MA", "street": "93 MAIN ST", "postcode": "01151"}}},
{"geometry": {"type": "Point", "coordinates": [-72.4961317314, 42.1560347801]}, "type": "Feature", "properties": {"collection_times": [{"days": "Mon-Sat", "time": "10:00am"}, {"days": "Sun", "time": "Closed"}], "id": "0115100014", "name": "USPS COLLECTION BOX - BLUE BOX", "address": {"city": "SPRINGFIELD", "state": "MA", "street": "112 LYONS ST", "postcode": "01151"}}},
{"geometry": {"type": "Point", "coordinates": [-72.502926793, 42.1542433894]}, "type": "Feature", "properties": {"collection_times": [{"days": "Mon-Sat", "time": "9:00am"}, {"days": "Sun", "time": "Closed"}], "id": "0115100015", "name": "USPS COLLECTION BOX - BLUE BOX", "address": {"city": "SPRINGFIELD", "state": "MA", "street": "93 GROCHMAL AVE", "postcode": "01151"}}},
{"geometry": {"type": "Point", "coordinates": [-72.5190306831, 42.1479364712]}, "type": "Feature", "properties": {"collection_times": [{"days": "Mon-Fri", "time": "10:00am"}, {"days": "Sat", "time": "9:30am"}, {"days": "Sun", "time": "Closed"}], "id": "0115100016", "name": "USPS COLLECTION BOX - BLUE BOX", "address": {"city": "SPRINGFIELD", "state": "MA", "street": "1070 BERKSHIRE AVE", "postcode": "01151"}}},
{"geometry": {"type": "Point", "coordinates": [-72.5015485406, 42.1594609556]}, "type": "Feature", "properties": {"collection_times": [{"days": "Mon-Sat", "time": "10:00am"}, {"days": "Sun", "time": "Closed"}], "id": "0115100018", "name": "USPS COLLECTION BOX - BLUE BOX", "address": {"city": "SPRINGFIELD", "state": "MA", "street": "187 MAIN ST", "postcode": "01151"}}},
{"geometry": {"type": "Point", "coordinates": [-72.5170481623, 42.1497519471]}, "type": "Feature", "properties": {"collection_times": [{"days": "Mon-Sat", "time": "10:00am"}, {"days": "Sun", "time": "Closed"}], "id": "0115100019", "name": "USPS COLLECTION BOX - BLUE BOX", "address": {"city": "SPRINGFIELD", "state": "MA", "street": "1143 BERKSHIRE AVE", "postcode": "01151"}}},
{"geometry": {"type": "Point", "coordinates": [-72.503024639, 42.160042676]}, "type": "Feature", "properties": {"collection_times": [{"days": "Mon-Fri", "time": "4:00pm"}, {"days": "Sat", "time": "12:00pm"}, {"days": "Sun", "time": "Closed"}], "id": "0115100021", "name": "USPS COLLECTION BOX - PO LOBBY", "address": {"city": "SPRINGFIELD", "state": "MA", "street": "19 OAK ST LBBY", "postcode": "01151"}}},
{"geometry": {"type": "Point", "coordinates": [-72.502926793, 42.1542433894]}, "type": "Feature", "properties": {"collection_times": [{"days": "Mon-Fri", "time": "3:30pm"}, {"days": "Sat", "time": "10:00am"}, {"days": "Sun", "time": "Closed"}], "id": "0115100022", "name": "USPS COLLECTION BOX - BLUE BOX", "address": {"city": "SPRINGFIELD", "state": "MA", "street": "819 WORCESTER ST", "postcode": "01151"}}}
]}
