{"type": "FeatureCollection", "features": [
{"geometry": {"type": "Point", "coordinates": [-73.2413743887, 42.4444035554]}, "type": "Feature", "properties": {"collection_times": [{"days": "Mon-Sat", "time": "3:00pm"}, {"days": "Sun", "time": "Closed"}], "id": "0120100002", "name": "USPS COLLECTION BOX - BLUE BOX", "address": {"city": "PITTSFIELD", "state": "MA", "street": "103 ELM ST", "postcode": "01201"}}},
{"geometry": {"type": "Point", "coordinates": [-73.3073137096, 42.4359867465]}, "type": "Feature", "properties": {"collection_times": [{"days": "Mon-Sat", "time": "11:00am"}, {"days": "Sun", "time": "Closed"}], "id": "0120100005", "name": "USPS COLLECTION BOX - BLUE BOX", "address": {"city": "PITTSFIELD", "state": "MA", "street": "1245 W HOUSATONIC ST", "postcode": "01201"}}},
{"geometry": {"type": "Point", "coordinates": [-73.253320897, 42.450813683]}, "type": "Feature", "properties": {"collection_times": [{"days": "Mon-Fri", "time": "3:30pm"}, {"days": "Sat", "time": "3:00pm"}, {"days": "Sun", "time": "Closed"}], "id": "0120100007", "name": "USPS COLLECTION BOX - BLUE BOX", "address": {"city": "PITTSFIELD", "state": "MA", "street": "161 NORTH ST", "postcode": "01201"}}},
{"geometry": {"type": "Point", "coordinates": [-73.2530312591, 42.4512017544]}, "type": "Feature", "properties": {"collection_times": [{"days": "Mon-Fri", "time": "3:30pm"}, {"days": "Sat", "time": "3:00pm"}, {"days": "Sun", "time": "Closed"}], "id": "0120100011", "name": "USPS COLLECTION BOX - BLUE BOX", "address": {"city": "PITTSFIELD", "state": "MA", "street": "184 NORTH ST", "postcode": "01201"}}},
{"geometry": {"type": "Point", "coordinates": [-73.2353992682, 42.4434228265]}, "type": "Feature", "properties": {"collection_times": [{"days": "Mon-Sat", "time": "3:00pm"}, {"days": "Sun", "time": "Closed"}], "id": "0120100014", "name": "USPS COLLECTION BOX - BLUE BOX", "address": {"city": "PITTSFIELD", "state": "MA", "street": "221 ELM ST", "postcode": "01201"}}},
{"geometry": {"type": "Point", "coordinates": [-73.2512279848, 42.4527713371]}, "type": "Feature", "properties": {"collection_times": [{"days": "Mon-Fri", "time": "3:30pm"}, {"days": "Sat", "time": "3:00pm"}, {"days": "Sun", "time": "Closed"}], "id": "0120100015", "name": "USPS COLLECTION BOX - BLUE BOX", "address": {"city": "PITTSFIELD", "state": "MA", "street": "246 NORTH ST", "postcode": "01201"}}},
{"geometry": {"type": "Point", "coordinates": [-73.2536335914, 42.4490380046]}, "type": "Feature", "properties": {"collection_times": [{"days": "Mon-Fri", "time": "3:00pm"}, {"days": "Sat-Sun", "time": "Closed"}], "id": "0120100017", "name": "USPS COLLECTION BOX - BLUE BOX", "address": {"city": "PITTSFIELD", "state": "MA", "street": "100 WEST ST", "postcode": "01201"}}},
{"geometry": {"type": "Point", "coordinates": [-73.2536335914, 42.4490380046]}, "type": "Feature", "properties": {"collection_times": [{"days": "Mon-Sat", "time": "3:00pm"}, {"days": "Sun", "time": "Closed"}], "id": "0120100019", "name": "USPS COLLECTION BOX - BLUE BOX", "address": {"city": "PITTSFIELD", "state": "MA", "street": "28 NORTH ST", "postcode": "01201"}}},
{"geometry": {"type": "Point", "coordinates": [-73.2512279848, 42.4527713371]}, "type": "Feature", "properties": {"collection_times": [{"days": "Mon-Fri", "time": "3:30pm"}, {"days": "Sat-Sun", "time": "Closed"}], "id": "0120100020", "name": "USPS COLLECTION BOX - BLUE BOX", "address": {"city": "PITTSFIELD", "state": "MA", "street": "29 WENDELL AVE", "postcode": "01201"}}},
{"geometry": {"type": "Point", "coordinates": [-73.2512279848, 42.4527713371]}, "type": "Feature", "properties": {"collection_times": [{"days": "Mon-Fri", "time": "3:30pm"}, {"days": "Sat", "time": "2:00pm"}, {"days": "Sun", "time": "Closed"}], "id": "0120100021", "name": "USPS COLLECTION BOX - BLUE BOX", "address": {"city": "PITTSFIELD", "state": "MA", "street": "316 NORTH ST", "postcode": "01201"}}},
{"geometry": {"type": "Point", "coordinates": [-73.2523974088, 42.4544010133]}, "type": "Feature", "properties": {"collection_times": [{"days": "Mon-Fri", "time": "3:30pm"}, {"days": "Sat", "time": "2:00pm"}, {"days": "Sun", "time": "Closed"}], "id": "0120100024", "name": "USPS COLLECTION BOX - BLUE BOX", "address": {"city": "PITTSFIELD", "state": "MA", "street": "401 NORTH ST", "postcode": "01201"}}},
{"geometry": {"type": "Point", "coordinates": [-73.2576826663, 42.434529341]}, "type": "Feature", "properties": {"collection_times": [{"days": "Mon-Fri", "time": "10:00am"}, {"days": "Sat-Sun", "time": "Closed"}], "id": "0120100026", "name": "USPS COLLECTION BOX - BLUE BOX", "address": {"city": "PITTSFIELD", "state": "MA", "street": "458 SOUTH ST", "postcode": "01201"}}},
{"geometry": {"type": "Point", "coordinates": [-73.2458790906, 42.5025532874]}, "type": "Feature", "properties": {"collection_times": [{"days": "Mon-Fri", "time": "4:00pm"}, {"days": "Sat-Sun", "time": "Closed"}], "id": "0120100027", "name": "USPS COLLECTION BOX - BLUE BOX", "address": {"city": "PITTSFIELD", "state": "MA", "street": "76 EAST ST", "postcode": "01201"}}},
{"geometry": {"type": "Point", "coordinates": [-73.2541598145, 42.4478849477]}, "type": "Feature", "properties": {"collection_times": [{"days": "Mon-Fri", "time": "3:30pm"}, {"days": "Sat", "time": "2:00pm"}, {"days": "Sun", "time": "Closed"}], "id": "0120100038", "name": "USPS COLLECTION BOX - BLUE BOX", "address": {"city": "PITTSFIELD", "state": "MA", "street": "2 SOUTH ST", "postcode": "01201"}}},
{"geometry": {"type": "Point", "coordinates": [-73.254219522, 42.4473818062]}, "type": "Feature", "properties": {"collection_times": [{"days": "Mon-Sat", "time": "9:30am"}, {"days": "Sun", "time": "Closed"}], "id": "0120100044", "name": "USPS COLLECTION BOX - BLUE BOX", "address": {"city": "PITTSFIELD", "state": "MA", "street": "655 CHESHIRE RD", "postcode": "01201"}}},
{"geometry": {"type": "Point", "coordinates": [-73.2485277468, 42.4591644615]}, "type": "Feature", "properties": {"collection_times": [{"days": "Mon-Sat", "time": "9:00am"}, {"days": "Sun", "time": "Closed"}], "id": "0120100045", "name": "USPS COLLECTION BOX - BLUE BOX", "address": {"city": "PITTSFIELD", "state": "MA", "street": "725 NORTH ST", "postcode": "01201"}}},
{"geometry": {"type": "Point", "coordinates": [-73.2512279848, 42.4527713371]}, "type": "Feature", "properties": {"collection_times": [{"days": "Mon-Fri", "time": "12:00pm"}, {"days": "Sat-Sun", "time": "Closed"}], "id": "0120100051", "name": "USPS COLLECTION BOX - BLUE BOX", "address": {"city": "PITTSFIELD", "state": "MA", "street": "39 ALLEN ST", "postcode": "01201"}}},
{"geometry": {"type": "Point", "coordinates": [-73.2512279848, 42.4527713371]}, "type": "Feature", "properties": {"collection_times": [{"days": "Mon-Sat", "time": "9:30am"}, {"days": "Sun", "time": "Closed"}], "id": "0120100055", "name": "USPS COLLECTION BOX - BLUE BOX", "address": {"city": "PITTSFIELD", "state": "MA", "street": "192 DALTON AVE", "postcode": "01201"}}},
{"geometry": {"type": "Point", "coordinates": [-73.189427103, 42.458735362]}, "type": "Feature", "properties": {"collection_times": [{"days": "Mon-Fri", "time": "9:00am"}, {"days": "Sat-Sun", "time": "Closed"}], "id": "0120100057", "name": "USPS COLLECTION BOX - BLUE BOX", "address": {"city": "PITTSFIELD", "state": "MA", "street": "235 HUBBARD AVE", "postcode": "01201"}}},
{"geometry": {"type": "Point", "coordinates": [-73.2512279848, 42.4527713371]}, "type": "Feature", "properties": {"collection_times": [{"days": "Mon-Fri", "time": "3:30pm"}, {"days": "Sat-Sun", "time": "Closed"}], "id": "0120100059", "name": "USPS COLLECTION BOX - BLUE BOX", "address": {"city": "PITTSFIELD", "state": "MA", "street": "95 WENDELL AVE", "postcode": "01201"}}},
{"geometry": {"type": "Point", "coordinates": [-73.2507883814, 42.4473561651]}, "type": "Feature", "properties": {"collection_times": [{"days": "Mon-Fri", "time": "3:30pm"}, {"days": "Sat-Sun", "time": "Closed"}], "id": "0120100060", "name": "USPS COLLECTION BOX - BLUE BOX", "address": {"city": "PITTSFIELD", "state": "MA", "street": "15 BARTLETT AVE", "postcode": "01201"}}},
{"geometry": {"type": "Point", "coordinates": [-73.2512279848, 42.4527713371]}, "type": "Feature", "properties": {"collection_times": [{"days": "Mon-Sat", "time": "10:00am"}, {"days": "Sun", "time": "Closed"}], "id": "0120100064", "name": "USPS COLLECTION BOX - BLUE BOX", "address": {"city": "PITTSFIELD", "state": "MA", "street": "160 1ST ST", "postcode": "01201"}}},
{"geometry": {"type": "Point", "coordinates": [-73.2493289579, 42.4546368101]}, "type": "Feature", "properties": {"collection_times": [{"days": "Mon-Sat", "time": "10:00am"}, {"days": "Sun", "time": "Closed"}], "id": "0120100065", "name": "USPS COLLECTION BOX - BLUE BOX", "address": {"city": "PITTSFIELD", "state": "MA", "street": "50 MAPLEWOOD AVE", "postcode": "01201"}}},
{"geometry": {"type": "Point", "coordinates": [-73.2512279848, 42.4527713371]}, "type": "Feature", "properties": {"collection_times": [{"days": "Mon-Fri", "time": "3:30pm"}, {"days": "Sat-Sun", "time": "Closed"}], "id": "0120100067", "name": "USPS COLLECTION BOX - BLUE BOX", "address": {"city": "PITTSFIELD", "state": "MA", "street": "99 WEST ST", "postcode": "01201"}}},
{"geometry": {"type": "Point", "coordinates": [-73.2414619329, 42.4574515369]}, "type": "Feature", "properties": {"collection_times": [{"days": "Mon-Sat", "time": "11:00am"}, {"days": "Sun", "time": "Closed"}], "id": "0120100073", "name": "USPS COLLECTION BOX - BLUE BOX", "address": {"city": "PITTSFIELD", "state": "MA", "street": "407 TYLER ST", "postcode": "01201"}}},
{"geometry": {"type": "Point", "coordinates": [-73.2613562579, 42.4435270014]}, "type": "Feature", "properties": {"collection_times": [{"days": "Mon-Sat", "time": "10:00am"}, {"days": "Sun", "time": "Closed"}], "id": "0120100074", "name": "USPS COLLECTION BOX - BLUE BOX", "address": {"city": "PITTSFIELD", "state": "MA", "street": "141 W HOUSATONIC ST", "postcode": "01201"}}},
{"geometry": {"type": "Point", "coordinates": [-73.2512279848, 42.4527713371]}, "type": "Feature", "properties": {"collection_times": [{"days": "Mon-Sat", "time": "9:00am"}, {"days": "Sun", "time": "Closed"}], "id": "0120100075", "name": "USPS COLLECTION BOX - BLUE BOX", "address": {"city": "PITTSFIELD", "state": "MA", "street": "165 TOR COURT (INSIDE)", "postcode": "01201"}}},
{"geometry": {"type": "Point", "coordinates": [-73.2550553144, 42.448569881]}, "type": "Feature", "properties": {"collection_times": [{"days": "Mon-Fri", "time": "3:00pm"}, {"days": "Sat", "time": "2:00pm"}, {"days": "Sun", "time": "Closed"}], "id": "0120100077", "name": "USPS COLLECTION BOX - BLUE BOX", "address": {"city": "PITTSFIELD", "state": "MA", "street": "1 WEST ST", "postcode": "01201"}}},
{"geometry": {"type": "Point", "coordinates": [-73.2548503412, 42.4489785944]}, "type": "Feature", "properties": {"collection_times": [{"days": "Mon-Fri", "time": "3:30pm"}, {"days": "Sat", "time": "2:00pm"}, {"days": "Sun", "time": "Closed"}], "id": "0120100084", "name": "USPS COLLECTION BOX - BLUE BOX", "address": {"city": "PITTSFIELD", "state": "MA", "street": "20 MCKAY ST", "postcode": "01201"}}},
{"geometry": {"type": "Point", "coordinates": [-73.252517484, 42.4664255675]}, "type": "Feature", "properties": {"collection_times": [{"days": "Mon-Sat", "time": "10:00am"}, {"days": "Sun", "time": "Closed"}], "id": "0120100085", "name": "USPS COLLECTION BOX - BLUE BOX", "address": {"city": "PITTSFIELD", "state": "MA", "street": "274 WAHCONAH ST", "postcode": "01201"}}},
{"geometry": {"type": "Point", "coordinates": [-73.2519702192, 42.4547515126]}, "type": "Feature", "properties": {"collection_times": [{"days": "Mon-Fri", "time": "3:30pm"}, {"days": "Sat", "time": "2:00pm"}, {"days": "Sun", "time": "Closed"}], "id": "0120100086", "name": "USPS COLLECTION BOX - BLUE BOX", "address": {"city": "PITTSFIELD", "state": "MA", "street": "444 NORTH ST", "postcode": "01201"}}},
{"geometry": {"type": "Point", "coordinates": [-73.250779887, 42.4568318877]}, "type": "Feature", "properties": {"collection_times": [{"days": "Mon-Sat", "time": "12:00pm"}, {"days": "Sun", "time": "Closed"}], "id": "0120100087", "name": "USPS COLLECTION BOX - BLUE BOX", "address": {"city": "PITTSFIELD", "state": "MA", "street": "580 NORTH ST", "postcode": "01201"}}},
{"geometry": {"type": "Point", "coordinates": [-73.252905878, 42.4484705124]}, "type": "Feature", "properties": {"collection_times": [{"days": "Mon-Fri", "time": "12:00pm"}, {"days": "Sat-Sun", "time": "Closed"}], "id": "0120100092", "name": "USPS COLLECTION BOX - BLUE BOX", "address": {"city": "PITTSFIELD", "state": "MA", "street": "43 EAST ST", "postcode": "01201"}}},
{"geometry": {"type": "Point", "coordinates": [-73.2361173243, 42.4368680509]}, "type": "Feature", "properties": {"collection_times": [{"days": "Mon-Sat", "time": "1:00pm"}, {"days": "Sun", "time": "Closed"}], "id": "0120100102", "name": "USPS COLLECTION BOX - BLUE BOX", "address": {"city": "PITTSFIELD", "state": "MA", "street": "4 SAMPSON PKWY", "postcode": "01201"}}},
{"geometry": {"type": "Point", "coordinates": [-73.2512279848, 42.4527713371]}, "type": "Feature", "properties": {"collection_times": [{"days": "Mon-Fri", "time": "11:00am"}, {"days": "Sat-Sun", "time": "Closed"}], "id": "0120100104", "name": "USPS COLLECTION BOX - BLUE BOX", "address": {"city": "PITTSFIELD", "state": "MA", "street": "196 SOUTH ST", "postcode": "01201"}}},
{"geometry": {"type": "Point", "coordinates": [-73.2512279848, 42.4527713371]}, "type": "Feature", "properties": {"collection_times": [{"days": "Mon-Sat", "time": "9:00am"}, {"days": "Sun", "time": "Closed"}], "id": "0120100110", "name": "USPS COLLECTION BOX - BLUE BOX", "address": {"city": "PITTSFIELD", "state": "MA", "street": "660 MERRILL RD", "postcode": "01201"}}},
{"geometry": {"type": "Point", "coordinates": [-73.2540100293, 42.4487005169]}, "type": "Feature", "properties": {"collection_times": [{"days": "Mon-Fri", "time": "3:30pm"}, {"days": "Sat-Sun", "time": "Closed"}], "id": "0120100116", "name": "USPS COLLECTION BOX - BLUE BOX", "address": {"city": "PITTSFIELD", "state": "MA", "street": "7 NORTH ST", "postcode": "01201"}}},
{"geometry": {"type": "Point", "coordinates": [-73.2487347647, 42.4494783935]}, "type": "Feature", "properties": {"collection_times": [{"days": "Mon-Fri", "time": "6:00pm"}, {"days": "Sat", "time": "5:00pm"}, {"days": "Sun", "time": "Closed"}], "id": "0120100118", "name": "USPS COLLECTION BOX - BLUE BOX", "address": {"city": "PITTSFIELD", "state": "MA", "street": "212 FENN ST", "postcode": "01201"}}},
{"geometry": {"type": "Point", "coordinates": [-73.2512366752, 42.4527843259]}, "type": "Feature", "properties": {"collection_times": [{"days": "Mon-Fri", "time": "6:00pm"}, {"days": "Sat", "time": "5:00pm"}, {"days": "Sun", "time": "Closed"}], "id": "0120100119", "name": "USPS COLLECTION BOX - EXPRESS", "address": {"city": "PITTSFIELD", "state": "MA", "street": "212 FENN ST", "postcode": "01201"}}},
{"geometry": {"type": "Point", "coordinates": [-73.2862463934, 42.4400573083]}, "type": "Feature", "properties": {"collection_times": [{"days": "Mon-Sat", "time": "2:00pm"}, {"days": "Sun", "time": "Closed"}], "id": "0120100121", "name": "USPS COLLECTION BOX - BLUE BOX", "address": {"city": "PITTSFIELD", "state": "MA", "street": "703 W HOUSATONIC ST", "postcode": "01201"}}},
{"geometry": {"type": "Point", "coordinates": [-73.2512279848, 42.4527713371]}, "type": "Feature", "properties": {"collection_times": [{"days": "Mon-Sat", "time": "12:00pm"}, {"days": "Sun", "time": "Closed"}], "id": "0120100123", "name": "USPS COLLECTION BOX - BLUE BOX", "address": {"city": "PITTSFIELD", "state": "MA", "street": "645 WEST ST", "postcode": "01201"}}},
{"geometry": {"type": "Point", "coordinates": [-73.2512279848, 42.4527713371]}, "type": "Feature", "properties": {"collection_times": [{"days": "Mon-Fri", "time": "3:30pm"}, {"days": "Sat-Sun", "time": "Closed"}], "id": "0120100124", "name": "USPS COLLECTION BOX - BLUE BOX", "address": {"city": "PITTSFIELD", "state": "MA", "street": "59 BARTLETT AVE", "postcode": "01201"}}},
{"geometry": {"type": "Point", "coordinates": [-73.2649282899, 42.4109021016]}, "type": "Feature", "properties": {"collection_times": [{"days": "Mon-Fri", "time": "10:00am"}, {"days": "Sat-Sun", "time": "Closed"}], "id": "0120100125", "name": "USPS COLLECTION BOX - BLUE BOX", "address": {"city": "PITTSFIELD", "state": "MA", "street": "1 DAN FOX DR", "postcode": "01201"}}},
{"geometry": {"type": "Point", "coordinates": [-73.2183895013, 42.4615978081]}, "type": "Feature", "properties": {"collection_times": [{"days": "Mon-Sat", "time": "9:45am"}, {"days": "Sun", "time": "Closed"}], "id": "0120100131", "name": "USPS COLLECTION BOX - BLUE BOX", "address": {"city": "PITTSFIELD", "state": "MA", "street": "358 DALTON AVE", "postcode": "01201"}}},
{"geometry": {"type": "Point", "coordinates": [-73.2135381866, 42.4323515136]}, "type": "Feature", "properties": {"collection_times": [{"days": "Mon-Sat", "time": "2:00pm"}, {"days": "Sun", "time": "Closed"}], "id": "0120100132", "name": "USPS COLLECTION BOX - BLUE BOX", "address": {"city": "PITTSFIELD", "state": "MA", "street": "740 WILLIAMS ST", "postcode": "01201"}}},
{"geometry": {"type": "Point", "coordinates": [-73.2603242136, 42.4248006865]}, "type": "Feature", "properties": {"collection_times": [{"days": "Mon-Fri", "time": "3:30pm"}, {"days": "Sat-Sun", "time": "Closed"}], "id": "0120100133", "name": "USPS COLLECTION BOX - BLUE BOX", "address": {"city": "PITTSFIELD", "state": "MA", "street": "700 SOUTH ST", "postcode": "01201"}}},
{"geometry": {"type": "Point", "coordinates": [-73.2391310391, 42.4565556476]}, "type": "Feature", "properties": {"collection_times": [{"days": "Mon-Sat", "time": "11:00am"}, {"days": "Sun", "time": "Closed"}], "id": "0120100134", "name": "USPS COLLECTION BOX - BLUE BOX", "address": {"city": "PITTSFIELD", "state": "MA", "street": "58 BROWN ST", "postcode": "01201"}}},
{"geometry": {"type": "Point", "coordinates": [-73.2038592163, 42.4701139297]}, "type": "Feature", "properties": {"collection_times": [{"days": "Mon-Sat", "time": "10:30am"}, {"days": "Sun", "time": "Closed"}], "id": "0120100135", "name": "USPS COLLECTION BOX - BLUE BOX", "address": {"city": "PITTSFIELD", "state": "MA", "street": "5 CHESHIRE RD", "postcode": "01201"}}},
{"geometry": {"type": "Point", "coordinates": [-73.2161844658, 42.4542871217]}, "type": "Feature", "properties": {"collection_times": [{"days": "Mon-Sat", "time": "10:00am"}, {"days": "Sun", "time": "Closed"}], "id": "0120100136", "name": "USPS COLLECTION BOX - BLUE BOX", "address": {"city": "PITTSFIELD", "state": "MA", "street": "1440 EAST ST", "postcode": "01201"}}},
{"geometry": {"type": "Point", "coordinates": [-73.2512279848, 42.4527713371]}, "type": "Feature", "properties": {"collection_times": [{"days": "Mon-Fri", "time": "3:30pm"}, {"days": "Sat-Sun", "time": "Closed"}], "id": "0120100138", "name": "USPS COLLECTION BOX - BLUE BOX", "address": {"city": "PITTSFIELD", "state": "MA", "street": "29 WENDELL AVE", "postcode": "01201"}}},
{"geometry": {"type": "Point", "coordinates": [-73.2487347647, 42.4494783935]}, "type": "Feature", "properties": {"collection_times": [{"days": "Mon-Fri", "time": "6:00pm"}, {"days": "Sat", "time": "5:00pm"}, {"days": "Sun", "time": "Closed"}], "id": "0120100139", "name": "USPS COLLECTION BOX - PO LOBBY", "address": {"city": "PITTSFIELD", "state": "MA", "street": "212 FENN ST", "postcode": "01201"}}},
{"geometry": {"type": "Point", "coordinates": [-73.2608470815, 42.4471183903]}, "type": "Feature", "properties": {"collection_times": [{"days": "Mon-Fri", "time": "10:00am"}, {"days": "Sat-Sun", "time": "Closed"}], "id": "0120100140", "name": "USPS COLLECTION BOX - BLUE BOX", "address": {"city": "PITTSFIELD", "state": "MA", "street": "75 S CHURCH ST", "postcode": "01201"}}},
{"geometry": {"type": "Point", "coordinates": [-73.2594180671, 42.447763103]}, "type": "Feature", "properties": {"collection_times": [{"days": "Mon-Sat", "time": "9:30am"}, {"days": "Sun", "time": "Closed"}], "id": "0120100143", "name": "USPS COLLECTION BOX - BLUE BOX", "address": {"city": "PITTSFIELD", "state": "MA", "street": "200 WEST ST", "postcode": "01201"}}},
{"geometry": {"type": "Point", "coordinates": [-73.2632141824, 42.4567725184]}, "type": "Feature", "properties": {"collection_times": [{"days": "Mon-Sat", "time": "9:00am"}, {"days": "Sun", "time": "Closed"}], "id": "0120100147", "name": "USPS COLLECTION BOX - BLUE BOX", "address": {"city": "PITTSFIELD", "state": "MA", "street": "180 ONOTA ST", "postcode": "01201"}}},
{"geometry": {"type": "Point", "coordinates": [-73.2534287458, 42.450039116]}, "type": "Feature", "properties": {"collection_times": [{"days": "Mon-Fri", "time": "3:15pm"}, {"days": "Sat", "time": "2:00pm"}, {"days": "Sun", "time": "Closed"}], "id": "0120100150", "name": "USPS COLLECTION BOX - BLUE BOX", "address": {"city": "PITTSFIELD", "state": "MA", "street": "100 NORTH ST", "postcode": "01201"}}},
{"geometry": {"type": "Point", "coordinates": [-73.2653506063, 42.4760973361]}, "type": "Feature", "properties": {"collection_times": [{"days": "Mon-Sat", "time": "10:00am"}, {"days": "Sun", "time": "Closed"}], "id": "0120100151", "name": "USPS COLLECTION BOX - BLUE BOX", "address": {"city": "PITTSFIELD", "state": "MA", "street": "370 PECKS RD", "postcode": "01201"}}},
{"geometry": {"type": "Point", "coordinates": [-73.2519678414, 42.451447316]}, "type": "Feature", "properties": {"collection_times": [{"days": "Mon-Fri", "time": "10:00am"}, {"days": "Sat-Sun", "time": "Closed"}], "id": "0120100152", "name": "USPS COLLECTION BOX - BLUE BOX", "address": {"city": "PITTSFIELD", "state": "MA", "street": "53 EAGLE ST", "postcode": "01201"}}},
{"geometry": {"type": "Point", "coordinates": [-73.2487347647, 42.4494783935]}, "type": "Feature", "properties": {"collection_times": [{"days": "Mon-Fri", "time": "6:00pm"}, {"days": "Sat", "time": "5:00pm"}, {"days": "Sun", "time": "Closed"}], "id": "0120100153", "name": "USPS COLLECTION BOX - APC", "address": {"city": "PITTSFIELD", "state": "MA", "street": "212 FENN ST", "postcode": "01201"}}},
{"geometry": {"type": "Point", "coordinates": [-73.2487347647, 42.4494783935]}, "type": "Feature", "properties": {"collection_times": [{"days": "Mon-Fri", "time": "6:00pm"}, {"days": "Sat", "time": "5:00pm"}, {"days": "Sun", "time": "Closed"}], "id": "0120100154", "name": "USPS COLLECTION BOX - BLUE BOX", "address": {"city": "PITTSFIELD", "state": "MA", "street": "212 FENN ST", "postcode": "01201"}}},
{"geometry": {"type": "Point", "coordinates": [-73.0262671372, 42.5653016108]}, "type": "Feature", "properties": {"collection_times": [{"days": "Mon-Sat", "time": "10:00am"}, {"days": "Sun", "time": "Closed"}], "id": "0122000002", "name": "USPS COLLECTION BOX - BLUE BOX", "address": {"city": "SAVOY", "state": "MA", "street": "119 COMMERCIAL ST", "postcode": "01220"}}},
{"geometry": {"type": "Point", "coordinates": [-73.1131404592, 42.6364911933]}, "type": "Feature", "properties": {"collection_times": [{"days": "Mon-Sat", "time": "10:00am"}, {"days": "Sun", "time": "Closed"}], "id": "0122000006", "name": "USPS COLLECTION BOX - BLUE BOX", "address": {"city": "SAVOY", "state": "MA", "street": "218 COLUMBIA ST", "postcode": "01220"}}},
{"geometry": {"type": "Point", "coordinates": [-73.1188080156, 42.6215693489]}, "type": "Feature", "properties": {"collection_times": [{"days": "Mon-Sat", "time": "9:00am"}, {"days": "Sun", "time": "Closed"}], "id": "0122000007", "name": "USPS COLLECTION BOX - BLUE BOX", "address": {"city": "SAVOY", "state": "MA", "street": "17 PLEASANT ST", "postcode": "01220"}}},
{"geometry": {"type": "Point", "coordinates": [-73.0262671372, 42.5653016108]}, "type": "Feature", "properties": {"collection_times": [{"days": "Mon-Sat", "time": "10:00am"}, {"days": "Sun", "time": "Closed"}], "id": "0122000008", "name": "USPS COLLECTION BOX - BLUE BOX", "address": {"city": "SAVOY", "state": "MA", "street": "26 HOOSAC ST", "postcode": "01220"}}},
{"geometry": {"type": "Point", "coordinates": [-73.0262671372, 42.5653016108]}, "type": "Feature", "properties": {"collection_times": [{"days": "Mon-Sat", "time": "4:00pm"}, {"days": "Sun", "time": "Closed"}], "id": "0122000010", "name": "USPS COLLECTION BOX - BLUE BOX", "address": {"city": "SAVOY", "state": "MA", "street": "39 PARK ST", "postcode": "01220"}}},
{"geometry": {"type": "Point", "coordinates": [-73.0262671372, 42.5653016108]}, "type": "Feature", "properties": {"collection_times": [{"days": "Mon-Sat", "time": "4:00pm"}, {"days": "Sun", "time": "Closed"}], "id": "0122000012", "name": "USPS COLLECTION BOX - BLUE BOX", "address": {"city": "SAVOY", "state": "MA", "street": "65 PARK ST", "postcode": "01220"}}},
{"geometry": {"type": "Point", "coordinates": [-73.1109673636, 42.6302664632]}, "type": "Feature", "properties": {"collection_times": [{"days": "Mon-Sat", "time": "9:30am"}, {"days": "Sun", "time": "Closed"}], "id": "0122000015", "name": "USPS COLLECTION BOX - BLUE BOX", "address": {"city": "SAVOY", "state": "MA", "street": "71 N SUMMER ST", "postcode": "01220"}}},
{"geometry": {"type": "Point", "coordinates": [-73.0262671372, 42.5653016108]}, "type": "Feature", "properties": {"collection_times": [{"days": "Mon-Sat", "time": "10:00am"}, {"days": "Sun", "time": "Closed"}], "id": "0122000017", "name": "USPS COLLECTION BOX - BLUE BOX", "address": {"city": "SAVOY", "state": "MA", "street": "89 SUMMER ST", "postcode": "01220"}}},
{"geometry": {"type": "Point", "coordinates": [-73.1198094211, 42.6239989839]}, "type": "Feature", "properties": {"collection_times": [{"days": "Mon-Sat", "time": "4:00pm"}, {"days": "Sun", "time": "Closed"}], "id": "0122000018", "name": "USPS COLLECTION BOX - BLUE BOX", "address": {"city": "SAVOY", "state": "MA", "street": "95 PARK ST", "postcode": "01220"}}},
{"geometry": {"type": "Point", "coordinates": [-73.120354143, 42.6204810267]}, "type": "Feature", "properties": {"collection_times": [{"days": "Mon-Sat", "time": "4:00pm"}, {"days": "Sun", "time": "Closed"}], "id": "0122000019", "name": "USPS COLLECTION BOX - BLUE BOX", "address": {"city": "SAVOY", "state": "MA", "street": "2 CENTER ST", "postcode": "01220"}}},
{"geometry": {"type": "Point", "coordinates": [-73.1199818873, 42.6200961901]}, "type": "Feature", "properties": {"collection_times": [{"days": "Mon-Sat", "time": "4:00pm"}, {"days": "Sun", "time": "Closed"}], "id": "0122000023", "name": "USPS COLLECTION BOX - BLUE BOX", "address": {"city": "SAVOY", "state": "MA", "street": "1 MYRTLE ST", "postcode": "01220"}}},
{"geometry": {"type": "Point", "coordinates": [-73.1205045624, 42.6205799735]}, "type": "Feature", "properties": {"collection_times": [{"days": "Mon-Fri", "time": "5:00pm"}, {"days": "Sat", "time": "4:00pm"}, {"days": "Sun", "time": "Closed"}], "id": "0122000024", "name": "USPS COLLECTION BOX - BLUE BOX", "address": {"city": "SAVOY", "state": "MA", "street": "1 CENTER ST", "postcode": "01220"}}},
{"geometry": {"type": "Point", "coordinates": [-73.1173174873, 42.6326513085]}, "type": "Feature", "properties": {"collection_times": [{"days": "Mon-Sat", "time": "9:30am"}, {"days": "Sun", "time": "Closed"}], "id": "0122000025", "name": "USPS COLLECTION BOX - BLUE BOX", "address": {"city": "SAVOY", "state": "MA", "street": "37 UPTON ST", "postcode": "01220"}}},
{"geometry": {"type": "Point", "coordinates": [-73.0262671372, 42.5653016108]}, "type": "Feature", "properties": {"collection_times": [{"days": "Mon-Fri", "time": "5:00pm"}, {"days": "Sat", "time": "4:00pm"}, {"days": "Sun", "time": "Closed"}], "id": "0122000026", "name": "USPS COLLECTION BOX - BLUE BOX", "address": {"city": "SAVOY", "state": "MA", "street": "1 CENTER ST", "postcode": "01220"}}},
{"geometry": {"type": "Point", "coordinates": [-73.0248526828, 42.5639166608]}, "type": "Feature", "properties": {"collection_times": [{"days": "Mon-Sat", "time": "10:00am"}, {"days": "Sun", "time": "Closed"}], "id": "0122000029", "name": "USPS COLLECTION BOX - BLUE BOX", "address": {"city": "SAVOY", "state": "MA", "street": "720 MAIN RD", "postcode": "01220"}}},
{"geometry": {"type": "Point", "coordinates": [-73.1205045624, 42.6205799735]}, "type": "Feature", "properties": {"collection_times": [{"days": "Mon-Fri", "time": "5:00pm"}, {"days": "Sat", "time": "4:00pm"}, {"days": "Sun", "time": "Closed"}], "id": "0122000030", "name": "USPS COLLECTION BOX - PO LOBBY", "address": {"city": "SAVOY", "state": "MA", "street": "1 CENTER ST", "postcode": "01220"}}},
{"geometry": {"type": "Point", "coordinates": [-73.3352292462, 42.0560467943]}, "type": "Feature", "properties": {"collection_times": [{"days": "Mon-Fri", "time": "4:00pm"}, {"days": "Sat", "time": "11:30am"}, {"days": "Sun", "time": "Closed"}], "id": "0122200000", "name": "USPS COLLECTION BOX - BLUE BOX", "address": {"city": "ASHLEY FALLS", "state": "MA", "street": "1180 ASHLEY FALLS RD", "postcode": "01222"}}},
{"geometry": {"type": "Point", "coordinates": [-73.3352292462, 42.0560467943]}, "type": "Feature", "properties": {"collection_times": [{"days": "Mon-Fri", "time": "4:00pm"}, {"days": "Sat", "time": "11:30am"}, {"days": "Sun", "time": "Closed"}], "id": "0122200001", "name": "USPS COLLECTION BOX - PO LOBBY", "address": {"city": "ASHLEY FALLS", "state": "MA", "street": "1180 ASHLEY FALLS RD", "postcode": "01222"}}},
{"geometry": {"type": "Point", "coordinates": [-73.0738083754, 42.2903811015]}, "type": "Feature", "properties": {"collection_times": [{"days": "Mon-Fri", "time": "4:00pm"}, {"days": "Sat", "time": "12:00pm"}, {"days": "Sun", "time": "Closed"}], "id": "0122300002", "name": "USPS COLLECTION BOX - PO LOBBY", "address": {"city": "BECKET", "state": "MA", "street": "623 MAIN ST", "postcode": "01223"}}},
{"geometry": {"type": "Point", "coordinates": [-73.0738083754, 42.2903811015]}, "type": "Feature", "properties": {"collection_times": [{"days": "Mon-Fri", "time": "4:00pm"}, {"days": "Sat", "time": "12:00pm"}, {"days": "Sun", "time": "Closed"}], "id": "0122300003", "name": "USPS COLLECTION BOX - BLUE BOX", "address": {"city": "BECKET", "state": "MA", "street": "623 MAIN ST", "postcode": "01223"}}},
{"geometry": {"type": "Point", "coordinates": [-73.1575935048, 42.5621467059]}, "type": "Feature", "properties": {"collection_times": [{"days": "Mon-Fri", "time": "4:15pm"}, {"days": "Sat", "time": "11:15am"}, {"days": "Sun", "time": "Closed"}], "id": "0122500001", "name": "USPS COLLECTION BOX - BLUE BOX", "address": {"city": "CHESHIRE", "state": "MA", "street": "214 CHURCH ST", "postcode": "01225"}}},
{"geometry": {"type": "Point", "coordinates": [-73.1575935048, 42.5621467059]}, "type": "Feature", "properties": {"collection_times": [{"days": "Mon-Fri", "time": "4:15pm"}, {"days": "Sat", "time": "11:15am"}, {"days": "Sun", "time": "Closed"}], "id": "0122500002", "name": "USPS COLLECTION BOX - PO LOBBY", "address": {"city": "CHESHIRE", "state": "MA", "street": "214 CHURCH ST LBBY DROP", "postcode": "01225"}}},
{"geometry": {"type": "Point", "coordinates": [-73.1556660251, 42.4809432378]}, "type": "Feature", "properties": {"collection_times": [{"days": "Mon-Sat", "time": "10:00am"}, {"days": "Sun", "time": "Closed"}], "id": "0122600002", "name": "USPS COLLECTION BOX - BLUE BOX", "address": {"city": "DALTON", "state": "MA", "street": "200 NORTH ST", "postcode": "01226"}}},
{"geometry": {"type": "Point", "coordinates": [-73.1681297545, 42.470711865]}, "type": "Feature", "properties": {"collection_times": [{"days": "Mon-Fri", "time": "4:30pm"}, {"days": "Sat", "time": "12:00pm"}, {"days": "Sun", "time": "Closed"}], "id": "0122600003", "name": "USPS COLLECTION BOX - PO LOBBY", "address": {"city": "DALTON", "state": "MA", "street": "609 MAIN ST", "postcode": "01226"}}},
{"geometry": {"type": "Point", "coordinates": [-73.1723823858, 42.4737045075]}, "type": "Feature", "properties": {"collection_times": [{"days": "Mon-Sat", "time": "10:00am"}, {"days": "Sun", "time": "Closed"}], "id": "0122600005", "name": "USPS COLLECTION BOX - BLUE BOX", "address": {"city": "DALTON", "state": "MA", "street": "12 FLANSBURG AVE", "postcode": "01226"}}},
{"geometry": {"type": "Point", "coordinates": [-73.1681297545, 42.470711865]}, "type": "Feature", "properties": {"collection_times": [{"days": "Mon-Sat", "time": "10:00am"}, {"days": "Sun", "time": "Closed"}], "id": "0122600012", "name": "USPS COLLECTION BOX - BLUE BOX", "address": {"city": "DALTON", "state": "MA", "street": "197 SOUTH ST", "postcode": "01226"}}},
{"geometry": {"type": "Point", "coordinates": [-73.1681297545, 42.470711865]}, "type": "Feature", "properties": {"collection_times": [{"days": "Mon-Fri", "time": "4:30pm"}, {"days": "Sat", "time": "12:00pm"}, {"days": "Sun", "time": "Closed"}], "id": "0122600019", "name": "USPS COLLECTION BOX - BLUE BOX", "address": {"city": "DALTON", "state": "MA", "street": "609 MAIN ST", "postcode": "01226"}}},
{"geometry": {"type": "Point", "coordinates": [-73.1881475193, 42.4524505143]}, "type": "Feature", "properties": {"collection_times": [{"days": "Mon-Sat", "time": "10:30am"}, {"days": "Sun", "time": "Closed"}], "id": "0122600021", "name": "USPS COLLECTION BOX - BLUE BOX", "address": {"city": "DALTON", "state": "MA", "street": "1088 SOUTH ST", "postcode": "01226"}}},
{"geometry": {"type": "Point", "coordinates": [-71.0483157146, 42.4136043008]}, "type": "Feature", "properties": {"collection_times": [{"days": "Mon-Fri", "time": "4:15pm"}, {"days": "Sat", "time": "11:15am"}, {"days": "Sun", "time": "Closed"}], "id": "0122900000", "name": "USPS COLLECTION BOX - BLUE BOX", "address": {"city": "GLENDALE", "state": "MA", "street": "17 GLENDALE RD", "postcode": "01229"}}},
{"geometry": {"type": "Point", "coordinates": [-71.0483157146, 42.4136043008]}, "type": "Feature", "properties": {"collection_times": [{"days": "Mon-Fri", "time": "12:00pm"}, {"days": "Sat", "time": "11:15am"}, {"days": "Sun", "time": "Closed"}], "id": "0122900001", "name": "USPS COLLECTION BOX - PO LOBBY", "address": {"city": "GLENDALE", "state": "MA", "street": "17 GLENDALE RD", "postcode": "01229"}}},
{"geometry": {"type": "Point", "coordinates": [-73.3489460997, 42.2015226919]}, "type": "Feature", "properties": {"collection_times": [{"days": "Mon-Sat", "time": "10:00am"}, {"days": "Sun", "time": "Closed"}], "id": "0123000001", "name": "USPS COLLECTION BOX - BLUE BOX", "address": {"city": "GT BARRINGTON", "state": "MA", "street": "336 STOCKBRIDGE RD", "postcode": "01230"}}},
{"geometry": {"type": "Point", "coordinates": [-73.3646595565, 42.182179385]}, "type": "Feature", "properties": {"collection_times": [{"days": "Mon-Sat", "time": "10:00am"}, {"days": "Sun", "time": "Closed"}], "id": "0123000002", "name": "USPS COLLECTION BOX - BLUE BOX", "address": {"city": "GT BARRINGTON", "state": "MA", "street": "700 MAIN ST", "postcode": "01230"}}},
{"geometry": {"type": "Point", "coordinates": [-73.3618696093, 42.1949419091]}, "type": "Feature", "properties": {"collection_times": [{"days": "Mon-Fri", "time": "1:00pm"}, {"days": "Sat", "time": "10:00am"}, {"days": "Sun", "time": "Closed"}], "id": "0123000005", "name": "USPS COLLECTION BOX - BLUE BOX", "address": {"city": "GT BARRINGTON", "state": "MA", "street": "279 MAIN ST", "postcode": "01230"}}},
{"geometry": {"type": "Point", "coordinates": [-73.3622871897, 42.1945583978]}, "type": "Feature", "properties": {"collection_times": [{"days": "Mon-Fri", "time": "12:00pm"}, {"days": "Sat", "time": "10:00am"}, {"days": "Sun", "time": "Closed"}], "id": "0123000006", "name": "USPS COLLECTION BOX - BLUE BOX", "address": {"city": "GT BARRINGTON", "state": "MA", "street": "294 MAIN ST", "postcode": "01230"}}},
{"geometry": {"type": "Point", "coordinates": [-73.4216695863, 42.1591205855]}, "type": "Feature", "properties": {"collection_times": [{"days": "Mon-Sat", "time": "10:00am"}, {"days": "Sun", "time": "Closed"}], "id": "0123000007", "name": "USPS COLLECTION BOX - BLUE BOX", "address": {"city": "GT BARRINGTON", "state": "MA", "street": "620 MAIN ST", "postcode": "01230"}}},
{"geometry": {"type": "Point", "coordinates": [-73.3512891169, 42.1892814673]}, "type": "Feature", "properties": {"collection_times": [{"days": "Mon-Fri", "time": "4:30pm"}, {"days": "Sat", "time": "3:30pm"}, {"days": "Sun", "time": "Closed"}], "id": "0123000008", "name": "USPS COLLECTION BOX - EXPRESS", "address": {"city": "GT BARRINGTON", "state": "MA", "street": "222 MAIN ST", "postcode": "01230"}}},
{"geometry": {"type": "Point", "coordinates": [-73.3610259615, 42.1963843229]}, "type": "Feature", "properties": {"collection_times": [{"days": "Mon-Fri", "time": "4:30pm"}, {"days": "Sat", "time": "3:30pm"}, {"days": "Sun", "time": "Closed"}], "id": "0123000009", "name": "USPS COLLECTION BOX - BLUE BOX", "address": {"city": "GT BARRINGTON", "state": "MA", "street": "222 MAIN ST", "postcode": "01230"}}},
{"geometry": {"type": "Point", "coordinates": [-73.3628125718, 42.1938522654]}, "type": "Feature", "properties": {"collection_times": [{"days": "Mon-Fri", "time": "1:00pm"}, {"days": "Sat", "time": "10:00am"}, {"days": "Sun", "time": "Closed"}], "id": "0123000011", "name": "USPS COLLECTION BOX - BLUE BOX", "address": {"city": "GT BARRINGTON", "state": "MA", "street": "323 MAIN ST", "postcode": "01230"}}},
{"geometry": {"type": "Point", "coordinates": [-73.3740773746, 42.1918200269]}, "type": "Feature", "properties": {"collection_times": [{"days": "Mon-Fri", "time": "10:00am"}, {"days": "Sat-Sun", "time": "Closed"}], "id": "0123000012", "name": "USPS COLLECTION BOX - BLUE BOX", "address": {"city": "GT BARRINGTON", "state": "MA", "street": "29 LEWIS AVE", "postcode": "01230"}}},
{"geometry": {"type": "Point", "coordinates": [-73.3610259615, 42.1963843229]}, "type": "Feature", "properties": {"collection_times": [{"days": "Mon-Fri", "time": "4:30pm"}, {"days": "Sat", "time": "3:30pm"}, {"days": "Sun", "time": "Closed"}], "id": "0123000014", "name": "USPS COLLECTION BOX - PO LOBBY", "address": {"city": "GT BARRINGTON", "state": "MA", "street": "222 MAIN ST LBBY DROP", "postcode": "01230"}}},
{"geometry": {"type": "Point", "coordinates": [-73.1252364654, 42.4382264587]}, "type": "Feature", "properties": {"collection_times": [{"days": "Mon-Fri", "time": "4:00pm"}, {"days": "Sat", "time": "11:45am"}, {"days": "Sun", "time": "Closed"}], "id": "0123500002", "name": "USPS COLLECTION BOX - BLUE BOX", "address": {"city": "HINSDALE", "state": "MA", "street": "25 MAPLE ST", "postcode": "01235"}}},
{"geometry": {"type": "Point", "coordinates": [-73.124945987, 42.4382141578]}, "type": "Feature", "properties": {"collection_times": [{"days": "Mon-Fri", "time": "4:30pm"}, {"days": "Sat", "time": "12:00pm"}, {"days": "Sun", "time": "Closed"}], "id": "0123500003", "name": "USPS COLLECTION BOX - PO LOBBY", "address": {"city": "HINSDALE", "state": "MA", "street": "25 MAPLE ST LBBY DROP", "postcode": "01235"}}},
{"geometry": {"type": "Point", "coordinates": [-73.3650914452, 42.2571940504]}, "type": "Feature", "properties": {"collection_times": [{"days": "Mon-Fri", "time": "4:30pm"}, {"days": "Sat", "time": "12:00pm"}, {"days": "Sun", "time": "Closed"}], "id": "0123600002", "name": "USPS COLLECTION BOX - PO LOBBY", "address": {"city": "HOUSATONIC", "state": "MA", "street": "11 DEPOT ST", "postcode": "01236"}}},
{"geometry": {"type": "Point", "coordinates": [-73.3650914452, 42.2571940504]}, "type": "Feature", "properties": {"collection_times": [{"days": "Mon-Fri", "time": "4:15pm"}, {"days": "Sat", "time": "12:00pm"}, {"days": "Sun", "time": "Closed"}], "id": "0123600004", "name": "USPS COLLECTION BOX - BLUE BOX", "address": {"city": "HOUSATONIC", "state": "MA", "street": "11 DEPOT ST", "postcode": "01236"}}},
{"geometry": {"type": "Point", "coordinates": [-73.2277778163, 42.516752382]}, "type": "Feature", "properties": {"collection_times": [{"days": "Mon-Sat", "time": "10:00am"}, {"days": "Sun", "time": "Closed"}], "id": "0123700002", "name": "USPS COLLECTION BOX - BLUE BOX", "address": {"city": "HANCOCK", "state": "MA", "street": "25 MAIN ST", "postcode": "01237"}}},
{"geometry": {"type": "Point", "coordinates": [-73.2375599657, 42.501852073]}, "type": "Feature", "properties": {"collection_times": [{"days": "Mon-Fri", "time": "5:00pm"}, {"days": "Sat", "time": "12:00pm"}, {"days": "Sun", "time": "Closed"}], "id": "0123700003", "name": "USPS COLLECTION BOX - BLUE BOX", "address": {"city": "HANCOCK", "state": "MA", "street": "545 S MAIN ST", "postcode": "01237"}}},
{"geometry": {"type": "Point", "coordinates": [-73.2375599657, 42.501852073]}, "type": "Feature", "properties": {"collection_times": [{"days": "Mon-Fri", "time": "5:00pm"}, {"days": "Sat", "time": "12:00pm"}, {"days": "Sun", "time": "Closed"}], "id": "0123700004", "name": "USPS COLLECTION BOX - PO LOBBY", "address": {"city": "HANCOCK", "state": "MA", "street": "545 S MAIN ST LBBY", "postcode": "01237"}}},
{"geometry": {"type": "Point", "coordinates": [-73.250998342, 42.3053115337]}, "type": "Feature", "properties": {"collection_times": [{"days": "Mon-Fri", "time": "5:00pm"}, {"days": "Sat", "time": "2:00pm"}, {"days": "Sun", "time": "Closed"}], "id": "0123800002", "name": "USPS COLLECTION BOX - BLUE BOX", "address": {"city": "LEE", "state": "MA", "street": "35 FRANK P CONSOLATI WAY", "postcode": "01238"}}},
{"geometry": {"type": "Point", "coordinates": [-73.250983486, 42.3084718317]}, "type": "Feature", "properties": {"collection_times": [{"days": "Mon-Sat", "time": "9:30am"}, {"days": "Sun", "time": "Closed"}], "id": "0123800004", "name": "USPS COLLECTION BOX - BLUE BOX", "address": {"city": "LEE", "state": "MA", "street": "208 MAIN ST", "postcode": "01238"}}},
{"geometry": {"type": "Point", "coordinates": [-73.2485582843, 42.3042132852]}, "type": "Feature", "properties": {"collection_times": [{"days": "Mon-Sat", "time": "9:30am"}, {"days": "Sun", "time": "Closed"}], "id": "0123800006", "name": "USPS COLLECTION BOX - BLUE BOX", "address": {"city": "LEE", "state": "MA", "street": "59 MAIN ST", "postcode": "01238"}}},
{"geometry": {"type": "Point", "coordinates": [-73.2467105097, 42.2850116795]}, "type": "Feature", "properties": {"collection_times": [{"days": "Mon-Sat", "time": "10:00am"}, {"days": "Sun", "time": "Closed"}], "id": "0123800010", "name": "USPS COLLECTION BOX - BLUE BOX", "address": {"city": "LEE", "state": "MA", "street": "480 PLEASANT ST", "postcode": "01238"}}},
{"geometry": {"type": "Point", "coordinates": [-73.250998342, 42.3053115337]}, "type": "Feature", "properties": {"collection_times": [{"days": "Mon-Fri", "time": "5:00pm"}, {"days": "Sat", "time": "3:00pm"}, {"days": "Sun", "time": "Closed"}], "id": "0123800012", "name": "USPS COLLECTION BOX - PO LOBBY", "address": {"city": "LEE", "state": "MA", "street": "35 FRANK P CONSOLATI WAY", "postcode": "01238"}}},
{"geometry": {"type": "Point", "coordinates": [-73.2350803672, 42.2969927433]}, "type": "Feature", "properties": {"collection_times": [{"days": "Mon-Sat", "time": "10:00am"}, {"days": "Sun", "time": "Closed"}], "id": "0123800013", "name": "USPS COLLECTION BOX - BLUE BOX", "address": {"city": "LEE", "state": "MA", "street": "50 WATER ST", "postcode": "01238"}}},
{"geometry": {"type": "Point", "coordinates": [-73.2440370011, 42.3032726866]}, "type": "Feature", "properties": {"collection_times": [{"days": "Mon-Sat", "time": "10:00am"}, {"days": "Sun", "time": "Closed"}], "id": "0123800014", "name": "USPS COLLECTION BOX - EXPRESS", "address": {"city": "LEE", "state": "MA", "street": "50 WATER ST", "postcode": "01238"}}},
{"geometry": {"type": "Point", "coordinates": [-73.2440370012, 42.3032727329]}, "type": "Feature", "properties": {"collection_times": [{"days": "Mon-Sat", "time": "9:30am"}, {"days": "Sun", "time": "Closed"}], "id": "0123800015", "name": "USPS COLLECTION BOX - BLUE BOX", "address": {"city": "LEE", "state": "MA", "street": "32 MAIN ST", "postcode": "01238"}}},
{"geometry": {"type": "Point", "coordinates": [-73.2503546343, 42.3001124067]}, "type": "Feature", "properties": {"collection_times": [{"days": "Mon-Sat", "time": "10:00am"}, {"days": "Sun", "time": "Closed"}], "id": "0123800016", "name": "USPS COLLECTION BOX - BLUE BOX", "address": {"city": "LEE", "state": "MA", "street": "155 MARBLE ST", "postcode": "01238"}}},
{"geometry": {"type": "Point", "coordinates": [-73.2499914827, 42.3067039662]}, "type": "Feature", "properties": {"collection_times": [{"days": "Mon-Sat", "time": "9:00am"}, {"days": "Sun", "time": "Closed"}], "id": "0123800017", "name": "USPS COLLECTION BOX - BLUE BOX", "address": {"city": "LEE", "state": "MA", "street": "118 MAIN RD", "postcode": "01238"}}},
{"geometry": {"type": "Point", "coordinates": [-73.2852477298, 42.3567918968]}, "type": "Feature", "properties": {"collection_times": [{"days": "Mon-Fri", "time": "5:00pm"}, {"days": "Sat", "time": "12:15pm"}, {"days": "Sun", "time": "Closed"}], "id": "0124000004", "name": "USPS COLLECTION BOX - BLUE BOX", "address": {"city": "LENOX", "state": "MA", "street": "68 MAIN ST", "postcode": "01240"}}},
{"geometry": {"type": "Point", "coordinates": [-73.2845918076, 42.3579191761]}, "type": "Feature", "properties": {"collection_times": [{"days": "Mon-Fri", "time": "10:00am"}, {"days": "Sat", "time": "9:00am"}, {"days": "Sun", "time": "Closed"}], "id": "0124000006", "name": "USPS COLLECTION BOX - BLUE BOX", "address": {"city": "LENOX", "state": "MA", "street": "42 MAIN ST", "postcode": "01240"}}},
{"geometry": {"type": "Point", "coordinates": [-73.2465787812, 42.3330511456]}, "type": "Feature", "properties": {"collection_times": [{"days": "Mon-Fri", "time": "1:00pm"}, {"days": "Sat", "time": "12:00pm"}, {"days": "Sun", "time": "Closed"}], "id": "0124000008", "name": "USPS COLLECTION BOX - BLUE BOX", "address": {"city": "LENOX", "state": "MA", "street": "6 WALKER ST", "postcode": "01240"}}},
{"geometry": {"type": "Point", "coordinates": [-73.2852477298, 42.3567918968]}, "type": "Feature", "properties": {"collection_times": [{"days": "Mon-Fri", "time": "4:45pm"}, {"days": "Sat", "time": "12:15pm"}, {"days": "Sun", "time": "Closed"}], "id": "0124000012", "name": "USPS COLLECTION BOX - PO LOBBY", "address": {"city": "LENOX", "state": "MA", "street": "68 MAIN ST LBBY DROP", "postcode": "01240"}}},
{"geometry": {"type": "Point", "coordinates": [-73.2451933713, 42.3350620673]}, "type": "Feature", "properties": {"collection_times": [{"days": "Mon-Fri", "time": "5:00pm"}, {"days": "Sat", "time": "12:00pm"}, {"days": "Sun", "time": "Closed"}], "id": "0124200000", "name": "USPS COLLECTION BOX - BLUE BOX", "address": {"city": "LENOX DALE", "state": "MA", "street": "42 CRYSTAL ST", "postcode": "01242"}}},
{"geometry": {"type": "Point", "coordinates": [-73.2451933713, 42.3350620673]}, "type": "Feature", "properties": {"collection_times": [{"days": "Mon-Fri", "time": "5:00pm"}, {"days": "Sat", "time": "11:30am"}, {"days": "Sun", "time": "Closed"}], "id": "0124200001", "name": "USPS COLLECTION BOX - PO LOBBY", "address": {"city": "LENOX DALE", "state": "MA", "street": "42 CRYSTAL ST", "postcode": "01242"}}},
{"geometry": {"type": "Point", "coordinates": [-73.0142470398, 42.3486519702]}, "type": "Feature", "properties": {"collection_times": [{"days": "Mon-Fri", "time": "4:00pm"}, {"days": "Sat", "time": "11:00am"}, {"days": "Sun", "time": "Closed"}], "id": "0124300000", "name": "USPS COLLECTION BOX - BLUE BOX", "address": {"city": "MIDDLEFIELD", "state": "MA", "street": "168 SKYLINE TRL", "postcode": "01243"}}},
{"geometry": {"type": "Point", "coordinates": [-71.7181843228, 42.3586676083]}, "type": "Feature", "properties": {"collection_times": [{"days": "Mon-Fri", "time": "4:00pm"}, {"days": "Sat", "time": "11:00am"}, {"days": "Sun", "time": "Closed"}], "id": "0124300001", "name": "USPS COLLECTION BOX - PO LOBBY", "address": {"city": "MIDDLEFIELD", "state": "MA", "street": "168 SKYLINE TRL LBBY", "postcode": "01243"}}},
{"geometry": {"type": "Point", "coordinates": [-73.2680921633, 42.1140404884]}, "type": "Feature", "properties": {"collection_times": [{"days": "Mon-Fri", "time": "3:30pm"}, {"days": "Sat", "time": "11:30am"}, {"days": "Sun", "time": "Closed"}], "id": "0124400000", "name": "USPS COLLECTION BOX - BLUE BOX", "address": {"city": "MILL RIVER", "state": "MA", "street": "8 MILL RIVER GT BARRINGTON RD", "postcode": "01244"}}},
{"geometry": {"type": "Point", "coordinates": [-73.2680921633, 42.1140404884]}, "type": "Feature", "properties": {"collection_times": [{"days": "Mon-Fri", "time": "3:30pm"}, {"days": "Sat", "time": "11:30am"}, {"days": "Sun", "time": "Closed"}], "id": "0124400001", "name": "USPS COLLECTION BOX - PO LOBBY", "address": {"city": "MILL RIVER", "state": "MA", "street": "8 MILL RIVER GT BARRINGTON RD", "postcode": "01244"}}},
{"geometry": {"type": "Point", "coordinates": [-73.1776139963, 42.2131343522]}, "type": "Feature", "properties": {"collection_times": [{"days": "Mon-Fri", "time": "4:00pm"}, {"days": "Sat", "time": "11:15am"}, {"days": "Sun", "time": "Closed"}], "id": "0124500000", "name": "USPS COLLECTION BOX - BLUE BOX", "address": {"city": "MONTEREY", "state": "MA", "street": "444 MAIN RD", "postcode": "01245"}}},
{"geometry": {"type": "Point", "coordinates": [-73.1776139963, 42.2131343522]}, "type": "Feature", "properties": {"collection_times": [{"days": "Mon-Fri", "time": "4:15pm"}, {"days": "Sat", "time": "11:30am"}, {"days": "Sun", "time": "Closed"}], "id": "0124500001", "name": "USPS COLLECTION BOX - PO LOBBY", "address": {"city": "MONTEREY", "state": "MA", "street": "444 MAIN RD", "postcode": "01245"}}},
{"geometry": {"type": "Point", "coordinates": [-73.1776139963, 42.2131343522]}, "type": "Feature", "properties": {"collection_times": [{"days": "Mon-Fri", "time": "4:15pm"}, {"days": "Sat", "time": "11:30am"}, {"days": "Sun", "time": "Closed"}], "id": "0124500002", "name": "USPS COLLECTION BOX - PO LOBBY", "address": {"city": "MONTEREY", "state": "MA", "street": "444 MAIN RD", "postcode": "01245"}}},
{"geometry": {"type": "Point", "coordinates": [-73.1097068113, 42.6993721241]}, "type": "Feature", "properties": {"collection_times": [{"days": "Mon-Fri", "time": "5:00pm"}, {"days": "Sat", "time": "1:00pm"}, {"days": "Sun", "time": "Closed"}], "id": "0124700001", "name": "USPS COLLECTION BOX - BLUE BOX", "address": {"city": "NORTH ADAMS", "state": "MA", "street": "67 SUMMER ST", "postcode": "01247"}}},
{"geometry": {"type": "Point", "coordinates": [-73.1097068113, 42.6993721241]}, "type": "Feature", "properties": {"collection_times": [{"days": "Mon-Sat", "time": "3:00pm"}, {"days": "Sun", "time": "Closed"}], "id": "0124700002", "name": "USPS COLLECTION BOX - BLUE BOX", "address": {"city": "NORTH ADAMS", "state": "MA", "street": "67 MAIN ST", "postcode": "01247"}}},
{"geometry": {"type": "Point", "coordinates": [-71.7181843228, 42.3586676083]}, "type": "Feature", "properties": {"collection_times": [{"days": "Mon-Sat", "time": "3:00pm"}, {"days": "Sun", "time": "Closed"}], "id": "0124700004", "name": "USPS COLLECTION BOX - BLUE BOX", "address": {"city": "NORTH ADAMS", "state": "MA", "street": "26 UNION ST", "postcode": "01247"}}},
{"geometry": {"type": "Point", "coordinates": [-73.1124040474, 42.6992208626]}, "type": "Feature", "properties": {"collection_times": [{"days": "Mon-Sat", "time": "3:00pm"}, {"days": "Sun", "time": "Closed"}], "id": "0124700006", "name": "USPS COLLECTION BOX - BLUE BOX", "address": {"city": "NORTH ADAMS", "state": "MA", "street": "103 MAIN ST", "postcode": "01247"}}},
{"geometry": {"type": "Point", "coordinates": [-73.1144869524, 42.6996901549]}, "type": "Feature", "properties": {"collection_times": [{"days": "Mon-Sat", "time": "3:00pm"}, {"days": "Sun", "time": "Closed"}], "id": "0124700018", "name": "USPS COLLECTION BOX - BLUE BOX", "address": {"city": "NORTH ADAMS", "state": "MA", "street": "37 MAIN ST", "postcode": "01247"}}},
{"geometry": {"type": "Point", "coordinates": [-71.7181843228, 42.3586676083]}, "type": "Feature", "properties": {"collection_times": [{"days": "Mon-Fri", "time": "2:30pm"}, {"days": "Sat", "time": "2:00pm"}, {"days": "Sun", "time": "Closed"}], "id": "0124700025", "name": "USPS COLLECTION BOX - BLUE BOX", "address": {"city": "NORTH ADAMS", "state": "MA", "street": "76 MARSHALL ST", "postcode": "01247"}}},
{"geometry": {"type": "Point", "coordinates": [-73.1117333903, 42.7002221963]}, "type": "Feature", "properties": {"collection_times": [{"days": "Mon-Fri", "time": "2:30pm"}, {"days": "Sat", "time": "2:00pm"}, {"days": "Sun", "time": "Closed"}], "id": "0124700026", "name": "USPS COLLECTION BOX - BLUE BOX", "address": {"city": "NORTH ADAMS", "state": "MA", "street": "45 VETERANS MEMORIAL DR", "postcode": "01247"}}},
{"geometry": {"type": "Point", "coordinates": [-73.1086181091, 42.7058444011]}, "type": "Feature", "properties": {"collection_times": [{"days": "Mon-Sat", "time": "3:00pm"}, {"days": "Sun", "time": "Closed"}], "id": "0124700031", "name": "USPS COLLECTION BOX - BLUE BOX", "address": {"city": "NORTH ADAMS", "state": "MA", "street": "77 HOSPITAL AVE", "postcode": "01247"}}},
{"geometry": {"type": "Point", "coordinates": [-73.1430851774, 42.6979249383]}, "type": "Feature", "properties": {"collection_times": [{"days": "Mon-Fri", "time": "1:00pm"}, {"days": "Sat", "time": "12:30pm"}, {"days": "Sun", "time": "Closed"}], "id": "0124700040", "name": "USPS COLLECTION BOX - BLUE BOX", "address": {"city": "NORTH ADAMS", "state": "MA", "street": "245 STATE RD", "postcode": "01247"}}},
{"geometry": {"type": "Point", "coordinates": [-73.1017549352, 42.7065088711]}, "type": "Feature", "properties": {"collection_times": [{"days": "Mon-Sat", "time": "3:00pm"}, {"days": "Sun", "time": "Closed"}], "id": "0124700042", "name": "USPS COLLECTION BOX - BLUE BOX", "address": {"city": "NORTH ADAMS", "state": "MA", "street": "175 FRANKLIN ST", "postcode": "01247"}}},
{"geometry": {"type": "Point", "coordinates": [-73.1069366935, 42.6919500463]}, "type": "Feature", "properties": {"collection_times": [{"days": "Mon-Fri", "time": "3:00pm"}, {"days": "Sat", "time": "2:30pm"}, {"days": "Sun", "time": "Closed"}], "id": "0124700043", "name": "USPS COLLECTION BOX - BLUE BOX", "address": {"city": "NORTH ADAMS", "state": "MA", "street": "277 ASHLAND ST", "postcode": "01247"}}},
{"geometry": {"type": "Point", "coordinates": [-73.1097068113, 42.6993721241]}, "type": "Feature", "properties": {"collection_times": [{"days": "Mon-Fri", "time": "5:00pm"}, {"days": "Sat", "time": "1:00pm"}, {"days": "Sun", "time": "Closed"}], "id": "0124700047", "name": "USPS COLLECTION BOX - PO LOBBY", "address": {"city": "NORTH ADAMS", "state": "MA", "street": "67 SUMMER ST", "postcode": "01247"}}},
{"geometry": {"type": "Point", "coordinates": [-73.1097068113, 42.6993721241]}, "type": "Feature", "properties": {"collection_times": [{"days": "Mon-Fri", "time": "5:00pm"}, {"days": "Sat", "time": "1:00pm"}, {"days": "Sun", "time": "Closed"}], "id": "0124700050", "name": "USPS COLLECTION BOX - PO LOBBY", "address": {"city": "NORTH ADAMS", "state": "MA", "street": "67 SUMMER ST", "postcode": "01247"}}},
{"geometry": {"type": "Point", "coordinates": [-73.113073769, 42.6993378598]}, "type": "Feature", "properties": {"collection_times": [{"days": "Mon-Sat", "time": "3:00pm"}, {"days": "Sun", "time": "Closed"}], "id": "0124700051", "name": "USPS COLLECTION BOX - BLUE BOX", "address": {"city": "NORTH ADAMS", "state": "MA", "street": "85 MAIN ST", "postcode": "01247"}}},
{"geometry": {"type": "Point", "coordinates": [-73.092533314, 42.1942751071]}, "type": "Feature", "properties": {"collection_times": [{"days": "Mon-Fri", "time": "3:45pm"}, {"days": "Sat", "time": "11:45am"}, {"days": "Sun", "time": "Closed"}], "id": "0125300000", "name": "USPS COLLECTION BOX - BLUE BOX", "address": {"city": "OTIS", "state": "MA", "street": "45 N MAIN RD", "postcode": "01253"}}},
{"geometry": {"type": "Point", "coordinates": [-73.092533314, 42.1942751071]}, "type": "Feature", "properties": {"collection_times": [{"days": "Mon-Fri", "time": "4:15pm"}, {"days": "Sat", "time": "12:00pm"}, {"days": "Sun", "time": "Closed"}], "id": "0125300001", "name": "USPS COLLECTION BOX - PO LOBBY", "address": {"city": "OTIS", "state": "MA", "street": "45 N MAIN RD LBBY DROP", "postcode": "01253"}}},
{"geometry": {"type": "Point", "coordinates": [-73.3853299852, 42.3516106471]}, "type": "Feature", "properties": {"collection_times": [{"days": "Mon-Fri", "time": "4:45pm"}, {"days": "Sat", "time": "12:00pm"}, {"days": "Sun", "time": "Closed"}], "id": "0125400001", "name": "USPS COLLECTION BOX - PO LOBBY", "address": {"city": "RICHMOND", "state": "MA", "street": "2089 STATE RD", "postcode": "01254"}}},
{"geometry": {"type": "Point", "coordinates": [-73.3853299852, 42.3516106471]}, "type": "Feature", "properties": {"collection_times": [{"days": "Mon-Fri", "time": "4:45pm"}, {"days": "Sat", "time": "12:00pm"}, {"days": "Sun", "time": "Closed"}], "id": "0125400002", "name": "USPS COLLECTION BOX - BLUE BOX", "address": {"city": "RICHMOND", "state": "MA", "street": "2089 STATE RD", "postcode": "01254"}}},
{"geometry": {"type": "Point", "coordinates": [-73.1046976811, 42.1052101266]}, "type": "Feature", "properties": {"collection_times": [{"days": "Mon-Fri", "time": "3:45pm"}, {"days": "Sat", "time": "11:00am"}, {"days": "Sun", "time": "Closed"}], "id": "0125500000", "name": "USPS COLLECTION BOX - BLUE BOX", "address": {"city": "SANDISFIELD", "state": "MA", "street": "83 SANDISFIELD RD", "postcode": "01255"}}},
{"geometry": {"type": "Point", "coordinates": [-73.1046976811, 42.1052101266]}, "type": "Feature", "properties": {"collection_times": [{"days": "Mon-Fri", "time": "3:45pm"}, {"days": "Sat", "time": "11:30am"}, {"days": "Sun", "time": "Closed"}], "id": "0125500001", "name": "USPS COLLECTION BOX - PO LOBBY", "address": {"city": "SANDISFIELD", "state": "MA", "street": "83 SANDISFIELD RD LBBY", "postcode": "01255"}}},
{"geometry": {"type": "Point", "coordinates": [-73.3542255922, 42.1090038195]}, "type": "Feature", "properties": {"collection_times": [{"days": "Mon-Fri", "time": "4:15pm"}, {"days": "Sat", "time": "12:00pm"}, {"days": "Sun", "time": "Closed"}], "id": "0125700002", "name": "USPS COLLECTION BOX - BLUE BOX", "address": {"city": "SHEFFIELD", "state": "MA", "street": "99 MAIN ST", "postcode": "01257"}}},
{"geometry": {"type": "Point", "coordinates": [-73.3542255922, 42.1090038195]}, "type": "Feature", "properties": {"collection_times": [{"days": "Mon-Fri", "time": "4:15pm"}, {"days": "Sat", "time": "12:00pm"}, {"days": "Sun", "time": "Closed"}], "id": "0125700003", "name": "USPS COLLECTION BOX - PO LOBBY", "address": {"city": "SHEFFIELD", "state": "MA", "street": "99 MAIN ST", "postcode": "01257"}}},
{"geometry": {"type": "Point", "coordinates": [-73.3542255922, 42.1090038195]}, "type": "Feature", "properties": {"collection_times": [{"days": "Mon-Fri", "time": "4:15pm"}, {"days": "Sat", "time": "12:00pm"}, {"days": "Sun", "time": "Closed"}], "id": "0125700005", "name": "USPS COLLECTION BOX - PO LOBBY", "address": {"city": "SHEFFIELD", "state": "MA", "street": "99 MAIN ST", "postcode": "01257"}}},
{"geometry": {"type": "Point", "coordinates": [-73.419505628, 42.160377904]}, "type": "Feature", "properties": {"collection_times": [{"days": "Mon-Fri", "time": "3:45pm"}, {"days": "Sat", "time": "11:45am"}, {"days": "Sun", "time": "Closed"}], "id": "0125800002", "name": "USPS COLLECTION BOX - BLUE BOX", "address": {"city": "SOUTH EGREMONT", "state": "MA", "street": "64 MAIN ST", "postcode": "01258"}}},
{"geometry": {"type": "Point", "coordinates": [-73.2332174813, 42.0998955719]}, "type": "Feature", "properties": {"collection_times": [{"days": "Mon-Fri", "time": "3:30pm"}, {"days": "Sat", "time": "12:30pm"}, {"days": "Sun", "time": "Closed"}], "id": "0125900000", "name": "USPS COLLECTION BOX - BLUE BOX", "address": {"city": "SOUTHFIELD", "state": "MA", "street": "224 NORFOLK RD", "postcode": "01259"}}},
{"geometry": {"type": "Point", "coordinates": [-73.2332174813, 42.0998955719]}, "type": "Feature", "properties": {"collection_times": [{"days": "Mon-Fri", "time": "3:30pm"}, {"days": "Sat", "time": "12:30pm"}, {"days": "Sun", "time": "Closed"}], "id": "0125900001", "name": "USPS COLLECTION BOX - PO LOBBY", "address": {"city": "SOUTHFIELD", "state": "MA", "street": "224 NORFOLK RD LBBY", "postcode": "01259"}}},
{"geometry": {"type": "Point", "coordinates": [-73.2805311361, 42.2907136839]}, "type": "Feature", "properties": {"collection_times": [{"days": "Mon-Fri", "time": "4:45pm"}, {"days": "Sat", "time": "11:45am"}, {"days": "Sun", "time": "Closed"}], "id": "0126000000", "name": "USPS COLLECTION BOX - BLUE BOX", "address": {"city": "SOUTH LEE", "state": "MA", "street": "10 CHURCH ST", "postcode": "01260"}}},
{"geometry": {"type": "Point", "coordinates": [-73.2805311361, 42.2907136839]}, "type": "Feature", "properties": {"collection_times": [{"days": "Mon-Sat", "time": "11:45am"}, {"days": "Sun", "time": "Closed"}], "id": "0126000001", "name": "USPS COLLECTION BOX - PO LOBBY", "address": {"city": "SOUTH LEE", "state": "MA", "street": "10 CHURCH ST", "postcode": "01260"}}},
{"geometry": {"type": "Point", "coordinates": [-73.3112585017, 42.2802912694]}, "type": "Feature", "properties": {"collection_times": [{"days": "Mon-Fri", "time": "4:45pm"}, {"days": "Sat", "time": "11:45am"}, {"days": "Sun", "time": "Closed"}], "id": "0126200002", "name": "USPS COLLECTION BOX - BLUE BOX", "address": {"city": "STOCKBRIDGE", "state": "MA", "street": "1 ELM ST", "postcode": "01262"}}},
{"geometry": {"type": "Point", "coordinates": [-73.3112585017, 42.2802912694]}, "type": "Feature", "properties": {"collection_times": [{"days": "Mon-Fri", "time": "4:45pm"}, {"days": "Sat", "time": "11:45am"}, {"days": "Sun", "time": "Closed"}], "id": "0126200003", "name": "USPS COLLECTION BOX - PO LOBBY", "address": {"city": "STOCKBRIDGE", "state": "MA", "street": "1 ELM ST", "postcode": "01262"}}},
{"geometry": {"type": "Point", "coordinates": [-73.3112585017, 42.2802912694]}, "type": "Feature", "properties": {"collection_times": [{"days": "Mon-Fri", "time": "4:45pm"}, {"days": "Sat", "time": "11:45am"}, {"days": "Sun", "time": "Closed"}], "id": "0126200004", "name": "USPS COLLECTION BOX - PO LOBBY", "address": {"city": "STOCKBRIDGE", "state": "MA", "street": "1 ELM ST", "postcode": "01262"}}},
{"geometry": {"type": "Point", "coordinates": [-73.3682373687, 42.3338293156]}, "type": "Feature", "properties": {"collection_times": [{"days": "Mon-Fri", "time": "4:45pm"}, {"days": "Sat", "time": "11:45am"}, {"days": "Sun", "time": "Closed"}], "id": "0126600000", "name": "USPS COLLECTION BOX - BLUE BOX", "address": {"city": "W STOCKBRIDGE", "state": "MA", "street": "4 CENTER ST", "postcode": "01266"}}},
{"geometry": {"type": "Point", "coordinates": [-73.3670994042, 42.3333844792]}, "type": "Feature", "properties": {"collection_times": [{"days": "Mon-Sat", "time": "1:30pm"}, {"days": "Sun", "time": "Closed"}], "id": "0126600001", "name": "USPS COLLECTION BOX - BLUE BOX", "address": {"city": "W STOCKBRIDGE", "state": "MA", "street": "28 MAIN ST", "postcode": "01266"}}},
{"geometry": {"type": "Point", "coordinates": [-73.3682373687, 42.3338293156]}, "type": "Feature", "properties": {"collection_times": [{"days": "Mon-Fri", "time": "5:00pm"}, {"days": "Sat", "time": "12:00pm"}, {"days": "Sun", "time": "Closed"}], "id": "0126600003", "name": "USPS COLLECTION BOX - PO LOBBY", "address": {"city": "W STOCKBRIDGE", "state": "MA", "street": "4 CENTER ST LBBY", "postcode": "01266"}}},
{"geometry": {"type": "Point", "coordinates": [-73.3682373687, 42.3338293156]}, "type": "Feature", "properties": {"collection_times": [{"days": "Mon-Fri", "time": "5:00pm"}, {"days": "Sat", "time": "12:00pm"}, {"days": "Sun", "time": "Closed"}], "id": "0126600004", "name": "USPS COLLECTION BOX - PO LOBBY", "address": {"city": "W STOCKBRIDGE", "state": "MA", "street": "4 CENTER ST LBBY", "postcode": "01266"}}},
{"geometry": {"type": "Point", "coordinates": [-73.196536723, 42.7169005681]}, "type": "Feature", "properties": {"collection_times": [{"days": "Mon-Sat", "time": "9:30am"}, {"days": "Sun", "time": "Closed"}], "id": "0126700001", "name": "USPS COLLECTION BOX - BLUE BOX", "address": {"city": "WILLIAMSTOWN", "state": "MA", "street": "118 CHURCH ST", "postcode": "01267"}}},
{"geometry": {"type": "Point", "coordinates": [-73.2089684614, 42.7001542249]}, "type": "Feature", "properties": {"collection_times": [{"days": "Mon-Fri", "time": "3:30pm"}, {"days": "Sat", "time": "9:00am"}, {"days": "Sun", "time": "Closed"}], "id": "0126700003", "name": "USPS COLLECTION BOX - BLUE BOX", "address": {"city": "WILLIAMSTOWN", "state": "MA", "street": "39 CHAPIN HALL DR", "postcode": "01267"}}},
{"geometry": {"type": "Point", "coordinates": [-73.206115485, 42.7346687]}, "type": "Feature", "properties": {"collection_times": [{"days": "Mon-Sat", "time": "10:00am"}, {"days": "Sun", "time": "Closed"}], "id": "0126700004", "name": "USPS COLLECTION BOX - BLUE BOX", "address": {"city": "WILLIAMSTOWN", "state": "MA", "street": "824 SIMONDS RD", "postcode": "01267"}}},
{"geometry": {"type": "Point", "coordinates": [-73.2044576599, 42.7100942508]}, "type": "Feature", "properties": {"collection_times": [{"days": "Mon-Sat", "time": "10:00am"}, {"days": "Sun", "time": "Closed"}], "id": "0126700005", "name": "USPS COLLECTION BOX - BLUE BOX", "address": {"city": "WILLIAMSTOWN", "state": "MA", "street": "264 COLE AVE", "postcode": "01267"}}},
{"geometry": {"type": "Point", "coordinates": [-73.2044576599, 42.7100942508]}, "type": "Feature", "properties": {"collection_times": [{"days": "Mon-Sat", "time": "10:00am"}, {"days": "Sun", "time": "Closed"}], "id": "0126700006", "name": "USPS COLLECTION BOX - BLUE BOX", "address": {"city": "WILLIAMSTOWN", "state": "MA", "street": "196 COLE AVE", "postcode": "01267"}}},
{"geometry": {"type": "Point", "coordinates": [-73.2044576599, 42.7100942508]}, "type": "Feature", "properties": {"collection_times": [{"days": "Mon-Sat", "time": "9:30am"}, {"days": "Sun", "time": "Closed"}], "id": "0126700007", "name": "USPS COLLECTION BOX - BLUE BOX", "address": {"city": "WILLIAMSTOWN", "state": "MA", "street": "662 N HOOSAC RD", "postcode": "01267"}}},
{"geometry": {"type": "Point", "coordinates": [-73.2044576599, 42.7100942508]}, "type": "Feature", "properties": {"collection_times": [{"days": "Mon-Sat", "time": "10:00am"}, {"days": "Sun", "time": "Closed"}], "id": "0126700008", "name": "USPS COLLECTION BOX - BLUE BOX", "address": {"city": "WILLIAMSTOWN", "state": "MA", "street": "119 SCHOOL ST", "postcode": "01267"}}},
{"geometry": {"type": "Point", "coordinates": [-73.2044576599, 42.7100942508]}, "type": "Feature", "properties": {"collection_times": [{"days": "Mon-Fri", "time": "3:30pm"}, {"days": "Sat", "time": "10:00am"}, {"days": "Sun", "time": "Closed"}], "id": "0126700009", "name": "USPS COLLECTION BOX - BLUE BOX", "address": {"city": "WILLIAMSTOWN", "state": "MA", "street": "446 MAIN ST", "postcode": "01267"}}},
{"geometry": {"type": "Point", "coordinates": [-73.1857138088, 42.7025357923]}, "type": "Feature", "properties": {"collection_times": [{"days": "Mon-Fri", "time": "3:45pm"}, {"days": "Sat", "time": "10:00am"}, {"days": "Sun", "time": "Closed"}], "id": "0126700010", "name": "USPS COLLECTION BOX - BLUE BOX", "address": {"city": "WILLIAMSTOWN", "state": "MA", "street": "273 MAIN ST", "postcode": "01267"}}},
{"geometry": {"type": "Point", "coordinates": [-73.1937981503, 42.7123425221]}, "type": "Feature", "properties": {"collection_times": [{"days": "Mon-Sat", "time": "10:00am"}, {"days": "Sun", "time": "Closed"}], "id": "0126700011", "name": "USPS COLLECTION BOX - BLUE BOX", "address": {"city": "WILLIAMSTOWN", "state": "MA", "street": "54 GRANDVIEW DR", "postcode": "01267"}}},
{"geometry": {"type": "Point", "coordinates": [-73.190222123, 42.705993479]}, "type": "Feature", "properties": {"collection_times": [{"days": "Mon-Sat", "time": "9:30am"}, {"days": "Sun", "time": "Closed"}], "id": "0126700012", "name": "USPS COLLECTION BOX - BLUE BOX", "address": {"city": "WILLIAMSTOWN", "state": "MA", "street": "455 MAIN ST", "postcode": "01267"}}},
{"geometry": {"type": "Point", "coordinates": [-73.2088773283, 42.7144824949]}, "type": "Feature", "properties": {"collection_times": [{"days": "Mon-Fri", "time": "3:30pm"}, {"days": "Sat", "time": "9:45am"}, {"days": "Sun", "time": "Closed"}], "id": "0126700013", "name": "USPS COLLECTION BOX - BLUE BOX", "address": {"city": "WILLIAMSTOWN", "state": "MA", "street": "31 NORTH ST", "postcode": "01267"}}},
{"geometry": {"type": "Point", "coordinates": [-73.2089684614, 42.7001542249]}, "type": "Feature", "properties": {"collection_times": [{"days": "Mon-Fri", "time": "3:30pm"}, {"days": "Sat", "time": "10:00am"}, {"days": "Sun", "time": "Closed"}], "id": "0126700014", "name": "USPS COLLECTION BOX - BLUE BOX", "address": {"city": "WILLIAMSTOWN", "state": "MA", "street": "967 MAIN ST", "postcode": "01267"}}},
{"geometry": {"type": "Point", "coordinates": [-73.1997614465, 42.7113003353]}, "type": "Feature", "properties": {"collection_times": [{"days": "Mon-Fri", "time": "3:30pm"}, {"days": "Sat", "time": "9:45am"}, {"days": "Sun", "time": "Closed"}], "id": "0126700015", "name": "USPS COLLECTION BOX - BLUE BOX", "address": {"city": "WILLIAMSTOWN", "state": "MA", "street": "772 MAIN ST", "postcode": "01267"}}},
{"geometry": {"type": "Point", "coordinates": [-73.2044576599, 42.7100942508]}, "type": "Feature", "properties": {"collection_times": [{"days": "Mon-Sat", "time": "10:00am"}, {"days": "Sun", "time": "Closed"}], "id": "0126700016", "name": "USPS COLLECTION BOX - BLUE BOX", "address": {"city": "WILLIAMSTOWN", "state": "MA", "street": "94 SOUTHWORTH ST", "postcode": "01267"}}},
{"geometry": {"type": "Point", "coordinates": [-73.2414569995, 42.660379689]}, "type": "Feature", "properties": {"collection_times": [{"days": "Mon-Sat", "time": "12:00pm"}, {"days": "Sun", "time": "Closed"}], "id": "0126700018", "name": "USPS COLLECTION BOX - BLUE BOX", "address": {"city": "WILLIAMSTOWN", "state": "MA", "street": "5 NEW ASHFORD RD", "postcode": "01267"}}},
{"geometry": {"type": "Point", "coordinates": [-73.2006498487, 42.7082944365]}, "type": "Feature", "properties": {"collection_times": [{"days": "Mon-Sat", "time": "10:00am"}, {"days": "Sun", "time": "Closed"}], "id": "0126700019", "name": "USPS COLLECTION BOX - BLUE BOX", "address": {"city": "WILLIAMSTOWN", "state": "MA", "street": "115 WATER ST", "postcode": "01267"}}},
{"geometry": {"type": "Point", "coordinates": [-73.2089684614, 42.7001542249]}, "type": "Feature", "properties": {"collection_times": [{"days": "Mon-Fri", "time": "3:45pm"}, {"days": "Sat", "time": "10:00am"}, {"days": "Sun", "time": "Closed"}], "id": "0126700020", "name": "USPS COLLECTION BOX - BLUE BOX", "address": {"city": "WILLIAMSTOWN", "state": "MA", "street": "795 MAIN ST", "postcode": "01267"}}},
{"geometry": {"type": "Point", "coordinates": [-73.2044576599, 42.7100942508]}, "type": "Feature", "properties": {"collection_times": [{"days": "Mon-Fri", "time": "5:00pm"}, {"days": "Sat", "time": "4:00pm"}, {"days": "Sun", "time": "Closed"}], "id": "0126700022", "name": "USPS COLLECTION BOX - BLUE BOX", "address": {"city": "WILLIAMSTOWN", "state": "MA", "street": "56 SPRING ST", "postcode": "01267"}}},
{"geometry": {"type": "Point", "coordinates": [-73.1839689443, 42.7017869793]}, "type": "Feature", "properties": {"collection_times": [{"days": "Mon-Fri", "time": "3:30pm"}, {"days": "Sat", "time": "10:00am"}, {"days": "Sun", "time": "Closed"}], "id": "0126700023", "name": "USPS COLLECTION BOX - BLUE BOX", "address": {"city": "WILLIAMSTOWN", "state": "MA", "street": "212 MAIN ST", "postcode": "01267"}}}
]}
