{"type": "FeatureCollection", "features": [
{"geometry": {"type": "Point", "coordinates": [-72.5974425786, 42.6066814558]}, "type": "Feature", "properties": {"collection_times": [{"days": "Mon-Sat", "time": "10:00am"}, {"days": "Sun", "time": "Closed"}], "id": "0130100002", "name": "USPS COLLECTION BOX - BLUE BOX", "address": {"city": "GREENFIELD", "state": "MA", "street": "225 SILVER ST", "postcode": "01301"}}},
{"geometry": {"type": "Point", "coordinates": [-72.5997908226, 42.6023634528]}, "type": "Feature", "properties": {"collection_times": [{"days": "Mon-Sat", "time": "10:00am"}, {"days": "Sun", "time": "Closed"}], "id": "0130100004", "name": "USPS COLLECTION BOX - BLUE BOX", "address": {"city": "GREENFIELD", "state": "MA", "street": "342 DAVIS ST", "postcode": "01301"}}},
{"geometry": {"type": "Point", "coordinates": [-72.6181537565, 42.5847107135]}, "type": "Feature", "properties": {"collection_times": [{"days": "Mon-Sat", "time": "9:00am"}, {"days": "Sun", "time": "Closed"}], "id": "0130100005", "name": "USPS COLLECTION BOX - BLUE BOX", "address": {"city": "GREENFIELD", "state": "MA", "street": "125 MOHAWK TRL", "postcode": "01301"}}},
{"geometry": {"type": "Point", "coordinates": [-72.6018111784, 42.58518508]}, "type": "Feature", "properties": {"collection_times": [{"days": "Mon-Sat", "time": "12:00pm"}, {"days": "Sun", "time": "Closed"}], "id": "0130100006", "name": "USPS COLLECTION BOX - BLUE BOX", "address": {"city": "GREENFIELD", "state": "MA", "street": "10 MILL ST", "postcode": "01301"}}},
{"geometry": {"type": "Point", "coordinates": [-72.5974957441, 42.5874480805]}, "type": "Feature", "properties": {"collection_times": [{"days": "Mon-Fri", "time": "5:00pm"}, {"days": "Sat", "time": "3:00pm"}, {"days": "Sun", "time": "Closed"}], "id": "0130100007", "name": "USPS COLLECTION BOX - BLUE BOX", "address": {"city": "GREENFIELD", "state": "MA", "street": "451 MAIN ST", "postcode": "01301"}}},
{"geometry": {"type": "Point", "coordinates": [-72.5978648273, 42.5875024966]}, "type": "Feature", "properties": {"collection_times": [{"days": "Mon-Fri", "time": "5:00pm"}, {"days": "Sat", "time": "1:45pm"}, {"days": "Sun", "time": "Closed"}], "id": "0130100008", "name": "USPS COLLECTION BOX - BLUE BOX", "address": {"city": "GREENFIELD", "state": "MA", "street": "442 MAIN ST", "postcode": "01301"}}},
{"geometry": {"type": "Point", "coordinates": [-72.5997161358, 42.5987331065]}, "type": "Feature", "properties": {"collection_times": [{"days": "Mon-Fri", "time": "5:00pm"}, {"days": "Sat", "time": "3:00pm"}, {"days": "Sun", "time": "Closed"}], "id": "0130100009", "name": "USPS COLLECTION BOX - BLUE BOX", "address": {"city": "GREENFIELD", "state": "MA", "street": "289 MAIN ST", "postcode": "01301"}}},
{"geometry": {"type": "Point", "coordinates": [-72.6044870316, 42.5876846723]}, "type": "Feature", "properties": {"collection_times": [{"days": "Mon-Fri", "time": "5:00pm"}, {"days": "Sat", "time": "3:00pm"}, {"days": "Sun", "time": "Closed"}], "id": "0130100011", "name": "USPS COLLECTION BOX - BLUE BOX", "address": {"city": "GREENFIELD", "state": "MA", "street": "130 MAIN ST", "postcode": "01301"}}},
{"geometry": {"type": "Point", "coordinates": [-72.6026357008, 42.5879023368]}, "type": "Feature", "properties": {"collection_times": [{"days": "Mon-Fri", "time": "5:00pm"}, {"days": "Sat", "time": "3:00pm"}, {"days": "Sun", "time": "Closed"}], "id": "0130100014", "name": "USPS COLLECTION BOX - BLUE BOX", "address": {"city": "GREENFIELD", "state": "MA", "street": "220 MAIN ST", "postcode": "01301"}}},
{"geometry": {"type": "Point", "coordinates": [-72.5997161358, 42.5987331065]}, "type": "Feature", "properties": {"collection_times": [{"days": "Mon-Sat", "time": "8:45am"}, {"days": "Sun", "time": "Closed"}], "id": "0130100015", "name": "USPS COLLECTION BOX - BLUE BOX", "address": {"city": "GREENFIELD", "state": "MA", "street": "91 SMITH ST", "postcode": "01301"}}},
{"geometry": {"type": "Point", "coordinates": [-72.6119858085, 42.5927323582]}, "type": "Feature", "properties": {"collection_times": [{"days": "Mon-Sat", "time": "10:00am"}, {"days": "Sun", "time": "Closed"}], "id": "0130100017", "name": "USPS COLLECTION BOX - BLUE BOX", "address": {"city": "GREENFIELD", "state": "MA", "street": "2 PRAY DR", "postcode": "01301"}}},
{"geometry": {"type": "Point", "coordinates": [-72.6012575536, 42.5879957905]}, "type": "Feature", "properties": {"collection_times": [{"days": "Mon-Fri", "time": "5:00pm"}, {"days": "Sat", "time": "3:00pm"}, {"days": "Sun", "time": "Closed"}], "id": "0130100018", "name": "USPS COLLECTION BOX - BLUE BOX", "address": {"city": "GREENFIELD", "state": "MA", "street": "270 MAIN ST", "postcode": "01301"}}},
{"geometry": {"type": "Point", "coordinates": [-72.5981194992, 42.5875341144]}, "type": "Feature", "properties": {"collection_times": [{"days": "Mon-Fri", "time": "4:30pm"}, {"days": "Sat", "time": "3:00pm"}, {"days": "Sun", "time": "Closed"}], "id": "0130100021", "name": "USPS COLLECTION BOX - BLUE BOX", "address": {"city": "GREENFIELD", "state": "MA", "street": "162 FEDERAL ST", "postcode": "01301"}}},
{"geometry": {"type": "Point", "coordinates": [-72.5998817724, 42.5885789893]}, "type": "Feature", "properties": {"collection_times": [{"days": "Mon-Fri", "time": "5:00pm"}, {"days": "Sat", "time": "3:00pm"}, {"days": "Sun", "time": "Closed"}], "id": "0130100022", "name": "USPS COLLECTION BOX - BLUE BOX", "address": {"city": "GREENFIELD", "state": "MA", "street": "28 FEDERAL ST", "postcode": "01301"}}},
{"geometry": {"type": "Point", "coordinates": [-72.5997161358, 42.5987331065]}, "type": "Feature", "properties": {"collection_times": [{"days": "Mon-Sat", "time": "9:30am"}, {"days": "Sun", "time": "Closed"}], "id": "0130100023", "name": "USPS COLLECTION BOX - BLUE BOX", "address": {"city": "GREENFIELD", "state": "MA", "street": "26 ELM TER", "postcode": "01301"}}},
{"geometry": {"type": "Point", "coordinates": [-72.5872305023, 42.6085391931]}, "type": "Feature", "properties": {"collection_times": [{"days": "Mon-Sat", "time": "9:00am"}, {"days": "Sun", "time": "Closed"}], "id": "0130100027", "name": "USPS COLLECTION BOX - BLUE BOX", "address": {"city": "GREENFIELD", "state": "MA", "street": "481 BERNARDSTON RD", "postcode": "01301"}}},
{"geometry": {"type": "Point", "coordinates": [-72.6094459748, 42.5985184366]}, "type": "Feature", "properties": {"collection_times": [{"days": "Mon-Sat", "time": "10:00am"}, {"days": "Sun", "time": "Closed"}], "id": "0130100028", "name": "USPS COLLECTION BOX - BLUE BOX", "address": {"city": "GREENFIELD", "state": "MA", "street": "245 CONWAY ST", "postcode": "01301"}}},
{"geometry": {"type": "Point", "coordinates": [-72.6274124714, 42.5864937625]}, "type": "Feature", "properties": {"collection_times": [{"days": "Mon-Sat", "time": "10:00am"}, {"days": "Sun", "time": "Closed"}], "id": "0130100032", "name": "USPS COLLECTION BOX - BLUE BOX", "address": {"city": "GREENFIELD", "state": "MA", "street": "274 MOHAWK TRL", "postcode": "01301"}}},
{"geometry": {"type": "Point", "coordinates": [-72.5981194992, 42.5875341144]}, "type": "Feature", "properties": {"collection_times": [{"days": "Mon-Fri", "time": "5:00pm"}, {"days": "Sat", "time": "3:00pm"}, {"days": "Sun", "time": "Closed"}], "id": "0130100033", "name": "USPS COLLECTION BOX - BLUE BOX", "address": {"city": "GREENFIELD", "state": "MA", "street": "91 MAIN ST", "postcode": "01301"}}},
{"geometry": {"type": "Point", "coordinates": [-72.5935978943, 42.5979799642]}, "type": "Feature", "properties": {"collection_times": [{"days": "Mon-Sat", "time": "12:00pm"}, {"days": "Sun", "time": "Closed"}], "id": "0130100035", "name": "USPS COLLECTION BOX - BLUE BOX", "address": {"city": "GREENFIELD", "state": "MA", "street": "33 RIDDELL ST", "postcode": "01301"}}},
{"geometry": {"type": "Point", "coordinates": [-72.5997161358, 42.5987331065]}, "type": "Feature", "properties": {"collection_times": [{"days": "Mon-Fri", "time": "5:00pm"}, {"days": "Sat", "time": "3:00pm"}, {"days": "Sun", "time": "Closed"}], "id": "0130100036", "name": "USPS COLLECTION BOX - EXPRESS", "address": {"city": "GREENFIELD", "state": "MA", "street": "289 MAIN ST", "postcode": "01301"}}},
{"geometry": {"type": "Point", "coordinates": [-72.5978648273, 42.5875024966]}, "type": "Feature", "properties": {"collection_times": [{"days": "Mon-Fri", "time": "5:00pm"}, {"days": "Sat", "time": "1:45pm"}, {"days": "Sun", "time": "Closed"}], "id": "0130100038", "name": "USPS COLLECTION BOX - BLUE BOX", "address": {"city": "GREENFIELD", "state": "MA", "street": "442 MAIN ST", "postcode": "01301"}}},
{"geometry": {"type": "Point", "coordinates": [-72.5981194992, 42.5875341144]}, "type": "Feature", "properties": {"collection_times": [{"days": "Mon-Sat", "time": "9:00am"}, {"days": "Sun", "time": "Closed"}], "id": "0130100040", "name": "USPS COLLECTION BOX - BLUE BOX", "address": {"city": "GREENFIELD", "state": "MA", "street": "89 FRENCH KING HWY", "postcode": "01301"}}},
{"geometry": {"type": "Point", "coordinates": [-72.5978648273, 42.5875024966]}, "type": "Feature", "properties": {"collection_times": [{"days": "Mon-Fri", "time": "5:00pm"}, {"days": "Sat", "time": "1:45pm"}, {"days": "Sun", "time": "Closed"}], "id": "0130100041", "name": "USPS COLLECTION BOX - PO LOBBY", "address": {"city": "GREENFIELD", "state": "MA", "street": "442 MAIN ST", "postcode": "01301"}}},
{"geometry": {"type": "Point", "coordinates": [-72.5981194992, 42.5875341144]}, "type": "Feature", "properties": {"collection_times": [{"days": "Mon-Fri", "time": "5:00pm"}, {"days": "Sat", "time": "3:00pm"}, {"days": "Sun", "time": "Closed"}], "id": "0130100042", "name": "USPS COLLECTION BOX - BLUE BOX", "address": {"city": "GREENFIELD", "state": "MA", "street": "94 MAIN ST", "postcode": "01301"}}},
{"geometry": {"type": "Point", "coordinates": [-72.5974957441, 42.5874480805]}, "type": "Feature", "properties": {"collection_times": [{"days": "Mon-Fri", "time": "5:00pm"}, {"days": "Sat", "time": "3:00pm"}, {"days": "Sun", "time": "Closed"}], "id": "0130100043", "name": "USPS COLLECTION BOX - BLUE BOX", "address": {"city": "GREENFIELD", "state": "MA", "street": "442 MAIN ST", "postcode": "01301"}}},
{"geometry": {"type": "Point", "coordinates": [-72.6012575536, 42.5879957905]}, "type": "Feature", "properties": {"collection_times": [{"days": "Mon-Fri", "time": "5:00pm"}, {"days": "Sat", "time": "3:00pm"}, {"days": "Sun", "time": "Closed"}], "id": "0130100044", "name": "USPS COLLECTION BOX - BLUE BOX", "address": {"city": "GREENFIELD", "state": "MA", "street": "270 MAIN ST", "postcode": "01301"}}},
{"geometry": {"type": "Point", "coordinates": [-72.5978648273, 42.5875024966]}, "type": "Feature", "properties": {"collection_times": [{"days": "Mon-Fri", "time": "5:00pm"}, {"days": "Sat", "time": "1:45pm"}, {"days": "Sun", "time": "Closed"}], "id": "0130100046", "name": "USPS COLLECTION BOX - BLUE BOX", "address": {"city": "GREENFIELD", "state": "MA", "street": "442 MAIN ST", "postcode": "01301"}}},
{"geometry": {"type": "Point", "coordinates": [-72.626182499, 42.5861598382]}, "type": "Feature", "properties": {"collection_times": [{"days": "Mon-Sat", "time": "10:00am"}, {"days": "Sun", "time": "Closed"}], "id": "0130100047", "name": "USPS COLLECTION BOX - BLUE BOX", "address": {"city": "GREENFIELD", "state": "MA", "street": "237 MOHAWK TRL", "postcode": "01301"}}},
{"geometry": {"type": "Point", "coordinates": [-72.7972466461, 42.5273703265]}, "type": "Feature", "properties": {"collection_times": [{"days": "Mon-Fri", "time": "4:30pm"}, {"days": "Sat", "time": "12:00pm"}, {"days": "Sun", "time": "Closed"}], "id": "0133000000", "name": "USPS COLLECTION BOX - BLUE BOX", "address": {"city": "ASHFIELD", "state": "MA", "street": "258 MAIN ST", "postcode": "01330"}}},
{"geometry": {"type": "Point", "coordinates": [-72.7972466461, 42.5273703265]}, "type": "Feature", "properties": {"collection_times": [{"days": "Mon-Fri", "time": "4:30pm"}, {"days": "Sat", "time": "12:30pm"}, {"days": "Sun", "time": "Closed"}], "id": "0133000001", "name": "USPS COLLECTION BOX - PO LOBBY", "address": {"city": "ASHFIELD", "state": "MA", "street": "258 MAIN ST LBBY", "postcode": "01330"}}},
{"geometry": {"type": "Point", "coordinates": [-72.2025082941, 42.5824729539]}, "type": "Feature", "properties": {"collection_times": [{"days": "Mon-Fri", "time": "5:00pm"}, {"days": "Sat", "time": "3:00pm"}, {"days": "Sun", "time": "Closed"}], "id": "0133100000", "name": "USPS COLLECTION BOX - BLUE BOX", "address": {"city": "ATHOL", "state": "MA", "street": "243 MAIN ST", "postcode": "01331"}}},
{"geometry": {"type": "Point", "coordinates": [-72.234612435, 42.5936006501]}, "type": "Feature", "properties": {"collection_times": [{"days": "Mon-Fri", "time": "5:00pm"}, {"days": "Sat", "time": "3:00pm"}, {"days": "Sun", "time": "Closed"}], "id": "0133100002", "name": "USPS COLLECTION BOX - BLUE BOX", "address": {"city": "ATHOL", "state": "MA", "street": "242 MAIN ST", "postcode": "01331"}}},
{"geometry": {"type": "Point", "coordinates": [-72.2183158981, 42.5839427078]}, "type": "Feature", "properties": {"collection_times": [{"days": "Mon-Sat", "time": "12:00pm"}, {"days": "Sun", "time": "Closed"}], "id": "0133100005", "name": "USPS COLLECTION BOX - BLUE BOX", "address": {"city": "ATHOL", "state": "MA", "street": "229 PINEDALE AVE", "postcode": "01331"}}},
{"geometry": {"type": "Point", "coordinates": [-72.2308435277, 42.5940194176]}, "type": "Feature", "properties": {"collection_times": [{"days": "Mon-Fri", "time": "3:30pm"}, {"days": "Sat", "time": "9:00am"}, {"days": "Sun", "time": "Closed"}], "id": "0133100008", "name": "USPS COLLECTION BOX - BLUE BOX", "address": {"city": "ATHOL", "state": "MA", "street": "444 MAIN ST", "postcode": "01331"}}},
{"geometry": {"type": "Point", "coordinates": [-72.2295777616, 42.5939650015]}, "type": "Feature", "properties": {"collection_times": [{"days": "Mon-Fri", "time": "3:30pm"}, {"days": "Sat", "time": "9:00am"}, {"days": "Sun", "time": "Closed"}], "id": "0133100009", "name": "USPS COLLECTION BOX - BLUE BOX", "address": {"city": "ATHOL", "state": "MA", "street": "513 MAIN ST", "postcode": "01331"}}},
{"geometry": {"type": "Point", "coordinates": [-72.2281463813, 42.5938549863]}, "type": "Feature", "properties": {"collection_times": [{"days": "Mon-Fri", "time": "3:30pm"}, {"days": "Sat", "time": "9:00am"}, {"days": "Sun", "time": "Closed"}], "id": "0133100011", "name": "USPS COLLECTION BOX - BLUE BOX", "address": {"city": "ATHOL", "state": "MA", "street": "584 MAIN ST", "postcode": "01331"}}},
{"geometry": {"type": "Point", "coordinates": [-72.2025082941, 42.5824729539]}, "type": "Feature", "properties": {"collection_times": [{"days": "Mon-Sat", "time": "10:00am"}, {"days": "Sun", "time": "Closed"}], "id": "0133100018", "name": "USPS COLLECTION BOX - BLUE BOX", "address": {"city": "ATHOL", "state": "MA", "street": "1497 MAIN ST", "postcode": "01331"}}},
{"geometry": {"type": "Point", "coordinates": [-72.1786384781, 42.5823440156]}, "type": "Feature", "properties": {"collection_times": [{"days": "Mon-Sat", "time": "10:00am"}, {"days": "Sun", "time": "Closed"}], "id": "0133100023", "name": "USPS COLLECTION BOX - BLUE BOX", "address": {"city": "ATHOL", "state": "MA", "street": "150 NEW ATHOL RD", "postcode": "01331"}}},
{"geometry": {"type": "Point", "coordinates": [-72.132214324, 42.5491131123]}, "type": "Feature", "properties": {"collection_times": [{"days": "Mon-Sat", "time": "10:00am"}, {"days": "Sun", "time": "Closed"}], "id": "0133100026", "name": "USPS COLLECTION BOX - BLUE BOX", "address": {"city": "ATHOL", "state": "MA", "street": "50 THE COMMON - PHILLIPSTON", "postcode": "01331"}}},
{"geometry": {"type": "Point", "coordinates": [-72.234612435, 42.5936006501]}, "type": "Feature", "properties": {"collection_times": [{"days": "Mon-Fri", "time": "5:00pm"}, {"days": "Sat", "time": "4:15pm"}, {"days": "Sun", "time": "Closed"}], "id": "0133100027", "name": "USPS COLLECTION BOX - PO LOBBY", "address": {"city": "ATHOL", "state": "MA", "street": "242 MAIN ST", "postcode": "01331"}}},
{"geometry": {"type": "Point", "coordinates": [-72.5637264546, 42.6858113621]}, "type": "Feature", "properties": {"collection_times": [{"days": "Mon-Sat", "time": "10:00am"}, {"days": "Sun", "time": "Closed"}], "id": "0133700001", "name": "USPS COLLECTION BOX - BLUE BOX", "address": {"city": "BERNARDSTON", "state": "MA", "street": "16 W LEYDEN RD", "postcode": "01337"}}},
{"geometry": {"type": "Point", "coordinates": [-72.5637264546, 42.6858113621]}, "type": "Feature", "properties": {"collection_times": [{"days": "Mon-Fri", "time": "3:45pm"}, {"days": "Sat", "time": "11:30am"}, {"days": "Sun", "time": "Closed"}], "id": "0133700002", "name": "USPS COLLECTION BOX - BLUE BOX", "address": {"city": "BERNARDSTON", "state": "MA", "street": "9 CENTER ST", "postcode": "01337"}}},
{"geometry": {"type": "Point", "coordinates": [-72.5637264546, 42.6858113621]}, "type": "Feature", "properties": {"collection_times": [{"days": "Mon-Fri", "time": "3:45pm"}, {"days": "Sat", "time": "11:30am"}, {"days": "Sun", "time": "Closed"}], "id": "0133700003", "name": "USPS COLLECTION BOX - PO LOBBY", "address": {"city": "BERNARDSTON", "state": "MA", "street": "9 CENTER ST", "postcode": "01337"}}},
{"geometry": {"type": "Point", "coordinates": [-72.7998576491, 42.5787442262]}, "type": "Feature", "properties": {"collection_times": [{"days": "Mon-Fri", "time": "4:15pm"}, {"days": "Sat", "time": "11:15am"}, {"days": "Sun", "time": "Closed"}], "id": "0133800000", "name": "USPS COLLECTION BOX - BLUE BOX", "address": {"city": "BUCKLAND", "state": "MA", "street": "67 UPPER ST", "postcode": "01338"}}},
{"geometry": {"type": "Point", "coordinates": [-72.7998576491, 42.5787442262]}, "type": "Feature", "properties": {"collection_times": [{"days": "Mon-Fri", "time": "4:15pm"}, {"days": "Sat", "time": "11:15am"}, {"days": "Sun", "time": "Closed"}], "id": "0133800001", "name": "USPS COLLECTION BOX - PO LOBBY", "address": {"city": "BUCKLAND", "state": "MA", "street": "67 UPPER ST", "postcode": "01338"}}},
{"geometry": {"type": "Point", "coordinates": [-72.7998576491, 42.5787442262]}, "type": "Feature", "properties": {"collection_times": [{"days": "Mon-Fri", "time": "4:15pm"}, {"days": "Sat", "time": "11:15am"}, {"days": "Sun", "time": "Closed"}], "id": "0133800002", "name": "USPS COLLECTION BOX - PO LOBBY", "address": {"city": "BUCKLAND", "state": "MA", "street": "67 UPPER ST", "postcode": "01338"}}},
{"geometry": {"type": "Point", "coordinates": [-72.8758586151, 42.6319115691]}, "type": "Feature", "properties": {"collection_times": [{"days": "Mon-Fri", "time": "4:45pm"}, {"days": "Sat", "time": "11:45am"}, {"days": "Sun", "time": "Closed"}], "id": "0133900002", "name": "USPS COLLECTION BOX - BLUE BOX", "address": {"city": "CHARLEMONT", "state": "MA", "street": "90-3 MAIN ST", "postcode": "01339"}}},
{"geometry": {"type": "Point", "coordinates": [-72.8758586151, 42.6319115691]}, "type": "Feature", "properties": {"collection_times": [{"days": "Mon-Fri", "time": "4:45pm"}, {"days": "Sat", "time": "11:30am"}, {"days": "Sun", "time": "Closed"}], "id": "0133900003", "name": "USPS COLLECTION BOX - PO LOBBY", "address": {"city": "CHARLEMONT", "state": "MA", "street": "90-3 MAIN ST", "postcode": "01339"}}},
{"geometry": {"type": "Point", "coordinates": [-72.8758586151, 42.6319115691]}, "type": "Feature", "properties": {"collection_times": [{"days": "Mon-Fri", "time": "4:45pm"}, {"days": "Sat", "time": "11:30am"}, {"days": "Sun", "time": "Closed"}], "id": "0133900004", "name": "USPS COLLECTION BOX - PO LOBBY", "address": {"city": "CHARLEMONT", "state": "MA", "street": "90-3 MAIN ST", "postcode": "01339"}}},
{"geometry": {"type": "Point", "coordinates": [-72.8844951424, 42.6276262566]}, "type": "Feature", "properties": {"collection_times": [{"days": "Mon-Sat", "time": "1:00pm"}, {"days": "Sun", "time": "Closed"}], "id": "0133900005", "name": "USPS COLLECTION BOX - BLUE BOX", "address": {"city": "CHARLEMONT", "state": "MA", "street": "1 E MAIN ST", "postcode": "01339"}}},
{"geometry": {"type": "Point", "coordinates": [-72.7344897652, 42.6330012074]}, "type": "Feature", "properties": {"collection_times": [{"days": "Mon-Fri", "time": "4:15pm"}, {"days": "Sat", "time": "12:00pm"}, {"days": "Sun", "time": "Closed"}], "id": "0134000001", "name": "USPS COLLECTION BOX - BLUE BOX", "address": {"city": "COLRAIN", "state": "MA", "street": "16 MAIN RD", "postcode": "01340"}}},
{"geometry": {"type": "Point", "coordinates": [-72.7000500057, 42.5095821726]}, "type": "Feature", "properties": {"collection_times": [{"days": "Mon-Fri", "time": "4:45pm"}, {"days": "Sat", "time": "11:45am"}, {"days": "Sun", "time": "Closed"}], "id": "0134100000", "name": "USPS COLLECTION BOX - BLUE BOX", "address": {"city": "CONWAY", "state": "MA", "street": "38 RIVER ST", "postcode": "01341"}}},
{"geometry": {"type": "Point", "coordinates": [-72.7000500057, 42.5095821726]}, "type": "Feature", "properties": {"collection_times": [{"days": "Mon-Fri", "time": "4:45pm"}, {"days": "Sat", "time": "11:45am"}, {"days": "Sun", "time": "Closed"}], "id": "0134100001", "name": "USPS COLLECTION BOX - PO LOBBY", "address": {"city": "CONWAY", "state": "MA", "street": "38 RIVER ST", "postcode": "01341"}}},
{"geometry": {"type": "Point", "coordinates": [-72.604217317, 42.546525981]}, "type": "Feature", "properties": {"collection_times": [{"days": "Mon-Fri", "time": "4:30pm"}, {"days": "Sat", "time": "11:30am"}, {"days": "Sun", "time": "Closed"}], "id": "0134200002", "name": "USPS COLLECTION BOX - BLUE BOX", "address": {"city": "DEERFIELD", "state": "MA", "street": "75 OLD MAIN ST", "postcode": "01342"}}},
{"geometry": {"type": "Point", "coordinates": [-72.604217317, 42.546525981]}, "type": "Feature", "properties": {"collection_times": [{"days": "Mon-Fri", "time": "4:30pm"}, {"days": "Sat", "time": "11:30am"}, {"days": "Sun", "time": "Closed"}], "id": "0134200003", "name": "USPS COLLECTION BOX - PO LOBBY", "address": {"city": "DEERFIELD", "state": "MA", "street": "75 OLD MAIN ST", "postcode": "01342"}}},
{"geometry": {"type": "Point", "coordinates": [-72.48959763, 42.5851932136]}, "type": "Feature", "properties": {"collection_times": [{"days": "Mon-Fri", "time": "4:30pm"}, {"days": "Sat", "time": "11:00am"}, {"days": "Sun", "time": "Closed"}], "id": "0134400000", "name": "USPS COLLECTION BOX - BLUE BOX", "address": {"city": "ERVING", "state": "MA", "street": "54 FRENCH KING HWY", "postcode": "01344"}}},
{"geometry": {"type": "Point", "coordinates": [-72.3982641612, 42.6000738016]}, "type": "Feature", "properties": {"collection_times": [{"days": "Mon-Sat", "time": "9:00am"}, {"days": "Sun", "time": "Closed"}], "id": "0134400001", "name": "USPS COLLECTION BOX - BLUE BOX", "address": {"city": "ERVING", "state": "MA", "street": "12 E MAIN ST", "postcode": "01344"}}},
{"geometry": {"type": "Point", "coordinates": [-72.48959763, 42.5851932136]}, "type": "Feature", "properties": {"collection_times": [{"days": "Mon-Fri", "time": "1:00pm"}, {"days": "Sat", "time": "11:00am"}, {"days": "Sun", "time": "Closed"}], "id": "0134400002", "name": "USPS COLLECTION BOX - PO LOBBY", "address": {"city": "ERVING", "state": "MA", "street": "54 FRENCH KING HWY", "postcode": "01344"}}},
{"geometry": {"type": "Point", "coordinates": [-72.5161587449, 42.5628863649]}, "type": "Feature", "properties": {"collection_times": [{"days": "Mon-Fri", "time": "4:15pm"}, {"days": "Sat", "time": "11:45am"}, {"days": "Sun", "time": "Closed"}], "id": "0134700000", "name": "USPS COLLECTION BOX - BLUE BOX", "address": {"city": "LAKE PLEASANT", "state": "MA", "street": "5 MONTAGUE AVE", "postcode": "01347"}}},
{"geometry": {"type": "Point", "coordinates": [-72.4944868212, 42.5783669081]}, "type": "Feature", "properties": {"collection_times": [{"days": "Mon-Fri", "time": "2:30pm"}, {"days": "Sat", "time": "9:00am"}, {"days": "Sun", "time": "Closed"}], "id": "0134900001", "name": "USPS COLLECTION BOX - BLUE BOX", "address": {"city": "MILLERS FALLS", "state": "MA", "street": "23 BRIDGE ST", "postcode": "01349"}}},
{"geometry": {"type": "Point", "coordinates": [-72.9420895901, 42.722043416]}, "type": "Feature", "properties": {"collection_times": [{"days": "Mon-Fri", "time": "1:00pm"}, {"days": "Sat", "time": "12:00pm"}, {"days": "Sun", "time": "Closed"}], "id": "0135000000", "name": "USPS COLLECTION BOX - BLUE BOX", "address": {"city": "MONROE BRIDGE", "state": "MA", "street": "3C SCHOOL ST", "postcode": "01350"}}},
{"geometry": {"type": "Point", "coordinates": [-72.5320225143, 42.5333986854]}, "type": "Feature", "properties": {"collection_times": [{"days": "Mon-Fri", "time": "4:30pm"}, {"days": "Sat", "time": "11:30am"}, {"days": "Sun", "time": "Closed"}], "id": "0135100002", "name": "USPS COLLECTION BOX - BLUE BOX", "address": {"city": "MONTAGUE", "state": "MA", "street": "53 MAIN ST", "postcode": "01351"}}},
{"geometry": {"type": "Point", "coordinates": [-72.4525643007, 42.7023513442]}, "type": "Feature", "properties": {"collection_times": [{"days": "Mon-Fri", "time": "4:00pm"}, {"days": "Sat", "time": "3:00pm"}, {"days": "Sun", "time": "Closed"}], "id": "0136000000", "name": "USPS COLLECTION BOX - BLUE BOX", "address": {"city": "NORTHFIELD", "state": "MA", "street": "136 MAIN ST", "postcode": "01360"}}},
{"geometry": {"type": "Point", "coordinates": [-72.4600385365, 42.6848225593]}, "type": "Feature", "properties": {"collection_times": [{"days": "Mon-Sat", "time": "10:00am"}, {"days": "Sun", "time": "Closed"}], "id": "0136000003", "name": "USPS COLLECTION BOX - BLUE BOX", "address": {"city": "NORTHFIELD", "state": "MA", "street": "168 MAIN ST", "postcode": "01360"}}},
{"geometry": {"type": "Point", "coordinates": [-72.4560919272, 42.6945425386]}, "type": "Feature", "properties": {"collection_times": [{"days": "Mon-Sat", "time": "10:00am"}, {"days": "Sun", "time": "Closed"}], "id": "0136000005", "name": "USPS COLLECTION BOX - BLUE BOX", "address": {"city": "NORTHFIELD", "state": "MA", "street": "75 MAIN ST", "postcode": "01360"}}},
{"geometry": {"type": "Point", "coordinates": [-72.4502392564, 42.6926808156]}, "type": "Feature", "properties": {"collection_times": [{"days": "Mon-Fri", "time": "4:45pm"}, {"days": "Sat", "time": "12:45pm"}, {"days": "Sun", "time": "Closed"}], "id": "0136000009", "name": "USPS COLLECTION BOX - PO LOBBY", "address": {"city": "NORTHFIELD", "state": "MA", "street": "136 MAIN ST", "postcode": "01360"}}},
{"geometry": {"type": "Point", "coordinates": [-72.4502392564, 42.6926808156]}, "type": "Feature", "properties": {"collection_times": [{"days": "Mon-Fri", "time": "4:45pm"}, {"days": "Sat", "time": "12:45pm"}, {"days": "Sun", "time": "Closed"}], "id": "0136000011", "name": "USPS COLLECTION BOX - PO LOBBY", "address": {"city": "NORTHFIELD", "state": "MA", "street": "136 MAIN ST", "postcode": "01360"}}},
{"geometry": {"type": "Point", "coordinates": [-72.3038734994, 42.5901192019]}, "type": "Feature", "properties": {"collection_times": [{"days": "Mon-Sat", "time": "9:30am"}, {"days": "Sun", "time": "Closed"}], "id": "0136400006", "name": "USPS COLLECTION BOX - BLUE BOX", "address": {"city": "NEW SALEM", "state": "MA", "street": "135 E MAIN ST", "postcode": "01364"}}},
{"geometry": {"type": "Point", "coordinates": [-72.3095315922, 42.5884062773]}, "type": "Feature", "properties": {"collection_times": [{"days": "Mon-Fri", "time": "5:00pm"}, {"days": "Sat", "time": "12:30pm"}, {"days": "Sun", "time": "Closed"}], "id": "0136400018", "name": "USPS COLLECTION BOX - BLUE BOX", "address": {"city": "NEW SALEM", "state": "MA", "street": "72 S MAIN ST", "postcode": "01364"}}},
{"geometry": {"type": "Point", "coordinates": [-72.3324407755, 42.5046220256]}, "type": "Feature", "properties": {"collection_times": [{"days": "Mon-Sat", "time": "10:00am"}, {"days": "Sun", "time": "Closed"}], "id": "0136400021", "name": "USPS COLLECTION BOX - BLUE BOX", "address": {"city": "NEW SALEM", "state": "MA", "street": "410 DANIEL SHAYS HWY", "postcode": "01364"}}},
{"geometry": {"type": "Point", "coordinates": [-72.2490715143, 42.6146582857]}, "type": "Feature", "properties": {"collection_times": [{"days": "Mon-Sat", "time": "9:30am"}, {"days": "Sun", "time": "Closed"}], "id": "0136400022", "name": "USPS COLLECTION BOX - BLUE BOX", "address": {"city": "NEW SALEM", "state": "MA", "street": "12 ATHOL RD", "postcode": "01364"}}},
{"geometry": {"type": "Point", "coordinates": [-72.284773444, 42.5867939042]}, "type": "Feature", "properties": {"collection_times": [{"days": "Mon-Sat", "time": "9:00am"}, {"days": "Sun", "time": "Closed"}], "id": "0136400026", "name": "USPS COLLECTION BOX - BLUE BOX", "address": {"city": "NEW SALEM", "state": "MA", "street": "555 E MAIN ST", "postcode": "01364"}}},
{"geometry": {"type": "Point", "coordinates": [-72.3095315922, 42.5884062773]}, "type": "Feature", "properties": {"collection_times": [{"days": "Mon-Fri", "time": "5:00pm"}, {"days": "Sat", "time": "12:30pm"}, {"days": "Sun", "time": "Closed"}], "id": "0136400027", "name": "USPS COLLECTION BOX - PO LOBBY", "address": {"city": "NEW SALEM", "state": "MA", "street": "72 S MAIN ST", "postcode": "01364"}}},
{"geometry": {"type": "Point", "coordinates": [-72.3095315922, 42.5884062773]}, "type": "Feature", "properties": {"collection_times": [{"days": "Mon-Fri", "time": "5:00pm"}, {"days": "Sat", "time": "12:30pm"}, {"days": "Sun", "time": "Closed"}], "id": "0136400028", "name": "USPS COLLECTION BOX - PO LOBBY", "address": {"city": "NEW SALEM", "state": "MA", "street": "72 S MAIN ST", "postcode": "01364"}}},
{"geometry": {"type": "Point", "coordinates": [-72.192206905, 42.485527885]}, "type": "Feature", "properties": {"collection_times": [{"days": "Mon-Fri", "time": "4:15pm"}, {"days": "Sat", "time": "11:30am"}, {"days": "Sun", "time": "Closed"}], "id": "0136600002", "name": "USPS COLLECTION BOX - BLUE BOX", "address": {"city": "PETERSHAM", "state": "MA", "street": "32 SPRING ST", "postcode": "01366"}}},
{"geometry": {"type": "Point", "coordinates": [-72.1921989365, 42.485521591]}, "type": "Feature", "properties": {"collection_times": [{"days": "Mon-Fri", "time": "4:15pm"}, {"days": "Sat", "time": "11:30am"}, {"days": "Sun", "time": "Closed"}], "id": "0136600003", "name": "USPS COLLECTION BOX - PO LOBBY", "address": {"city": "PETERSHAM", "state": "MA", "street": "32 SPRING ST", "postcode": "01366"}}},
{"geometry": {"type": "Point", "coordinates": [-72.192206905, 42.485527885]}, "type": "Feature", "properties": {"collection_times": [{"days": "Mon-Fri", "time": "4:15pm"}, {"days": "Sat", "time": "11:30am"}, {"days": "Sun", "time": "Closed"}], "id": "0136600004", "name": "USPS COLLECTION BOX - PO LOBBY", "address": {"city": "PETERSHAM", "state": "MA", "street": "32 SPRING ST", "postcode": "01366"}}},
{"geometry": {"type": "Point", "coordinates": [-72.8988237835, 42.6948098873]}, "type": "Feature", "properties": {"collection_times": [{"days": "Mon-Fri", "time": "4:00pm"}, {"days": "Sat", "time": "11:30am"}, {"days": "Sun", "time": "Closed"}], "id": "0136700000", "name": "USPS COLLECTION BOX - BLUE BOX", "address": {"city": "ROWE", "state": "MA", "street": "321 ZOAR RD", "postcode": "01367"}}},
{"geometry": {"type": "Point", "coordinates": [-72.8988237835, 42.6948098873]}, "type": "Feature", "properties": {"collection_times": [{"days": "Mon-Fri", "time": "4:00pm"}, {"days": "Sat", "time": "11:30am"}, {"days": "Sun", "time": "Closed"}], "id": "0136700001", "name": "USPS COLLECTION BOX - PO LOBBY", "address": {"city": "ROWE", "state": "MA", "street": "321 ZOAR RD", "postcode": "01367"}}},
{"geometry": {"type": "Point", "coordinates": [-72.7302487907, 42.6024002453]}, "type": "Feature", "properties": {"collection_times": [{"days": "Mon-Sat", "time": "10:00am"}, {"days": "Sun", "time": "Closed"}], "id": "0137000006", "name": "USPS COLLECTION BOX - BLUE BOX", "address": {"city": "SHELBURNE FALLS", "state": "MA", "street": "17 STATE ST", "postcode": "01370"}}},
{"geometry": {"type": "Point", "coordinates": [-72.7365324602, 42.6068131188]}, "type": "Feature", "properties": {"collection_times": [{"days": "Mon-Fri", "time": "4:30pm"}, {"days": "Sat", "time": "12:00pm"}, {"days": "Sun", "time": "Closed"}], "id": "0137000011", "name": "USPS COLLECTION BOX - PO LOBBY", "address": {"city": "SHELBURNE FALLS", "state": "MA", "street": "7 CHURCH ST", "postcode": "01370"}}},
{"geometry": {"type": "Point", "coordinates": [-72.7365324602, 42.6068131188]}, "type": "Feature", "properties": {"collection_times": [{"days": "Mon-Fri", "time": "4:15pm"}, {"days": "Sat", "time": "11:45am"}, {"days": "Sun", "time": "Closed"}], "id": "0137000012", "name": "USPS COLLECTION BOX - BLUE BOX", "address": {"city": "SHELBURNE FALLS", "state": "MA", "street": "7 CHURCH ST", "postcode": "01370"}}},
{"geometry": {"type": "Point", "coordinates": [-72.7385860769, 42.6036179466]}, "type": "Feature", "properties": {"collection_times": [{"days": "Mon-Sat", "time": "10:00am"}, {"days": "Sun", "time": "Closed"}], "id": "0137000013", "name": "USPS COLLECTION BOX - BLUE BOX", "address": {"city": "SHELBURNE FALLS", "state": "MA", "street": "51 BRIDGE ST", "postcode": "01370"}}},
{"geometry": {"type": "Point", "coordinates": [-72.7317190001, 42.6067728982]}, "type": "Feature", "properties": {"collection_times": [{"days": "Mon-Sat", "time": "10:00am"}, {"days": "Sun", "time": "Closed"}], "id": "0137000014", "name": "USPS COLLECTION BOX - BLUE BOX", "address": {"city": "SHELBURNE FALLS", "state": "MA", "street": "4 HIGHLAND AVE", "postcode": "01370"}}},
{"geometry": {"type": "Point", "coordinates": [-72.6020313783, 42.4728730069]}, "type": "Feature", "properties": {"collection_times": [{"days": "Mon-Fri", "time": "4:30pm"}, {"days": "Sat", "time": "1:45pm"}, {"days": "Sun", "time": "Closed"}], "id": "0137300002", "name": "USPS COLLECTION BOX - BLUE BOX", "address": {"city": "SOUTH DEERFIELD", "state": "MA", "street": "60 SUGARLOAF ST", "postcode": "01373"}}},
{"geometry": {"type": "Point", "coordinates": [-72.607714961, 42.4771860955]}, "type": "Feature", "properties": {"collection_times": [{"days": "Mon-Fri", "time": "3:00pm"}, {"days": "Sat", "time": "1:30pm"}, {"days": "Sun", "time": "Closed"}], "id": "0137300003", "name": "USPS COLLECTION BOX - BLUE BOX", "address": {"city": "SOUTH DEERFIELD", "state": "MA", "street": "1 PARK ST", "postcode": "01373"}}},
{"geometry": {"type": "Point", "coordinates": [-72.6020313783, 42.4728730069]}, "type": "Feature", "properties": {"collection_times": [{"days": "Mon-Fri", "time": "5:00pm"}, {"days": "Sat", "time": "2:00pm"}, {"days": "Sun", "time": "Closed"}], "id": "0137300004", "name": "USPS COLLECTION BOX - PO LOBBY", "address": {"city": "SOUTH DEERFIELD", "state": "MA", "street": "60 SUGARLOAF ST", "postcode": "01373"}}},
{"geometry": {"type": "Point", "coordinates": [-72.6020313783, 42.4728730069]}, "type": "Feature", "properties": {"collection_times": [{"days": "Mon-Fri", "time": "5:00pm"}, {"days": "Sat", "time": "2:00pm"}, {"days": "Sun", "time": "Closed"}], "id": "0137300005", "name": "USPS COLLECTION BOX - PO LOBBY", "address": {"city": "SOUTH DEERFIELD", "state": "MA", "street": "60 SUGARLOAF ST", "postcode": "01373"}}},
{"geometry": {"type": "Point", "coordinates": [-72.5827773687, 42.4577259834]}, "type": "Feature", "properties": {"collection_times": [{"days": "Mon-Sat", "time": "9:00am"}, {"days": "Sun", "time": "Closed"}], "id": "0137500000", "name": "USPS COLLECTION BOX - BLUE BOX", "address": {"city": "SUNDERLAND", "state": "MA", "street": "34 RIVER RD", "postcode": "01375"}}},
{"geometry": {"type": "Point", "coordinates": [-72.5752265416, 42.4656813824]}, "type": "Feature", "properties": {"collection_times": [{"days": "Mon-Fri", "time": "4:30pm"}, {"days": "Sat", "time": "11:30am"}, {"days": "Sun", "time": "Closed"}], "id": "0137500001", "name": "USPS COLLECTION BOX - BLUE BOX", "address": {"city": "SUNDERLAND", "state": "MA", "street": "12 GARAGE RD", "postcode": "01375"}}},
{"geometry": {"type": "Point", "coordinates": [-72.5627297631, 42.451537925]}, "type": "Feature", "properties": {"collection_times": [{"days": "Mon-Sat", "time": "9:00am"}, {"days": "Sun", "time": "Closed"}], "id": "0137500002", "name": "USPS COLLECTION BOX - BLUE BOX", "address": {"city": "SUNDERLAND", "state": "MA", "street": "283 AMHERST RD", "postcode": "01375"}}},
{"geometry": {"type": "Point", "coordinates": [-72.5752265416, 42.4656813824]}, "type": "Feature", "properties": {"collection_times": [{"days": "Mon-Fri", "time": "4:30pm"}, {"days": "Sat", "time": "12:00pm"}, {"days": "Sun", "time": "Closed"}], "id": "0137500005", "name": "USPS COLLECTION BOX - PO LOBBY", "address": {"city": "SUNDERLAND", "state": "MA", "street": "12 GARAGE RD", "postcode": "01375"}}},
{"geometry": {"type": "Point", "coordinates": [-72.5752265416, 42.4656813824]}, "type": "Feature", "properties": {"collection_times": [{"days": "Mon-Fri", "time": "4:30pm"}, {"days": "Sat", "time": "12:00pm"}, {"days": "Sun", "time": "Closed"}], "id": "0137500006", "name": "USPS COLLECTION BOX - PO LOBBY", "address": {"city": "SUNDERLAND", "state": "MA", "street": "12 GARAGE RD", "postcode": "01375"}}},
{"geometry": {"type": "Point", "coordinates": [-72.5553374525, 42.6096131826]}, "type": "Feature", "properties": {"collection_times": [{"days": "Mon-Sat", "time": "10:00am"}, {"days": "Sun", "time": "Closed"}], "id": "0137600003", "name": "USPS COLLECTION BOX - BLUE BOX", "address": {"city": "TURNERS FALLS", "state": "MA", "street": "1 AVENUE A", "postcode": "01376"}}},
{"geometry": {"type": "Point", "coordinates": [-72.5569122544, 42.6082986371]}, "type": "Feature", "properties": {"collection_times": [{"days": "Mon-Sat", "time": "10:00am"}, {"days": "Sun", "time": "Closed"}], "id": "0137600005", "name": "USPS COLLECTION BOX - BLUE BOX", "address": {"city": "TURNERS FALLS", "state": "MA", "street": "43 3RD ST", "postcode": "01376"}}},
{"geometry": {"type": "Point", "coordinates": [-72.5568961064, 42.6002929636]}, "type": "Feature", "properties": {"collection_times": [{"days": "Mon-Sat", "time": "10:00am"}, {"days": "Sun", "time": "Closed"}], "id": "0137600007", "name": "USPS COLLECTION BOX - BLUE BOX", "address": {"city": "TURNERS FALLS", "state": "MA", "street": "56 4TH ST", "postcode": "01376"}}},
{"geometry": {"type": "Point", "coordinates": [-72.5605223617, 42.6046376572]}, "type": "Feature", "properties": {"collection_times": [{"days": "Mon-Sat", "time": "9:00am"}, {"days": "Sun", "time": "Closed"}], "id": "0137600008", "name": "USPS COLLECTION BOX - BLUE BOX", "address": {"city": "TURNERS FALLS", "state": "MA", "street": "250 AVENUE A", "postcode": "01376"}}},
{"geometry": {"type": "Point", "coordinates": [-72.5568961064, 42.6002929636]}, "type": "Feature", "properties": {"collection_times": [{"days": "Mon-Sat", "time": "10:00am"}, {"days": "Sun", "time": "Closed"}], "id": "0137600010", "name": "USPS COLLECTION BOX - BLUE BOX", "address": {"city": "TURNERS FALLS", "state": "MA", "street": "99 UNITY ST", "postcode": "01376"}}},
{"geometry": {"type": "Point", "coordinates": [-72.573922079, 42.588476313]}, "type": "Feature", "properties": {"collection_times": [{"days": "Mon-Sat", "time": "9:00am"}, {"days": "Sun", "time": "Closed"}], "id": "0137600012", "name": "USPS COLLECTION BOX - BLUE BOX", "address": {"city": "TURNERS FALLS", "state": "MA", "street": "1 BURNHAM ST", "postcode": "01376"}}},
{"geometry": {"type": "Point", "coordinates": [-72.5557538541, 42.5889740976]}, "type": "Feature", "properties": {"collection_times": [{"days": "Mon-Sat", "time": "10:00am"}, {"days": "Sun", "time": "Closed"}], "id": "0137600015", "name": "USPS COLLECTION BOX - BLUE BOX", "address": {"city": "TURNERS FALLS", "state": "MA", "street": "7 PARK VILLA DR", "postcode": "01376"}}},
{"geometry": {"type": "Point", "coordinates": [-72.5646089346, 42.5924514802]}, "type": "Feature", "properties": {"collection_times": [{"days": "Mon-Sat", "time": "10:00am"}, {"days": "Sun", "time": "Closed"}], "id": "0137600016", "name": "USPS COLLECTION BOX - BLUE BOX", "address": {"city": "TURNERS FALLS", "state": "MA", "street": "23 MAIN RD", "postcode": "01376"}}},
{"geometry": {"type": "Point", "coordinates": [-72.5584995018, 42.6065741611]}, "type": "Feature", "properties": {"collection_times": [{"days": "Mon-Fri", "time": "5:00pm"}, {"days": "Sat", "time": "3:15pm"}, {"days": "Sun", "time": "Closed"}], "id": "0137600017", "name": "USPS COLLECTION BOX - PO LOBBY", "address": {"city": "TURNERS FALLS", "state": "MA", "street": "178 AVENUE A LBBY", "postcode": "01376"}}},
{"geometry": {"type": "Point", "coordinates": [-72.5289728461, 42.5909815789]}, "type": "Feature", "properties": {"collection_times": [{"days": "Mon-Fri", "time": "12:00pm"}, {"days": "Sat", "time": "10:00am"}, {"days": "Sun", "time": "Closed"}], "id": "0137600018", "name": "USPS COLLECTION BOX - BLUE BOX", "address": {"city": "TURNERS FALLS", "state": "MA", "street": "10 INDUSTRIAL BLVD", "postcode": "01376"}}},
{"geometry": {"type": "Point", "coordinates": [-72.4062156607, 42.5477531568]}, "type": "Feature", "properties": {"collection_times": [{"days": "Mon-Fri", "time": "4:30pm"}, {"days": "Sat", "time": "11:40am"}, {"days": "Sun", "time": "Closed"}], "id": "0137900000", "name": "USPS COLLECTION BOX - BLUE BOX", "address": {"city": "WENDELL", "state": "MA", "street": "59 LOCKES VILLAGE RD", "postcode": "01379"}}}
]}
