{"type": "FeatureCollection", "features": [
{"geometry": {"type": "Point", "coordinates": [-71.8047847016, 42.5859646408]}, "type": "Feature", "properties": {"collection_times": [{"days": "Mon-Fri", "time": "5:15pm"}, {"days": "Sat", "time": "2:00pm"}, {"days": "Sun", "time": "Closed"}], "id": "0142000002", "name": "USPS COLLECTION BOX - BLUE BOX", "address": {"city": "FITCHBURG", "state": "MA", "street": "881 MAIN ST", "postcode": "01420"}}},
{"geometry": {"type": "Point", "coordinates": [-71.8047847016, 42.5859646408]}, "type": "Feature", "properties": {"collection_times": [{"days": "Mon-Fri", "time": "5:15pm"}, {"days": "Sat", "time": "2:00pm"}, {"days": "Sun", "time": "Closed"}], "id": "0142000003", "name": "USPS COLLECTION BOX - BLUE BOX", "address": {"city": "FITCHBURG", "state": "MA", "street": "881 MAIN ST", "postcode": "01420"}}},
{"geometry": {"type": "Point", "coordinates": [-71.7785024847, 42.5670930477]}, "type": "Feature", "properties": {"collection_times": [{"days": "Mon-Fri", "time": "4:15pm"}, {"days": "Sat", "time": "2:00pm"}, {"days": "Sun", "time": "Closed"}], "id": "0142000004", "name": "USPS COLLECTION BOX - BLUE BOX", "address": {"city": "FITCHBURG", "state": "MA", "street": "19 AIRPORT RD", "postcode": "01420"}}},
{"geometry": {"type": "Point", "coordinates": [-71.7782422946, 42.5669736267]}, "type": "Feature", "properties": {"collection_times": [{"days": "Mon-Fri", "time": "4:15pm"}, {"days": "Sat", "time": "2:00pm"}, {"days": "Sun", "time": "Closed"}], "id": "0142000006", "name": "USPS COLLECTION BOX - BLUE BOX", "address": {"city": "FITCHBURG", "state": "MA", "street": "19 AIRPORT RD", "postcode": "01420"}}},
{"geometry": {"type": "Point", "coordinates": [-71.8010556084, 42.6033860867]}, "type": "Feature", "properties": {"collection_times": [{"days": "Mon-Fri", "time": "4:15pm"}, {"days": "Sat", "time": "2:00pm"}, {"days": "Sun", "time": "Closed"}], "id": "0142000008", "name": "USPS COLLECTION BOX - BLUE BOX", "address": {"city": "FITCHBURG", "state": "MA", "street": "47 ASHBY STATE RD", "postcode": "01420"}}},
{"geometry": {"type": "Point", "coordinates": [-71.8530732767, 42.5515222771]}, "type": "Feature", "properties": {"collection_times": [{"days": "Mon-Fri", "time": "4:15pm"}, {"days": "Sat", "time": "2:00pm"}, {"days": "Sun", "time": "Closed"}], "id": "0142000009", "name": "USPS COLLECTION BOX - BLUE BOX", "address": {"city": "FITCHBURG", "state": "MA", "street": "231 AUTHORITY DR", "postcode": "01420"}}},
{"geometry": {"type": "Point", "coordinates": [-71.8054882354, 42.5796411524]}, "type": "Feature", "properties": {"collection_times": [{"days": "Mon-Fri", "time": "4:15pm"}, {"days": "Sat", "time": "2:00pm"}, {"days": "Sun", "time": "Closed"}], "id": "0142000012", "name": "USPS COLLECTION BOX - BLUE BOX", "address": {"city": "FITCHBURG", "state": "MA", "street": "166 BOULDER DR", "postcode": "01420"}}},
{"geometry": {"type": "Point", "coordinates": [-71.8054882354, 42.5796411524]}, "type": "Feature", "properties": {"collection_times": [{"days": "Mon-Fri", "time": "4:15pm"}, {"days": "Sat", "time": "2:00pm"}, {"days": "Sun", "time": "Closed"}], "id": "0142000013", "name": "USPS COLLECTION BOX - BLUE BOX", "address": {"city": "FITCHBURG", "state": "MA", "street": "95 GOODRICH ST", "postcode": "01420"}}},
{"geometry": {"type": "Point", "coordinates": [-71.8054882354, 42.5796411524]}, "type": "Feature", "properties": {"collection_times": [{"days": "Mon-Fri", "time": "4:15pm"}, {"days": "Sat", "time": "2:00pm"}, {"days": "Sun", "time": "Closed"}], "id": "0142000015", "name": "USPS COLLECTION BOX - BLUE BOX", "address": {"city": "FITCHBURG", "state": "MA", "street": "216 DANIELS ST", "postcode": "01420"}}},
{"geometry": {"type": "Point", "coordinates": [-71.8054882354, 42.5796411524]}, "type": "Feature", "properties": {"collection_times": [{"days": "Mon-Fri", "time": "4:15pm"}, {"days": "Sat", "time": "2:00pm"}, {"days": "Sun", "time": "Closed"}], "id": "0142000016", "name": "USPS COLLECTION BOX - BLUE BOX", "address": {"city": "FITCHBURG", "state": "MA", "street": "499B ELECTRIC AVE", "postcode": "01420"}}},
{"geometry": {"type": "Point", "coordinates": [-71.7856877885, 42.57642172]}, "type": "Feature", "properties": {"collection_times": [{"days": "Mon-Fri", "time": "4:15pm"}, {"days": "Sat", "time": "2:00pm"}, {"days": "Sun", "time": "Closed"}], "id": "0142000020", "name": "USPS COLLECTION BOX - BLUE BOX", "address": {"city": "FITCHBURG", "state": "MA", "street": "100 HARVARD ST", "postcode": "01420"}}},
{"geometry": {"type": "Point", "coordinates": [-71.8553166215, 42.5621063083]}, "type": "Feature", "properties": {"collection_times": [{"days": "Mon-Fri", "time": "4:15pm"}, {"days": "Sat", "time": "2:00pm"}, {"days": "Sun", "time": "Closed"}], "id": "0142000021", "name": "USPS COLLECTION BOX - BLUE BOX", "address": {"city": "FITCHBURG", "state": "MA", "street": "172 INDUSTRIAL RD", "postcode": "01420"}}},
{"geometry": {"type": "Point", "coordinates": [-71.7750007755, 42.582836286]}, "type": "Feature", "properties": {"collection_times": [{"days": "Mon-Fri", "time": "4:15pm"}, {"days": "Sat", "time": "2:00pm"}, {"days": "Sun", "time": "Closed"}], "id": "0142000023", "name": "USPS COLLECTION BOX - BLUE BOX", "address": {"city": "FITCHBURG", "state": "MA", "street": "480 JOHN FITCH HWY", "postcode": "01420"}}},
{"geometry": {"type": "Point", "coordinates": [-71.7939791507, 42.5818363427]}, "type": "Feature", "properties": {"collection_times": [{"days": "Mon-Fri", "time": "4:15pm"}, {"days": "Sat", "time": "2:00pm"}, {"days": "Sun", "time": "Closed"}], "id": "0142000024", "name": "USPS COLLECTION BOX - BLUE BOX", "address": {"city": "FITCHBURG", "state": "MA", "street": "161 MAIN ST", "postcode": "01420"}}},
{"geometry": {"type": "Point", "coordinates": [-71.7752742007, 42.5860155172]}, "type": "Feature", "properties": {"collection_times": [{"days": "Mon-Fri", "time": "4:15pm"}, {"days": "Sat", "time": "2:00pm"}, {"days": "Sun", "time": "Closed"}], "id": "0142000026", "name": "USPS COLLECTION BOX - BLUE BOX", "address": {"city": "FITCHBURG", "state": "MA", "street": "313 LUNENBURG ST", "postcode": "01420"}}},
{"geometry": {"type": "Point", "coordinates": [-71.7939791507, 42.5818363427]}, "type": "Feature", "properties": {"collection_times": [{"days": "Mon-Fri", "time": "4:15pm"}, {"days": "Sat", "time": "2:00pm"}, {"days": "Sun", "time": "Closed"}], "id": "0142000030", "name": "USPS COLLECTION BOX - BLUE BOX", "address": {"city": "FITCHBURG", "state": "MA", "street": "161 MAIN ST", "postcode": "01420"}}},
{"geometry": {"type": "Point", "coordinates": [-71.7964827023, 42.5821020204]}, "type": "Feature", "properties": {"collection_times": [{"days": "Mon-Fri", "time": "4:15pm"}, {"days": "Sat", "time": "2:00pm"}, {"days": "Sun", "time": "Closed"}], "id": "0142000031", "name": "USPS COLLECTION BOX - BLUE BOX", "address": {"city": "FITCHBURG", "state": "MA", "street": "325 MAIN ST", "postcode": "01420"}}},
{"geometry": {"type": "Point", "coordinates": [-71.7992885937, 42.5830893211]}, "type": "Feature", "properties": {"collection_times": [{"days": "Mon-Fri", "time": "4:15pm"}, {"days": "Sat", "time": "12:00pm"}, {"days": "Sun", "time": "Closed"}], "id": "0142000034", "name": "USPS COLLECTION BOX - BLUE BOX", "address": {"city": "FITCHBURG", "state": "MA", "street": "477 MAIN ST", "postcode": "01420"}}},
{"geometry": {"type": "Point", "coordinates": [-71.8054882352, 42.5796411064]}, "type": "Feature", "properties": {"collection_times": [{"days": "Mon-Fri", "time": "4:15pm"}, {"days": "Sat", "time": "12:00pm"}, {"days": "Sun", "time": "Closed"}], "id": "0142000035", "name": "USPS COLLECTION BOX - EXPRESS", "address": {"city": "FITCHBURG", "state": "MA", "street": "477 MAIN ST", "postcode": "01420"}}},
{"geometry": {"type": "Point", "coordinates": [-71.7992885937, 42.5830893211]}, "type": "Feature", "properties": {"collection_times": [{"days": "Mon-Fri", "time": "4:15pm"}, {"days": "Sat", "time": "2:00pm"}, {"days": "Sun", "time": "Closed"}], "id": "0142000036", "name": "USPS COLLECTION BOX - BLUE BOX", "address": {"city": "FITCHBURG", "state": "MA", "street": "477 MAIN ST", "postcode": "01420"}}},
{"geometry": {"type": "Point", "coordinates": [-71.8032000301, 42.5840947984]}, "type": "Feature", "properties": {"collection_times": [{"days": "Mon-Fri", "time": "4:15pm"}, {"days": "Sat", "time": "2:00pm"}, {"days": "Sun", "time": "Closed"}], "id": "0142000038", "name": "USPS COLLECTION BOX - BLUE BOX", "address": {"city": "FITCHBURG", "state": "MA", "street": "703 MAIN ST", "postcode": "01420"}}},
{"geometry": {"type": "Point", "coordinates": [-71.8018452473, 42.5826720206]}, "type": "Feature", "properties": {"collection_times": [{"days": "Mon-Fri", "time": "4:15pm"}, {"days": "Sat", "time": "2:00pm"}, {"days": "Sun", "time": "Closed"}], "id": "0142000039", "name": "USPS COLLECTION BOX - BLUE BOX", "address": {"city": "FITCHBURG", "state": "MA", "street": "166 BOULDER DR", "postcode": "01420"}}},
{"geometry": {"type": "Point", "coordinates": [-71.8054882354, 42.5796411524]}, "type": "Feature", "properties": {"collection_times": [{"days": "Mon-Fri", "time": "5:15pm"}, {"days": "Sat", "time": "2:00pm"}, {"days": "Sun", "time": "Closed"}], "id": "0142000040", "name": "USPS COLLECTION BOX - BLUE BOX", "address": {"city": "FITCHBURG", "state": "MA", "street": "900 MAIN ST", "postcode": "01420"}}},
{"geometry": {"type": "Point", "coordinates": [-71.8054882354, 42.5796411524]}, "type": "Feature", "properties": {"collection_times": [{"days": "Mon-Fri", "time": "5:15pm"}, {"days": "Sat", "time": "2:00pm"}, {"days": "Sun", "time": "Closed"}], "id": "0142000041", "name": "USPS COLLECTION BOX - EXPRESS", "address": {"city": "FITCHBURG", "state": "MA", "street": "900 MAIN ST", "postcode": "01420"}}},
{"geometry": {"type": "Point", "coordinates": [-71.8054882354, 42.5796411524]}, "type": "Feature", "properties": {"collection_times": [{"days": "Mon-Fri", "time": "5:15pm"}, {"days": "Sat", "time": "2:00pm"}, {"days": "Sun", "time": "Closed"}], "id": "0142000042", "name": "USPS COLLECTION BOX - BLUE BOX", "address": {"city": "FITCHBURG", "state": "MA", "street": "900 MAIN ST", "postcode": "01420"}}},
{"geometry": {"type": "Point", "coordinates": [-71.8054882354, 42.5796411524]}, "type": "Feature", "properties": {"collection_times": [{"days": "Mon-Fri", "time": "5:15pm"}, {"days": "Sat", "time": "2:00pm"}, {"days": "Sun", "time": "Closed"}], "id": "0142000043", "name": "USPS COLLECTION BOX - BLUE BOX", "address": {"city": "FITCHBURG", "state": "MA", "street": "900 MAIN ST", "postcode": "01420"}}},
{"geometry": {"type": "Point", "coordinates": [-71.8054882354, 42.5796411524]}, "type": "Feature", "properties": {"collection_times": [{"days": "Mon-Fri", "time": "5:15pm"}, {"days": "Sat", "time": "2:00pm"}, {"days": "Sun", "time": "Closed"}], "id": "0142000044", "name": "USPS COLLECTION BOX - BLUE BOX", "address": {"city": "FITCHBURG", "state": "MA", "street": "900 MAIN ST", "postcode": "01420"}}},
{"geometry": {"type": "Point", "coordinates": [-71.7964827023, 42.5821020204]}, "type": "Feature", "properties": {"collection_times": [{"days": "Mon-Fri", "time": "4:15pm"}, {"days": "Sat", "time": "2:00pm"}, {"days": "Sun", "time": "Closed"}], "id": "0142000047", "name": "USPS COLLECTION BOX - EXPRESS", "address": {"city": "FITCHBURG", "state": "MA", "street": "325 MAIN ST", "postcode": "01420"}}},
{"geometry": {"type": "Point", "coordinates": [-71.8221565564, 42.581502298]}, "type": "Feature", "properties": {"collection_times": [{"days": "Mon-Fri", "time": "4:15pm"}, {"days": "Sat", "time": "2:00pm"}, {"days": "Sun", "time": "Closed"}], "id": "0142000050", "name": "USPS COLLECTION BOX - BLUE BOX", "address": {"city": "FITCHBURG", "state": "MA", "street": "1 OAK HILL RD", "postcode": "01420"}}},
{"geometry": {"type": "Point", "coordinates": [-71.8054882352, 42.5796411064]}, "type": "Feature", "properties": {"collection_times": [{"days": "Mon-Fri", "time": "4:15pm"}, {"days": "Sat", "time": "2:00pm"}, {"days": "Sun", "time": "Closed"}], "id": "0142000051", "name": "USPS COLLECTION BOX - EXPRESS", "address": {"city": "FITCHBURG", "state": "MA", "street": "1 OAK HILL RD", "postcode": "01420"}}},
{"geometry": {"type": "Point", "coordinates": [-71.8130732885, 42.568004967]}, "type": "Feature", "properties": {"collection_times": [{"days": "Mon-Fri", "time": "4:15pm"}, {"days": "Sat", "time": "2:00pm"}, {"days": "Sun", "time": "Closed"}], "id": "0142000052", "name": "USPS COLLECTION BOX - BLUE BOX", "address": {"city": "FITCHBURG", "state": "MA", "street": "57 ROLLSTONE RD", "postcode": "01420"}}},
{"geometry": {"type": "Point", "coordinates": [-71.8054882352, 42.5796411064]}, "type": "Feature", "properties": {"collection_times": [{"days": "Mon-Fri", "time": "4:15pm"}, {"days": "Sat", "time": "2:00pm"}, {"days": "Sun", "time": "Closed"}], "id": "0142000053", "name": "USPS COLLECTION BOX - EXPRESS", "address": {"city": "FITCHBURG", "state": "MA", "street": "57 ROLLSTONE RD", "postcode": "01420"}}},
{"geometry": {"type": "Point", "coordinates": [-71.7889258188, 42.5878559728]}, "type": "Feature", "properties": {"collection_times": [{"days": "Mon-Fri", "time": "4:15pm"}, {"days": "Sat", "time": "2:00pm"}, {"days": "Sun", "time": "Closed"}], "id": "0142000054", "name": "USPS COLLECTION BOX - BLUE BOX", "address": {"city": "FITCHBURG", "state": "MA", "street": "160 PEARL ST", "postcode": "01420"}}},
{"geometry": {"type": "Point", "coordinates": [-71.7989039331, 42.5738413311]}, "type": "Feature", "properties": {"collection_times": [{"days": "Mon-Fri", "time": "4:15pm"}, {"days": "Sat", "time": "2:00pm"}, {"days": "Sun", "time": "Closed"}], "id": "0142000059", "name": "USPS COLLECTION BOX - BLUE BOX", "address": {"city": "FITCHBURG", "state": "MA", "street": "288 SOUTH ST", "postcode": "01420"}}},
{"geometry": {"type": "Point", "coordinates": [-71.7974807064, 42.5687431334]}, "type": "Feature", "properties": {"collection_times": [{"days": "Mon-Fri", "time": "4:15pm"}, {"days": "Sat", "time": "2:00pm"}, {"days": "Sun", "time": "Closed"}], "id": "0142000060", "name": "USPS COLLECTION BOX - BLUE BOX", "address": {"city": "FITCHBURG", "state": "MA", "street": "11 ELECTRIC AVE", "postcode": "01420"}}},
{"geometry": {"type": "Point", "coordinates": [-71.8054882354, 42.5796411524]}, "type": "Feature", "properties": {"collection_times": [{"days": "Mon-Fri", "time": "4:15pm"}, {"days": "Sat", "time": "2:00pm"}, {"days": "Sun", "time": "Closed"}], "id": "0142000062", "name": "USPS COLLECTION BOX - BLUE BOX", "address": {"city": "FITCHBURG", "state": "MA", "street": "76 SUMMER ST", "postcode": "01420"}}},
{"geometry": {"type": "Point", "coordinates": [-71.8054882354, 42.5796411524]}, "type": "Feature", "properties": {"collection_times": [{"days": "Mon-Fri", "time": "4:15pm"}, {"days": "Sat", "time": "2:00pm"}, {"days": "Sun", "time": "Closed"}], "id": "0142000063", "name": "USPS COLLECTION BOX - BLUE BOX", "address": {"city": "FITCHBURG", "state": "MA", "street": "364 SUMMER ST", "postcode": "01420"}}},
{"geometry": {"type": "Point", "coordinates": [-71.8130732885, 42.568004967]}, "type": "Feature", "properties": {"collection_times": [{"days": "Mon-Fri", "time": "4:15pm"}, {"days": "Sat", "time": "2:00pm"}, {"days": "Sun", "time": "Closed"}], "id": "0142000064", "name": "USPS COLLECTION BOX - BLUE BOX", "address": {"city": "FITCHBURG", "state": "MA", "street": "57 ROLLSTONE RD", "postcode": "01420"}}},
{"geometry": {"type": "Point", "coordinates": [-71.8152755527, 42.5883766688]}, "type": "Feature", "properties": {"collection_times": [{"days": "Mon-Fri", "time": "4:15pm"}, {"days": "Sat", "time": "2:00pm"}, {"days": "Sun", "time": "Closed"}], "id": "0142000065", "name": "USPS COLLECTION BOX - BLUE BOX", "address": {"city": "FITCHBURG", "state": "MA", "street": "325 JOHN FITCH HWY", "postcode": "01420"}}},
{"geometry": {"type": "Point", "coordinates": [-71.8054882352, 42.5796411064]}, "type": "Feature", "properties": {"collection_times": [{"days": "Mon-Fri", "time": "4:15pm"}, {"days": "Sat", "time": "2:00pm"}, {"days": "Sun", "time": "Closed"}], "id": "0142000066", "name": "USPS COLLECTION BOX - EXPRESS", "address": {"city": "FITCHBURG", "state": "MA", "street": "325 JOHN FITCH HWY", "postcode": "01420"}}},
{"geometry": {"type": "Point", "coordinates": [-71.8012660155, 42.5849171863]}, "type": "Feature", "properties": {"collection_times": [{"days": "Mon-Fri", "time": "12:00pm"}, {"days": "Sat", "time": "2:00pm"}, {"days": "Sun", "time": "Closed"}], "id": "0142000068", "name": "USPS COLLECTION BOX - BLUE BOX", "address": {"city": "FITCHBURG", "state": "MA", "street": "54 WALLACE AVE", "postcode": "01420"}}},
{"geometry": {"type": "Point", "coordinates": [-71.7945809784, 42.5797763247]}, "type": "Feature", "properties": {"collection_times": [{"days": "Mon-Fri", "time": "4:15pm"}, {"days": "Sat", "time": "2:00pm"}, {"days": "Sun", "time": "Closed"}], "id": "0142000069", "name": "USPS COLLECTION BOX - BLUE BOX", "address": {"city": "FITCHBURG", "state": "MA", "street": "130 WATER ST", "postcode": "01420"}}},
{"geometry": {"type": "Point", "coordinates": [-71.8450244237, 42.5658436694]}, "type": "Feature", "properties": {"collection_times": [{"days": "Mon-Fri", "time": "4:15pm"}, {"days": "Sat", "time": "2:00pm"}, {"days": "Sun", "time": "Closed"}], "id": "0142000072", "name": "USPS COLLECTION BOX - BLUE BOX", "address": {"city": "FITCHBURG", "state": "MA", "street": "545 WESTMINSTER ST", "postcode": "01420"}}},
{"geometry": {"type": "Point", "coordinates": [-71.7842394208, 42.5536448833]}, "type": "Feature", "properties": {"collection_times": [{"days": "Mon-Fri", "time": "4:15pm"}, {"days": "Sat", "time": "2:00pm"}, {"days": "Sun", "time": "Closed"}], "id": "0142000074", "name": "USPS COLLECTION BOX - BLUE BOX", "address": {"city": "FITCHBURG", "state": "MA", "street": "150 WHALON ST", "postcode": "01420"}}},
{"geometry": {"type": "Point", "coordinates": [-71.8054882352, 42.5796411064]}, "type": "Feature", "properties": {"collection_times": [{"days": "Mon-Fri", "time": "4:15pm"}, {"days": "Sat", "time": "2:00pm"}, {"days": "Sun", "time": "Closed"}], "id": "0142000075", "name": "USPS COLLECTION BOX - EXPRESS", "address": {"city": "FITCHBURG", "state": "MA", "street": "150 WHALON ST", "postcode": "01420"}}},
{"geometry": {"type": "Point", "coordinates": [-71.8054882354, 42.5796411524]}, "type": "Feature", "properties": {"collection_times": [{"days": "Mon-Fri", "time": "4:15pm"}, {"days": "Sat", "time": "2:00pm"}, {"days": "Sun", "time": "Closed"}], "id": "0142000078", "name": "USPS COLLECTION BOX - BLUE BOX", "address": {"city": "FITCHBURG", "state": "MA", "street": "767 RIVER ST", "postcode": "01420"}}},
{"geometry": {"type": "Point", "coordinates": [-71.8047847016, 42.5859646408]}, "type": "Feature", "properties": {"collection_times": [{"days": "Mon-Fri", "time": "5:00pm"}, {"days": "Sat", "time": "12:00pm"}, {"days": "Sun", "time": "Closed"}], "id": "0142000081", "name": "USPS COLLECTION BOX - PO LOBBY", "address": {"city": "FITCHBURG", "state": "MA", "street": "881 MAIN ST", "postcode": "01420"}}},
{"geometry": {"type": "Point", "coordinates": [-71.8047847016, 42.5859646408]}, "type": "Feature", "properties": {"collection_times": [{"days": "Mon-Fri", "time": "5:00pm"}, {"days": "Sat", "time": "12:00pm"}, {"days": "Sun", "time": "Closed"}], "id": "0142000082", "name": "USPS COLLECTION BOX - PO LOBBY", "address": {"city": "FITCHBURG", "state": "MA", "street": "881 MAIN ST", "postcode": "01420"}}},
{"geometry": {"type": "Point", "coordinates": [-71.8054882354, 42.5796411524]}, "type": "Feature", "properties": {"collection_times": [{"days": "Mon-Fri", "time": "4:15pm"}, {"days": "Sat", "time": "2:00pm"}, {"days": "Sun", "time": "Closed"}], "id": "0142000083", "name": "USPS COLLECTION BOX - BLUE BOX", "address": {"city": "FITCHBURG", "state": "MA", "street": "442 MECHANIC ST", "postcode": "01420"}}},
{"geometry": {"type": "Point", "coordinates": [-71.8054882352, 42.5796411064]}, "type": "Feature", "properties": {"collection_times": [{"days": "Mon-Fri", "time": "5:00pm"}, {"days": "Sat", "time": "12:00pm"}, {"days": "Sun", "time": "Closed"}], "id": "0142000084", "name": "USPS COLLECTION BOX - EXPRESS", "address": {"city": "FITCHBURG", "state": "MA", "street": "881 MAIN ST", "postcode": "01420"}}},
{"geometry": {"type": "Point", "coordinates": [-71.9195904626, 42.6268749199]}, "type": "Feature", "properties": {"collection_times": [{"days": "Mon-Fri", "time": "5:00pm"}, {"days": "Sat", "time": "1:45pm"}, {"days": "Sun", "time": "Closed"}], "id": "0143000001", "name": "USPS COLLECTION BOX - BLUE BOX", "address": {"city": "ASHBURNHAM", "state": "MA", "street": "123 CENTRAL ST", "postcode": "01430"}}},
{"geometry": {"type": "Point", "coordinates": [-71.929429517, 42.6532324646]}, "type": "Feature", "properties": {"collection_times": [{"days": "Mon-Fri", "time": "5:00pm"}, {"days": "Sat", "time": "1:45pm"}, {"days": "Sun", "time": "Closed"}], "id": "0143000003", "name": "USPS COLLECTION BOX - EXPRESS", "address": {"city": "ASHBURNHAM", "state": "MA", "street": "123 CENTRAL ST", "postcode": "01430"}}},
{"geometry": {"type": "Point", "coordinates": [-71.9501681588, 42.6049206068]}, "type": "Feature", "properties": {"collection_times": [{"days": "Mon-Sat", "time": "10:00am"}, {"days": "Sun", "time": "Closed"}], "id": "0143000005", "name": "USPS COLLECTION BOX - BLUE BOX", "address": {"city": "ASHBURNHAM", "state": "MA", "street": "6 GARDNER RD", "postcode": "01430"}}},
{"geometry": {"type": "Point", "coordinates": [-71.9195904626, 42.6268749199]}, "type": "Feature", "properties": {"collection_times": [{"days": "Mon-Fri", "time": "5:15pm"}, {"days": "Sat", "time": "12:00pm"}, {"days": "Sun", "time": "Closed"}], "id": "0143000006", "name": "USPS COLLECTION BOX - PO LOBBY", "address": {"city": "ASHBURNHAM", "state": "MA", "street": "123 CENTRAL ST", "postcode": "01430"}}},
{"geometry": {"type": "Point", "coordinates": [-71.8201722253, 42.6779184162]}, "type": "Feature", "properties": {"collection_times": [{"days": "Mon-Fri", "time": "4:45pm"}, {"days": "Sat", "time": "12:00pm"}, {"days": "Sun", "time": "Closed"}], "id": "0143100001", "name": "USPS COLLECTION BOX - BLUE BOX", "address": {"city": "ASHBY", "state": "MA", "street": "10 COMMON RD", "postcode": "01431"}}},
{"geometry": {"type": "Point", "coordinates": [-71.8201722253, 42.6779184162]}, "type": "Feature", "properties": {"collection_times": [{"days": "Mon-Fri", "time": "4:45pm"}, {"days": "Sat", "time": "12:00pm"}, {"days": "Sun", "time": "Closed"}], "id": "0143100003", "name": "USPS COLLECTION BOX - PO LOBBY", "address": {"city": "ASHBY", "state": "MA", "street": "10 COMMON RD", "postcode": "01431"}}},
{"geometry": {"type": "Point", "coordinates": [-71.8201722253, 42.6779184162]}, "type": "Feature", "properties": {"collection_times": [{"days": "Mon-Fri", "time": "4:45pm"}, {"days": "Sat", "time": "12:00pm"}, {"days": "Sun", "time": "Closed"}], "id": "0143100005", "name": "USPS COLLECTION BOX - BLUE BOX", "address": {"city": "ASHBY", "state": "MA", "street": "10 COMMON RD", "postcode": "01431"}}},
{"geometry": {"type": "Point", "coordinates": [-71.5864474583, 42.5591871848]}, "type": "Feature", "properties": {"collection_times": [{"days": "Mon-Fri", "time": "5:00pm"}, {"days": "Sat", "time": "2:45pm"}, {"days": "Sun", "time": "Closed"}], "id": "0143200001", "name": "USPS COLLECTION BOX - BLUE BOX", "address": {"city": "AYER", "state": "MA", "street": "1 COLUMBIA ST", "postcode": "01432"}}},
{"geometry": {"type": "Point", "coordinates": [-71.5750986635, 42.5627520701]}, "type": "Feature", "properties": {"collection_times": [{"days": "Mon-Fri", "time": "5:00pm"}, {"days": "Sat", "time": "2:45pm"}, {"days": "Sun", "time": "Closed"}], "id": "0143200002", "name": "USPS COLLECTION BOX - EXPRESS", "address": {"city": "AYER", "state": "MA", "street": "1 COLUMBIA ST", "postcode": "01432"}}},
{"geometry": {"type": "Point", "coordinates": [-71.5864474583, 42.5591871848]}, "type": "Feature", "properties": {"collection_times": [{"days": "Mon-Fri", "time": "5:00pm"}, {"days": "Sat", "time": "2:45pm"}, {"days": "Sun", "time": "Closed"}], "id": "0143200003", "name": "USPS COLLECTION BOX - BLUE BOX", "address": {"city": "AYER", "state": "MA", "street": "1 COLUMBIA ST", "postcode": "01432"}}},
{"geometry": {"type": "Point", "coordinates": [-71.5823809119, 42.5553390253]}, "type": "Feature", "properties": {"collection_times": [{"days": "Mon-Sat", "time": "10:00am"}, {"days": "Sun", "time": "Closed"}], "id": "0143200016", "name": "USPS COLLECTION BOX - BLUE BOX", "address": {"city": "AYER", "state": "MA", "street": "18 POND ST", "postcode": "01432"}}},
{"geometry": {"type": "Point", "coordinates": [-71.5911773947, 42.5758574486]}, "type": "Feature", "properties": {"collection_times": [{"days": "Mon-Sat", "time": "10:00am"}, {"days": "Sun", "time": "Closed"}], "id": "0143200017", "name": "USPS COLLECTION BOX - BLUE BOX", "address": {"city": "AYER", "state": "MA", "street": "75 GROTON SCHOOL RD", "postcode": "01432"}}},
{"geometry": {"type": "Point", "coordinates": [-71.588167098, 42.5595514607]}, "type": "Feature", "properties": {"collection_times": [{"days": "Mon-Sat", "time": "10:00am"}, {"days": "Sun", "time": "Closed"}], "id": "0143200019", "name": "USPS COLLECTION BOX - BLUE BOX", "address": {"city": "AYER", "state": "MA", "street": "92 WASHINGTON ST", "postcode": "01432"}}},
{"geometry": {"type": "Point", "coordinates": [-71.572806042, 42.5767931691]}, "type": "Feature", "properties": {"collection_times": [{"days": "Mon-Fri", "time": "4:00pm"}, {"days": "Sat", "time": "9:00am"}, {"days": "Sun", "time": "Closed"}], "id": "0143200020", "name": "USPS COLLECTION BOX - BLUE BOX", "address": {"city": "AYER", "state": "MA", "street": "200 GROTON RD", "postcode": "01432"}}},
{"geometry": {"type": "Point", "coordinates": [-71.5863887453, 42.5594420204]}, "type": "Feature", "properties": {"collection_times": [{"days": "Mon-Fri", "time": "4:00pm"}, {"days": "Sat", "time": "9:00am"}, {"days": "Sun", "time": "Closed"}], "id": "0143200021", "name": "USPS COLLECTION BOX - BLUE BOX", "address": {"city": "AYER", "state": "MA", "street": "190 GROTON RD", "postcode": "01432"}}},
{"geometry": {"type": "Point", "coordinates": [-71.5332768528, 42.5658221006]}, "type": "Feature", "properties": {"collection_times": [{"days": "Mon-Fri", "time": "4:00pm"}, {"days": "Sat", "time": "10:00am"}, {"days": "Sun", "time": "Closed"}], "id": "0143200022", "name": "USPS COLLECTION BOX - EXPRESS", "address": {"city": "AYER", "state": "MA", "street": "6 NEMCO WAY", "postcode": "01432"}}},
{"geometry": {"type": "Point", "coordinates": [-71.5332768528, 42.5658221006]}, "type": "Feature", "properties": {"collection_times": [{"days": "Mon-Fri", "time": "4:00pm"}, {"days": "Sat", "time": "10:00am"}, {"days": "Sun", "time": "Closed"}], "id": "0143200023", "name": "USPS COLLECTION BOX - BLUE BOX", "address": {"city": "AYER", "state": "MA", "street": "6 NEMCO WAY", "postcode": "01432"}}},
{"geometry": {"type": "Point", "coordinates": [-71.5384613864, 42.5620204674]}, "type": "Feature", "properties": {"collection_times": [{"days": "Mon-Sat", "time": "10:00am"}, {"days": "Sun", "time": "Closed"}], "id": "0143200025", "name": "USPS COLLECTION BOX - BLUE BOX", "address": {"city": "AYER", "state": "MA", "street": "18 WESTFORD RD", "postcode": "01432"}}},
{"geometry": {"type": "Point", "coordinates": [-71.5663648304, 42.5511832905]}, "type": "Feature", "properties": {"collection_times": [{"days": "Mon-Sat", "time": "10:00am"}, {"days": "Sun", "time": "Closed"}], "id": "0143200028", "name": "USPS COLLECTION BOX - BLUE BOX", "address": {"city": "AYER", "state": "MA", "street": "2 ATHERTON ST", "postcode": "01432"}}},
{"geometry": {"type": "Point", "coordinates": [-71.5938437842, 42.5603311122]}, "type": "Feature", "properties": {"collection_times": [{"days": "Mon-Sat", "time": "10:00am"}, {"days": "Sun", "time": "Closed"}], "id": "0143200029", "name": "USPS COLLECTION BOX - BLUE BOX", "address": {"city": "AYER", "state": "MA", "street": "70 E MAIN ST", "postcode": "01432"}}},
{"geometry": {"type": "Point", "coordinates": [-71.5863887453, 42.5594420204]}, "type": "Feature", "properties": {"collection_times": [{"days": "Mon-Fri", "time": "4:00pm"}, {"days": "Sat", "time": "10:00am"}, {"days": "Sun", "time": "Closed"}], "id": "0143200030", "name": "USPS COLLECTION BOX - BLUE BOX", "address": {"city": "AYER", "state": "MA", "street": "67 MAIN ST", "postcode": "01432"}}},
{"geometry": {"type": "Point", "coordinates": [-71.5614771977, 42.5499651346]}, "type": "Feature", "properties": {"collection_times": [{"days": "Mon-Sat", "time": "10:00am"}, {"days": "Sun", "time": "Closed"}], "id": "0143200031", "name": "USPS COLLECTION BOX - BLUE BOX", "address": {"city": "AYER", "state": "MA", "street": "55 LITTLETON RD", "postcode": "01432"}}},
{"geometry": {"type": "Point", "coordinates": [-71.5864474583, 42.5591871848]}, "type": "Feature", "properties": {"collection_times": [{"days": "Mon-Fri", "time": "5:30pm"}, {"days": "Sat", "time": "2:45pm"}, {"days": "Sun", "time": "Closed"}], "id": "0143200033", "name": "USPS COLLECTION BOX - PO LOBBY", "address": {"city": "AYER", "state": "MA", "street": "1 COLUMBIA ST", "postcode": "01432"}}},
{"geometry": {"type": "Point", "coordinates": [-71.5864474583, 42.5591871848]}, "type": "Feature", "properties": {"collection_times": [{"days": "Mon-Fri", "time": "5:30pm"}, {"days": "Sat", "time": "2:45pm"}, {"days": "Sun", "time": "Closed"}], "id": "0143200034", "name": "USPS COLLECTION BOX - PO LOBBY", "address": {"city": "AYER", "state": "MA", "street": "1 COLUMBIA ST", "postcode": "01432"}}},
{"geometry": {"type": "Point", "coordinates": [-71.5708920059, 42.5637786178]}, "type": "Feature", "properties": {"collection_times": [{"days": "Mon-Fri", "time": "5:00pm"}, {"days": "Sat", "time": "10:00am"}, {"days": "Sun", "time": "Closed"}], "id": "0143200035", "name": "USPS COLLECTION BOX - BLUE BOX", "address": {"city": "AYER", "state": "MA", "street": "240 BARNUM RD", "postcode": "01432"}}},
{"geometry": {"type": "Point", "coordinates": [-71.5750986635, 42.5627520701]}, "type": "Feature", "properties": {"collection_times": [{"days": "Mon-Fri", "time": "4:45pm"}, {"days": "Sat", "time": "10:00am"}, {"days": "Sun", "time": "Closed"}], "id": "0143200037", "name": "USPS COLLECTION BOX - EXPRESS", "address": {"city": "AYER", "state": "MA", "street": "240 BARNUM RD", "postcode": "01432"}}},
{"geometry": {"type": "Point", "coordinates": [-71.5708920059, 42.5637786178]}, "type": "Feature", "properties": {"collection_times": [{"days": "Mon-Fri", "time": "4:00pm"}, {"days": "Sat", "time": "10:00am"}, {"days": "Sun", "time": "Closed"}], "id": "0143200041", "name": "USPS COLLECTION BOX - BLUE BOX", "address": {"city": "AYER", "state": "MA", "street": "1 SHERMAN AVE", "postcode": "01432"}}},
{"geometry": {"type": "Point", "coordinates": [-71.5708920059, 42.5637786178]}, "type": "Feature", "properties": {"collection_times": [{"days": "Mon-Fri", "time": "4:00pm"}, {"days": "Sat", "time": "10:00am"}, {"days": "Sun", "time": "Closed"}], "id": "0143200043", "name": "USPS COLLECTION BOX - BLUE BOX", "address": {"city": "AYER", "state": "MA", "street": "25 ANDREWS PKWY", "postcode": "01432"}}},
{"geometry": {"type": "Point", "coordinates": [-71.5708920059, 42.5637786178]}, "type": "Feature", "properties": {"collection_times": [{"days": "Mon-Sat", "time": "10:00am"}, {"days": "Sun", "time": "Closed"}], "id": "0143200044", "name": "USPS COLLECTION BOX - BLUE BOX", "address": {"city": "AYER", "state": "MA", "street": "10 LAFAYETTE ST", "postcode": "01432"}}},
{"geometry": {"type": "Point", "coordinates": [-72.0752726661, 42.609045324]}, "type": "Feature", "properties": {"collection_times": [{"days": "Mon-Fri", "time": "5:00pm"}, {"days": "Sat", "time": "12:00pm"}, {"days": "Sun", "time": "Closed"}], "id": "0143600001", "name": "USPS COLLECTION BOX - BLUE BOX", "address": {"city": "BALDWINVILLE", "state": "MA", "street": "38 ELM ST", "postcode": "01436"}}},
{"geometry": {"type": "Point", "coordinates": [-72.0752879727, 42.6090761193]}, "type": "Feature", "properties": {"collection_times": [{"days": "Mon-Fri", "time": "5:00pm"}, {"days": "Sat", "time": "12:00pm"}, {"days": "Sun", "time": "Closed"}], "id": "0143600004", "name": "USPS COLLECTION BOX - PO LOBBY", "address": {"city": "BALDWINVILLE", "state": "MA", "street": "38 ELM ST", "postcode": "01436"}}},
{"geometry": {"type": "Point", "coordinates": [-72.0369478512, 42.5624714956]}, "type": "Feature", "properties": {"collection_times": [{"days": "Mon-Fri", "time": "5:00pm"}, {"days": "Sat", "time": "12:00pm"}, {"days": "Sun", "time": "Closed"}], "id": "0143800001", "name": "USPS COLLECTION BOX - BLUE BOX", "address": {"city": "EAST TEMPLETON", "state": "MA", "street": "132B PATRIOTS RD", "postcode": "01438"}}},
{"geometry": {"type": "Point", "coordinates": [-72.0369478512, 42.5624714956]}, "type": "Feature", "properties": {"collection_times": [{"days": "Mon-Fri", "time": "5:00pm"}, {"days": "Sat", "time": "12:00pm"}, {"days": "Sun", "time": "Closed"}], "id": "0143800002", "name": "USPS COLLECTION BOX - PO LOBBY", "address": {"city": "EAST TEMPLETON", "state": "MA", "street": "132B PATRIOTS RD", "postcode": "01438"}}},
{"geometry": {"type": "Point", "coordinates": [-71.9903986345, 42.5742142403]}, "type": "Feature", "properties": {"collection_times": [{"days": "Mon-Fri", "time": "5:30pm"}, {"days": "Sat", "time": "3:45pm"}, {"days": "Sun", "time": "Closed"}], "id": "0144000001", "name": "USPS COLLECTION BOX - BLUE BOX", "address": {"city": "GARDNER", "state": "MA", "street": "69 PLEASANT ST", "postcode": "01440"}}},
{"geometry": {"type": "Point", "coordinates": [-71.9903986345, 42.5742142403]}, "type": "Feature", "properties": {"collection_times": [{"days": "Mon-Fri", "time": "5:30pm"}, {"days": "Sat", "time": "3:45pm"}, {"days": "Sun", "time": "Closed"}], "id": "0144000002", "name": "USPS COLLECTION BOX - BLUE BOX", "address": {"city": "GARDNER", "state": "MA", "street": "69 PLEASANT ST", "postcode": "01440"}}},
{"geometry": {"type": "Point", "coordinates": [-71.9903986345, 42.5742142403]}, "type": "Feature", "properties": {"collection_times": [{"days": "Mon-Fri", "time": "5:30pm"}, {"days": "Sat", "time": "3:45pm"}, {"days": "Sun", "time": "Closed"}], "id": "0144000003", "name": "USPS COLLECTION BOX - BLUE BOX", "address": {"city": "GARDNER", "state": "MA", "street": "69 PLEASANT ST", "postcode": "01440"}}},
{"geometry": {"type": "Point", "coordinates": [-71.9903986345, 42.5742142403]}, "type": "Feature", "properties": {"collection_times": [{"days": "Mon-Fri", "time": "5:30pm"}, {"days": "Sat", "time": "3:45pm"}, {"days": "Sun", "time": "Closed"}], "id": "0144000004", "name": "USPS COLLECTION BOX - EXPRESS", "address": {"city": "GARDNER", "state": "MA", "street": "69 PLEASANT ST", "postcode": "01440"}}},
{"geometry": {"type": "Point", "coordinates": [-71.9903986345, 42.5742142403]}, "type": "Feature", "properties": {"collection_times": [{"days": "Mon-Sat", "time": "9:00am"}, {"days": "Sun", "time": "Closed"}], "id": "0144000005", "name": "USPS COLLECTION BOX - BLUE BOX", "address": {"city": "GARDNER", "state": "MA", "street": "29 PARKER ST", "postcode": "01440"}}},
{"geometry": {"type": "Point", "coordinates": [-72.0037507536, 42.5783216253]}, "type": "Feature", "properties": {"collection_times": [{"days": "Mon-Fri", "time": "3:15pm"}, {"days": "Sat", "time": "12:30pm"}, {"days": "Sun", "time": "Closed"}], "id": "0144000007", "name": "USPS COLLECTION BOX - BLUE BOX", "address": {"city": "GARDNER", "state": "MA", "street": "212 WEST ST", "postcode": "01440"}}},
{"geometry": {"type": "Point", "coordinates": [-71.9903986345, 42.5742142403]}, "type": "Feature", "properties": {"collection_times": [{"days": "Mon-Fri", "time": "3:15pm"}, {"days": "Sat", "time": "12:30pm"}, {"days": "Sun", "time": "Closed"}], "id": "0144000008", "name": "USPS COLLECTION BOX - BLUE BOX", "address": {"city": "GARDNER", "state": "MA", "street": "229 PARKER ST", "postcode": "01440"}}},
{"geometry": {"type": "Point", "coordinates": [-71.9914040487, 42.5581695003]}, "type": "Feature", "properties": {"collection_times": [{"days": "Mon-Fri", "time": "3:15pm"}, {"days": "Sat", "time": "12:30pm"}, {"days": "Sun", "time": "Closed"}], "id": "0144000010", "name": "USPS COLLECTION BOX - BLUE BOX", "address": {"city": "GARDNER", "state": "MA", "street": "372 TIMPANY BLVD", "postcode": "01440"}}},
{"geometry": {"type": "Point", "coordinates": [-71.9904073242, 42.5742141946]}, "type": "Feature", "properties": {"collection_times": [{"days": "Mon-Fri", "time": "3:15pm"}, {"days": "Sat", "time": "12:30pm"}, {"days": "Sun", "time": "Closed"}], "id": "0144000011", "name": "USPS COLLECTION BOX - EXPRESS", "address": {"city": "GARDNER", "state": "MA", "street": "372 TIMPANY BLVD", "postcode": "01440"}}},
{"geometry": {"type": "Point", "coordinates": [-71.979916268, 42.5572852942]}, "type": "Feature", "properties": {"collection_times": [{"days": "Mon-Fri", "time": "3:15pm"}, {"days": "Sat", "time": "12:30pm"}, {"days": "Sun", "time": "Closed"}], "id": "0144000013", "name": "USPS COLLECTION BOX - BLUE BOX", "address": {"city": "GARDNER", "state": "MA", "street": "20 E BROADWAY", "postcode": "01440"}}},
{"geometry": {"type": "Point", "coordinates": [-71.9797861405, 42.563042127]}, "type": "Feature", "properties": {"collection_times": [{"days": "Mon-Fri", "time": "3:15pm"}, {"days": "Sat", "time": "12:30pm"}, {"days": "Sun", "time": "Closed"}], "id": "0144000014", "name": "USPS COLLECTION BOX - BLUE BOX", "address": {"city": "GARDNER", "state": "MA", "street": "52 PEARSON BLVD", "postcode": "01440"}}},
{"geometry": {"type": "Point", "coordinates": [-71.9903986345, 42.5742142403]}, "type": "Feature", "properties": {"collection_times": [{"days": "Mon-Sat", "time": "11:00am"}, {"days": "Sun", "time": "Closed"}], "id": "0144000017", "name": "USPS COLLECTION BOX - BLUE BOX", "address": {"city": "GARDNER", "state": "MA", "street": "236 PARK ST", "postcode": "01440"}}},
{"geometry": {"type": "Point", "coordinates": [-71.9861997963, 42.5864738311]}, "type": "Feature", "properties": {"collection_times": [{"days": "Mon-Fri", "time": "3:15pm"}, {"days": "Sat", "time": "12:30pm"}, {"days": "Sun", "time": "Closed"}], "id": "0144000018", "name": "USPS COLLECTION BOX - BLUE BOX", "address": {"city": "GARDNER", "state": "MA", "street": "242 GREEN ST", "postcode": "01440"}}},
{"geometry": {"type": "Point", "coordinates": [-71.9812821801, 42.5830215926]}, "type": "Feature", "properties": {"collection_times": [{"days": "Mon-Sat", "time": "11:00am"}, {"days": "Sun", "time": "Closed"}], "id": "0144000020", "name": "USPS COLLECTION BOX - BLUE BOX", "address": {"city": "GARDNER", "state": "MA", "street": "137 BLANCHARD ST", "postcode": "01440"}}},
{"geometry": {"type": "Point", "coordinates": [-71.986487975, 42.5797907871]}, "type": "Feature", "properties": {"collection_times": [{"days": "Mon-Fri", "time": "3:15pm"}, {"days": "Sat", "time": "12:30pm"}, {"days": "Sun", "time": "Closed"}], "id": "0144000021", "name": "USPS COLLECTION BOX - BLUE BOX", "address": {"city": "GARDNER", "state": "MA", "street": "5 CENTRAL ST", "postcode": "01440"}}},
{"geometry": {"type": "Point", "coordinates": [-71.9748908684, 42.5807493127]}, "type": "Feature", "properties": {"collection_times": [{"days": "Mon-Sat", "time": "12:00pm"}, {"days": "Sun", "time": "Closed"}], "id": "0144000025", "name": "USPS COLLECTION BOX - BLUE BOX", "address": {"city": "GARDNER", "state": "MA", "street": "105 RIDGEWOOD LN", "postcode": "01440"}}},
{"geometry": {"type": "Point", "coordinates": [-71.9477569594, 42.5673092239]}, "type": "Feature", "properties": {"collection_times": [{"days": "Mon-Sat", "time": "9:00am"}, {"days": "Sun", "time": "Closed"}], "id": "0144000026", "name": "USPS COLLECTION BOX - BLUE BOX", "address": {"city": "GARDNER", "state": "MA", "street": "51 OLDE COLONIAL DR", "postcode": "01440"}}},
{"geometry": {"type": "Point", "coordinates": [-71.9903986345, 42.5742142403]}, "type": "Feature", "properties": {"collection_times": [{"days": "Mon-Sat", "time": "12:30pm"}, {"days": "Sun", "time": "Closed"}], "id": "0144000027", "name": "USPS COLLECTION BOX - BLUE BOX", "address": {"city": "GARDNER", "state": "MA", "street": "9 SUNRISE LN", "postcode": "01440"}}},
{"geometry": {"type": "Point", "coordinates": [-71.9904073242, 42.5742141946]}, "type": "Feature", "properties": {"collection_times": [{"days": "Mon-Fri", "time": "3:15pm"}, {"days": "Sat", "time": "12:30pm"}, {"days": "Sun", "time": "Closed"}], "id": "0144000028", "name": "USPS COLLECTION BOX - EXPRESS", "address": {"city": "GARDNER", "state": "MA", "street": "52 PEARSON BLVD", "postcode": "01440"}}},
{"geometry": {"type": "Point", "coordinates": [-71.9940661823, 42.5785954127]}, "type": "Feature", "properties": {"collection_times": [{"days": "Mon-Fri", "time": "3:15pm"}, {"days": "Sat", "time": "12:30pm"}, {"days": "Sun", "time": "Closed"}], "id": "0144000030", "name": "USPS COLLECTION BOX - BLUE BOX", "address": {"city": "GARDNER", "state": "MA", "street": "71 LAKE ST", "postcode": "01440"}}},
{"geometry": {"type": "Point", "coordinates": [-71.9978016982, 42.5593400094]}, "type": "Feature", "properties": {"collection_times": [{"days": "Mon-Sat", "time": "1:00pm"}, {"days": "Sun", "time": "Closed"}], "id": "0144000034", "name": "USPS COLLECTION BOX - BLUE BOX", "address": {"city": "GARDNER", "state": "MA", "street": "152 MANCA DR", "postcode": "01440"}}},
{"geometry": {"type": "Point", "coordinates": [-71.9903986345, 42.5742142403]}, "type": "Feature", "properties": {"collection_times": [{"days": "Mon-Fri", "time": "5:30pm"}, {"days": "Sat", "time": "3:45pm"}, {"days": "Sun", "time": "Closed"}], "id": "0144000036", "name": "USPS COLLECTION BOX - BLUE BOX", "address": {"city": "GARDNER", "state": "MA", "street": "69 PLEASANT ST", "postcode": "01440"}}},
{"geometry": {"type": "Point", "coordinates": [-71.9903986345, 42.5742142403]}, "type": "Feature", "properties": {"collection_times": [{"days": "Mon-Fri", "time": "3:15pm"}, {"days": "Sat", "time": "12:30pm"}, {"days": "Sun", "time": "Closed"}], "id": "0144000037", "name": "USPS COLLECTION BOX - BLUE BOX", "address": {"city": "GARDNER", "state": "MA", "street": "167 MAIN ST", "postcode": "01440"}}},
{"geometry": {"type": "Point", "coordinates": [-71.9903986345, 42.5742142403]}, "type": "Feature", "properties": {"collection_times": [{"days": "Mon-Fri", "time": "3:15pm"}, {"days": "Sat-Sun", "time": "Closed"}], "id": "0144000038", "name": "USPS COLLECTION BOX - BLUE BOX", "address": {"city": "GARDNER", "state": "MA", "street": "95 PLEASANT ST", "postcode": "01440"}}},
{"geometry": {"type": "Point", "coordinates": [-71.9863679365, 42.5744743839]}, "type": "Feature", "properties": {"collection_times": [{"days": "Mon-Fri", "time": "3:15pm"}, {"days": "Sat", "time": "12:30pm"}, {"days": "Sun", "time": "Closed"}], "id": "0144000040", "name": "USPS COLLECTION BOX - BLUE BOX", "address": {"city": "GARDNER", "state": "MA", "street": "205 SCHOOL ST", "postcode": "01440"}}},
{"geometry": {"type": "Point", "coordinates": [-71.5696379506, 42.6070887777]}, "type": "Feature", "properties": {"collection_times": [{"days": "Mon-Sat", "time": "11:00am"}, {"days": "Sun", "time": "Closed"}], "id": "0145000001", "name": "USPS COLLECTION BOX - BLUE BOX", "address": {"city": "GROTON", "state": "MA", "street": "148 MAIN ST", "postcode": "01450"}}},
{"geometry": {"type": "Point", "coordinates": [-71.5175985301, 42.5750033522]}, "type": "Feature", "properties": {"collection_times": [{"days": "Mon-Sat", "time": "9:00am"}, {"days": "Sun", "time": "Closed"}], "id": "0145000002", "name": "USPS COLLECTION BOX - BLUE BOX", "address": {"city": "GROTON", "state": "MA", "street": "871 BOSTON RD", "postcode": "01450"}}},
{"geometry": {"type": "Point", "coordinates": [-71.574960803, 42.6112902644]}, "type": "Feature", "properties": {"collection_times": [{"days": "Mon-Sat", "time": "10:00am"}, {"days": "Sun", "time": "Closed"}], "id": "0145000003", "name": "USPS COLLECTION BOX - BLUE BOX", "address": {"city": "GROTON", "state": "MA", "street": "250 MAIN ST", "postcode": "01450"}}},
{"geometry": {"type": "Point", "coordinates": [-71.557305866, 42.6075534218]}, "type": "Feature", "properties": {"collection_times": [{"days": "Mon-Sat", "time": "11:00am"}, {"days": "Sun", "time": "Closed"}], "id": "0145000004", "name": "USPS COLLECTION BOX - EXPRESS", "address": {"city": "GROTON", "state": "MA", "street": "145 MAIN ST", "postcode": "01450"}}},
{"geometry": {"type": "Point", "coordinates": [-71.5698569253, 42.607182202]}, "type": "Feature", "properties": {"collection_times": [{"days": "Mon-Sat", "time": "11:00am"}, {"days": "Sun", "time": "Closed"}], "id": "0145000005", "name": "USPS COLLECTION BOX - BLUE BOX", "address": {"city": "GROTON", "state": "MA", "street": "145 MAIN ST", "postcode": "01450"}}},
{"geometry": {"type": "Point", "coordinates": [-71.557305866, 42.6075534218]}, "type": "Feature", "properties": {"collection_times": [{"days": "Mon-Sat", "time": "10:00am"}, {"days": "Sun", "time": "Closed"}], "id": "0145000008", "name": "USPS COLLECTION BOX - EXPRESS", "address": {"city": "GROTON", "state": "MA", "street": "250 MAIN ST", "postcode": "01450"}}},
{"geometry": {"type": "Point", "coordinates": [-71.557305866, 42.6075534218]}, "type": "Feature", "properties": {"collection_times": [{"days": "Mon-Sat", "time": "11:00am"}, {"days": "Sun", "time": "Closed"}], "id": "0145000009", "name": "USPS COLLECTION BOX - BLUE BOX", "address": {"city": "GROTON", "state": "MA", "street": "8 LABBE RD", "postcode": "01450"}}},
{"geometry": {"type": "Point", "coordinates": [-71.557305866, 42.6075534218]}, "type": "Feature", "properties": {"collection_times": [{"days": "Mon-Fri", "time": "5:00pm"}, {"days": "Sat", "time": "3:00pm"}, {"days": "Sun", "time": "Closed"}], "id": "0145000010", "name": "USPS COLLECTION BOX - EXPRESS", "address": {"city": "GROTON", "state": "MA", "street": "80 BOSTON RD", "postcode": "01450"}}},
{"geometry": {"type": "Point", "coordinates": [-71.5626173433, 42.5975268751]}, "type": "Feature", "properties": {"collection_times": [{"days": "Mon-Fri", "time": "5:00pm"}, {"days": "Sat", "time": "3:00pm"}, {"days": "Sun", "time": "Closed"}], "id": "0145000011", "name": "USPS COLLECTION BOX - BLUE BOX", "address": {"city": "GROTON", "state": "MA", "street": "80 BOSTON RD", "postcode": "01450"}}},
{"geometry": {"type": "Point", "coordinates": [-71.5626173433, 42.5975268751]}, "type": "Feature", "properties": {"collection_times": [{"days": "Mon-Fri", "time": "5:00pm"}, {"days": "Sat", "time": "3:00pm"}, {"days": "Sun", "time": "Closed"}], "id": "0145000012", "name": "USPS COLLECTION BOX - BLUE BOX", "address": {"city": "GROTON", "state": "MA", "street": "80 BOSTON RD", "postcode": "01450"}}},
{"geometry": {"type": "Point", "coordinates": [-71.5626173433, 42.5975268751]}, "type": "Feature", "properties": {"collection_times": [{"days": "Mon-Fri", "time": "5:00pm"}, {"days": "Sat", "time": "3:00pm"}, {"days": "Sun", "time": "Closed"}], "id": "0145000013", "name": "USPS COLLECTION BOX - PO LOBBY", "address": {"city": "GROTON", "state": "MA", "street": "80 BOSTON RD", "postcode": "01450"}}},
{"geometry": {"type": "Point", "coordinates": [-71.5626173433, 42.5975268751]}, "type": "Feature", "properties": {"collection_times": [{"days": "Mon-Fri", "time": "5:00pm"}, {"days": "Sat", "time": "3:00pm"}, {"days": "Sun", "time": "Closed"}], "id": "0145000014", "name": "USPS COLLECTION BOX - PO LOBBY", "address": {"city": "GROTON", "state": "MA", "street": "80 BOSTON RD", "postcode": "01450"}}},
{"geometry": {"type": "Point", "coordinates": [-71.572246934, 42.6090036089]}, "type": "Feature", "properties": {"collection_times": [{"days": "Mon-Fri", "time": "11:30am"}, {"days": "Sat", "time": "10:00am"}, {"days": "Sun", "time": "Closed"}], "id": "0145000017", "name": "USPS COLLECTION BOX - BLUE BOX", "address": {"city": "GROTON", "state": "MA", "street": "79 HOLLIS ST", "postcode": "01450"}}},
{"geometry": {"type": "Point", "coordinates": [-71.5746408114, 42.5431119615]}, "type": "Feature", "properties": {"collection_times": [{"days": "Mon-Fri", "time": "10:00am"}, {"days": "Sat-Sun", "time": "Closed"}], "id": "0145100004", "name": "USPS COLLECTION BOX - BLUE BOX", "address": {"city": "HARVARD", "state": "MA", "street": "325 AYER RD", "postcode": "01451"}}},
{"geometry": {"type": "Point", "coordinates": [-71.5745381578, 42.5059411232]}, "type": "Feature", "properties": {"collection_times": [{"days": "Mon-Fri", "time": "4:30pm"}, {"days": "Sat", "time": "12:00pm"}, {"days": "Sun", "time": "Closed"}], "id": "0145100005", "name": "USPS COLLECTION BOX - EXPRESS", "address": {"city": "HARVARD", "state": "MA", "street": "215 AYER RD", "postcode": "01451"}}},
{"geometry": {"type": "Point", "coordinates": [-71.5840417863, 42.5007289077]}, "type": "Feature", "properties": {"collection_times": [{"days": "Mon-Sat", "time": "10:00am"}, {"days": "Sun", "time": "Closed"}], "id": "0145100006", "name": "USPS COLLECTION BOX - BLUE BOX", "address": {"city": "HARVARD", "state": "MA", "street": "1 STILL RIVER RD", "postcode": "01451"}}},
{"geometry": {"type": "Point", "coordinates": [-71.5781873223, 42.5290513112]}, "type": "Feature", "properties": {"collection_times": [{"days": "Mon-Fri", "time": "4:30pm"}, {"days": "Sat", "time": "12:00pm"}, {"days": "Sun", "time": "Closed"}], "id": "0145100007", "name": "USPS COLLECTION BOX - PO LOBBY", "address": {"city": "HARVARD", "state": "MA", "street": "215 AYER RD", "postcode": "01451"}}},
{"geometry": {"type": "Point", "coordinates": [-71.5781873223, 42.5290513112]}, "type": "Feature", "properties": {"collection_times": [{"days": "Mon-Fri", "time": "4:30pm"}, {"days": "Sat", "time": "12:00pm"}, {"days": "Sun", "time": "Closed"}], "id": "0145100008", "name": "USPS COLLECTION BOX - PO LOBBY", "address": {"city": "HARVARD", "state": "MA", "street": "215 AYER RD", "postcode": "01451"}}},
{"geometry": {"type": "Point", "coordinates": [-71.5781873223, 42.5290513112]}, "type": "Feature", "properties": {"collection_times": [{"days": "Mon-Fri", "time": "4:30pm"}, {"days": "Sat", "time": "12:00pm"}, {"days": "Sun", "time": "Closed"}], "id": "0145100009", "name": "USPS COLLECTION BOX - BLUE BOX", "address": {"city": "HARVARD", "state": "MA", "street": "215 AYER RD", "postcode": "01451"}}},
{"geometry": {"type": "Point", "coordinates": [-71.9929969477, 42.4804316423]}, "type": "Feature", "properties": {"collection_times": [{"days": "Mon-Fri", "time": "4:30pm"}, {"days": "Sat", "time": "11:45am"}, {"days": "Sun", "time": "Closed"}], "id": "0145200001", "name": "USPS COLLECTION BOX - BLUE BOX", "address": {"city": "HUBBARDSTON", "state": "MA", "street": "6 MAIN ST", "postcode": "01452"}}},
{"geometry": {"type": "Point", "coordinates": [-71.9929969477, 42.4804316423]}, "type": "Feature", "properties": {"collection_times": [{"days": "Mon-Fri", "time": "4:30pm"}, {"days": "Sat", "time": "11:45am"}, {"days": "Sun", "time": "Closed"}], "id": "0145200002", "name": "USPS COLLECTION BOX - PO LOBBY", "address": {"city": "HUBBARDSTON", "state": "MA", "street": "6 MAIN ST", "postcode": "01452"}}},
{"geometry": {"type": "Point", "coordinates": [-71.7127978583, 42.5247933365]}, "type": "Feature", "properties": {"collection_times": [{"days": "Mon-Sat", "time": "9:30am"}, {"days": "Sun", "time": "Closed"}], "id": "0145300001", "name": "USPS COLLECTION BOX - BLUE BOX", "address": {"city": "LEOMINSTER", "state": "MA", "street": "30 ORCHARD HILL PARK DR", "postcode": "01453"}}},
{"geometry": {"type": "Point", "coordinates": [-71.750646178, 42.4848985508]}, "type": "Feature", "properties": {"collection_times": [{"days": "Mon-Sat", "time": "1:00pm"}, {"days": "Sun", "time": "Closed"}], "id": "0145300002", "name": "USPS COLLECTION BOX - BLUE BOX", "address": {"city": "LEOMINSTER", "state": "MA", "street": "30 JYTEK DR", "postcode": "01453"}}},
{"geometry": {"type": "Point", "coordinates": [-71.7667935679, 42.5285544684]}, "type": "Feature", "properties": {"collection_times": [{"days": "Mon-Sat", "time": "12:30pm"}, {"days": "Sun", "time": "Closed"}], "id": "0145300003", "name": "USPS COLLECTION BOX - BLUE BOX", "address": {"city": "LEOMINSTER", "state": "MA", "street": "120 WEST ST", "postcode": "01453"}}},
{"geometry": {"type": "Point", "coordinates": [-71.7618795563, 42.526867569]}, "type": "Feature", "properties": {"collection_times": [{"days": "Mon-Fri", "time": "4:45pm"}, {"days": "Sat", "time": "1:00pm"}, {"days": "Sun", "time": "Closed"}], "id": "0145300005", "name": "USPS COLLECTION BOX - BLUE BOX", "address": {"city": "LEOMINSTER", "state": "MA", "street": "25 WEST ST", "postcode": "01453"}}},
{"geometry": {"type": "Point", "coordinates": [-71.7597931284, 42.5263998338]}, "type": "Feature", "properties": {"collection_times": [{"days": "Mon-Fri", "time": "3:00pm"}, {"days": "Sat", "time": "1:00pm"}, {"days": "Sun", "time": "Closed"}], "id": "0145300006", "name": "USPS COLLECTION BOX - BLUE BOX", "address": {"city": "LEOMINSTER", "state": "MA", "street": "2 WEST ST", "postcode": "01453"}}},
{"geometry": {"type": "Point", "coordinates": [-71.7545169758, 42.5282223578]}, "type": "Feature", "properties": {"collection_times": [{"days": "Mon-Sat", "time": "1:00pm"}, {"days": "Sun", "time": "Closed"}], "id": "0145300008", "name": "USPS COLLECTION BOX - BLUE BOX", "address": {"city": "LEOMINSTER", "state": "MA", "street": "106 WATER ST", "postcode": "01453"}}},
{"geometry": {"type": "Point", "coordinates": [-71.7401793571, 42.5302804056]}, "type": "Feature", "properties": {"collection_times": [{"days": "Mon-Sat", "time": "1:00pm"}, {"days": "Sun", "time": "Closed"}], "id": "0145300009", "name": "USPS COLLECTION BOX - BLUE BOX", "address": {"city": "LEOMINSTER", "state": "MA", "street": "100 COMMERCIAL RD", "postcode": "01453"}}},
{"geometry": {"type": "Point", "coordinates": [-71.7438879334, 42.5308766169]}, "type": "Feature", "properties": {"collection_times": [{"days": "Mon-Sat", "time": "1:00pm"}, {"days": "Sun", "time": "Closed"}], "id": "0145300011", "name": "USPS COLLECTION BOX - BLUE BOX", "address": {"city": "LEOMINSTER", "state": "MA", "street": "71 SACK BLVD", "postcode": "01453"}}},
{"geometry": {"type": "Point", "coordinates": [-71.7599685966, 42.5262517782]}, "type": "Feature", "properties": {"collection_times": [{"days": "Mon-Sat", "time": "1:00pm"}, {"days": "Sun", "time": "Closed"}], "id": "0145300015", "name": "USPS COLLECTION BOX - BLUE BOX", "address": {"city": "LEOMINSTER", "state": "MA", "street": "7O PLEASANT ST", "postcode": "01453"}}},
{"geometry": {"type": "Point", "coordinates": [-71.7602557262, 42.5258242463]}, "type": "Feature", "properties": {"collection_times": [{"days": "Mon-Sat", "time": "12:00pm"}, {"days": "Sun", "time": "Closed"}], "id": "0145300016", "name": "USPS COLLECTION BOX - BLUE BOX", "address": {"city": "LEOMINSTER", "state": "MA", "street": "23 PLEASANT ST", "postcode": "01453"}}},
{"geometry": {"type": "Point", "coordinates": [-71.7678641458, 42.530642391]}, "type": "Feature", "properties": {"collection_times": [{"days": "Mon-Sat", "time": "1:00pm"}, {"days": "Sun", "time": "Closed"}], "id": "0145300021", "name": "USPS COLLECTION BOX - BLUE BOX", "address": {"city": "LEOMINSTER", "state": "MA", "street": "203 MERRIAM AVE", "postcode": "01453"}}},
{"geometry": {"type": "Point", "coordinates": [-71.762950525, 42.5419878085]}, "type": "Feature", "properties": {"collection_times": [{"days": "Mon-Sat", "time": "9:30am"}, {"days": "Sun", "time": "Closed"}], "id": "0145300022", "name": "USPS COLLECTION BOX - BLUE BOX", "address": {"city": "LEOMINSTER", "state": "MA", "street": "50 MEMORIAL DR", "postcode": "01453"}}},
{"geometry": {"type": "Point", "coordinates": [-71.7593730612, 42.5251381286]}, "type": "Feature", "properties": {"collection_times": [{"days": "Mon-Fri", "time": "4:00pm"}, {"days": "Sat", "time": "1:00pm"}, {"days": "Sun", "time": "Closed"}], "id": "0145300023", "name": "USPS COLLECTION BOX - BLUE BOX", "address": {"city": "LEOMINSTER", "state": "MA", "street": "14 MANNING AVE", "postcode": "01453"}}},
{"geometry": {"type": "Point", "coordinates": [-71.7476674873, 42.565266417]}, "type": "Feature", "properties": {"collection_times": [{"days": "Mon-Sat", "time": "12:00pm"}, {"days": "Sun", "time": "Closed"}], "id": "0145300024", "name": "USPS COLLECTION BOX - BLUE BOX", "address": {"city": "LEOMINSTER", "state": "MA", "street": "1287 MAIN ST", "postcode": "01453"}}},
{"geometry": {"type": "Point", "coordinates": [-71.7545169758, 42.5282223578]}, "type": "Feature", "properties": {"collection_times": [{"days": "Mon-Sat", "time": "12:00pm"}, {"days": "Sun", "time": "Closed"}], "id": "0145300025", "name": "USPS COLLECTION BOX - BLUE BOX", "address": {"city": "LEOMINSTER", "state": "MA", "street": "636 MAIN ST", "postcode": "01453"}}},
{"geometry": {"type": "Point", "coordinates": [-71.7545169758, 42.5282223578]}, "type": "Feature", "properties": {"collection_times": [{"days": "Mon-Sat", "time": "1:00pm"}, {"days": "Sun", "time": "Closed"}], "id": "0145300026", "name": "USPS COLLECTION BOX - BLUE BOX", "address": {"city": "LEOMINSTER", "state": "MA", "street": "568 MAIN ST", "postcode": "01453"}}},
{"geometry": {"type": "Point", "coordinates": [-71.7545169758, 42.5282223578]}, "type": "Feature", "properties": {"collection_times": [{"days": "Mon-Sat", "time": "12:00pm"}, {"days": "Sun", "time": "Closed"}], "id": "0145300028", "name": "USPS COLLECTION BOX - BLUE BOX", "address": {"city": "LEOMINSTER", "state": "MA", "street": "116 POND ST", "postcode": "01453"}}},
{"geometry": {"type": "Point", "coordinates": [-71.7546777022, 42.5206274604]}, "type": "Feature", "properties": {"collection_times": [{"days": "Mon-Fri", "time": "12:00pm"}, {"days": "Sat", "time": "9:30am"}, {"days": "Sun", "time": "Closed"}], "id": "0145300030", "name": "USPS COLLECTION BOX - BLUE BOX", "address": {"city": "LEOMINSTER", "state": "MA", "street": "118 LANCASTER ST", "postcode": "01453"}}},
{"geometry": {"type": "Point", "coordinates": [-71.762950525, 42.5419878085]}, "type": "Feature", "properties": {"collection_times": [{"days": "Mon-Sat", "time": "1:00pm"}, {"days": "Sun", "time": "Closed"}], "id": "0145300031", "name": "USPS COLLECTION BOX - BLUE BOX", "address": {"city": "LEOMINSTER", "state": "MA", "street": "50 MEMORIAL DR", "postcode": "01453"}}},
{"geometry": {"type": "Point", "coordinates": [-71.7551982041, 42.535082036]}, "type": "Feature", "properties": {"collection_times": [{"days": "Mon-Sat", "time": "12:00pm"}, {"days": "Sun", "time": "Closed"}], "id": "0145300033", "name": "USPS COLLECTION BOX - BLUE BOX", "address": {"city": "LEOMINSTER", "state": "MA", "street": "54 GREEN ST", "postcode": "01453"}}},
{"geometry": {"type": "Point", "coordinates": [-71.7565633388, 42.5473552353]}, "type": "Feature", "properties": {"collection_times": [{"days": "Mon-Sat", "time": "1:00pm"}, {"days": "Sun", "time": "Closed"}], "id": "0145300036", "name": "USPS COLLECTION BOX - BLUE BOX", "address": {"city": "LEOMINSTER", "state": "MA", "street": "100 ERDMAN WAY", "postcode": "01453"}}},
{"geometry": {"type": "Point", "coordinates": [-71.7596792527, 42.5233435342]}, "type": "Feature", "properties": {"collection_times": [{"days": "Mon-Sat", "time": "1:00pm"}, {"days": "Sun", "time": "Closed"}], "id": "0145300041", "name": "USPS COLLECTION BOX - BLUE BOX", "address": {"city": "LEOMINSTER", "state": "MA", "street": "20 ADAMS ST", "postcode": "01453"}}},
{"geometry": {"type": "Point", "coordinates": [-71.7545169758, 42.5282223578]}, "type": "Feature", "properties": {"collection_times": [{"days": "Mon-Sat", "time": "1:00pm"}, {"days": "Sun", "time": "Closed"}], "id": "0145300043", "name": "USPS COLLECTION BOX - BLUE BOX", "address": {"city": "LEOMINSTER", "state": "MA", "street": "206 MECHANIC ST", "postcode": "01453"}}},
{"geometry": {"type": "Point", "coordinates": [-71.7489403512, 42.5255556675]}, "type": "Feature", "properties": {"collection_times": [{"days": "Mon-Sat", "time": "1:00pm"}, {"days": "Sun", "time": "Closed"}], "id": "0145300044", "name": "USPS COLLECTION BOX - BLUE BOX", "address": {"city": "LEOMINSTER", "state": "MA", "street": "140 SPRUCE ST", "postcode": "01453"}}},
{"geometry": {"type": "Point", "coordinates": [-71.759872075, 42.525625462]}, "type": "Feature", "properties": {"collection_times": [{"days": "Mon-Sat", "time": "9:30am"}, {"days": "Sun", "time": "Closed"}], "id": "0145300046", "name": "USPS COLLECTION BOX - BLUE BOX", "address": {"city": "LEOMINSTER", "state": "MA", "street": "15 MONUMENT SQ", "postcode": "01453"}}},
{"geometry": {"type": "Point", "coordinates": [-71.7597373118, 42.5264401767]}, "type": "Feature", "properties": {"collection_times": [{"days": "Mon-Fri", "time": "5:00pm"}, {"days": "Sat", "time": "1:00pm"}, {"days": "Sun", "time": "Closed"}], "id": "0145300047", "name": "USPS COLLECTION BOX - EXPRESS", "address": {"city": "LEOMINSTER", "state": "MA", "street": "68 MAIN ST", "postcode": "01453"}}},
{"geometry": {"type": "Point", "coordinates": [-71.7422033714, 42.5347526905]}, "type": "Feature", "properties": {"collection_times": [{"days": "Mon-Sat", "time": "1:00pm"}, {"days": "Sun", "time": "Closed"}], "id": "0145300050", "name": "USPS COLLECTION BOX - BLUE BOX", "address": {"city": "LEOMINSTER", "state": "MA", "street": "20 COMMERICAL RD", "postcode": "01453"}}},
{"geometry": {"type": "Point", "coordinates": [-71.7571311591, 42.5158625017]}, "type": "Feature", "properties": {"collection_times": [{"days": "Mon-Sat", "time": "10:30am"}, {"days": "Sun", "time": "Closed"}], "id": "0145300051", "name": "USPS COLLECTION BOX - BLUE BOX", "address": {"city": "LEOMINSTER", "state": "MA", "street": "285 CENTRAL ST", "postcode": "01453"}}},
{"geometry": {"type": "Point", "coordinates": [-71.7597373118, 42.5264401767]}, "type": "Feature", "properties": {"collection_times": [{"days": "Mon-Fri", "time": "5:00pm"}, {"days": "Sat", "time": "1:00pm"}, {"days": "Sun", "time": "Closed"}], "id": "0145300052", "name": "USPS COLLECTION BOX - BLUE BOX", "address": {"city": "LEOMINSTER", "state": "MA", "street": "68 MAIN ST", "postcode": "01453"}}},
{"geometry": {"type": "Point", "coordinates": [-71.7597373118, 42.5264401767]}, "type": "Feature", "properties": {"collection_times": [{"days": "Mon-Fri", "time": "5:00pm"}, {"days": "Sat", "time": "1:00pm"}, {"days": "Sun", "time": "Closed"}], "id": "0145300053", "name": "USPS COLLECTION BOX - BLUE BOX", "address": {"city": "LEOMINSTER", "state": "MA", "street": "68 MAIN ST", "postcode": "01453"}}},
{"geometry": {"type": "Point", "coordinates": [-71.7597373118, 42.5264401767]}, "type": "Feature", "properties": {"collection_times": [{"days": "Mon-Fri", "time": "5:00pm"}, {"days": "Sat", "time": "1:00pm"}, {"days": "Sun", "time": "Closed"}], "id": "0145300062", "name": "USPS COLLECTION BOX - PO LOBBY", "address": {"city": "LEOMINSTER", "state": "MA", "street": "68 MAIN ST", "postcode": "01453"}}},
{"geometry": {"type": "Point", "coordinates": [-71.7597373118, 42.5264401767]}, "type": "Feature", "properties": {"collection_times": [{"days": "Mon-Fri", "time": "5:00pm"}, {"days": "Sat", "time": "1:00pm"}, {"days": "Sun", "time": "Closed"}], "id": "0145300063", "name": "USPS COLLECTION BOX - PO LOBBY", "address": {"city": "LEOMINSTER", "state": "MA", "street": "68 MAIN ST", "postcode": "01453"}}},
{"geometry": {"type": "Point", "coordinates": [-71.7829963243, 42.5521839397]}, "type": "Feature", "properties": {"collection_times": [{"days": "Mon-Sat", "time": "1:00pm"}, {"days": "Sun", "time": "Closed"}], "id": "0145300065", "name": "USPS COLLECTION BOX - BLUE BOX", "address": {"city": "LEOMINSTER", "state": "MA", "street": "875 MERRIAM AVE", "postcode": "01453"}}},
{"geometry": {"type": "Point", "coordinates": [-71.7565633388, 42.5473552353]}, "type": "Feature", "properties": {"collection_times": [{"days": "Mon-Sat", "time": "1:00pm"}, {"days": "Sun", "time": "Closed"}], "id": "0145300066", "name": "USPS COLLECTION BOX - BLUE BOX", "address": {"city": "LEOMINSTER", "state": "MA", "street": "100 ERDMAN WAY", "postcode": "01453"}}},
{"geometry": {"type": "Point", "coordinates": [-71.7597373118, 42.5264401767]}, "type": "Feature", "properties": {"collection_times": [{"days": "Mon-Fri", "time": "5:00pm"}, {"days": "Sat", "time": "1:00pm"}, {"days": "Sun", "time": "Closed"}], "id": "0145300067", "name": "USPS COLLECTION BOX - APC", "address": {"city": "LEOMINSTER", "state": "MA", "street": "68 MAIN ST", "postcode": "01453"}}},
{"geometry": {"type": "Point", "coordinates": [-71.7518239836, 42.518071819]}, "type": "Feature", "properties": {"collection_times": [{"days": "Mon-Sat", "time": "1:00pm"}, {"days": "Sun", "time": "Closed"}], "id": "0145300071", "name": "USPS COLLECTION BOX - BLUE BOX", "address": {"city": "LEOMINSTER", "state": "MA", "street": "201 LANCASTER ST", "postcode": "01453"}}},
{"geometry": {"type": "Point", "coordinates": [-71.756551069, 42.5350630806]}, "type": "Feature", "properties": {"collection_times": [{"days": "Mon-Sat", "time": "12:00pm"}, {"days": "Sun", "time": "Closed"}], "id": "0145300072", "name": "USPS COLLECTION BOX - BLUE BOX", "address": {"city": "LEOMINSTER", "state": "MA", "street": "87 N MAIN ST", "postcode": "01453"}}},
{"geometry": {"type": "Point", "coordinates": [-71.7450342207, 42.5497590079]}, "type": "Feature", "properties": {"collection_times": [{"days": "Mon-Sat", "time": "9:30am"}, {"days": "Sun", "time": "Closed"}], "id": "0145300073", "name": "USPS COLLECTION BOX - BLUE BOX", "address": {"city": "LEOMINSTER", "state": "MA", "street": "17 INDUSTRIAL RD", "postcode": "01453"}}},
{"geometry": {"type": "Point", "coordinates": [-71.7545169758, 42.5282223578]}, "type": "Feature", "properties": {"collection_times": [{"days": "Mon-Sat", "time": "1:00pm"}, {"days": "Sun", "time": "Closed"}], "id": "0145300074", "name": "USPS COLLECTION BOX - BLUE BOX", "address": {"city": "LEOMINSTER", "state": "MA", "street": "9 SACK BLVD", "postcode": "01453"}}},
{"geometry": {"type": "Point", "coordinates": [-71.7683868057, 42.519572313]}, "type": "Feature", "properties": {"collection_times": [{"days": "Mon-Sat", "time": "12:00pm"}, {"days": "Sun", "time": "Closed"}], "id": "0145300075", "name": "USPS COLLECTION BOX - BLUE BOX", "address": {"city": "LEOMINSTER", "state": "MA", "street": "7 CONNECTOR PL", "postcode": "01453"}}},
{"geometry": {"type": "Point", "coordinates": [-71.7597373118, 42.5264401767]}, "type": "Feature", "properties": {"collection_times": [{"days": "Mon-Sat", "time": "1:00pm"}, {"days": "Sun", "time": "Closed"}], "id": "0145300076", "name": "USPS COLLECTION BOX - BLUE BOX", "address": {"city": "LEOMINSTER", "state": "MA", "street": "75 MAIN ST", "postcode": "01453"}}},
{"geometry": {"type": "Point", "coordinates": [-71.4813899299, 42.5401015564]}, "type": "Feature", "properties": {"collection_times": [{"days": "Mon-Fri", "time": "5:00pm"}, {"days": "Sat", "time": "2:00pm"}, {"days": "Sun", "time": "Closed"}], "id": "0146000003", "name": "USPS COLLECTION BOX - EXPRESS", "address": {"city": "LITTLETON", "state": "MA", "street": "451 KING ST", "postcode": "01460"}}},
{"geometry": {"type": "Point", "coordinates": [-71.4769929773, 42.5445220811]}, "type": "Feature", "properties": {"collection_times": [{"days": "Mon-Fri", "time": "5:00pm"}, {"days": "Sat", "time": "2:00pm"}, {"days": "Sun", "time": "Closed"}], "id": "0146000004", "name": "USPS COLLECTION BOX - BLUE BOX", "address": {"city": "LITTLETON", "state": "MA", "street": "451 KING ST", "postcode": "01460"}}},
{"geometry": {"type": "Point", "coordinates": [-71.4769929773, 42.5445220811]}, "type": "Feature", "properties": {"collection_times": [{"days": "Mon-Fri", "time": "5:00pm"}, {"days": "Sat", "time": "2:00pm"}, {"days": "Sun", "time": "Closed"}], "id": "0146000005", "name": "USPS COLLECTION BOX - BLUE BOX", "address": {"city": "LITTLETON", "state": "MA", "street": "451 KING ST", "postcode": "01460"}}},
{"geometry": {"type": "Point", "coordinates": [-71.5123026491, 42.5375216765]}, "type": "Feature", "properties": {"collection_times": [{"days": "Mon-Fri", "time": "4:00pm"}, {"days": "Sat", "time": "12:00pm"}, {"days": "Sun", "time": "Closed"}], "id": "0146000008", "name": "USPS COLLECTION BOX - BLUE BOX", "address": {"city": "LITTLETON", "state": "MA", "street": "7 TAYLOR ST", "postcode": "01460"}}},
{"geometry": {"type": "Point", "coordinates": [-71.4813899299, 42.5401015564]}, "type": "Feature", "properties": {"collection_times": [{"days": "Mon-Fri", "time": "4:00pm"}, {"days": "Sat", "time": "12:00pm"}, {"days": "Sun", "time": "Closed"}], "id": "0146000010", "name": "USPS COLLECTION BOX - EXPRESS", "address": {"city": "LITTLETON", "state": "MA", "street": "7 TAYLOR ST", "postcode": "01460"}}},
{"geometry": {"type": "Point", "coordinates": [-71.4769929773, 42.5445220811]}, "type": "Feature", "properties": {"collection_times": [{"days": "Mon-Fri", "time": "5:00pm"}, {"days": "Sat", "time": "2:00pm"}, {"days": "Sun", "time": "Closed"}], "id": "0146000013", "name": "USPS COLLECTION BOX - PO LOBBY", "address": {"city": "LITTLETON", "state": "MA", "street": "451 KING ST", "postcode": "01460"}}},
{"geometry": {"type": "Point", "coordinates": [-71.5123026491, 42.5375216765]}, "type": "Feature", "properties": {"collection_times": [{"days": "Mon-Fri", "time": "4:00pm"}, {"days": "Sat", "time": "12:00pm"}, {"days": "Sun", "time": "Closed"}], "id": "0146000015", "name": "USPS COLLECTION BOX - PO LOBBY", "address": {"city": "LITTLETON", "state": "MA", "street": "7 TAYLOR ST", "postcode": "01460"}}},
{"geometry": {"type": "Point", "coordinates": [-71.7258877347, 42.5859023053]}, "type": "Feature", "properties": {"collection_times": [{"days": "Mon-Fri", "time": "5:00pm"}, {"days": "Sat", "time": "2:00pm"}, {"days": "Sun", "time": "Closed"}], "id": "0146200001", "name": "USPS COLLECTION BOX - BLUE BOX", "address": {"city": "LUNENBURG", "state": "MA", "street": "945 MASSACHUSETTS AVE", "postcode": "01462"}}},
{"geometry": {"type": "Point", "coordinates": [-71.7485771828, 42.5770463223]}, "type": "Feature", "properties": {"collection_times": [{"days": "Mon-Sat", "time": "11:15am"}, {"days": "Sun", "time": "Closed"}], "id": "0146200003", "name": "USPS COLLECTION BOX - BLUE BOX", "address": {"city": "LUNENBURG", "state": "MA", "street": "423 ELECTRIC AVE", "postcode": "01462"}}},
{"geometry": {"type": "Point", "coordinates": [-71.765694599, 42.594900722]}, "type": "Feature", "properties": {"collection_times": [{"days": "Mon-Sat", "time": "9:30am"}, {"days": "Sun", "time": "Closed"}], "id": "0146200004", "name": "USPS COLLECTION BOX - BLUE BOX", "address": {"city": "LUNENBURG", "state": "MA", "street": "131 WHITE ST", "postcode": "01462"}}},
{"geometry": {"type": "Point", "coordinates": [-71.7718888911, 42.5860201174]}, "type": "Feature", "properties": {"collection_times": [{"days": "Mon-Sat", "time": "2:00pm"}, {"days": "Sun", "time": "Closed"}], "id": "0146200007", "name": "USPS COLLECTION BOX - BLUE BOX", "address": {"city": "LUNENBURG", "state": "MA", "street": "603 MASSACHUSETTS AVE", "postcode": "01462"}}},
{"geometry": {"type": "Point", "coordinates": [-71.7258877347, 42.5859023053]}, "type": "Feature", "properties": {"collection_times": [{"days": "Mon-Fri", "time": "4:45pm"}, {"days": "Sat", "time": "2:00pm"}, {"days": "Sun", "time": "Closed"}], "id": "0146200008", "name": "USPS COLLECTION BOX - PO LOBBY", "address": {"city": "LUNENBURG", "state": "MA", "street": "945 MASSACHUSETTS AVE", "postcode": "01462"}}},
{"geometry": {"type": "Point", "coordinates": [-71.7258877347, 42.5859023053]}, "type": "Feature", "properties": {"collection_times": [{"days": "Mon-Fri", "time": "4:45pm"}, {"days": "Sat", "time": "2:00pm"}, {"days": "Sun", "time": "Closed"}], "id": "0146200009", "name": "USPS COLLECTION BOX - PO LOBBY", "address": {"city": "LUNENBURG", "state": "MA", "street": "945 MASSACHUSETTS AVE", "postcode": "01462"}}},
{"geometry": {"type": "Point", "coordinates": [-71.7569194094, 42.5933841686]}, "type": "Feature", "properties": {"collection_times": [{"days": "Mon-Sat", "time": "9:00am"}, {"days": "Sun", "time": "Closed"}], "id": "0146200010", "name": "USPS COLLECTION BOX - BLUE BOX", "address": {"city": "LUNENBURG", "state": "MA", "street": "301 MASSACHUSETTS AVE", "postcode": "01462"}}},
{"geometry": {"type": "Point", "coordinates": [-71.5878469097, 42.6699129407]}, "type": "Feature", "properties": {"collection_times": [{"days": "Mon-Fri", "time": "5:00pm"}, {"days": "Sat", "time": "1:00pm"}, {"days": "Sun", "time": "Closed"}], "id": "0146300001", "name": "USPS COLLECTION BOX - EXPRESS", "address": {"city": "PEPPERELL", "state": "MA", "street": "41 LOWELL RD", "postcode": "01463"}}},
{"geometry": {"type": "Point", "coordinates": [-71.5640057084, 42.6672603526]}, "type": "Feature", "properties": {"collection_times": [{"days": "Mon-Fri", "time": "5:00pm"}, {"days": "Sat", "time": "1:00pm"}, {"days": "Sun", "time": "Closed"}], "id": "0146300002", "name": "USPS COLLECTION BOX - BLUE BOX", "address": {"city": "PEPPERELL", "state": "MA", "street": "41 LOWELL RD", "postcode": "01463"}}},
{"geometry": {"type": "Point", "coordinates": [-71.5978374537, 42.6676065629]}, "type": "Feature", "properties": {"collection_times": [{"days": "Mon-Fri", "time": "12:00pm"}, {"days": "Sat-Sun", "time": "Closed"}], "id": "0146300006", "name": "USPS COLLECTION BOX - BLUE BOX", "address": {"city": "PEPPERELL", "state": "MA", "street": "1 MAIN ST", "postcode": "01463"}}},
{"geometry": {"type": "Point", "coordinates": [-71.5640057084, 42.6672603526]}, "type": "Feature", "properties": {"collection_times": [{"days": "Mon-Fri", "time": "5:00pm"}, {"days": "Sat", "time": "1:00pm"}, {"days": "Sun", "time": "Closed"}], "id": "0146300009", "name": "USPS COLLECTION BOX - PO LOBBY", "address": {"city": "PEPPERELL", "state": "MA", "street": "41 LOWELL RD", "postcode": "01463"}}},
{"geometry": {"type": "Point", "coordinates": [-71.5640057084, 42.6672603526]}, "type": "Feature", "properties": {"collection_times": [{"days": "Mon-Fri", "time": "5:00pm"}, {"days": "Sat", "time": "1:00pm"}, {"days": "Sun", "time": "Closed"}], "id": "0146300010", "name": "USPS COLLECTION BOX - BLUE BOX", "address": {"city": "PEPPERELL", "state": "MA", "street": "41 LOWELL RD", "postcode": "01463"}}},
{"geometry": {"type": "Point", "coordinates": [-71.6504280239, 42.5609315128]}, "type": "Feature", "properties": {"collection_times": [{"days": "Mon-Fri", "time": "4:30pm"}, {"days": "Sat", "time": "12:00pm"}, {"days": "Sun", "time": "Closed"}], "id": "0146400001", "name": "USPS COLLECTION BOX - EXPRESS", "address": {"city": "SHIRLEY", "state": "MA", "street": "23 MAIN ST", "postcode": "01464"}}},
{"geometry": {"type": "Point", "coordinates": [-71.6549471418, 42.5443108059]}, "type": "Feature", "properties": {"collection_times": [{"days": "Mon-Fri", "time": "4:30pm"}, {"days": "Sat", "time": "12:00pm"}, {"days": "Sun", "time": "Closed"}], "id": "0146400003", "name": "USPS COLLECTION BOX - BLUE BOX", "address": {"city": "SHIRLEY", "state": "MA", "street": "23 MAIN ST", "postcode": "01464"}}},
{"geometry": {"type": "Point", "coordinates": [-71.6482250652, 42.5451390591]}, "type": "Feature", "properties": {"collection_times": [{"days": "Mon-Sat", "time": "10:00am"}, {"days": "Sun", "time": "Closed"}], "id": "0146400004", "name": "USPS COLLECTION BOX - BLUE BOX", "address": {"city": "SHIRLEY", "state": "MA", "street": "1 BENJAMIN RD", "postcode": "01464"}}},
{"geometry": {"type": "Point", "coordinates": [-71.6487567077, 42.5757615186]}, "type": "Feature", "properties": {"collection_times": [{"days": "Mon-Sat", "time": "10:00am"}, {"days": "Sun", "time": "Closed"}], "id": "0146400005", "name": "USPS COLLECTION BOX - BLUE BOX", "address": {"city": "SHIRLEY", "state": "MA", "street": "7 KEADY WAY", "postcode": "01464"}}},
{"geometry": {"type": "Point", "coordinates": [-71.6549471418, 42.5443108059]}, "type": "Feature", "properties": {"collection_times": [{"days": "Mon-Fri", "time": "4:30pm"}, {"days": "Sat", "time": "12:00pm"}, {"days": "Sun", "time": "Closed"}], "id": "0146400006", "name": "USPS COLLECTION BOX - PO LOBBY", "address": {"city": "SHIRLEY", "state": "MA", "street": "23 MAIN ST", "postcode": "01464"}}},
{"geometry": {"type": "Point", "coordinates": [-71.6549471418, 42.5443108059]}, "type": "Feature", "properties": {"collection_times": [{"days": "Mon-Fri", "time": "4:30pm"}, {"days": "Sat", "time": "12:00pm"}, {"days": "Sun", "time": "Closed"}], "id": "0146400007", "name": "USPS COLLECTION BOX - PO LOBBY", "address": {"city": "SHIRLEY", "state": "MA", "street": "23 MAIN ST", "postcode": "01464"}}},
{"geometry": {"type": "Point", "coordinates": [-71.6188174727, 42.4900737515]}, "type": "Feature", "properties": {"collection_times": [{"days": "Mon-Fri", "time": "4:30pm"}, {"days": "Sat", "time": "12:00pm"}, {"days": "Sun", "time": "Closed"}], "id": "0146700001", "name": "USPS COLLECTION BOX - BLUE BOX", "address": {"city": "STILL RIVER", "state": "MA", "street": "206 STILL RIVER RD", "postcode": "01467"}}},
{"geometry": {"type": "Point", "coordinates": [-71.6188174727, 42.4900737515]}, "type": "Feature", "properties": {"collection_times": [{"days": "Mon-Fri", "time": "4:30pm"}, {"days": "Sat", "time": "12:00pm"}, {"days": "Sun", "time": "Closed"}], "id": "0146700002", "name": "USPS COLLECTION BOX - PO LOBBY", "address": {"city": "STILL RIVER", "state": "MA", "street": "206 STILL RIVER RD", "postcode": "01467"}}},
{"geometry": {"type": "Point", "coordinates": [-72.0648980987, 42.5552439465]}, "type": "Feature", "properties": {"collection_times": [{"days": "Mon-Fri", "time": "5:00pm"}, {"days": "Sat", "time": "12:00pm"}, {"days": "Sun", "time": "Closed"}], "id": "0146800001", "name": "USPS COLLECTION BOX - BLUE BOX", "address": {"city": "TEMPLETON", "state": "MA", "street": "449 PATRIOTS RD", "postcode": "01468"}}},
{"geometry": {"type": "Point", "coordinates": [-72.0648980987, 42.5552439465]}, "type": "Feature", "properties": {"collection_times": [{"days": "Mon-Fri", "time": "5:00pm"}, {"days": "Sat", "time": "12:00pm"}, {"days": "Sun", "time": "Closed"}], "id": "0146800002", "name": "USPS COLLECTION BOX - PO LOBBY", "address": {"city": "TEMPLETON", "state": "MA", "street": "449 PATRIOTS RD", "postcode": "01468"}}},
{"geometry": {"type": "Point", "coordinates": [-72.0648980987, 42.5552439465]}, "type": "Feature", "properties": {"collection_times": [{"days": "Mon-Fri", "time": "5:00pm"}, {"days": "Sat", "time": "12:00pm"}, {"days": "Sun", "time": "Closed"}], "id": "0146800003", "name": "USPS COLLECTION BOX - PO LOBBY", "address": {"city": "TEMPLETON", "state": "MA", "street": "449 PATRIOTS RD", "postcode": "01468"}}},
{"geometry": {"type": "Point", "coordinates": [-71.6989733876, 42.663515227]}, "type": "Feature", "properties": {"collection_times": [{"days": "Mon-Fri", "time": "5:00pm"}, {"days": "Sat", "time": "2:00pm"}, {"days": "Sun", "time": "Closed"}], "id": "0146900002", "name": "USPS COLLECTION BOX - BLUE BOX", "address": {"city": "TOWNSEND", "state": "MA", "street": "227 MAIN ST", "postcode": "01469"}}},
{"geometry": {"type": "Point", "coordinates": [-71.6989733876, 42.663515227]}, "type": "Feature", "properties": {"collection_times": [{"days": "Mon-Fri", "time": "5:00pm"}, {"days": "Sat", "time": "2:00pm"}, {"days": "Sun", "time": "Closed"}], "id": "0146900003", "name": "USPS COLLECTION BOX - BLUE BOX", "address": {"city": "TOWNSEND", "state": "MA", "street": "227 MAIN ST", "postcode": "01469"}}},
{"geometry": {"type": "Point", "coordinates": [-71.6621580496, 42.6503759097]}, "type": "Feature", "properties": {"collection_times": [{"days": "Mon-Sat", "time": "10:15am"}, {"days": "Sun", "time": "Closed"}], "id": "0146900004", "name": "USPS COLLECTION BOX - BLUE BOX", "address": {"city": "TOWNSEND", "state": "MA", "street": "18 MAIN ST", "postcode": "01469"}}},
{"geometry": {"type": "Point", "coordinates": [-71.6989733876, 42.663515227]}, "type": "Feature", "properties": {"collection_times": [{"days": "Mon-Fri", "time": "5:00pm"}, {"days": "Sat", "time": "2:00pm"}, {"days": "Sun", "time": "Closed"}], "id": "0146900006", "name": "USPS COLLECTION BOX - PO LOBBY", "address": {"city": "TOWNSEND", "state": "MA", "street": "227 MAIN ST", "postcode": "01469"}}},
{"geometry": {"type": "Point", "coordinates": [-71.9207457463, 42.5440918522]}, "type": "Feature", "properties": {"collection_times": [{"days": "Mon-Fri", "time": "5:00pm"}, {"days": "Sat", "time": "1:00pm"}, {"days": "Sun", "time": "Closed"}], "id": "0147300001", "name": "USPS COLLECTION BOX - BLUE BOX", "address": {"city": "WESTMINSTER", "state": "MA", "street": "6 NICHOLS ST", "postcode": "01473"}}},
{"geometry": {"type": "Point", "coordinates": [-71.9207457463, 42.5440918522]}, "type": "Feature", "properties": {"collection_times": [{"days": "Mon-Fri", "time": "5:00pm"}, {"days": "Sat", "time": "1:00pm"}, {"days": "Sun", "time": "Closed"}], "id": "0147300003", "name": "USPS COLLECTION BOX - EXPRESS", "address": {"city": "WESTMINSTER", "state": "MA", "street": "6 NICHOLS ST", "postcode": "01473"}}},
{"geometry": {"type": "Point", "coordinates": [-71.8973371273, 42.5457923649]}, "type": "Feature", "properties": {"collection_times": [{"days": "Mon-Sat", "time": "10:30am"}, {"days": "Sun", "time": "Closed"}], "id": "0147300004", "name": "USPS COLLECTION BOX - BLUE BOX", "address": {"city": "WESTMINSTER", "state": "MA", "street": "160 STATE RD E", "postcode": "01473"}}},
{"geometry": {"type": "Point", "coordinates": [-71.9007292954, 42.5442114197]}, "type": "Feature", "properties": {"collection_times": [{"days": "Mon-Sat", "time": "9:00am"}, {"days": "Sun", "time": "Closed"}], "id": "0147300005", "name": "USPS COLLECTION BOX - BLUE BOX", "address": {"city": "WESTMINSTER", "state": "MA", "street": "109 MAIN ST", "postcode": "01473"}}},
{"geometry": {"type": "Point", "coordinates": [-71.9207457463, 42.5440918522]}, "type": "Feature", "properties": {"collection_times": [{"days": "Mon-Fri", "time": "5:00pm"}, {"days": "Sat", "time": "1:00pm"}, {"days": "Sun", "time": "Closed"}], "id": "0147300006", "name": "USPS COLLECTION BOX - PO LOBBY", "address": {"city": "WESTMINSTER", "state": "MA", "street": "6 NICHOLS ST", "postcode": "01473"}}},
{"geometry": {"type": "Point", "coordinates": [-71.9207457463, 42.5440918522]}, "type": "Feature", "properties": {"collection_times": [{"days": "Mon-Fri", "time": "5:00pm"}, {"days": "Sat", "time": "1:00pm"}, {"days": "Sun", "time": "Closed"}], "id": "0147300007", "name": "USPS COLLECTION BOX - PO LOBBY", "address": {"city": "WESTMINSTER", "state": "MA", "street": "6 NICHOLS ST", "postcode": "01473"}}},
{"geometry": {"type": "Point", "coordinates": [-71.912227135, 42.5434936967]}, "type": "Feature", "properties": {"collection_times": [{"days": "Mon-Sat", "time": "9:30am"}, {"days": "Sun", "time": "Closed"}], "id": "0147300008", "name": "USPS COLLECTION BOX - BLUE BOX", "address": {"city": "WESTMINSTER", "state": "MA", "street": "11 SOUTH ST", "postcode": "01473"}}},
{"geometry": {"type": "Point", "coordinates": [-72.0456888289, 42.6787941779]}, "type": "Feature", "properties": {"collection_times": [{"days": "Mon-Fri", "time": "5:00pm"}, {"days": "Sat", "time": "12:00pm"}, {"days": "Sun", "time": "Closed"}], "id": "0147500003", "name": "USPS COLLECTION BOX - EXPRESS", "address": {"city": "WINCHENDON", "state": "MA", "street": "160 CENTRAL ST", "postcode": "01475"}}},
{"geometry": {"type": "Point", "coordinates": [-72.0456888289, 42.6787941779]}, "type": "Feature", "properties": {"collection_times": [{"days": "Mon-Fri", "time": "4:00pm"}, {"days": "Sat", "time": "3:00pm"}, {"days": "Sun", "time": "Closed"}], "id": "0147500004", "name": "USPS COLLECTION BOX - BLUE BOX", "address": {"city": "WINCHENDON", "state": "MA", "street": "49 CENTRAL ST", "postcode": "01475"}}},
{"geometry": {"type": "Point", "coordinates": [-72.0475187088, 42.6823427689]}, "type": "Feature", "properties": {"collection_times": [{"days": "Mon-Fri", "time": "4:00pm"}, {"days": "Sat", "time": "3:00pm"}, {"days": "Sun", "time": "Closed"}], "id": "0147500005", "name": "USPS COLLECTION BOX - BLUE BOX", "address": {"city": "WINCHENDON", "state": "MA", "street": "77 CENTRAL ST", "postcode": "01475"}}},
{"geometry": {"type": "Point", "coordinates": [-72.0473365146, 42.6782109307]}, "type": "Feature", "properties": {"collection_times": [{"days": "Mon-Fri", "time": "4:00pm"}, {"days": "Sat", "time": "3:00pm"}, {"days": "Sun", "time": "Closed"}], "id": "0147500008", "name": "USPS COLLECTION BOX - BLUE BOX", "address": {"city": "WINCHENDON", "state": "MA", "street": "109 FRONT ST", "postcode": "01475"}}},
{"geometry": {"type": "Point", "coordinates": [-72.0468285238, 42.6903115333]}, "type": "Feature", "properties": {"collection_times": [{"days": "Mon-Sat", "time": "10:30am"}, {"days": "Sun", "time": "Closed"}], "id": "0147500010", "name": "USPS COLLECTION BOX - BLUE BOX", "address": {"city": "WINCHENDON", "state": "MA", "street": "108 IPSWICH DR", "postcode": "01475"}}},
{"geometry": {"type": "Point", "coordinates": [-72.0456888289, 42.6787941779]}, "type": "Feature", "properties": {"collection_times": [{"days": "Mon-Sat", "time": "2:45pm"}, {"days": "Sun", "time": "Closed"}], "id": "0147500011", "name": "USPS COLLECTION BOX - BLUE BOX", "address": {"city": "WINCHENDON", "state": "MA", "street": "16 MAIN ST", "postcode": "01475"}}},
{"geometry": {"type": "Point", "coordinates": [-72.0456888289, 42.6787941779]}, "type": "Feature", "properties": {"collection_times": [{"days": "Mon-Fri", "time": "5:00pm"}, {"days": "Sat", "time": "12:00pm"}, {"days": "Sun", "time": "Closed"}], "id": "0147500012", "name": "USPS COLLECTION BOX - BLUE BOX", "address": {"city": "WINCHENDON", "state": "MA", "street": "160 CENTRAL ST", "postcode": "01475"}}},
{"geometry": {"type": "Point", "coordinates": [-72.0456888289, 42.6787941779]}, "type": "Feature", "properties": {"collection_times": [{"days": "Mon-Fri", "time": "5:00pm"}, {"days": "Sat", "time": "3:45pm"}, {"days": "Sun", "time": "Closed"}], "id": "0147500014", "name": "USPS COLLECTION BOX - PO LOBBY", "address": {"city": "WINCHENDON", "state": "MA", "street": "160 CENTRAL ST", "postcode": "01475"}}},
{"geometry": {"type": "Point", "coordinates": [-72.0456888289, 42.6787941779]}, "type": "Feature", "properties": {"collection_times": [{"days": "Mon-Fri", "time": "5:00pm"}, {"days": "Sat", "time": "3:45pm"}, {"days": "Sun", "time": "Closed"}], "id": "0147500015", "name": "USPS COLLECTION BOX - PO LOBBY", "address": {"city": "WINCHENDON", "state": "MA", "street": "160 CENTRAL ST", "postcode": "01475"}}},
{"geometry": {"type": "Point", "coordinates": [-72.0456888289, 42.6787941779]}, "type": "Feature", "properties": {"collection_times": [{"days": "Mon-Fri", "time": "5:00pm"}, {"days": "Sat", "time": "3:45pm"}, {"days": "Sun", "time": "Closed"}], "id": "0147500016", "name": "USPS COLLECTION BOX - PO LOBBY", "address": {"city": "WINCHENDON", "state": "MA", "street": "160 CENTRAL ST", "postcode": "01475"}}},
{"geometry": {"type": "Point", "coordinates": [-72.0456888289, 42.6787941779]}, "type": "Feature", "properties": {"collection_times": [{"days": "Mon-Sat", "time": "9:00am"}, {"days": "Sun", "time": "Closed"}], "id": "0147500017", "name": "USPS COLLECTION BOX - BLUE BOX", "address": {"city": "WINCHENDON", "state": "MA", "street": "67 HYDE PARK DR", "postcode": "01475"}}},
{"geometry": {"type": "Point", "coordinates": [-72.0456975192, 42.678802822]}, "type": "Feature", "properties": {"collection_times": [{"days": "Mon-Sat", "time": "10:00am"}, {"days": "Sun", "time": "Closed"}], "id": "0147500018", "name": "USPS COLLECTION BOX - BLUE BOX", "address": {"city": "WINCHENDON", "state": "MA", "street": "142 GLENALLEN ST", "postcode": "01475"}}}
]}
