{"type": "FeatureCollection", "features": [
{"geometry": {"type": "Point", "coordinates": [-71.8311898423, 42.2020718153]}, "type": "Feature", "properties": {"collection_times": [{"days": "Mon-Fri", "time": "5:00pm"}, {"days": "Sat", "time": "3:00pm"}, {"days": "Sun", "time": "Closed"}], "id": "0150100001", "name": "USPS COLLECTION BOX - BLUE BOX", "address": {"city": "AUBURN", "state": "MA", "street": "60 AUBURN ST", "postcode": "01501"}}},
{"geometry": {"type": "Point", "coordinates": [-71.8311898423, 42.2020718153]}, "type": "Feature", "properties": {"collection_times": [{"days": "Mon-Fri", "time": "5:00pm"}, {"days": "Sat", "time": "3:00pm"}, {"days": "Sun", "time": "Closed"}], "id": "0150100002", "name": "USPS COLLECTION BOX - BLUE BOX", "address": {"city": "AUBURN", "state": "MA", "street": "60 AUBURN ST", "postcode": "01501"}}},
{"geometry": {"type": "Point", "coordinates": [-71.8311898423, 42.2020718153]}, "type": "Feature", "properties": {"collection_times": [{"days": "Mon-Fri", "time": "5:00pm"}, {"days": "Sat", "time": "3:00pm"}, {"days": "Sun", "time": "Closed"}], "id": "0150100003", "name": "USPS COLLECTION BOX - EXPRESS", "address": {"city": "AUBURN", "state": "MA", "street": "60 AUBURN ST", "postcode": "01501"}}},
{"geometry": {"type": "Point", "coordinates": [-71.8317427469, 42.2008712863]}, "type": "Feature", "properties": {"collection_times": [{"days": "Mon-Fri", "time": "3:00pm"}, {"days": "Sat", "time": "2:00pm"}, {"days": "Sun", "time": "Closed"}], "id": "0150100004", "name": "USPS COLLECTION BOX - BLUE BOX", "address": {"city": "AUBURN", "state": "MA", "street": "104 CENTRAL ST", "postcode": "01501"}}},
{"geometry": {"type": "Point", "coordinates": [-71.8189869004, 42.2189764732]}, "type": "Feature", "properties": {"collection_times": [{"days": "Mon-Sat", "time": "9:00am"}, {"days": "Sun", "time": "Closed"}], "id": "0150100005", "name": "USPS COLLECTION BOX - BLUE BOX", "address": {"city": "AUBURN", "state": "MA", "street": "115 ELMWOOD ST", "postcode": "01501"}}},
{"geometry": {"type": "Point", "coordinates": [-71.8572068002, 42.1852305405]}, "type": "Feature", "properties": {"collection_times": [{"days": "Mon-Fri", "time": "3:00pm"}, {"days": "Sat", "time": "2:00pm"}, {"days": "Sun", "time": "Closed"}], "id": "0150100006", "name": "USPS COLLECTION BOX - EXPRESS", "address": {"city": "AUBURN", "state": "MA", "street": "19 MIDSTATE DR", "postcode": "01501"}}},
{"geometry": {"type": "Point", "coordinates": [-71.8572068002, 42.1852305405]}, "type": "Feature", "properties": {"collection_times": [{"days": "Mon-Fri", "time": "3:00pm"}, {"days": "Sat", "time": "2:00pm"}, {"days": "Sun", "time": "Closed"}], "id": "0150100009", "name": "USPS COLLECTION BOX - BLUE BOX", "address": {"city": "AUBURN", "state": "MA", "street": "19 MIDSTATE DR", "postcode": "01501"}}},
{"geometry": {"type": "Point", "coordinates": [-71.8409937101, 42.2128356097]}, "type": "Feature", "properties": {"collection_times": [{"days": "Mon-Sat", "time": "9:00am"}, {"days": "Sun", "time": "Closed"}], "id": "0150100010", "name": "USPS COLLECTION BOX - BLUE BOX", "address": {"city": "AUBURN", "state": "MA", "street": "1 ORCHARD ST", "postcode": "01501"}}},
{"geometry": {"type": "Point", "coordinates": [-71.8438124772, 42.2193325439]}, "type": "Feature", "properties": {"collection_times": [{"days": "Mon-Sat", "time": "11:00am"}, {"days": "Sun", "time": "Closed"}], "id": "0150100012", "name": "USPS COLLECTION BOX - BLUE BOX", "address": {"city": "AUBURN", "state": "MA", "street": "3 VINAL ST", "postcode": "01501"}}},
{"geometry": {"type": "Point", "coordinates": [-71.8368330193, 42.2038830998]}, "type": "Feature", "properties": {"collection_times": [{"days": "Mon-Sat", "time": "10:00am"}, {"days": "Sun", "time": "Closed"}], "id": "0150100014", "name": "USPS COLLECTION BOX - BLUE BOX", "address": {"city": "AUBURN", "state": "MA", "street": "385 SOUTHBRIDGE ST", "postcode": "01501"}}},
{"geometry": {"type": "Point", "coordinates": [-71.8368330193, 42.2038830998]}, "type": "Feature", "properties": {"collection_times": [{"days": "Mon-Sat", "time": "10:00am"}, {"days": "Sun", "time": "Closed"}], "id": "0150100015", "name": "USPS COLLECTION BOX - BLUE BOX", "address": {"city": "AUBURN", "state": "MA", "street": "385 SOUTHBRIDGE ST", "postcode": "01501"}}},
{"geometry": {"type": "Point", "coordinates": [-71.8595162575, 42.1833883357]}, "type": "Feature", "properties": {"collection_times": [{"days": "Mon-Sat", "time": "1:00pm"}, {"days": "Sun", "time": "Closed"}], "id": "0150100019", "name": "USPS COLLECTION BOX - BLUE BOX", "address": {"city": "AUBURN", "state": "MA", "street": "711 SOUTHBRIDGE ST", "postcode": "01501"}}},
{"geometry": {"type": "Point", "coordinates": [-71.8244131332, 42.1926177816]}, "type": "Feature", "properties": {"collection_times": [{"days": "Mon-Sat", "time": "9:00am"}, {"days": "Sun", "time": "Closed"}], "id": "0150100021", "name": "USPS COLLECTION BOX - BLUE BOX", "address": {"city": "AUBURN", "state": "MA", "street": "1 SAINT MARK ST", "postcode": "01501"}}},
{"geometry": {"type": "Point", "coordinates": [-71.8289192788, 42.2223109938]}, "type": "Feature", "properties": {"collection_times": [{"days": "Mon-Fri", "time": "3:00pm"}, {"days": "Sat", "time": "2:00pm"}, {"days": "Sun", "time": "Closed"}], "id": "0150100022", "name": "USPS COLLECTION BOX - BLUE BOX", "address": {"city": "AUBURN", "state": "MA", "street": "38 SWORD ST", "postcode": "01501"}}},
{"geometry": {"type": "Point", "coordinates": [-71.8381887465, 42.2038937208]}, "type": "Feature", "properties": {"collection_times": [{"days": "Mon-Fri", "time": "3:00pm"}, {"days": "Sat", "time": "2:00pm"}, {"days": "Sun", "time": "Closed"}], "id": "0150100023", "name": "USPS COLLECTION BOX - EXPRESS", "address": {"city": "AUBURN", "state": "MA", "street": "38 SWORD ST", "postcode": "01501"}}},
{"geometry": {"type": "Point", "coordinates": [-71.8311898423, 42.2020718153]}, "type": "Feature", "properties": {"collection_times": [{"days": "Mon-Fri", "time": "5:00pm"}, {"days": "Sat", "time": "3:00pm"}, {"days": "Sun", "time": "Closed"}], "id": "0150100031", "name": "USPS COLLECTION BOX - PO LOBBY", "address": {"city": "AUBURN", "state": "MA", "street": "60 AUBURN ST", "postcode": "01501"}}},
{"geometry": {"type": "Point", "coordinates": [-71.8311898423, 42.2020718153]}, "type": "Feature", "properties": {"collection_times": [{"days": "Mon-Fri", "time": "5:00pm"}, {"days": "Sat", "time": "3:00pm"}, {"days": "Sun", "time": "Closed"}], "id": "0150100032", "name": "USPS COLLECTION BOX - PO LOBBY", "address": {"city": "AUBURN", "state": "MA", "street": "60 AUBURN ST", "postcode": "01501"}}},
{"geometry": {"type": "Point", "coordinates": [-71.8311898423, 42.2020718153]}, "type": "Feature", "properties": {"collection_times": [{"days": "Mon-Fri", "time": "5:00pm"}, {"days": "Sat", "time": "3:00pm"}, {"days": "Sun", "time": "Closed"}], "id": "0150100033", "name": "USPS COLLECTION BOX - BLUE BOX", "address": {"city": "AUBURN", "state": "MA", "street": "60 AUBURN ST", "postcode": "01501"}}},
{"geometry": {"type": "Point", "coordinates": [-71.8572068002, 42.1852305405]}, "type": "Feature", "properties": {"collection_times": [{"days": "Mon-Fri", "time": "3:00pm"}, {"days": "Sat", "time": "2:00pm"}, {"days": "Sun", "time": "Closed"}], "id": "0150100034", "name": "USPS COLLECTION BOX - BLUE BOX", "address": {"city": "AUBURN", "state": "MA", "street": "19 MIDSTATE DR", "postcode": "01501"}}},
{"geometry": {"type": "Point", "coordinates": [-71.6333869126, 42.3790235587]}, "type": "Feature", "properties": {"collection_times": [{"days": "Mon-Fri", "time": "4:45pm"}, {"days": "Sat", "time": "12:00pm"}, {"days": "Sun", "time": "Closed"}], "id": "0150300001", "name": "USPS COLLECTION BOX - EXPRESS", "address": {"city": "BERLIN", "state": "MA", "street": "260 PLEASANT ST", "postcode": "01503"}}},
{"geometry": {"type": "Point", "coordinates": [-71.6333869126, 42.3790235587]}, "type": "Feature", "properties": {"collection_times": [{"days": "Mon-Fri", "time": "4:45pm"}, {"days": "Sat", "time": "12:00pm"}, {"days": "Sun", "time": "Closed"}], "id": "0150300002", "name": "USPS COLLECTION BOX - BLUE BOX", "address": {"city": "BERLIN", "state": "MA", "street": "260 PLEASANT ST", "postcode": "01503"}}},
{"geometry": {"type": "Point", "coordinates": [-71.6333869126, 42.3790235587]}, "type": "Feature", "properties": {"collection_times": [{"days": "Mon-Fri", "time": "4:45pm"}, {"days": "Sat", "time": "12:00pm"}, {"days": "Sun", "time": "Closed"}], "id": "0150300004", "name": "USPS COLLECTION BOX - PO LOBBY", "address": {"city": "BERLIN", "state": "MA", "street": "260 PLEASANT ST", "postcode": "01503"}}},
{"geometry": {"type": "Point", "coordinates": [-71.6333869126, 42.3790235587]}, "type": "Feature", "properties": {"collection_times": [{"days": "Mon-Fri", "time": "4:45pm"}, {"days": "Sat", "time": "12:00pm"}, {"days": "Sun", "time": "Closed"}], "id": "0150300005", "name": "USPS COLLECTION BOX - PO LOBBY", "address": {"city": "BERLIN", "state": "MA", "street": "260 PLEASANT ST", "postcode": "01503"}}},
{"geometry": {"type": "Point", "coordinates": [-71.6333869126, 42.3790235587]}, "type": "Feature", "properties": {"collection_times": [{"days": "Mon-Fri", "time": "4:45pm"}, {"days": "Sat", "time": "12:00pm"}, {"days": "Sun", "time": "Closed"}], "id": "0150300006", "name": "USPS COLLECTION BOX - PO LOBBY", "address": {"city": "BERLIN", "state": "MA", "street": "260 PLEASANT ST", "postcode": "01503"}}},
{"geometry": {"type": "Point", "coordinates": [-71.6333869126, 42.3790235587]}, "type": "Feature", "properties": {"collection_times": [{"days": "Mon-Fri", "time": "4:45pm"}, {"days": "Sat", "time": "12:00pm"}, {"days": "Sun", "time": "Closed"}], "id": "0150300007", "name": "USPS COLLECTION BOX - PO LOBBY", "address": {"city": "BERLIN", "state": "MA", "street": "260 PLEASANT ST", "postcode": "01503"}}},
{"geometry": {"type": "Point", "coordinates": [-71.5280842783, 42.0155193608]}, "type": "Feature", "properties": {"collection_times": [{"days": "Mon-Sat", "time": "2:00pm"}, {"days": "Sun", "time": "Closed"}], "id": "0150400004", "name": "USPS COLLECTION BOX - BLUE BOX", "address": {"city": "BLACKSTONE", "state": "MA", "street": "2 MAIN ST", "postcode": "01504"}}},
{"geometry": {"type": "Point", "coordinates": [-71.5020387892, 42.0170834953]}, "type": "Feature", "properties": {"collection_times": [{"days": "Mon-Sat", "time": "2:00pm"}, {"days": "Sun", "time": "Closed"}], "id": "0150400005", "name": "USPS COLLECTION BOX - BLUE BOX", "address": {"city": "BLACKSTONE", "state": "MA", "street": "630 RATHBUN ST", "postcode": "01504"}}},
{"geometry": {"type": "Point", "coordinates": [-71.5337595505, 42.0192932753]}, "type": "Feature", "properties": {"collection_times": [{"days": "Mon-Sat", "time": "9:30am"}, {"days": "Sun", "time": "Closed"}], "id": "0150400006", "name": "USPS COLLECTION BOX - BLUE BOX", "address": {"city": "BLACKSTONE", "state": "MA", "street": "266 BLACKSTONE ST", "postcode": "01504"}}},
{"geometry": {"type": "Point", "coordinates": [-71.5337187119, 42.017704286]}, "type": "Feature", "properties": {"collection_times": [{"days": "Mon-Fri", "time": "2:00pm"}, {"days": "Sat", "time": "12:00pm"}, {"days": "Sun", "time": "Closed"}], "id": "0150400009", "name": "USPS COLLECTION BOX - BLUE BOX", "address": {"city": "BLACKSTONE", "state": "MA", "street": "15 SAINT PAUL ST", "postcode": "01504"}}},
{"geometry": {"type": "Point", "coordinates": [-71.7314363062, 42.3347001578]}, "type": "Feature", "properties": {"collection_times": [{"days": "Mon-Fri", "time": "5:00pm"}, {"days": "Sat", "time": "12:30pm"}, {"days": "Sun", "time": "Closed"}], "id": "0150500002", "name": "USPS COLLECTION BOX - BLUE BOX", "address": {"city": "BOYLSTON", "state": "MA", "street": "67 SHREWSBURY ST", "postcode": "01505"}}},
{"geometry": {"type": "Point", "coordinates": [-71.7402387409, 42.3344015658]}, "type": "Feature", "properties": {"collection_times": [{"days": "Mon-Sat", "time": "10:00am"}, {"days": "Sun", "time": "Closed"}], "id": "0150500004", "name": "USPS COLLECTION BOX - BLUE BOX", "address": {"city": "BOYLSTON", "state": "MA", "street": "695 MAIN ST", "postcode": "01505"}}},
{"geometry": {"type": "Point", "coordinates": [-71.7225124993, 42.3556762371]}, "type": "Feature", "properties": {"collection_times": [{"days": "Mon-Sat", "time": "9:00am"}, {"days": "Sun", "time": "Closed"}], "id": "0150500005", "name": "USPS COLLECTION BOX - BLUE BOX", "address": {"city": "BOYLSTON", "state": "MA", "street": "1 EDGEBROOK DR", "postcode": "01505"}}},
{"geometry": {"type": "Point", "coordinates": [-71.7314363062, 42.3347001578]}, "type": "Feature", "properties": {"collection_times": [{"days": "Mon-Fri", "time": "5:00pm"}, {"days": "Sat", "time": "12:30pm"}, {"days": "Sun", "time": "Closed"}], "id": "0150500008", "name": "USPS COLLECTION BOX - EXPRESS", "address": {"city": "BOYLSTON", "state": "MA", "street": "67 SHREWSBURY ST", "postcode": "01505"}}},
{"geometry": {"type": "Point", "coordinates": [-71.7314363062, 42.3347001578]}, "type": "Feature", "properties": {"collection_times": [{"days": "Mon-Fri", "time": "5:00pm"}, {"days": "Sat", "time": "12:30pm"}, {"days": "Sun", "time": "Closed"}], "id": "0150500009", "name": "USPS COLLECTION BOX - PO LOBBY", "address": {"city": "BOYLSTON", "state": "MA", "street": "67 SHREWSBURY ST", "postcode": "01505"}}},
{"geometry": {"type": "Point", "coordinates": [-71.7314363062, 42.3347001578]}, "type": "Feature", "properties": {"collection_times": [{"days": "Mon-Fri", "time": "5:00pm"}, {"days": "Sat", "time": "12:30pm"}, {"days": "Sun", "time": "Closed"}], "id": "0150500010", "name": "USPS COLLECTION BOX - PO LOBBY", "address": {"city": "BOYLSTON", "state": "MA", "street": "67 SHREWSBURY ST", "postcode": "01505"}}},
{"geometry": {"type": "Point", "coordinates": [-72.1020870006, 42.1985710891]}, "type": "Feature", "properties": {"collection_times": [{"days": "Mon-Fri", "time": "4:45pm"}, {"days": "Sat", "time": "11:45am"}, {"days": "Sun", "time": "Closed"}], "id": "0150600001", "name": "USPS COLLECTION BOX - BLUE BOX", "address": {"city": "BROOKFIELD", "state": "MA", "street": "5 POST RD", "postcode": "01506"}}},
{"geometry": {"type": "Point", "coordinates": [-72.1020870006, 42.1985710891]}, "type": "Feature", "properties": {"collection_times": [{"days": "Mon-Fri", "time": "4:45pm"}, {"days": "Sat", "time": "11:45am"}, {"days": "Sun", "time": "Closed"}], "id": "0150600003", "name": "USPS COLLECTION BOX - PO LOBBY", "address": {"city": "BROOKFIELD", "state": "MA", "street": "5 POST RD", "postcode": "01506"}}},
{"geometry": {"type": "Point", "coordinates": [-71.9700921638, 42.1379449671]}, "type": "Feature", "properties": {"collection_times": [{"days": "Mon-Fri", "time": "4:50pm"}, {"days": "Sat", "time": "11:30am"}, {"days": "Sun", "time": "Closed"}], "id": "0150700002", "name": "USPS COLLECTION BOX - BLUE BOX", "address": {"city": "CHARLTON", "state": "MA", "street": "58 N MAIN ST", "postcode": "01507"}}},
{"geometry": {"type": "Point", "coordinates": [-71.960969912, 42.1384231779]}, "type": "Feature", "properties": {"collection_times": [{"days": "Mon-Fri", "time": "4:50pm"}, {"days": "Sat", "time": "11:30am"}, {"days": "Sun", "time": "Closed"}], "id": "0150700003", "name": "USPS COLLECTION BOX - EXPRESS", "address": {"city": "CHARLTON", "state": "MA", "street": "58 N MAIN ST", "postcode": "01507"}}},
{"geometry": {"type": "Point", "coordinates": [-71.9700921638, 42.1379449671]}, "type": "Feature", "properties": {"collection_times": [{"days": "Mon-Fri", "time": "4:50pm"}, {"days": "Sat", "time": "11:30am"}, {"days": "Sun", "time": "Closed"}], "id": "0150700007", "name": "USPS COLLECTION BOX - PO LOBBY", "address": {"city": "CHARLTON", "state": "MA", "street": "58 N MAIN ST", "postcode": "01507"}}},
{"geometry": {"type": "Point", "coordinates": [-71.987458105, 42.1456441278]}, "type": "Feature", "properties": {"collection_times": [{"days": "Mon-Fri", "time": "4:45pm"}, {"days": "Sat", "time": "12:00pm"}, {"days": "Sun", "time": "Closed"}], "id": "0150800001", "name": "USPS COLLECTION BOX - BLUE BOX", "address": {"city": "CHARLTON CITY", "state": "MA", "street": "9 POWER STATION RD", "postcode": "01508"}}},
{"geometry": {"type": "Point", "coordinates": [-71.987458105, 42.1456441278]}, "type": "Feature", "properties": {"collection_times": [{"days": "Mon-Fri", "time": "4:45pm"}, {"days": "Sat", "time": "12:00pm"}, {"days": "Sun", "time": "Closed"}], "id": "0150800002", "name": "USPS COLLECTION BOX - PO LOBBY", "address": {"city": "CHARLTON CITY", "state": "MA", "street": "9 POWERSTATION RD", "postcode": "01508"}}},
{"geometry": {"type": "Point", "coordinates": [-71.6825071995, 42.4187803128]}, "type": "Feature", "properties": {"collection_times": [{"days": "Mon-Fri", "time": "5:00pm"}, {"days": "Sat", "time": "4:00pm"}, {"days": "Sun", "time": "Closed"}], "id": "0151000001", "name": "USPS COLLECTION BOX - EXPRESS", "address": {"city": "CLINTON", "state": "MA", "street": "320 HIGH ST", "postcode": "01510"}}},
{"geometry": {"type": "Point", "coordinates": [-71.6843063006, 42.420588542]}, "type": "Feature", "properties": {"collection_times": [{"days": "Mon-Fri", "time": "5:00pm"}, {"days": "Sat", "time": "4:00pm"}, {"days": "Sun", "time": "Closed"}], "id": "0151000002", "name": "USPS COLLECTION BOX - BLUE BOX", "address": {"city": "CLINTON", "state": "MA", "street": "320 HIGH ST", "postcode": "01510"}}},
{"geometry": {"type": "Point", "coordinates": [-71.6825071995, 42.4187803128]}, "type": "Feature", "properties": {"collection_times": [{"days": "Mon-Fri", "time": "4:30pm"}, {"days": "Sat", "time": "2:30pm"}, {"days": "Sun", "time": "Closed"}], "id": "0151000006", "name": "USPS COLLECTION BOX - EXPRESS", "address": {"city": "CLINTON", "state": "MA", "street": "77 HIGH ST", "postcode": "01510"}}},
{"geometry": {"type": "Point", "coordinates": [-71.6887738753, 42.4176496996]}, "type": "Feature", "properties": {"collection_times": [{"days": "Mon-Fri", "time": "4:00pm"}, {"days": "Sat", "time": "2:00pm"}, {"days": "Sun", "time": "Closed"}], "id": "0151000008", "name": "USPS COLLECTION BOX - BLUE BOX", "address": {"city": "CLINTON", "state": "MA", "street": "500 MAIN ST", "postcode": "01510"}}},
{"geometry": {"type": "Point", "coordinates": [-71.6825071992, 42.4187803587]}, "type": "Feature", "properties": {"collection_times": [{"days": "Mon-Fri", "time": "4:00pm"}, {"days": "Sat", "time": "2:00pm"}, {"days": "Sun", "time": "Closed"}], "id": "0151000011", "name": "USPS COLLECTION BOX - BLUE BOX", "address": {"city": "CLINTON", "state": "MA", "street": "329 BROOK ST", "postcode": "01510"}}},
{"geometry": {"type": "Point", "coordinates": [-71.6635407182, 42.4307347657]}, "type": "Feature", "properties": {"collection_times": [{"days": "Mon-Sat", "time": "1:00pm"}, {"days": "Sun", "time": "Closed"}], "id": "0151000012", "name": "USPS COLLECTION BOX - BLUE BOX", "address": {"city": "CLINTON", "state": "MA", "street": "10 RIDGEFIELD CIR", "postcode": "01510"}}},
{"geometry": {"type": "Point", "coordinates": [-71.6847262027, 42.4170976064]}, "type": "Feature", "properties": {"collection_times": [{"days": "Mon-Fri", "time": "4:30pm"}, {"days": "Sat", "time": "2:30pm"}, {"days": "Sun", "time": "Closed"}], "id": "0151000013", "name": "USPS COLLECTION BOX - BLUE BOX", "address": {"city": "CLINTON", "state": "MA", "street": "77 HIGH ST", "postcode": "01510"}}},
{"geometry": {"type": "Point", "coordinates": [-71.693250192, 42.4270518574]}, "type": "Feature", "properties": {"collection_times": [{"days": "Mon-Fri", "time": "4:30pm"}, {"days": "Sat", "time": "2:30pm"}, {"days": "Sun", "time": "Closed"}], "id": "0151000014", "name": "USPS COLLECTION BOX - BLUE BOX", "address": {"city": "CLINTON", "state": "MA", "street": "201 HIGHLAND ST", "postcode": "01510"}}},
{"geometry": {"type": "Point", "coordinates": [-71.6813945772, 42.4217746775]}, "type": "Feature", "properties": {"collection_times": [{"days": "Mon-Sat", "time": "9:15am"}, {"days": "Sun", "time": "Closed"}], "id": "0151000015", "name": "USPS COLLECTION BOX - BLUE BOX", "address": {"city": "CLINTON", "state": "MA", "street": "215 WALNUT ST", "postcode": "01510"}}},
{"geometry": {"type": "Point", "coordinates": [-71.6830258777, 42.4173456791]}, "type": "Feature", "properties": {"collection_times": [{"days": "Mon-Sat", "time": "2:00pm"}, {"days": "Sun", "time": "Closed"}], "id": "0151000016", "name": "USPS COLLECTION BOX - BLUE BOX", "address": {"city": "CLINTON", "state": "MA", "street": "54 WALNUT ST", "postcode": "01510"}}},
{"geometry": {"type": "Point", "coordinates": [-71.6810574339, 42.4182293495]}, "type": "Feature", "properties": {"collection_times": [{"days": "Mon-Sat", "time": "9:15am"}, {"days": "Sun", "time": "Closed"}], "id": "0151000017", "name": "USPS COLLECTION BOX - BLUE BOX", "address": {"city": "CLINTON", "state": "MA", "street": "271 CHESTNUT ST", "postcode": "01510"}}},
{"geometry": {"type": "Point", "coordinates": [-71.6825071992, 42.4187803587]}, "type": "Feature", "properties": {"collection_times": [{"days": "Mon-Fri", "time": "4:00pm"}, {"days": "Sat", "time": "2:00pm"}, {"days": "Sun", "time": "Closed"}], "id": "0151000018", "name": "USPS COLLECTION BOX - BLUE BOX", "address": {"city": "CLINTON", "state": "MA", "street": "367 WATER ST", "postcode": "01510"}}},
{"geometry": {"type": "Point", "coordinates": [-71.6763058302, 42.4197912008]}, "type": "Feature", "properties": {"collection_times": [{"days": "Mon-Sat", "time": "2:00pm"}, {"days": "Sun", "time": "Closed"}], "id": "0151000019", "name": "USPS COLLECTION BOX - BLUE BOX", "address": {"city": "CLINTON", "state": "MA", "street": "274 WATER ST", "postcode": "01510"}}},
{"geometry": {"type": "Point", "coordinates": [-71.6856059112, 42.4347718476]}, "type": "Feature", "properties": {"collection_times": [{"days": "Mon-Fri", "time": "4:30pm"}, {"days": "Sat", "time": "10:00am"}, {"days": "Sun", "time": "Closed"}], "id": "0151000021", "name": "USPS COLLECTION BOX - BLUE BOX", "address": {"city": "CLINTON", "state": "MA", "street": "1175 MAIN ST", "postcode": "01510"}}},
{"geometry": {"type": "Point", "coordinates": [-71.6845246867, 42.418790072]}, "type": "Feature", "properties": {"collection_times": [{"days": "Mon-Fri", "time": "4:00pm"}, {"days": "Sat", "time": "2:30pm"}, {"days": "Sun", "time": "Closed"}], "id": "0151000024", "name": "USPS COLLECTION BOX - BLUE BOX", "address": {"city": "CLINTON", "state": "MA", "street": "185 HIGH ST", "postcode": "01510"}}},
{"geometry": {"type": "Point", "coordinates": [-71.6821149993, 42.4134099746]}, "type": "Feature", "properties": {"collection_times": [{"days": "Mon-Fri", "time": "4:00pm"}, {"days": "Sat", "time": "2:00pm"}, {"days": "Sun", "time": "Closed"}], "id": "0151000025", "name": "USPS COLLECTION BOX - BLUE BOX", "address": {"city": "CLINTON", "state": "MA", "street": "100 CHESTNUT ST", "postcode": "01510"}}},
{"geometry": {"type": "Point", "coordinates": [-71.6843063006, 42.420588542]}, "type": "Feature", "properties": {"collection_times": [{"days": "Mon-Fri", "time": "5:00pm"}, {"days": "Sat", "time": "4:00pm"}, {"days": "Sun", "time": "Closed"}], "id": "0151000032", "name": "USPS COLLECTION BOX - PO LOBBY", "address": {"city": "CLINTON", "state": "MA", "street": "320 HIGH ST", "postcode": "01510"}}},
{"geometry": {"type": "Point", "coordinates": [-71.6843063006, 42.420588542]}, "type": "Feature", "properties": {"collection_times": [{"days": "Mon-Fri", "time": "5:00pm"}, {"days": "Sat", "time": "4:00pm"}, {"days": "Sun", "time": "Closed"}], "id": "0151000033", "name": "USPS COLLECTION BOX - PO LOBBY", "address": {"city": "CLINTON", "state": "MA", "street": "320 HIGH ST", "postcode": "01510"}}},
{"geometry": {"type": "Point", "coordinates": [-72.0480078974, 42.2257498074]}, "type": "Feature", "properties": {"collection_times": [{"days": "Mon-Fri", "time": "4:45pm"}, {"days": "Sat", "time": "11:45am"}, {"days": "Sun", "time": "Closed"}], "id": "0151500001", "name": "USPS COLLECTION BOX - BLUE BOX", "address": {"city": "EAST BROOKFIELD", "state": "MA", "street": "103 MECHANIC ST", "postcode": "01515"}}},
{"geometry": {"type": "Point", "coordinates": [-72.0495298141, 42.2138003334]}, "type": "Feature", "properties": {"collection_times": [{"days": "Mon-Fri", "time": "4:45pm"}, {"days": "Sat", "time": "11:45am"}, {"days": "Sun", "time": "Closed"}], "id": "0151500002", "name": "USPS COLLECTION BOX - EXPRESS", "address": {"city": "EAST BROOKFIELD", "state": "MA", "street": "103 MECHANIC ST", "postcode": "01515"}}},
{"geometry": {"type": "Point", "coordinates": [-72.0480078974, 42.2257498074]}, "type": "Feature", "properties": {"collection_times": [{"days": "Mon-Fri", "time": "4:45pm"}, {"days": "Sat", "time": "11:45am"}, {"days": "Sun", "time": "Closed"}], "id": "0151500003", "name": "USPS COLLECTION BOX - PO LOBBY", "address": {"city": "EAST BROOKFIELD", "state": "MA", "street": "103 MECHANIC ST", "postcode": "01515"}}},
{"geometry": {"type": "Point", "coordinates": [-72.0480078974, 42.2257498074]}, "type": "Feature", "properties": {"collection_times": [{"days": "Mon-Fri", "time": "4:45pm"}, {"days": "Sat", "time": "11:45am"}, {"days": "Sun", "time": "Closed"}], "id": "0151500004", "name": "USPS COLLECTION BOX - PO LOBBY", "address": {"city": "EAST BROOKFIELD", "state": "MA", "street": "103 MECHANIC ST", "postcode": "01515"}}},
{"geometry": {"type": "Point", "coordinates": [-71.7116672832, 42.0734171007]}, "type": "Feature", "properties": {"collection_times": [{"days": "Mon-Fri", "time": "4:30pm"}, {"days": "Sat", "time": "1:00pm"}, {"days": "Sun", "time": "Closed"}], "id": "0151600002", "name": "USPS COLLECTION BOX - BLUE BOX", "address": {"city": "DOUGLAS", "state": "MA", "street": "331 MAIN ST", "postcode": "01516"}}},
{"geometry": {"type": "Point", "coordinates": [-71.7116672832, 42.0734171007]}, "type": "Feature", "properties": {"collection_times": [{"days": "Mon-Fri", "time": "4:30pm"}, {"days": "Sat", "time": "1:00pm"}, {"days": "Sun", "time": "Closed"}], "id": "0151600003", "name": "USPS COLLECTION BOX - PO LOBBY", "address": {"city": "DOUGLAS", "state": "MA", "street": "331 MAIN ST", "postcode": "01516"}}},
{"geometry": {"type": "Point", "coordinates": [-71.7116672832, 42.0734171007]}, "type": "Feature", "properties": {"collection_times": [{"days": "Mon-Fri", "time": "4:30pm"}, {"days": "Sat", "time": "1:00pm"}, {"days": "Sun", "time": "Closed"}], "id": "0151600004", "name": "USPS COLLECTION BOX - PO LOBBY", "address": {"city": "DOUGLAS", "state": "MA", "street": "331 MAIN ST", "postcode": "01516"}}},
{"geometry": {"type": "Point", "coordinates": [-71.7116672832, 42.0734171007]}, "type": "Feature", "properties": {"collection_times": [{"days": "Mon-Fri", "time": "4:30pm"}, {"days": "Sat", "time": "1:00pm"}, {"days": "Sun", "time": "Closed"}], "id": "0151600005", "name": "USPS COLLECTION BOX - PO LOBBY", "address": {"city": "DOUGLAS", "state": "MA", "street": "331 MAIN ST", "postcode": "01516"}}},
{"geometry": {"type": "Point", "coordinates": [-71.7116672832, 42.0734171007]}, "type": "Feature", "properties": {"collection_times": [{"days": "Mon-Fri", "time": "4:30pm"}, {"days": "Sat", "time": "1:00pm"}, {"days": "Sun", "time": "Closed"}], "id": "0151600006", "name": "USPS COLLECTION BOX - PO LOBBY", "address": {"city": "DOUGLAS", "state": "MA", "street": "331 MAIN ST", "postcode": "01516"}}},
{"geometry": {"type": "Point", "coordinates": [-71.7116672832, 42.0734171007]}, "type": "Feature", "properties": {"collection_times": [{"days": "Mon-Fri", "time": "4:30pm"}, {"days": "Sat", "time": "1:00pm"}, {"days": "Sun", "time": "Closed"}], "id": "0151600007", "name": "USPS COLLECTION BOX - BLUE BOX", "address": {"city": "DOUGLAS", "state": "MA", "street": "331 MAIN ST", "postcode": "01516"}}},
{"geometry": {"type": "Point", "coordinates": [-72.1009042174, 42.1132435722]}, "type": "Feature", "properties": {"collection_times": [{"days": "Mon-Fri", "time": "4:30pm"}, {"days": "Sat", "time": "12:00pm"}, {"days": "Sun", "time": "Closed"}], "id": "0151800001", "name": "USPS COLLECTION BOX - BLUE BOX", "address": {"city": "FISKDALE", "state": "MA", "street": "458 MAIN ST", "postcode": "01518"}}},
{"geometry": {"type": "Point", "coordinates": [-72.1089707062, 42.1161366843]}, "type": "Feature", "properties": {"collection_times": [{"days": "Mon-Sat", "time": "12:00pm"}, {"days": "Sun", "time": "Closed"}], "id": "0151800003", "name": "USPS COLLECTION BOX - BLUE BOX", "address": {"city": "FISKDALE", "state": "MA", "street": "55 HERITAGE GREEN DR", "postcode": "01518"}}},
{"geometry": {"type": "Point", "coordinates": [-72.0998442208, 42.1130185932]}, "type": "Feature", "properties": {"collection_times": [{"days": "Mon-Sat", "time": "10:30am"}, {"days": "Sun", "time": "Closed"}], "id": "0151800004", "name": "USPS COLLECTION BOX - BLUE BOX", "address": {"city": "FISKDALE", "state": "MA", "street": "452 MAIN ST", "postcode": "01518"}}},
{"geometry": {"type": "Point", "coordinates": [-72.1196474844, 42.1222767791]}, "type": "Feature", "properties": {"collection_times": [{"days": "Mon-Sat", "time": "10:30am"}, {"days": "Sun", "time": "Closed"}], "id": "0151800005", "name": "USPS COLLECTION BOX - BLUE BOX", "address": {"city": "FISKDALE", "state": "MA", "street": "130 MASHAPAUG RD", "postcode": "01518"}}},
{"geometry": {"type": "Point", "coordinates": [-72.1009042174, 42.1132435722]}, "type": "Feature", "properties": {"collection_times": [{"days": "Mon-Fri", "time": "4:30pm"}, {"days": "Sat", "time": "12:00pm"}, {"days": "Sun", "time": "Closed"}], "id": "0151800007", "name": "USPS COLLECTION BOX - PO LOBBY", "address": {"city": "FISKDALE", "state": "MA", "street": "458 MAIN ST", "postcode": "01518"}}},
{"geometry": {"type": "Point", "coordinates": [-72.1009042174, 42.1132435722]}, "type": "Feature", "properties": {"collection_times": [{"days": "Mon-Fri", "time": "4:30pm"}, {"days": "Sat", "time": "12:00pm"}, {"days": "Sun", "time": "Closed"}], "id": "0151800008", "name": "USPS COLLECTION BOX - PO LOBBY", "address": {"city": "FISKDALE", "state": "MA", "street": "458 MAIN ST", "postcode": "01518"}}},
{"geometry": {"type": "Point", "coordinates": [-72.1196474844, 42.1222767791]}, "type": "Feature", "properties": {"collection_times": [{"days": "Mon-Sat", "time": "1:00pm"}, {"days": "Sun", "time": "Closed"}], "id": "0151800010", "name": "USPS COLLECTION BOX - BLUE BOX", "address": {"city": "FISKDALE", "state": "MA", "street": "27 STURBRIDGE RD", "postcode": "01518"}}},
{"geometry": {"type": "Point", "coordinates": [-72.1009042174, 42.1132435722]}, "type": "Feature", "properties": {"collection_times": [{"days": "Mon-Fri", "time": "4:30pm"}, {"days": "Sat", "time": "12:00pm"}, {"days": "Sun", "time": "Closed"}], "id": "0151800011", "name": "USPS COLLECTION BOX - BLUE BOX", "address": {"city": "FISKDALE", "state": "MA", "street": "458 MAIN ST", "postcode": "01518"}}},
{"geometry": {"type": "Point", "coordinates": [-71.6826958321, 42.2064643162]}, "type": "Feature", "properties": {"collection_times": [{"days": "Mon-Fri", "time": "5:00pm"}, {"days": "Sat", "time": "12:00pm"}, {"days": "Sun", "time": "Closed"}], "id": "0151900001", "name": "USPS COLLECTION BOX - BLUE BOX", "address": {"city": "GRAFTON", "state": "MA", "street": "23 UPTON ST", "postcode": "01519"}}},
{"geometry": {"type": "Point", "coordinates": [-71.6877863812, 42.1998007256]}, "type": "Feature", "properties": {"collection_times": [{"days": "Mon-Fri", "time": "5:00pm"}, {"days": "Sat", "time": "12:00pm"}, {"days": "Sun", "time": "Closed"}], "id": "0151900003", "name": "USPS COLLECTION BOX - EXPRESS", "address": {"city": "GRAFTON", "state": "MA", "street": "23 UPTON ST", "postcode": "01519"}}},
{"geometry": {"type": "Point", "coordinates": [-71.6925522462, 42.2098428471]}, "type": "Feature", "properties": {"collection_times": [{"days": "Mon-Sat", "time": "12:00pm"}, {"days": "Sun", "time": "Closed"}], "id": "0151900004", "name": "USPS COLLECTION BOX - BLUE BOX", "address": {"city": "GRAFTON", "state": "MA", "street": "30 PROVIDENCE RD", "postcode": "01519"}}},
{"geometry": {"type": "Point", "coordinates": [-71.6826958321, 42.2064643162]}, "type": "Feature", "properties": {"collection_times": [{"days": "Mon-Fri", "time": "5:00pm"}, {"days": "Sat", "time": "12:00pm"}, {"days": "Sun", "time": "Closed"}], "id": "0151900005", "name": "USPS COLLECTION BOX - PO LOBBY", "address": {"city": "GRAFTON", "state": "MA", "street": "23 UPTON ST", "postcode": "01519"}}},
{"geometry": {"type": "Point", "coordinates": [-71.6826958321, 42.2064643162]}, "type": "Feature", "properties": {"collection_times": [{"days": "Mon-Fri", "time": "5:00pm"}, {"days": "Sat", "time": "12:00pm"}, {"days": "Sun", "time": "Closed"}], "id": "0151900006", "name": "USPS COLLECTION BOX - PO LOBBY", "address": {"city": "GRAFTON", "state": "MA", "street": "23 UPTON ST", "postcode": "01519"}}},
{"geometry": {"type": "Point", "coordinates": [-71.6826958321, 42.2064643162]}, "type": "Feature", "properties": {"collection_times": [{"days": "Mon-Fri", "time": "5:00pm"}, {"days": "Sat", "time": "12:00pm"}, {"days": "Sun", "time": "Closed"}], "id": "0151900007", "name": "USPS COLLECTION BOX - BLUE BOX", "address": {"city": "GRAFTON", "state": "MA", "street": "23 UPTON ST", "postcode": "01519"}}},
{"geometry": {"type": "Point", "coordinates": [-71.85565, 42.346577]}, "type": "Feature", "properties": {"collection_times": [{"days": "Mon-Fri", "time": "5:00pm"}, {"days": "Sat", "time": "1:00pm"}, {"days": "Sun", "time": "Closed"}], "id": "0152000001", "name": "USPS COLLECTION BOX - BLUE BOX", "address": {"city": "HOLDEN", "state": "MA", "street": "1037 MAIN ST", "postcode": "01520"}}},
{"geometry": {"type": "Point", "coordinates": [-71.8561921428, 42.3474493657]}, "type": "Feature", "properties": {"collection_times": [{"days": "Mon-Fri", "time": "5:00pm"}, {"days": "Sat", "time": "1:00pm"}, {"days": "Sun", "time": "Closed"}], "id": "0152000002", "name": "USPS COLLECTION BOX - BLUE BOX", "address": {"city": "HOLDEN", "state": "MA", "street": "1037 MAIN ST", "postcode": "01520"}}},
{"geometry": {"type": "Point", "coordinates": [-71.8561921428, 42.3474493657]}, "type": "Feature", "properties": {"collection_times": [{"days": "Mon-Fri", "time": "5:00pm"}, {"days": "Sat", "time": "1:00pm"}, {"days": "Sun", "time": "Closed"}], "id": "0152000004", "name": "USPS COLLECTION BOX - BLUE BOX", "address": {"city": "HOLDEN", "state": "MA", "street": "1037 MAIN ST", "postcode": "01520"}}},
{"geometry": {"type": "Point", "coordinates": [-71.8452493801, 42.3423821271]}, "type": "Feature", "properties": {"collection_times": [{"days": "Mon-Fri", "time": "4:00pm"}, {"days": "Sat", "time": "1:00pm"}, {"days": "Sun", "time": "Closed"}], "id": "0152000005", "name": "USPS COLLECTION BOX - BLUE BOX", "address": {"city": "HOLDEN", "state": "MA", "street": "1097 MAIN ST", "postcode": "01520"}}},
{"geometry": {"type": "Point", "coordinates": [-71.8452493801, 42.3423821271]}, "type": "Feature", "properties": {"collection_times": [{"days": "Mon-Fri", "time": "4:00pm"}, {"days": "Sat", "time": "1:00pm"}, {"days": "Sun", "time": "Closed"}], "id": "0152000008", "name": "USPS COLLECTION BOX - BLUE BOX", "address": {"city": "HOLDEN", "state": "MA", "street": "160 RESERVOIR ST", "postcode": "01520"}}},
{"geometry": {"type": "Point", "coordinates": [-71.8635777595, 42.3511309389]}, "type": "Feature", "properties": {"collection_times": [{"days": "Mon-Fri", "time": "4:30pm"}, {"days": "Sat", "time": "1:00pm"}, {"days": "Sun", "time": "Closed"}], "id": "0152000010", "name": "USPS COLLECTION BOX - BLUE BOX", "address": {"city": "HOLDEN", "state": "MA", "street": "1204 MAIN ST", "postcode": "01520"}}},
{"geometry": {"type": "Point", "coordinates": [-71.8447564785, 42.3421615391]}, "type": "Feature", "properties": {"collection_times": [{"days": "Mon-Fri", "time": "4:00pm"}, {"days": "Sat", "time": "1:00pm"}, {"days": "Sun", "time": "Closed"}], "id": "0152000011", "name": "USPS COLLECTION BOX - BLUE BOX", "address": {"city": "HOLDEN", "state": "MA", "street": "800 MAIN ST", "postcode": "01520"}}},
{"geometry": {"type": "Point", "coordinates": [-71.8452493801, 42.3423821271]}, "type": "Feature", "properties": {"collection_times": [{"days": "Mon-Fri", "time": "4:00pm"}, {"days": "Sat", "time": "1:00pm"}, {"days": "Sun", "time": "Closed"}], "id": "0152000016", "name": "USPS COLLECTION BOX - BLUE BOX", "address": {"city": "HOLDEN", "state": "MA", "street": "623 MAIN ST", "postcode": "01520"}}},
{"geometry": {"type": "Point", "coordinates": [-71.843133726, 42.3411892663]}, "type": "Feature", "properties": {"collection_times": [{"days": "Mon-Fri", "time": "4:00pm"}, {"days": "Sat", "time": "1:00pm"}, {"days": "Sun", "time": "Closed"}], "id": "0152000018", "name": "USPS COLLECTION BOX - BLUE BOX", "address": {"city": "HOLDEN", "state": "MA", "street": "1 INDUSTRIAL DR", "postcode": "01520"}}},
{"geometry": {"type": "Point", "coordinates": [-71.8355613384, 42.3367341234]}, "type": "Feature", "properties": {"collection_times": [{"days": "Mon-Fri", "time": "4:00pm"}, {"days": "Sat", "time": "1:00pm"}, {"days": "Sun", "time": "Closed"}], "id": "0152000019", "name": "USPS COLLECTION BOX - BLUE BOX", "address": {"city": "HOLDEN", "state": "MA", "street": "5 SHREWSBURY ST", "postcode": "01520"}}},
{"geometry": {"type": "Point", "coordinates": [-71.8561921428, 42.3474493657]}, "type": "Feature", "properties": {"collection_times": [{"days": "Mon-Fri", "time": "5:00pm"}, {"days": "Sat", "time": "1:00pm"}, {"days": "Sun", "time": "Closed"}], "id": "0152000022", "name": "USPS COLLECTION BOX - PO LOBBY", "address": {"city": "HOLDEN", "state": "MA", "street": "1037 MAIN ST", "postcode": "01520"}}},
{"geometry": {"type": "Point", "coordinates": [-71.8561921428, 42.3474493657]}, "type": "Feature", "properties": {"collection_times": [{"days": "Mon-Fri", "time": "5:00pm"}, {"days": "Sat", "time": "1:00pm"}, {"days": "Sun", "time": "Closed"}], "id": "0152000023", "name": "USPS COLLECTION BOX - PO LOBBY", "address": {"city": "HOLDEN", "state": "MA", "street": "1037 MAIN ST", "postcode": "01520"}}},
{"geometry": {"type": "Point", "coordinates": [-71.881437711, 42.3648309106]}, "type": "Feature", "properties": {"collection_times": [{"days": "Mon-Fri", "time": "5:00pm"}, {"days": "Sat", "time": "12:00pm"}, {"days": "Sun", "time": "Closed"}], "id": "0152200001", "name": "USPS COLLECTION BOX - BLUE BOX", "address": {"city": "JEFFERSON", "state": "MA", "street": "140 PRINCETON ST", "postcode": "01522"}}},
{"geometry": {"type": "Point", "coordinates": [-71.881437711, 42.3648309106]}, "type": "Feature", "properties": {"collection_times": [{"days": "Mon-Fri", "time": "5:00pm"}, {"days": "Sat", "time": "12:00pm"}, {"days": "Sun", "time": "Closed"}], "id": "0152200002", "name": "USPS COLLECTION BOX - BLUE BOX", "address": {"city": "JEFFERSON", "state": "MA", "street": "140 PRINCETON ST", "postcode": "01522"}}},
{"geometry": {"type": "Point", "coordinates": [-71.881437711, 42.3648309106]}, "type": "Feature", "properties": {"collection_times": [{"days": "Mon-Fri", "time": "5:00pm"}, {"days": "Sat", "time": "12:00pm"}, {"days": "Sun", "time": "Closed"}], "id": "0152200003", "name": "USPS COLLECTION BOX - PO LOBBY", "address": {"city": "JEFFERSON", "state": "MA", "street": "140 PRINCETON ST", "postcode": "01522"}}},
{"geometry": {"type": "Point", "coordinates": [-71.881437711, 42.3648309106]}, "type": "Feature", "properties": {"collection_times": [{"days": "Mon-Fri", "time": "5:00pm"}, {"days": "Sat", "time": "12:00pm"}, {"days": "Sun", "time": "Closed"}], "id": "0152200004", "name": "USPS COLLECTION BOX - PO LOBBY", "address": {"city": "JEFFERSON", "state": "MA", "street": "140 PRINCETON ST", "postcode": "01522"}}},
{"geometry": {"type": "Point", "coordinates": [-71.6878385212, 42.4625605882]}, "type": "Feature", "properties": {"collection_times": [{"days": "Mon-Fri", "time": "4:45pm"}, {"days": "Sat", "time": "11:45am"}, {"days": "Sun", "time": "Closed"}], "id": "0152300001", "name": "USPS COLLECTION BOX - EXPRESS", "address": {"city": "LANCASTER", "state": "MA", "street": "771 MAIN ST", "postcode": "01523"}}},
{"geometry": {"type": "Point", "coordinates": [-71.6737006121, 42.4566258315]}, "type": "Feature", "properties": {"collection_times": [{"days": "Mon-Fri", "time": "4:45pm"}, {"days": "Sat", "time": "11:45am"}, {"days": "Sun", "time": "Closed"}], "id": "0152300002", "name": "USPS COLLECTION BOX - BLUE BOX", "address": {"city": "LANCASTER", "state": "MA", "street": "771 MAIN ST", "postcode": "01523"}}},
{"geometry": {"type": "Point", "coordinates": [-71.6737006121, 42.4566258315]}, "type": "Feature", "properties": {"collection_times": [{"days": "Mon-Fri", "time": "4:45pm"}, {"days": "Sat", "time": "11:45am"}, {"days": "Sun", "time": "Closed"}], "id": "0152300004", "name": "USPS COLLECTION BOX - PO LOBBY", "address": {"city": "LANCASTER", "state": "MA", "street": "771 MAIN ST", "postcode": "01523"}}},
{"geometry": {"type": "Point", "coordinates": [-71.6737006121, 42.4566258315]}, "type": "Feature", "properties": {"collection_times": [{"days": "Mon-Fri", "time": "4:45pm"}, {"days": "Sat", "time": "11:45am"}, {"days": "Sun", "time": "Closed"}], "id": "0152300005", "name": "USPS COLLECTION BOX - PO LOBBY", "address": {"city": "LANCASTER", "state": "MA", "street": "771 MAIN ST", "postcode": "01523"}}},
{"geometry": {"type": "Point", "coordinates": [-71.909373246, 42.2460342936]}, "type": "Feature", "properties": {"collection_times": [{"days": "Mon-Sat", "time": "2:30pm"}, {"days": "Sun", "time": "Closed"}], "id": "0152400004", "name": "USPS COLLECTION BOX - BLUE BOX", "address": {"city": "LEICESTER", "state": "MA", "street": "1084 MAIN ST", "postcode": "01524"}}},
{"geometry": {"type": "Point", "coordinates": [-71.9193577943, 42.2410217928]}, "type": "Feature", "properties": {"collection_times": [{"days": "Mon-Sat", "time": "2:30pm"}, {"days": "Sun", "time": "Closed"}], "id": "0152400006", "name": "USPS COLLECTION BOX - BLUE BOX", "address": {"city": "LEICESTER", "state": "MA", "street": "13 WASHBURN SQ", "postcode": "01524"}}},
{"geometry": {"type": "Point", "coordinates": [-71.9079383168, 42.2442681359]}, "type": "Feature", "properties": {"collection_times": [{"days": "Mon-Sat", "time": "2:30pm"}, {"days": "Sun", "time": "Closed"}], "id": "0152400007", "name": "USPS COLLECTION BOX - BLUE BOX", "address": {"city": "LEICESTER", "state": "MA", "street": "30 PLEASANT ST", "postcode": "01524"}}},
{"geometry": {"type": "Point", "coordinates": [-71.9187214887, 42.2472078261]}, "type": "Feature", "properties": {"collection_times": [{"days": "Mon-Sat", "time": "11:00am"}, {"days": "Sun", "time": "Closed"}], "id": "0152400011", "name": "USPS COLLECTION BOX - BLUE BOX", "address": {"city": "LEICESTER", "state": "MA", "street": "20 SOOJIAN DR", "postcode": "01524"}}},
{"geometry": {"type": "Point", "coordinates": [-71.7667297845, 42.1874624635]}, "type": "Feature", "properties": {"collection_times": [{"days": "Mon-Fri", "time": "5:00pm"}, {"days": "Sat", "time": "1:00pm"}, {"days": "Sun", "time": "Closed"}], "id": "0152700002", "name": "USPS COLLECTION BOX - BLUE BOX", "address": {"city": "MILLBURY", "state": "MA", "street": "119 ELM ST", "postcode": "01527"}}},
{"geometry": {"type": "Point", "coordinates": [-71.7667297845, 42.1874624635]}, "type": "Feature", "properties": {"collection_times": [{"days": "Mon-Fri", "time": "5:00pm"}, {"days": "Sat", "time": "1:00pm"}, {"days": "Sun", "time": "Closed"}], "id": "0152700003", "name": "USPS COLLECTION BOX - EXPRESS", "address": {"city": "MILLBURY", "state": "MA", "street": "119 ELM ST", "postcode": "01527"}}},
{"geometry": {"type": "Point", "coordinates": [-71.7667297845, 42.1874624635]}, "type": "Feature", "properties": {"collection_times": [{"days": "Mon-Fri", "time": "5:00pm"}, {"days": "Sat", "time": "1:00pm"}, {"days": "Sun", "time": "Closed"}], "id": "0152700004", "name": "USPS COLLECTION BOX - BLUE BOX", "address": {"city": "MILLBURY", "state": "MA", "street": "119 ELM ST", "postcode": "01527"}}},
{"geometry": {"type": "Point", "coordinates": [-71.7712212234, 42.179701643]}, "type": "Feature", "properties": {"collection_times": [{"days": "Mon-Sat", "time": "10:00am"}, {"days": "Sun", "time": "Closed"}], "id": "0152700007", "name": "USPS COLLECTION BOX - BLUE BOX", "address": {"city": "MILLBURY", "state": "MA", "street": "107 W MAIN ST", "postcode": "01527"}}},
{"geometry": {"type": "Point", "coordinates": [-71.7583218752, 42.1962800281]}, "type": "Feature", "properties": {"collection_times": [{"days": "Mon-Sat", "time": "10:00am"}, {"days": "Sun", "time": "Closed"}], "id": "0152700012", "name": "USPS COLLECTION BOX - BLUE BOX", "address": {"city": "MILLBURY", "state": "MA", "street": "31 HOWE AVE", "postcode": "01527"}}},
{"geometry": {"type": "Point", "coordinates": [-71.7647278427, 42.1976583968]}, "type": "Feature", "properties": {"collection_times": [{"days": "Mon-Sat", "time": "10:00am"}, {"days": "Sun", "time": "Closed"}], "id": "0152700013", "name": "USPS COLLECTION BOX - BLUE BOX", "address": {"city": "MILLBURY", "state": "MA", "street": "118 MAIN ST", "postcode": "01527"}}},
{"geometry": {"type": "Point", "coordinates": [-71.7610915818, 42.1932917647]}, "type": "Feature", "properties": {"collection_times": [{"days": "Mon-Sat", "time": "10:00am"}, {"days": "Sun", "time": "Closed"}], "id": "0152700014", "name": "USPS COLLECTION BOX - BLUE BOX", "address": {"city": "MILLBURY", "state": "MA", "street": "50 MAIN ST", "postcode": "01527"}}},
{"geometry": {"type": "Point", "coordinates": [-71.7618570093, 42.1903800331]}, "type": "Feature", "properties": {"collection_times": [{"days": "Mon-Fri", "time": "5:00pm"}, {"days": "Sat", "time": "1:00pm"}, {"days": "Sun", "time": "Closed"}], "id": "0152700015", "name": "USPS COLLECTION BOX - BLUE BOX", "address": {"city": "MILLBURY", "state": "MA", "street": "15 SCHOOL ST", "postcode": "01527"}}},
{"geometry": {"type": "Point", "coordinates": [-71.7519795023, 42.1915548086]}, "type": "Feature", "properties": {"collection_times": [{"days": "Mon-Sat", "time": "10:00am"}, {"days": "Sun", "time": "Closed"}], "id": "0152700016", "name": "USPS COLLECTION BOX - BLUE BOX", "address": {"city": "MILLBURY", "state": "MA", "street": "1 RIVERLIN ST", "postcode": "01527"}}},
{"geometry": {"type": "Point", "coordinates": [-71.7574256774, 42.1766925496]}, "type": "Feature", "properties": {"collection_times": [{"days": "Mon-Sat", "time": "10:00am"}, {"days": "Sun", "time": "Closed"}], "id": "0152700018", "name": "USPS COLLECTION BOX - BLUE BOX", "address": {"city": "MILLBURY", "state": "MA", "street": "97 WORCESTER PROVIDENCE TPKE", "postcode": "01527"}}},
{"geometry": {"type": "Point", "coordinates": [-71.7724219264, 42.2184873154]}, "type": "Feature", "properties": {"collection_times": [{"days": "Mon-Sat", "time": "10:00am"}, {"days": "Sun", "time": "Closed"}], "id": "0152700020", "name": "USPS COLLECTION BOX - BLUE BOX", "address": {"city": "MILLBURY", "state": "MA", "street": "8 LATTI FARM RD", "postcode": "01527"}}},
{"geometry": {"type": "Point", "coordinates": [-71.7618570093, 42.1903800331]}, "type": "Feature", "properties": {"collection_times": [{"days": "Mon-Fri", "time": "5:00pm"}, {"days": "Sat", "time": "1:00pm"}, {"days": "Sun", "time": "Closed"}], "id": "0152700021", "name": "USPS COLLECTION BOX - BLUE BOX", "address": {"city": "MILLBURY", "state": "MA", "street": "15 SCHOOL ST", "postcode": "01527"}}},
{"geometry": {"type": "Point", "coordinates": [-71.7630108549, 42.1900182964]}, "type": "Feature", "properties": {"collection_times": [{"days": "Mon-Sat", "time": "10:00am"}, {"days": "Sun", "time": "Closed"}], "id": "0152700022", "name": "USPS COLLECTION BOX - BLUE BOX", "address": {"city": "MILLBURY", "state": "MA", "street": "127 ELM ST", "postcode": "01527"}}},
{"geometry": {"type": "Point", "coordinates": [-71.7667297845, 42.1874624635]}, "type": "Feature", "properties": {"collection_times": [{"days": "Mon-Fri", "time": "5:00pm"}, {"days": "Sat", "time": "1:00pm"}, {"days": "Sun", "time": "Closed"}], "id": "0152700024", "name": "USPS COLLECTION BOX - PO LOBBY", "address": {"city": "MILLBURY", "state": "MA", "street": "119 ELM ST", "postcode": "01527"}}},
{"geometry": {"type": "Point", "coordinates": [-71.7667297845, 42.1874624635]}, "type": "Feature", "properties": {"collection_times": [{"days": "Mon-Fri", "time": "5:00pm"}, {"days": "Sat", "time": "1:00pm"}, {"days": "Sun", "time": "Closed"}], "id": "0152700025", "name": "USPS COLLECTION BOX - PO LOBBY", "address": {"city": "MILLBURY", "state": "MA", "street": "119 ELM ST", "postcode": "01527"}}},
{"geometry": {"type": "Point", "coordinates": [-71.7732809149, 42.1962447338]}, "type": "Feature", "properties": {"collection_times": [{"days": "Mon-Sat", "time": "10:00am"}, {"days": "Sun", "time": "Closed"}], "id": "0152700026", "name": "USPS COLLECTION BOX - BLUE BOX", "address": {"city": "MILLBURY", "state": "MA", "street": "70 WORCESTER PROVIDENCE TPKE", "postcode": "01527"}}},
{"geometry": {"type": "Point", "coordinates": [-71.7732809149, 42.1962447338]}, "type": "Feature", "properties": {"collection_times": [{"days": "Mon-Sat", "time": "10:00am"}, {"days": "Sun", "time": "Closed"}], "id": "0152700027", "name": "USPS COLLECTION BOX - BLUE BOX", "address": {"city": "MILLBURY", "state": "MA", "street": "70 WORCESTER PROVIDENCE TPKE", "postcode": "01527"}}},
{"geometry": {"type": "Point", "coordinates": [-71.5818438485, 42.0257259308]}, "type": "Feature", "properties": {"collection_times": [{"days": "Mon-Fri", "time": "4:30pm"}, {"days": "Sat", "time": "12:00pm"}, {"days": "Sun", "time": "Closed"}], "id": "0152900001", "name": "USPS COLLECTION BOX - BLUE BOX", "address": {"city": "MILLVILLE", "state": "MA", "street": "31 CENTRAL ST", "postcode": "01529"}}},
{"geometry": {"type": "Point", "coordinates": [-71.5818438485, 42.0257259308]}, "type": "Feature", "properties": {"collection_times": [{"days": "Mon-Fri", "time": "5:00pm"}, {"days": "Sat", "time": "12:00pm"}, {"days": "Sun", "time": "Closed"}], "id": "0152900002", "name": "USPS COLLECTION BOX - PO LOBBY", "address": {"city": "MILLVILLE", "state": "MA", "street": "31 CENTRAL ST", "postcode": "01529"}}},
{"geometry": {"type": "Point", "coordinates": [-71.5818438485, 42.0257259308]}, "type": "Feature", "properties": {"collection_times": [{"days": "Mon-Fri", "time": "5:00pm"}, {"days": "Sat", "time": "12:00pm"}, {"days": "Sun", "time": "Closed"}], "id": "0152900003", "name": "USPS COLLECTION BOX - PO LOBBY", "address": {"city": "MILLVILLE", "state": "MA", "street": "31 CENTRAL ST", "postcode": "01529"}}},
{"geometry": {"type": "Point", "coordinates": [-72.1173367798, 42.3152400808]}, "type": "Feature", "properties": {"collection_times": [{"days": "Mon-Fri", "time": "4:45pm"}, {"days": "Sat", "time": "11:45am"}, {"days": "Sun", "time": "Closed"}], "id": "0153100001", "name": "USPS COLLECTION BOX - BLUE BOX", "address": {"city": "NEW BRAINTREE", "state": "MA", "street": "10 UTLEY RD", "postcode": "01531"}}},
{"geometry": {"type": "Point", "coordinates": [-72.1173367798, 42.3152400808]}, "type": "Feature", "properties": {"collection_times": [{"days": "Mon-Fri", "time": "4:45pm"}, {"days": "Sat", "time": "11:45am"}, {"days": "Sun", "time": "Closed"}], "id": "0153100002", "name": "USPS COLLECTION BOX - PO LOBBY", "address": {"city": "NEW BRAINTREE", "state": "MA", "street": "10 UTLEY RD", "postcode": "01531"}}},
{"geometry": {"type": "Point", "coordinates": [-72.1173367798, 42.3152400808]}, "type": "Feature", "properties": {"collection_times": [{"days": "Mon-Fri", "time": "4:45pm"}, {"days": "Sat", "time": "11:45am"}, {"days": "Sun", "time": "Closed"}], "id": "0153100003", "name": "USPS COLLECTION BOX - PO LOBBY", "address": {"city": "NEW BRAINTREE", "state": "MA", "street": "10 UTLEY RD", "postcode": "01531"}}},
{"geometry": {"type": "Point", "coordinates": [-72.1265363465, 42.3186409711]}, "type": "Feature", "properties": {"collection_times": [{"days": "Mon-Fri", "time": "4:45pm"}, {"days": "Sat", "time": "11:45am"}, {"days": "Sun", "time": "Closed"}], "id": "0153100004", "name": "USPS COLLECTION BOX - EXPRESS", "address": {"city": "NEW BRAINTREE", "state": "MA", "street": "10 UTLEY RD", "postcode": "01531"}}},
{"geometry": {"type": "Point", "coordinates": [-71.6548464326, 42.310785899]}, "type": "Feature", "properties": {"collection_times": [{"days": "Mon-Fri", "time": "5:00pm"}, {"days": "Sat", "time": "3:30pm"}, {"days": "Sun", "time": "Closed"}], "id": "0153200001", "name": "USPS COLLECTION BOX - BLUE BOX", "address": {"city": "NORTHBOROUGH", "state": "MA", "street": "235 W MAIN ST", "postcode": "01532"}}},
{"geometry": {"type": "Point", "coordinates": [-71.6548464326, 42.310785899]}, "type": "Feature", "properties": {"collection_times": [{"days": "Mon-Fri", "time": "5:00pm"}, {"days": "Sat", "time": "3:30pm"}, {"days": "Sun", "time": "Closed"}], "id": "0153200003", "name": "USPS COLLECTION BOX - BLUE BOX", "address": {"city": "NORTHBOROUGH", "state": "MA", "street": "235 W MAIN ST", "postcode": "01532"}}},
{"geometry": {"type": "Point", "coordinates": [-71.6599676415, 42.3066266348]}, "type": "Feature", "properties": {"collection_times": [{"days": "Mon-Fri", "time": "12:00pm"}, {"days": "Sat", "time": "10:00am"}, {"days": "Sun", "time": "Closed"}], "id": "0153200005", "name": "USPS COLLECTION BOX - BLUE BOX", "address": {"city": "NORTHBOROUGH", "state": "MA", "street": "300 W MAIN ST", "postcode": "01532"}}},
{"geometry": {"type": "Point", "coordinates": [-71.6393374729, 42.3173214041]}, "type": "Feature", "properties": {"collection_times": [{"days": "Mon-Sat", "time": "11:00am"}, {"days": "Sun", "time": "Closed"}], "id": "0153200008", "name": "USPS COLLECTION BOX - BLUE BOX", "address": {"city": "NORTHBOROUGH", "state": "MA", "street": "26 VILLAGE DR", "postcode": "01532"}}},
{"geometry": {"type": "Point", "coordinates": [-71.6379752514, 42.3176943989]}, "type": "Feature", "properties": {"collection_times": [{"days": "Mon-Sat", "time": "12:00pm"}, {"days": "Sun", "time": "Closed"}], "id": "0153200009", "name": "USPS COLLECTION BOX - BLUE BOX", "address": {"city": "NORTHBOROUGH", "state": "MA", "street": "32 SCHOOL ST", "postcode": "01532"}}},
{"geometry": {"type": "Point", "coordinates": [-71.6568313049, 42.290902211]}, "type": "Feature", "properties": {"collection_times": [{"days": "Mon-Fri", "time": "1:00pm"}, {"days": "Sat", "time": "10:00am"}, {"days": "Sun", "time": "Closed"}], "id": "0153200010", "name": "USPS COLLECTION BOX - BLUE BOX", "address": {"city": "NORTHBOROUGH", "state": "MA", "street": "100 OTIS ST", "postcode": "01532"}}},
{"geometry": {"type": "Point", "coordinates": [-71.645482309, 42.3043825616]}, "type": "Feature", "properties": {"collection_times": [{"days": "Mon-Sat", "time": "9:30am"}, {"days": "Sun", "time": "Closed"}], "id": "0153200011", "name": "USPS COLLECTION BOX - BLUE BOX", "address": {"city": "NORTHBOROUGH", "state": "MA", "street": "32 NORTHGATE RD", "postcode": "01532"}}},
{"geometry": {"type": "Point", "coordinates": [-71.6466565587, 42.3173201351]}, "type": "Feature", "properties": {"collection_times": [{"days": "Mon-Fri", "time": "12:00pm"}, {"days": "Sat", "time": "11:30am"}, {"days": "Sun", "time": "Closed"}], "id": "0153200013", "name": "USPS COLLECTION BOX - BLUE BOX", "address": {"city": "NORTHBOROUGH", "state": "MA", "street": "292 MAIN ST", "postcode": "01532"}}},
{"geometry": {"type": "Point", "coordinates": [-71.6466565587, 42.3173201351]}, "type": "Feature", "properties": {"collection_times": [{"days": "Mon-Fri", "time": "1:00pm"}, {"days": "Sat", "time": "10:00am"}, {"days": "Sun", "time": "Closed"}], "id": "0153200014", "name": "USPS COLLECTION BOX - BLUE BOX", "address": {"city": "NORTHBOROUGH", "state": "MA", "street": "386 W MAIN ST", "postcode": "01532"}}},
{"geometry": {"type": "Point", "coordinates": [-71.6466565591, 42.3173200894]}, "type": "Feature", "properties": {"collection_times": [{"days": "Mon-Fri", "time": "5:00pm"}, {"days": "Sat", "time": "3:30pm"}, {"days": "Sun", "time": "Closed"}], "id": "0153200016", "name": "USPS COLLECTION BOX - EXPRESS", "address": {"city": "NORTHBOROUGH", "state": "MA", "street": "235 W MAIN ST", "postcode": "01532"}}},
{"geometry": {"type": "Point", "coordinates": [-71.6548464326, 42.310785899]}, "type": "Feature", "properties": {"collection_times": [{"days": "Mon-Fri", "time": "5:00pm"}, {"days": "Sat", "time": "3:30pm"}, {"days": "Sun", "time": "Closed"}], "id": "0153200017", "name": "USPS COLLECTION BOX - BLUE BOX", "address": {"city": "NORTHBOROUGH", "state": "MA", "street": "235 W MAIN ST", "postcode": "01532"}}},
{"geometry": {"type": "Point", "coordinates": [-71.6546159352, 42.2845490716]}, "type": "Feature", "properties": {"collection_times": [{"days": "Mon-Fri", "time": "1:00pm"}, {"days": "Sat", "time": "10:00am"}, {"days": "Sun", "time": "Closed"}], "id": "0153200018", "name": "USPS COLLECTION BOX - BLUE BOX", "address": {"city": "NORTHBOROUGH", "state": "MA", "street": "24 W MAIN ST", "postcode": "01532"}}},
{"geometry": {"type": "Point", "coordinates": [-71.6548464326, 42.310785899]}, "type": "Feature", "properties": {"collection_times": [{"days": "Mon-Fri", "time": "5:00pm"}, {"days": "Sat", "time": "3:30pm"}, {"days": "Sun", "time": "Closed"}], "id": "0153200019", "name": "USPS COLLECTION BOX - PO LOBBY", "address": {"city": "NORTHBOROUGH", "state": "MA", "street": "235 W MAIN ST", "postcode": "01532"}}},
{"geometry": {"type": "Point", "coordinates": [-71.6548464326, 42.310785899]}, "type": "Feature", "properties": {"collection_times": [{"days": "Mon-Fri", "time": "5:00pm"}, {"days": "Sat", "time": "3:30pm"}, {"days": "Sun", "time": "Closed"}], "id": "0153200020", "name": "USPS COLLECTION BOX - PO LOBBY", "address": {"city": "NORTHBOROUGH", "state": "MA", "street": "235 W MAIN ST", "postcode": "01532"}}},
{"geometry": {"type": "Point", "coordinates": [-71.6559100923, 42.2881665601]}, "type": "Feature", "properties": {"collection_times": [{"days": "Mon-Fri", "time": "3:00pm"}, {"days": "Sat", "time": "10:00am"}, {"days": "Sun", "time": "Closed"}], "id": "0153200022", "name": "USPS COLLECTION BOX - BLUE BOX", "address": {"city": "NORTHBOROUGH", "state": "MA", "street": "155 OTIS ST", "postcode": "01532"}}},
{"geometry": {"type": "Point", "coordinates": [-71.6423266549, 42.3197703191]}, "type": "Feature", "properties": {"collection_times": [{"days": "Mon-Fri", "time": "3:00pm"}, {"days": "Sat", "time": "10:00am"}, {"days": "Sun", "time": "Closed"}], "id": "0153200023", "name": "USPS COLLECTION BOX - BLUE BOX", "address": {"city": "NORTHBOROUGH", "state": "MA", "street": "63 MAIN ST", "postcode": "01532"}}},
{"geometry": {"type": "Point", "coordinates": [-71.6548464326, 42.310785899]}, "type": "Feature", "properties": {"collection_times": [{"days": "Mon-Fri", "time": "5:00pm"}, {"days": "Sat", "time": "3:30pm"}, {"days": "Sun", "time": "Closed"}], "id": "0153200024", "name": "USPS COLLECTION BOX - PO LOBBY", "address": {"city": "NORTHBOROUGH", "state": "MA", "street": "235 W MAIN ST", "postcode": "01532"}}},
{"geometry": {"type": "Point", "coordinates": [-71.630347532, 42.341762882]}, "type": "Feature", "properties": {"collection_times": [{"days": "Mon-Fri", "time": "3:00pm"}, {"days": "Sat", "time": "10:00am"}, {"days": "Sun", "time": "Closed"}], "id": "0153200025", "name": "USPS COLLECTION BOX - BLUE BOX", "address": {"city": "NORTHBOROUGH", "state": "MA", "street": "44 BEARFOOT RD", "postcode": "01532"}}},
{"geometry": {"type": "Point", "coordinates": [-71.6304816687, 42.3233899847]}, "type": "Feature", "properties": {"collection_times": [{"days": "Mon-Fri", "time": "1:00pm"}, {"days": "Sat", "time": "10:00am"}, {"days": "Sun", "time": "Closed"}], "id": "0153200026", "name": "USPS COLLECTION BOX - BLUE BOX", "address": {"city": "NORTHBOROUGH", "state": "MA", "street": "1 E MAIN ST", "postcode": "01532"}}},
{"geometry": {"type": "Point", "coordinates": [-71.657167127, 42.14682212]}, "type": "Feature", "properties": {"collection_times": [{"days": "Mon-Fri", "time": "4:45pm"}, {"days": "Sat", "time": "12:00pm"}, {"days": "Sun", "time": "Closed"}], "id": "0153400001", "name": "USPS COLLECTION BOX - BLUE BOX", "address": {"city": "NORTHBRIDGE", "state": "MA", "street": "76 SUTTON ST", "postcode": "01534"}}},
{"geometry": {"type": "Point", "coordinates": [-71.657167127, 42.14682212]}, "type": "Feature", "properties": {"collection_times": [{"days": "Mon-Fri", "time": "4:45pm"}, {"days": "Sat", "time": "12:00pm"}, {"days": "Sun", "time": "Closed"}], "id": "0153400002", "name": "USPS COLLECTION BOX - EXPRESS", "address": {"city": "NORTHBRIDGE", "state": "MA", "street": "76 SUTTON ST", "postcode": "01534"}}},
{"geometry": {"type": "Point", "coordinates": [-71.657167127, 42.14682212]}, "type": "Feature", "properties": {"collection_times": [{"days": "Mon-Fri", "time": "4:45pm"}, {"days": "Sat", "time": "12:00pm"}, {"days": "Sun", "time": "Closed"}], "id": "0153400003", "name": "USPS COLLECTION BOX - PO LOBBY", "address": {"city": "NORTHBRIDGE", "state": "MA", "street": "76 SUTTON ST", "postcode": "01534"}}},
{"geometry": {"type": "Point", "coordinates": [-71.657167127, 42.14682212]}, "type": "Feature", "properties": {"collection_times": [{"days": "Mon-Fri", "time": "4:45pm"}, {"days": "Sat", "time": "12:00pm"}, {"days": "Sun", "time": "Closed"}], "id": "0153400004", "name": "USPS COLLECTION BOX - PO LOBBY", "address": {"city": "NORTHBRIDGE", "state": "MA", "street": "76 SUTTON ST", "postcode": "01534"}}},
{"geometry": {"type": "Point", "coordinates": [-72.0817871349, 42.2661402696]}, "type": "Feature", "properties": {"collection_times": [{"days": "Mon-Fri", "time": "4:30pm"}, {"days": "Sat", "time": "11:30am"}, {"days": "Sun", "time": "Closed"}], "id": "0153500001", "name": "USPS COLLECTION BOX - EXPRESS", "address": {"city": "N BROOKFIELD", "state": "MA", "street": "357 N MAIN ST", "postcode": "01535"}}},
{"geometry": {"type": "Point", "coordinates": [-72.0827039424, 42.2769923297]}, "type": "Feature", "properties": {"collection_times": [{"days": "Mon-Fri", "time": "5:00pm"}, {"days": "Sat", "time": "11:30am"}, {"days": "Sun", "time": "Closed"}], "id": "0153500003", "name": "USPS COLLECTION BOX - BLUE BOX", "address": {"city": "N BROOKFIELD", "state": "MA", "street": "357 N MAIN ST", "postcode": "01535"}}},
{"geometry": {"type": "Point", "coordinates": [-72.085022542, 42.2683803885]}, "type": "Feature", "properties": {"collection_times": [{"days": "Mon-Fri", "time": "10:00am"}, {"days": "Sat", "time": "9:30am"}, {"days": "Sun", "time": "Closed"}], "id": "0153500004", "name": "USPS COLLECTION BOX - BLUE BOX", "address": {"city": "N BROOKFIELD", "state": "MA", "street": "181 N MAIN ST", "postcode": "01535"}}},
{"geometry": {"type": "Point", "coordinates": [-72.0846901306, 42.2667408074]}, "type": "Feature", "properties": {"collection_times": [{"days": "Mon-Fri", "time": "12:30pm"}, {"days": "Sat", "time": "10:00am"}, {"days": "Sun", "time": "Closed"}], "id": "0153500005", "name": "USPS COLLECTION BOX - BLUE BOX", "address": {"city": "N BROOKFIELD", "state": "MA", "street": "5 GILBERT ST", "postcode": "01535"}}},
{"geometry": {"type": "Point", "coordinates": [-72.0827039424, 42.2769923297]}, "type": "Feature", "properties": {"collection_times": [{"days": "Mon-Fri", "time": "4:30pm"}, {"days": "Sat", "time": "11:30am"}, {"days": "Sun", "time": "Closed"}], "id": "0153500006", "name": "USPS COLLECTION BOX - PO LOBBY", "address": {"city": "N BROOKFIELD", "state": "MA", "street": "357 N MAIN ST", "postcode": "01535"}}},
{"geometry": {"type": "Point", "coordinates": [-72.0827039424, 42.2769923297]}, "type": "Feature", "properties": {"collection_times": [{"days": "Mon-Fri", "time": "4:30pm"}, {"days": "Sat", "time": "11:30am"}, {"days": "Sun", "time": "Closed"}], "id": "0153500007", "name": "USPS COLLECTION BOX - PO LOBBY", "address": {"city": "N BROOKFIELD", "state": "MA", "street": "357 N MAIN ST", "postcode": "01535"}}},
{"geometry": {"type": "Point", "coordinates": [-72.0827039424, 42.2769923297]}, "type": "Feature", "properties": {"collection_times": [{"days": "Mon-Fri", "time": "5:00pm"}, {"days": "Sat", "time": "11:30am"}, {"days": "Sun", "time": "Closed"}], "id": "0153500008", "name": "USPS COLLECTION BOX - BLUE BOX", "address": {"city": "N BROOKFIELD", "state": "MA", "street": "357 N MAIN ST", "postcode": "01535"}}},
{"geometry": {"type": "Point", "coordinates": [-71.7024160148, 42.2326229435]}, "type": "Feature", "properties": {"collection_times": [{"days": "Mon-Fri", "time": "5:00pm"}, {"days": "Sat", "time": "3:00pm"}, {"days": "Sun", "time": "Closed"}], "id": "0153600001", "name": "USPS COLLECTION BOX - EXPRESS", "address": {"city": "NORTH GRAFTON", "state": "MA", "street": "191 WORCESTER ST", "postcode": "01536"}}},
{"geometry": {"type": "Point", "coordinates": [-71.7024160148, 42.2326229435]}, "type": "Feature", "properties": {"collection_times": [{"days": "Mon-Fri", "time": "5:00pm"}, {"days": "Sat", "time": "3:00pm"}, {"days": "Sun", "time": "Closed"}], "id": "0153600002", "name": "USPS COLLECTION BOX - BLUE BOX", "address": {"city": "NORTH GRAFTON", "state": "MA", "street": "191 WORCESTER ST", "postcode": "01536"}}},
{"geometry": {"type": "Point", "coordinates": [-71.7024160148, 42.2326229435]}, "type": "Feature", "properties": {"collection_times": [{"days": "Mon-Fri", "time": "5:00pm"}, {"days": "Sat", "time": "3:00pm"}, {"days": "Sun", "time": "Closed"}], "id": "0153600003", "name": "USPS COLLECTION BOX - APC", "address": {"city": "NORTH GRAFTON", "state": "MA", "street": "191 WORCESTER ST", "postcode": "01536"}}},
{"geometry": {"type": "Point", "coordinates": [-71.7024160147, 42.2326315872]}, "type": "Feature", "properties": {"collection_times": [{"days": "Mon-Fri", "time": "4:00pm"}, {"days": "Sat", "time": "1:00pm"}, {"days": "Sun", "time": "Closed"}], "id": "0153600005", "name": "USPS COLLECTION BOX - EXPRESS", "address": {"city": "NORTH GRAFTON", "state": "MA", "street": "3 WILLIAMS RD", "postcode": "01536"}}},
{"geometry": {"type": "Point", "coordinates": [-71.7077815033, 42.2323565992]}, "type": "Feature", "properties": {"collection_times": [{"days": "Mon-Sat", "time": "1:00pm"}, {"days": "Sun", "time": "Closed"}], "id": "0153600007", "name": "USPS COLLECTION BOX - BLUE BOX", "address": {"city": "NORTH GRAFTON", "state": "MA", "street": "38 N MAIN ST", "postcode": "01536"}}},
{"geometry": {"type": "Point", "coordinates": [-71.7213721368, 42.2279420252]}, "type": "Feature", "properties": {"collection_times": [{"days": "Mon-Fri", "time": "4:00pm"}, {"days": "Sat", "time": "1:00pm"}, {"days": "Sun", "time": "Closed"}], "id": "0153600008", "name": "USPS COLLECTION BOX - BLUE BOX", "address": {"city": "NORTH GRAFTON", "state": "MA", "street": "3 WILLIAMS RD", "postcode": "01536"}}},
{"geometry": {"type": "Point", "coordinates": [-71.7024160148, 42.2326229435]}, "type": "Feature", "properties": {"collection_times": [{"days": "Mon-Fri", "time": "5:00pm"}, {"days": "Sat", "time": "3:00pm"}, {"days": "Sun", "time": "Closed"}], "id": "0153600009", "name": "USPS COLLECTION BOX - PO LOBBY", "address": {"city": "NORTH GRAFTON", "state": "MA", "street": "191 WORCESTER ST", "postcode": "01536"}}},
{"geometry": {"type": "Point", "coordinates": [-71.7024160148, 42.2326229435]}, "type": "Feature", "properties": {"collection_times": [{"days": "Mon-Fri", "time": "4:00pm"}, {"days": "Sat", "time": "10:00am"}, {"days": "Sun", "time": "Closed"}], "id": "0153600010", "name": "USPS COLLECTION BOX - BLUE BOX", "address": {"city": "NORTH GRAFTON", "state": "MA", "street": "86 WORCESTER ST", "postcode": "01536"}}},
{"geometry": {"type": "Point", "coordinates": [-71.8906894476, 42.1691728279]}, "type": "Feature", "properties": {"collection_times": [{"days": "Mon-Fri", "time": "4:30pm"}, {"days": "Sat", "time": "12:00pm"}, {"days": "Sun", "time": "Closed"}], "id": "0153700002", "name": "USPS COLLECTION BOX - BLUE BOX", "address": {"city": "NORTH OXFORD", "state": "MA", "street": "681 MAIN ST", "postcode": "01537"}}},
{"geometry": {"type": "Point", "coordinates": [-71.8906894476, 42.1691728279]}, "type": "Feature", "properties": {"collection_times": [{"days": "Mon-Fri", "time": "4:30pm"}, {"days": "Sat", "time": "12:00pm"}, {"days": "Sun", "time": "Closed"}], "id": "0153700005", "name": "USPS COLLECTION BOX - PO LOBBY", "address": {"city": "NORTH OXFORD", "state": "MA", "street": "681 MAIN ST", "postcode": "01537"}}},
{"geometry": {"type": "Point", "coordinates": [-71.8906894476, 42.1691728279]}, "type": "Feature", "properties": {"collection_times": [{"days": "Mon-Fri", "time": "4:30pm"}, {"days": "Sat", "time": "12:00pm"}, {"days": "Sun", "time": "Closed"}], "id": "0153700006", "name": "USPS COLLECTION BOX - PO LOBBY", "address": {"city": "NORTH OXFORD", "state": "MA", "street": "681 MAIN ST", "postcode": "01537"}}},
{"geometry": {"type": "Point", "coordinates": [-71.6415989729, 42.0875041041]}, "type": "Feature", "properties": {"collection_times": [{"days": "Mon-Fri", "time": "4:30pm"}, {"days": "Sat", "time": "11:30am"}, {"days": "Sun", "time": "Closed"}], "id": "0153800001", "name": "USPS COLLECTION BOX - BLUE BOX", "address": {"city": "NORTH UXBRIDGE", "state": "MA", "street": "298 N MAIN ST", "postcode": "01538"}}},
{"geometry": {"type": "Point", "coordinates": [-71.6415989729, 42.0875041041]}, "type": "Feature", "properties": {"collection_times": [{"days": "Mon-Fri", "time": "4:45pm"}, {"days": "Sat", "time": "12:00pm"}, {"days": "Sun", "time": "Closed"}], "id": "0153800002", "name": "USPS COLLECTION BOX - PO LOBBY", "address": {"city": "NORTH UXBRIDGE", "state": "MA", "street": "298 N MAIN ST", "postcode": "01538"}}},
{"geometry": {"type": "Point", "coordinates": [-71.6415989729, 42.0875041041]}, "type": "Feature", "properties": {"collection_times": [{"days": "Mon-Fri", "time": "4:45pm"}, {"days": "Sat", "time": "12:00pm"}, {"days": "Sun", "time": "Closed"}], "id": "0153800003", "name": "USPS COLLECTION BOX - PO LOBBY", "address": {"city": "NORTH UXBRIDGE", "state": "MA", "street": "298 N MAIN ST", "postcode": "01538"}}},
{"geometry": {"type": "Point", "coordinates": [-71.8647247008, 42.1178369106]}, "type": "Feature", "properties": {"collection_times": [{"days": "Mon-Sat", "time": "9:30am"}, {"days": "Sun", "time": "Closed"}], "id": "0154000005", "name": "USPS COLLECTION BOX - BLUE BOX", "address": {"city": "OXFORD", "state": "MA", "street": "325 MAIN ST", "postcode": "01540"}}},
{"geometry": {"type": "Point", "coordinates": [-71.8773094043, 42.4209734509]}, "type": "Feature", "properties": {"collection_times": [{"days": "Mon-Fri", "time": "4:30pm"}, {"days": "Sat", "time": "11:30am"}, {"days": "Sun", "time": "Closed"}], "id": "0154100001", "name": "USPS COLLECTION BOX - BLUE BOX", "address": {"city": "PRINCETON", "state": "MA", "street": "206 WORCESTER RD", "postcode": "01541"}}},
{"geometry": {"type": "Point", "coordinates": [-71.8773094043, 42.4209734509]}, "type": "Feature", "properties": {"collection_times": [{"days": "Mon-Fri", "time": "4:30pm"}, {"days": "Sat", "time": "11:30am"}, {"days": "Sun", "time": "Closed"}], "id": "0154100003", "name": "USPS COLLECTION BOX - PO LOBBY", "address": {"city": "PRINCETON", "state": "MA", "street": "206 WORCESTER RD", "postcode": "01541"}}},
{"geometry": {"type": "Point", "coordinates": [-71.8773094043, 42.4209734509]}, "type": "Feature", "properties": {"collection_times": [{"days": "Mon-Fri", "time": "4:30pm"}, {"days": "Sat", "time": "11:30am"}, {"days": "Sun", "time": "Closed"}], "id": "0154100004", "name": "USPS COLLECTION BOX - PO LOBBY", "address": {"city": "PRINCETON", "state": "MA", "street": "206 WORCESTER RD", "postcode": "01541"}}},
{"geometry": {"type": "Point", "coordinates": [-71.9091792408, 42.1920949137]}, "type": "Feature", "properties": {"collection_times": [{"days": "Mon-Fri", "time": "4:45pm"}, {"days": "Sat", "time": "12:20pm"}, {"days": "Sun", "time": "Closed"}], "id": "0154200001", "name": "USPS COLLECTION BOX - BLUE BOX", "address": {"city": "ROCHDALE", "state": "MA", "street": "1138 STAFFORD ST", "postcode": "01542"}}},
{"geometry": {"type": "Point", "coordinates": [-71.9091792408, 42.1920949137]}, "type": "Feature", "properties": {"collection_times": [{"days": "Mon-Fri", "time": "4:45pm"}, {"days": "Sat", "time": "12:20pm"}, {"days": "Sun", "time": "Closed"}], "id": "0154200002", "name": "USPS COLLECTION BOX - PO LOBBY", "address": {"city": "ROCHDALE", "state": "MA", "street": "1138 STAFFORD ST", "postcode": "01542"}}},
{"geometry": {"type": "Point", "coordinates": [-71.9091792408, 42.1920949137]}, "type": "Feature", "properties": {"collection_times": [{"days": "Mon-Fri", "time": "4:45pm"}, {"days": "Sat", "time": "12:20pm"}, {"days": "Sun", "time": "Closed"}], "id": "0154200003", "name": "USPS COLLECTION BOX - PO LOBBY", "address": {"city": "ROCHDALE", "state": "MA", "street": "1138 STAFFORD ST", "postcode": "01542"}}},
{"geometry": {"type": "Point", "coordinates": [-71.9091792408, 42.1920949137]}, "type": "Feature", "properties": {"collection_times": [{"days": "Mon-Fri", "time": "4:45pm"}, {"days": "Sat", "time": "12:20pm"}, {"days": "Sun", "time": "Closed"}], "id": "0154200004", "name": "USPS COLLECTION BOX - PO LOBBY", "address": {"city": "ROCHDALE", "state": "MA", "street": "1138 STAFFORD ST", "postcode": "01542"}}},
{"geometry": {"type": "Point", "coordinates": [-71.9387561245, 42.3400436182]}, "type": "Feature", "properties": {"collection_times": [{"days": "Mon-Fri", "time": "4:45pm"}, {"days": "Sat", "time": "12:00pm"}, {"days": "Sun", "time": "Closed"}], "id": "0154300002", "name": "USPS COLLECTION BOX - BLUE BOX", "address": {"city": "RUTLAND", "state": "MA", "street": "26 MAPLE AVE", "postcode": "01543"}}},
{"geometry": {"type": "Point", "coordinates": [-71.9387561245, 42.3400436182]}, "type": "Feature", "properties": {"collection_times": [{"days": "Mon-Fri", "time": "4:45pm"}, {"days": "Sat", "time": "12:00pm"}, {"days": "Sun", "time": "Closed"}], "id": "0154300003", "name": "USPS COLLECTION BOX - PO LOBBY", "address": {"city": "RUTLAND", "state": "MA", "street": "26 MAPLE AVE", "postcode": "01543"}}},
{"geometry": {"type": "Point", "coordinates": [-71.9894260869, 42.3580539964]}, "type": "Feature", "properties": {"collection_times": [{"days": "Mon-Sat", "time": "11:00am"}, {"days": "Sun", "time": "Closed"}], "id": "0154300005", "name": "USPS COLLECTION BOX - BLUE BOX", "address": {"city": "RUTLAND", "state": "MA", "street": "106 MAIN ST", "postcode": "01543"}}},
{"geometry": {"type": "Point", "coordinates": [-71.9387561245, 42.3400436182]}, "type": "Feature", "properties": {"collection_times": [{"days": "Mon-Fri", "time": "4:45pm"}, {"days": "Sat", "time": "12:00pm"}, {"days": "Sun", "time": "Closed"}], "id": "0154300006", "name": "USPS COLLECTION BOX - PO LOBBY", "address": {"city": "RUTLAND", "state": "MA", "street": "26 MAPLE AVE", "postcode": "01543"}}},
{"geometry": {"type": "Point", "coordinates": [-71.9868266056, 42.3225336525]}, "type": "Feature", "properties": {"collection_times": [{"days": "Mon-Sat", "time": "10:00am"}, {"days": "Sun", "time": "Closed"}], "id": "0154300007", "name": "USPS COLLECTION BOX - BLUE BOX", "address": {"city": "RUTLAND", "state": "MA", "street": "194 PLEASANTDALE RD", "postcode": "01543"}}},
{"geometry": {"type": "Point", "coordinates": [-71.7193190587, 42.2897055897]}, "type": "Feature", "properties": {"collection_times": [{"days": "Mon-Fri", "time": "5:00pm"}, {"days": "Sat", "time": "3:00pm"}, {"days": "Sun", "time": "Closed"}], "id": "0154500001", "name": "USPS COLLECTION BOX - BLUE BOX", "address": {"city": "SHREWSBURY", "state": "MA", "street": "43 MAPLE AVE", "postcode": "01545"}}},
{"geometry": {"type": "Point", "coordinates": [-71.7193190587, 42.2897055897]}, "type": "Feature", "properties": {"collection_times": [{"days": "Mon-Fri", "time": "5:00pm"}, {"days": "Sat", "time": "3:00pm"}, {"days": "Sun", "time": "Closed"}], "id": "0154500002", "name": "USPS COLLECTION BOX - BLUE BOX", "address": {"city": "SHREWSBURY", "state": "MA", "street": "43 MAPLE AVE", "postcode": "01545"}}},
{"geometry": {"type": "Point", "coordinates": [-71.7193190587, 42.2897055897]}, "type": "Feature", "properties": {"collection_times": [{"days": "Mon-Fri", "time": "5:00pm"}, {"days": "Sat", "time": "3:00pm"}, {"days": "Sun", "time": "Closed"}], "id": "0154500003", "name": "USPS COLLECTION BOX - BLUE BOX", "address": {"city": "SHREWSBURY", "state": "MA", "street": "43 MAPLE AVE", "postcode": "01545"}}},
{"geometry": {"type": "Point", "coordinates": [-71.7184495839, 42.2954476726]}, "type": "Feature", "properties": {"collection_times": [{"days": "Mon-Fri", "time": "5:00pm"}, {"days": "Sat", "time": "12:00pm"}, {"days": "Sun", "time": "Closed"}], "id": "0154500004", "name": "USPS COLLECTION BOX - BLUE BOX", "address": {"city": "SHREWSBURY", "state": "MA", "street": "512 MAIN ST", "postcode": "01545"}}},
{"geometry": {"type": "Point", "coordinates": [-71.7219832824, 42.2905672297]}, "type": "Feature", "properties": {"collection_times": [{"days": "Mon-Fri", "time": "5:00pm"}, {"days": "Sat", "time": "7:45am"}, {"days": "Sun", "time": "Closed"}], "id": "0154500005", "name": "USPS COLLECTION BOX - BLUE BOX", "address": {"city": "SHREWSBURY", "state": "MA", "street": "100 MAPLE AVE", "postcode": "01545"}}},
{"geometry": {"type": "Point", "coordinates": [-71.7219832824, 42.2905672297]}, "type": "Feature", "properties": {"collection_times": [{"days": "Mon-Fri", "time": "5:00pm"}, {"days": "Sat", "time": "7:45am"}, {"days": "Sun", "time": "Closed"}], "id": "0154500006", "name": "USPS COLLECTION BOX - BLUE BOX", "address": {"city": "SHREWSBURY", "state": "MA", "street": "100 MAPLE AVE", "postcode": "01545"}}},
{"geometry": {"type": "Point", "coordinates": [-71.7401474172, 42.2462578729]}, "type": "Feature", "properties": {"collection_times": [{"days": "Mon-Sat", "time": "11:00am"}, {"days": "Sun", "time": "Closed"}], "id": "0154500007", "name": "USPS COLLECTION BOX - BLUE BOX", "address": {"city": "SHREWSBURY", "state": "MA", "street": "1 BAYVIEW DR", "postcode": "01545"}}},
{"geometry": {"type": "Point", "coordinates": [-71.7120509588, 42.2878921136]}, "type": "Feature", "properties": {"collection_times": [{"days": "Mon-Sat", "time": "10:00am"}, {"days": "Sun", "time": "Closed"}], "id": "0154500010", "name": "USPS COLLECTION BOX - BLUE BOX", "address": {"city": "SHREWSBURY", "state": "MA", "street": "731 BOSTON TPKE", "postcode": "01545"}}},
{"geometry": {"type": "Point", "coordinates": [-71.7222374185, 42.2859638905]}, "type": "Feature", "properties": {"collection_times": [{"days": "Mon-Sat", "time": "12:00pm"}, {"days": "Sun", "time": "Closed"}], "id": "0154500011", "name": "USPS COLLECTION BOX - BLUE BOX", "address": {"city": "SHREWSBURY", "state": "MA", "street": "43 CRESCENT ST", "postcode": "01545"}}},
{"geometry": {"type": "Point", "coordinates": [-71.718399259, 42.2937506526]}, "type": "Feature", "properties": {"collection_times": [{"days": "Mon-Sat", "time": "1:00pm"}, {"days": "Sun", "time": "Closed"}], "id": "0154500012", "name": "USPS COLLECTION BOX - BLUE BOX", "address": {"city": "SHREWSBURY", "state": "MA", "street": "186 PROSPECT ST", "postcode": "01545"}}},
{"geometry": {"type": "Point", "coordinates": [-71.7303566042, 42.2749441845]}, "type": "Feature", "properties": {"collection_times": [{"days": "Mon-Sat", "time": "11:00am"}, {"days": "Sun", "time": "Closed"}], "id": "0154500013", "name": "USPS COLLECTION BOX - BLUE BOX", "address": {"city": "SHREWSBURY", "state": "MA", "street": "15 SHERIDAN DR", "postcode": "01545"}}},
{"geometry": {"type": "Point", "coordinates": [-71.7204695128, 42.283511648]}, "type": "Feature", "properties": {"collection_times": [{"days": "Mon-Sat", "time": "1:00pm"}, {"days": "Sun", "time": "Closed"}], "id": "0154500014", "name": "USPS COLLECTION BOX - BLUE BOX", "address": {"city": "SHREWSBURY", "state": "MA", "street": "26 YORKSHIRE TER", "postcode": "01545"}}},
{"geometry": {"type": "Point", "coordinates": [-71.6842308969, 42.2771133635]}, "type": "Feature", "properties": {"collection_times": [{"days": "Mon-Sat", "time": "1:00pm"}, {"days": "Sun", "time": "Closed"}], "id": "0154500015", "name": "USPS COLLECTION BOX - BLUE BOX", "address": {"city": "SHREWSBURY", "state": "MA", "street": "50 COMMONS DR", "postcode": "01545"}}},
{"geometry": {"type": "Point", "coordinates": [-71.7527647881, 42.2743517007]}, "type": "Feature", "properties": {"collection_times": [{"days": "Mon-Fri", "time": "5:00pm"}, {"days": "Sat", "time": "10:15am"}, {"days": "Sun", "time": "Closed"}], "id": "0154500016", "name": "USPS COLLECTION BOX - BLUE BOX", "address": {"city": "SHREWSBURY", "state": "MA", "street": "50 BOSTON TPKE", "postcode": "01545"}}},
{"geometry": {"type": "Point", "coordinates": [-71.715462564, 42.2842405874]}, "type": "Feature", "properties": {"collection_times": [{"days": "Mon-Fri", "time": "4:30pm"}, {"days": "Sat-Sun", "time": "Closed"}], "id": "0154500017", "name": "USPS COLLECTION BOX - BLUE BOX", "address": {"city": "SHREWSBURY", "state": "MA", "street": "12 JULIO DR", "postcode": "01545"}}},
{"geometry": {"type": "Point", "coordinates": [-71.7418035598, 42.2752900518]}, "type": "Feature", "properties": {"collection_times": [{"days": "Mon-Fri", "time": "5:00pm"}, {"days": "Sat", "time": "11:30am"}, {"days": "Sun", "time": "Closed"}], "id": "0154500019", "name": "USPS COLLECTION BOX - BLUE BOX", "address": {"city": "SHREWSBURY", "state": "MA", "street": "250 BOSTON TPKE", "postcode": "01545"}}},
{"geometry": {"type": "Point", "coordinates": [-71.7271691744, 42.2763322386]}, "type": "Feature", "properties": {"collection_times": [{"days": "Mon-Fri", "time": "5:00pm"}, {"days": "Sat", "time": "9:30am"}, {"days": "Sun", "time": "Closed"}], "id": "0154500022", "name": "USPS COLLECTION BOX - BLUE BOX", "address": {"city": "SHREWSBURY", "state": "MA", "street": "415 BOSTON TPKE", "postcode": "01545"}}},
{"geometry": {"type": "Point", "coordinates": [-71.7204695125, 42.2835116016]}, "type": "Feature", "properties": {"collection_times": [{"days": "Mon-Fri", "time": "5:00pm"}, {"days": "Sat", "time": "9:30am"}, {"days": "Sun", "time": "Closed"}], "id": "0154500023", "name": "USPS COLLECTION BOX - EXPRESS", "address": {"city": "SHREWSBURY", "state": "MA", "street": "415 BOSTON TPKE", "postcode": "01545"}}},
{"geometry": {"type": "Point", "coordinates": [-71.7299182761, 42.2772834037]}, "type": "Feature", "properties": {"collection_times": [{"days": "Mon-Sat", "time": "12:00pm"}, {"days": "Sun", "time": "Closed"}], "id": "0154500025", "name": "USPS COLLECTION BOX - BLUE BOX", "address": {"city": "SHREWSBURY", "state": "MA", "street": "1 WILLIAMSBURG CT", "postcode": "01545"}}},
{"geometry": {"type": "Point", "coordinates": [-71.7204695128, 42.283511648]}, "type": "Feature", "properties": {"collection_times": [{"days": "Mon-Sat", "time": "10:00am"}, {"days": "Sun", "time": "Closed"}], "id": "0154500026", "name": "USPS COLLECTION BOX - BLUE BOX", "address": {"city": "SHREWSBURY", "state": "MA", "street": "465 BOSTON TPKE", "postcode": "01545"}}},
{"geometry": {"type": "Point", "coordinates": [-71.7548261951, 42.2743126042]}, "type": "Feature", "properties": {"collection_times": [{"days": "Mon-Fri", "time": "5:00pm"}, {"days": "Sat", "time": "12:00pm"}, {"days": "Sun", "time": "Closed"}], "id": "0154500027", "name": "USPS COLLECTION BOX - BLUE BOX", "address": {"city": "SHREWSBURY", "state": "MA", "street": "166 BOSTON TPKE", "postcode": "01545"}}},
{"geometry": {"type": "Point", "coordinates": [-71.7548261951, 42.2743126042]}, "type": "Feature", "properties": {"collection_times": [{"days": "Mon-Fri", "time": "5:00pm"}, {"days": "Sat", "time": "12:00pm"}, {"days": "Sun", "time": "Closed"}], "id": "0154500028", "name": "USPS COLLECTION BOX - BLUE BOX", "address": {"city": "SHREWSBURY", "state": "MA", "street": "166 BOSTON TPKE", "postcode": "01545"}}},
{"geometry": {"type": "Point", "coordinates": [-71.6754371959, 42.280905558]}, "type": "Feature", "properties": {"collection_times": [{"days": "Mon-Fri", "time": "4:00pm"}, {"days": "Sat", "time": "10:00am"}, {"days": "Sun", "time": "Closed"}], "id": "0154500029", "name": "USPS COLLECTION BOX - BLUE BOX", "address": {"city": "SHREWSBURY", "state": "MA", "street": "1000 BOSTON TPKE", "postcode": "01545"}}},
{"geometry": {"type": "Point", "coordinates": [-71.690541216, 42.2748653695]}, "type": "Feature", "properties": {"collection_times": [{"days": "Mon-Fri", "time": "4:30pm"}, {"days": "Sat-Sun", "time": "Closed"}], "id": "0154500031", "name": "USPS COLLECTION BOX - BLUE BOX", "address": {"city": "SHREWSBURY", "state": "MA", "street": "333 SOUTH ST", "postcode": "01545"}}},
{"geometry": {"type": "Point", "coordinates": [-71.6976933859, 42.2612223038]}, "type": "Feature", "properties": {"collection_times": [{"days": "Mon-Fri", "time": "4:15pm"}, {"days": "Sat", "time": "10:00am"}, {"days": "Sun", "time": "Closed"}], "id": "0154500032", "name": "USPS COLLECTION BOX - BLUE BOX", "address": {"city": "SHREWSBURY", "state": "MA", "street": "587 HARTFORD TPKE", "postcode": "01545"}}},
{"geometry": {"type": "Point", "coordinates": [-71.7144572134, 42.2964830569]}, "type": "Feature", "properties": {"collection_times": [{"days": "Mon-Fri", "time": "4:00pm"}, {"days": "Sat", "time": "2:00pm"}, {"days": "Sun", "time": "Closed"}], "id": "0154500036", "name": "USPS COLLECTION BOX - BLUE BOX", "address": {"city": "SHREWSBURY", "state": "MA", "street": "574 MAIN ST", "postcode": "01545"}}},
{"geometry": {"type": "Point", "coordinates": [-71.7193190587, 42.2897055897]}, "type": "Feature", "properties": {"collection_times": [{"days": "Mon-Fri", "time": "5:00pm"}, {"days": "Sat", "time": "3:00pm"}, {"days": "Sun", "time": "Closed"}], "id": "0154500037", "name": "USPS COLLECTION BOX - BLUE BOX", "address": {"city": "SHREWSBURY", "state": "MA", "street": "43 MAPLE AVE", "postcode": "01545"}}},
{"geometry": {"type": "Point", "coordinates": [-71.7548261951, 42.2743126042]}, "type": "Feature", "properties": {"collection_times": [{"days": "Mon-Fri", "time": "4:30pm"}, {"days": "Sat", "time": "2:00pm"}, {"days": "Sun", "time": "Closed"}], "id": "0154500039", "name": "USPS COLLECTION BOX - BLUE BOX", "address": {"city": "SHREWSBURY", "state": "MA", "street": "539 BOSTON TPKE", "postcode": "01545"}}},
{"geometry": {"type": "Point", "coordinates": [-71.7497401775, 42.2746468848]}, "type": "Feature", "properties": {"collection_times": [{"days": "Mon-Fri", "time": "5:00pm"}, {"days": "Sat", "time": "10:15am"}, {"days": "Sun", "time": "Closed"}], "id": "0154500040", "name": "USPS COLLECTION BOX - BLUE BOX", "address": {"city": "SHREWSBURY", "state": "MA", "street": "110 BOSTON TPKE", "postcode": "01545"}}},
{"geometry": {"type": "Point", "coordinates": [-71.7204695128, 42.283511648]}, "type": "Feature", "properties": {"collection_times": [{"days": "Mon-Fri", "time": "4:00pm"}, {"days": "Sat", "time": "9:00am"}, {"days": "Sun", "time": "Closed"}], "id": "0154500041", "name": "USPS COLLECTION BOX - BLUE BOX", "address": {"city": "SHREWSBURY", "state": "MA", "street": "910 BOSTON TPKE", "postcode": "01545"}}},
{"geometry": {"type": "Point", "coordinates": [-71.718399259, 42.2937506526]}, "type": "Feature", "properties": {"collection_times": [{"days": "Mon-Fri", "time": "4:15pm"}, {"days": "Sat", "time": "9:00am"}, {"days": "Sun", "time": "Closed"}], "id": "0154500042", "name": "USPS COLLECTION BOX - BLUE BOX", "address": {"city": "SHREWSBURY", "state": "MA", "street": "915 HARTFORD TPKE", "postcode": "01545"}}},
{"geometry": {"type": "Point", "coordinates": [-71.7193190587, 42.2897055897]}, "type": "Feature", "properties": {"collection_times": [{"days": "Mon-Fri", "time": "5:00pm"}, {"days": "Sat", "time": "3:00pm"}, {"days": "Sun", "time": "Closed"}], "id": "0154500049", "name": "USPS COLLECTION BOX - BLUE BOX", "address": {"city": "SHREWSBURY", "state": "MA", "street": "43 MAPLE AVE", "postcode": "01545"}}},
{"geometry": {"type": "Point", "coordinates": [-71.7193190587, 42.2897055897]}, "type": "Feature", "properties": {"collection_times": [{"days": "Mon-Fri", "time": "5:00pm"}, {"days": "Sat", "time": "12:00pm"}, {"days": "Sun", "time": "Closed"}], "id": "0154500051", "name": "USPS COLLECTION BOX - PO LOBBY", "address": {"city": "SHREWSBURY", "state": "MA", "street": "43 MAPLE AVE", "postcode": "01545"}}},
{"geometry": {"type": "Point", "coordinates": [-71.7548261951, 42.2743126042]}, "type": "Feature", "properties": {"collection_times": [{"days": "Mon-Fri", "time": "5:00pm"}, {"days": "Sat", "time": "12:00pm"}, {"days": "Sun", "time": "Closed"}], "id": "0154500053", "name": "USPS COLLECTION BOX - PO LOBBY", "address": {"city": "SHREWSBURY", "state": "MA", "street": "166 BOSTON TPKE", "postcode": "01545"}}},
{"geometry": {"type": "Point", "coordinates": [-71.720469513, 42.283509841]}, "type": "Feature", "properties": {"collection_times": [{"days": "Mon-Fri", "time": "10:00am"}, {"days": "Sat-Sun", "time": "Closed"}], "id": "0154500056", "name": "USPS COLLECTION BOX - BLUE BOX", "address": {"city": "SHREWSBURY", "state": "MA", "street": "21N QUINSIGAMOND", "postcode": "01545"}}},
{"geometry": {"type": "Point", "coordinates": [-71.7204695128, 42.283511648]}, "type": "Feature", "properties": {"collection_times": [{"days": "Mon-Fri", "time": "4:30pm"}, {"days": "Sat", "time": "12:00pm"}, {"days": "Sun", "time": "Closed"}], "id": "0154500058", "name": "USPS COLLECTION BOX - BLUE BOX", "address": {"city": "SHREWSBURY", "state": "MA", "street": "571 BOSTON TPKE", "postcode": "01545"}}},
{"geometry": {"type": "Point", "coordinates": [-72.0326254316, 42.0744379482]}, "type": "Feature", "properties": {"collection_times": [{"days": "Mon-Fri", "time": "5:00pm"}, {"days": "Sat", "time": "4:00pm"}, {"days": "Sun", "time": "Closed"}], "id": "0155000001", "name": "USPS COLLECTION BOX - BLUE BOX", "address": {"city": "SOUTHBRIDGE", "state": "MA", "street": "235 MAIN ST", "postcode": "01550"}}},
{"geometry": {"type": "Point", "coordinates": [-72.0326254316, 42.0744379482]}, "type": "Feature", "properties": {"collection_times": [{"days": "Mon-Fri", "time": "5:00pm"}, {"days": "Sat", "time": "4:00pm"}, {"days": "Sun", "time": "Closed"}], "id": "0155000002", "name": "USPS COLLECTION BOX - BLUE BOX", "address": {"city": "SOUTHBRIDGE", "state": "MA", "street": "235 MAIN ST", "postcode": "01550"}}},
{"geometry": {"type": "Point", "coordinates": [-72.0341484946, 42.072883115]}, "type": "Feature", "properties": {"collection_times": [{"days": "Mon-Fri", "time": "5:00pm"}, {"days": "Sat", "time": "4:00pm"}, {"days": "Sun", "time": "Closed"}], "id": "0155000003", "name": "USPS COLLECTION BOX - EXPRESS", "address": {"city": "SOUTHBRIDGE", "state": "MA", "street": "235 MAIN ST", "postcode": "01550"}}},
{"geometry": {"type": "Point", "coordinates": [-72.0377977015, 42.0639538752]}, "type": "Feature", "properties": {"collection_times": [{"days": "Mon-Fri", "time": "2:00pm"}, {"days": "Sat", "time": "12:00pm"}, {"days": "Sun", "time": "Closed"}], "id": "0155000006", "name": "USPS COLLECTION BOX - BLUE BOX", "address": {"city": "SOUTHBRIDGE", "state": "MA", "street": "39 ELM ST", "postcode": "01550"}}},
{"geometry": {"type": "Point", "coordinates": [-72.0342661872, 42.0780143403]}, "type": "Feature", "properties": {"collection_times": [{"days": "Mon-Fri", "time": "2:00pm"}, {"days": "Sat", "time": "12:00pm"}, {"days": "Sun", "time": "Closed"}], "id": "0155000009", "name": "USPS COLLECTION BOX - BLUE BOX", "address": {"city": "SOUTHBRIDGE", "state": "MA", "street": "112 HAMILTON ST", "postcode": "01550"}}},
{"geometry": {"type": "Point", "coordinates": [-72.0343092601, 42.0729309564]}, "type": "Feature", "properties": {"collection_times": [{"days": "Mon-Fri", "time": "2:00pm"}, {"days": "Sat", "time": "12:00pm"}, {"days": "Sun", "time": "Closed"}], "id": "0155000011", "name": "USPS COLLECTION BOX - BLUE BOX", "address": {"city": "SOUTHBRIDGE", "state": "MA", "street": "309 MAIN ST", "postcode": "01550"}}},
{"geometry": {"type": "Point", "coordinates": [-72.0081184417, 42.0674213264]}, "type": "Feature", "properties": {"collection_times": [{"days": "Mon-Sat", "time": "10:30am"}, {"days": "Sun", "time": "Closed"}], "id": "0155000014", "name": "USPS COLLECTION BOX - BLUE BOX", "address": {"city": "SOUTHBRIDGE", "state": "MA", "street": "495 E MAIN ST", "postcode": "01550"}}},
{"geometry": {"type": "Point", "coordinates": [-72.0429735755, 42.0771049492]}, "type": "Feature", "properties": {"collection_times": [{"days": "Mon-Fri", "time": "2:00pm"}, {"days": "Sat", "time": "12:00pm"}, {"days": "Sun", "time": "Closed"}], "id": "0155000015", "name": "USPS COLLECTION BOX - BLUE BOX", "address": {"city": "SOUTHBRIDGE", "state": "MA", "street": "100 SOUTH ST", "postcode": "01550"}}},
{"geometry": {"type": "Point", "coordinates": [-72.0343092601, 42.0729309564]}, "type": "Feature", "properties": {"collection_times": [{"days": "Mon-Sat", "time": "12:00pm"}, {"days": "Sun", "time": "Closed"}], "id": "0155000019", "name": "USPS COLLECTION BOX - BLUE BOX", "address": {"city": "SOUTHBRIDGE", "state": "MA", "street": "39 THERESE AVE", "postcode": "01550"}}},
{"geometry": {"type": "Point", "coordinates": [-72.0343092601, 42.0729309564]}, "type": "Feature", "properties": {"collection_times": [{"days": "Mon-Fri", "time": "2:00pm"}, {"days": "Sat", "time": "12:00pm"}, {"days": "Sun", "time": "Closed"}], "id": "0155000020", "name": "USPS COLLECTION BOX - BLUE BOX", "address": {"city": "SOUTHBRIDGE", "state": "MA", "street": "259 WORCESTER ST", "postcode": "01550"}}},
{"geometry": {"type": "Point", "coordinates": [-72.0326254316, 42.0744379482]}, "type": "Feature", "properties": {"collection_times": [{"days": "Mon-Fri", "time": "5:00pm"}, {"days": "Sat", "time": "3:00pm"}, {"days": "Sun", "time": "Closed"}], "id": "0155000027", "name": "USPS COLLECTION BOX - BLUE BOX", "address": {"city": "SOUTHBRIDGE", "state": "MA", "street": "235 MAIN ST", "postcode": "01550"}}},
{"geometry": {"type": "Point", "coordinates": [-72.0326254316, 42.0744379482]}, "type": "Feature", "properties": {"collection_times": [{"days": "Mon-Fri", "time": "5:00pm"}, {"days": "Sat", "time": "4:00pm"}, {"days": "Sun", "time": "Closed"}], "id": "0155000030", "name": "USPS COLLECTION BOX - BLUE BOX", "address": {"city": "SOUTHBRIDGE", "state": "MA", "street": "235R MAIN ST", "postcode": "01550"}}},
{"geometry": {"type": "Point", "coordinates": [-71.6944142236, 42.176662031]}, "type": "Feature", "properties": {"collection_times": [{"days": "Mon-Fri", "time": "5:00pm"}, {"days": "Sat", "time": "12:00pm"}, {"days": "Sun", "time": "Closed"}], "id": "0156000002", "name": "USPS COLLECTION BOX - BLUE BOX", "address": {"city": "SOUTH GRAFTON", "state": "MA", "street": "17 FERRY ST", "postcode": "01560"}}},
{"geometry": {"type": "Point", "coordinates": [-71.6664393936, 42.1658517817]}, "type": "Feature", "properties": {"collection_times": [{"days": "Mon-Fri", "time": "1:00pm"}, {"days": "Sat", "time": "12:00pm"}, {"days": "Sun", "time": "Closed"}], "id": "0156000004", "name": "USPS COLLECTION BOX - BLUE BOX", "address": {"city": "SOUTH GRAFTON", "state": "MA", "street": "296 PROVIDENCE RD", "postcode": "01560"}}},
{"geometry": {"type": "Point", "coordinates": [-71.6944142236, 42.176662031]}, "type": "Feature", "properties": {"collection_times": [{"days": "Mon-Fri", "time": "5:00pm"}, {"days": "Sat", "time": "12:00pm"}, {"days": "Sun", "time": "Closed"}], "id": "0156000010", "name": "USPS COLLECTION BOX - BLUE BOX", "address": {"city": "SOUTH GRAFTON", "state": "MA", "street": "17 FERRY ST", "postcode": "01560"}}},
{"geometry": {"type": "Point", "coordinates": [-71.6944142236, 42.176662031]}, "type": "Feature", "properties": {"collection_times": [{"days": "Mon-Fri", "time": "5:00pm"}, {"days": "Sat", "time": "12:00pm"}, {"days": "Sun", "time": "Closed"}], "id": "0156000011", "name": "USPS COLLECTION BOX - BLUE BOX", "address": {"city": "SOUTH GRAFTON", "state": "MA", "street": "17 FERRY ST", "postcode": "01560"}}},
{"geometry": {"type": "Point", "coordinates": [-71.6877888503, 42.441356658]}, "type": "Feature", "properties": {"collection_times": [{"days": "Mon-Fri", "time": "5:00pm"}, {"days": "Sat", "time": "12:00pm"}, {"days": "Sun", "time": "Closed"}], "id": "0156100002", "name": "USPS COLLECTION BOX - BLUE BOX", "address": {"city": "SOUTH LANCASTER", "state": "MA", "street": "85 SAWYER ST", "postcode": "01561"}}},
{"geometry": {"type": "Point", "coordinates": [-71.6877888503, 42.441356658]}, "type": "Feature", "properties": {"collection_times": [{"days": "Mon-Fri", "time": "5:00pm"}, {"days": "Sat", "time": "12:00pm"}, {"days": "Sun", "time": "Closed"}], "id": "0156100004", "name": "USPS COLLECTION BOX - PO LOBBY", "address": {"city": "SOUTH LANCASTER", "state": "MA", "street": "85 SAWYER ST", "postcode": "01561"}}},
{"geometry": {"type": "Point", "coordinates": [-71.6877888503, 42.441356658]}, "type": "Feature", "properties": {"collection_times": [{"days": "Mon-Fri", "time": "5:00pm"}, {"days": "Sat", "time": "12:00pm"}, {"days": "Sun", "time": "Closed"}], "id": "0156100005", "name": "USPS COLLECTION BOX - PO LOBBY", "address": {"city": "SOUTH LANCASTER", "state": "MA", "street": "85 SAWYER ST", "postcode": "01561"}}},
{"geometry": {"type": "Point", "coordinates": [-71.6871259403, 42.4431036536]}, "type": "Feature", "properties": {"collection_times": [{"days": "Mon-Fri", "time": "5:00pm"}, {"days": "Sat", "time": "12:00pm"}, {"days": "Sun", "time": "Closed"}], "id": "0156100006", "name": "USPS COLLECTION BOX - EXPRESS", "address": {"city": "SOUTH LANCASTER", "state": "MA", "street": "85 SAWYER ST", "postcode": "01561"}}},
{"geometry": {"type": "Point", "coordinates": [-71.9934721648, 42.2433383301]}, "type": "Feature", "properties": {"collection_times": [{"days": "Mon-Fri", "time": "5:00pm"}, {"days": "Sat", "time": "3:00pm"}, {"days": "Sun", "time": "Closed"}], "id": "0156200002", "name": "USPS COLLECTION BOX - BLUE BOX", "address": {"city": "SPENCER", "state": "MA", "street": "10 MECHANIC ST", "postcode": "01562"}}},
{"geometry": {"type": "Point", "coordinates": [-72.0260674161, 42.2315915476]}, "type": "Feature", "properties": {"collection_times": [{"days": "Mon-Sat", "time": "8:00am"}, {"days": "Sun", "time": "Closed"}], "id": "0156200009", "name": "USPS COLLECTION BOX - BLUE BOX", "address": {"city": "SPENCER", "state": "MA", "street": "133 MAIN ST", "postcode": "01562"}}},
{"geometry": {"type": "Point", "coordinates": [-71.9888299258, 42.239785377]}, "type": "Feature", "properties": {"collection_times": [{"days": "Mon-Sat", "time": "8:00am"}, {"days": "Sun", "time": "Closed"}], "id": "0156200017", "name": "USPS COLLECTION BOX - BLUE BOX", "address": {"city": "SPENCER", "state": "MA", "street": "4 HOWE VLG", "postcode": "01562"}}},
{"geometry": {"type": "Point", "coordinates": [-71.9722546128, 42.2522885977]}, "type": "Feature", "properties": {"collection_times": [{"days": "Mon-Sat", "time": "8:00am"}, {"days": "Sun", "time": "Closed"}], "id": "0156200018", "name": "USPS COLLECTION BOX - BLUE BOX", "address": {"city": "SPENCER", "state": "MA", "street": "353 MAIN ST", "postcode": "01562"}}},
{"geometry": {"type": "Point", "coordinates": [-71.9934293498, 42.2431714839]}, "type": "Feature", "properties": {"collection_times": [{"days": "Mon-Sat", "time": "8:00am"}, {"days": "Sun", "time": "Closed"}], "id": "0156200019", "name": "USPS COLLECTION BOX - BLUE BOX", "address": {"city": "SPENCER", "state": "MA", "street": "62 W MAIN ST", "postcode": "01562"}}},
{"geometry": {"type": "Point", "coordinates": [-71.9934721648, 42.2433383301]}, "type": "Feature", "properties": {"collection_times": [{"days": "Mon-Fri", "time": "4:30pm"}, {"days": "Sat", "time": "3:00pm"}, {"days": "Sun", "time": "Closed"}], "id": "0156200021", "name": "USPS COLLECTION BOX - PO LOBBY", "address": {"city": "SPENCER", "state": "MA", "street": "10 MECHANIC ST", "postcode": "01562"}}},
{"geometry": {"type": "Point", "coordinates": [-71.7707890211, 42.4336620027]}, "type": "Feature", "properties": {"collection_times": [{"days": "Mon-Fri", "time": "5:00pm"}, {"days": "Sat", "time": "12:00pm"}, {"days": "Sun", "time": "Closed"}], "id": "0156400002", "name": "USPS COLLECTION BOX - BLUE BOX", "address": {"city": "STERLING", "state": "MA", "street": "6 CLINTON RD", "postcode": "01564"}}},
{"geometry": {"type": "Point", "coordinates": [-71.7707890211, 42.4336620027]}, "type": "Feature", "properties": {"collection_times": [{"days": "Mon-Fri", "time": "5:00pm"}, {"days": "Sat", "time": "12:00pm"}, {"days": "Sun", "time": "Closed"}], "id": "0156400003", "name": "USPS COLLECTION BOX - EXPRESS", "address": {"city": "STERLING", "state": "MA", "street": "6 CLINTON RD", "postcode": "01564"}}},
{"geometry": {"type": "Point", "coordinates": [-71.7707890211, 42.4336620027]}, "type": "Feature", "properties": {"collection_times": [{"days": "Mon-Sat", "time": "11:00am"}, {"days": "Sun", "time": "Closed"}], "id": "0156400004", "name": "USPS COLLECTION BOX - BLUE BOX", "address": {"city": "STERLING", "state": "MA", "street": "29 MAIN ST", "postcode": "01564"}}},
{"geometry": {"type": "Point", "coordinates": [-71.7707890211, 42.4336620027]}, "type": "Feature", "properties": {"collection_times": [{"days": "Mon-Fri", "time": "5:00pm"}, {"days": "Sat", "time": "12:00pm"}, {"days": "Sun", "time": "Closed"}], "id": "0156400005", "name": "USPS COLLECTION BOX - BLUE BOX", "address": {"city": "STERLING", "state": "MA", "street": "6 CLINTON RD", "postcode": "01564"}}},
{"geometry": {"type": "Point", "coordinates": [-71.7707890211, 42.4336620027]}, "type": "Feature", "properties": {"collection_times": [{"days": "Mon-Fri", "time": "5:00pm"}, {"days": "Sat", "time": "12:00pm"}, {"days": "Sun", "time": "Closed"}], "id": "0156400007", "name": "USPS COLLECTION BOX - PO LOBBY", "address": {"city": "STERLING", "state": "MA", "street": "6 CLINTON RD", "postcode": "01564"}}},
{"geometry": {"type": "Point", "coordinates": [-72.0532573101, 42.0833724892]}, "type": "Feature", "properties": {"collection_times": [{"days": "Mon-Fri", "time": "5:00pm"}, {"days": "Sat", "time": "11:25am"}, {"days": "Sun", "time": "Closed"}], "id": "0156600001", "name": "USPS COLLECTION BOX - BLUE BOX", "address": {"city": "STURBRIDGE", "state": "MA", "street": "316 MAIN ST", "postcode": "01566"}}},
{"geometry": {"type": "Point", "coordinates": [-72.0532573101, 42.0833724892]}, "type": "Feature", "properties": {"collection_times": [{"days": "Mon-Fri", "time": "5:00pm"}, {"days": "Sat", "time": "11:25am"}, {"days": "Sun", "time": "Closed"}], "id": "0156600002", "name": "USPS COLLECTION BOX - BLUE BOX", "address": {"city": "STURBRIDGE", "state": "MA", "street": "316 MAIN ST", "postcode": "01566"}}},
{"geometry": {"type": "Point", "coordinates": [-72.0771857741, 42.1089336715]}, "type": "Feature", "properties": {"collection_times": [{"days": "Mon-Sat", "time": "10:00am"}, {"days": "Sun", "time": "Closed"}], "id": "0156600003", "name": "USPS COLLECTION BOX - BLUE BOX", "address": {"city": "STURBRIDGE", "state": "MA", "street": "379 MAIN ST", "postcode": "01566"}}},
{"geometry": {"type": "Point", "coordinates": [-72.0686255475, 42.0936601284]}, "type": "Feature", "properties": {"collection_times": [{"days": "Mon-Sat", "time": "10:00am"}, {"days": "Sun", "time": "Closed"}], "id": "0156600005", "name": "USPS COLLECTION BOX - BLUE BOX", "address": {"city": "STURBRIDGE", "state": "MA", "street": "182 MAIN ST", "postcode": "01566"}}},
{"geometry": {"type": "Point", "coordinates": [-72.0532573101, 42.0833724892]}, "type": "Feature", "properties": {"collection_times": [{"days": "Mon-Fri", "time": "5:00pm"}, {"days": "Sat", "time": "11:25am"}, {"days": "Sun", "time": "Closed"}], "id": "0156600007", "name": "USPS COLLECTION BOX - EXPRESS", "address": {"city": "STURBRIDGE", "state": "MA", "street": "316 MAIN ST", "postcode": "01566"}}},
{"geometry": {"type": "Point", "coordinates": [-72.0532573101, 42.0833724892]}, "type": "Feature", "properties": {"collection_times": [{"days": "Mon-Fri", "time": "5:00pm"}, {"days": "Sat", "time": "11:25am"}, {"days": "Sun", "time": "Closed"}], "id": "0156600009", "name": "USPS COLLECTION BOX - PO LOBBY", "address": {"city": "STURBRIDGE", "state": "MA", "street": "316 MAIN ST", "postcode": "01566"}}},
{"geometry": {"type": "Point", "coordinates": [-72.0532573101, 42.0833724892]}, "type": "Feature", "properties": {"collection_times": [{"days": "Mon-Fri", "time": "5:00pm"}, {"days": "Sat", "time": "11:25am"}, {"days": "Sun", "time": "Closed"}], "id": "0156600010", "name": "USPS COLLECTION BOX - PO LOBBY", "address": {"city": "STURBRIDGE", "state": "MA", "street": "316 MAIN ST", "postcode": "01566"}}},
{"geometry": {"type": "Point", "coordinates": [-72.0532573101, 42.0833724892]}, "type": "Feature", "properties": {"collection_times": [{"days": "Mon-Fri", "time": "5:00pm"}, {"days": "Sat", "time": "11:25am"}, {"days": "Sun", "time": "Closed"}], "id": "0156600011", "name": "USPS COLLECTION BOX - PO LOBBY", "address": {"city": "STURBRIDGE", "state": "MA", "street": "316 MAIN ST", "postcode": "01566"}}},
{"geometry": {"type": "Point", "coordinates": [-72.0532573101, 42.0833724892]}, "type": "Feature", "properties": {"collection_times": [{"days": "Mon-Fri", "time": "5:00pm"}, {"days": "Sat", "time": "11:25am"}, {"days": "Sun", "time": "Closed"}], "id": "0156600012", "name": "USPS COLLECTION BOX - PO LOBBY", "address": {"city": "STURBRIDGE", "state": "MA", "street": "316 MAIN ST", "postcode": "01566"}}},
{"geometry": {"type": "Point", "coordinates": [-72.0532573101, 42.0833724892]}, "type": "Feature", "properties": {"collection_times": [{"days": "Mon-Fri", "time": "5:00pm"}, {"days": "Sat", "time": "11:25am"}, {"days": "Sun", "time": "Closed"}], "id": "0156600013", "name": "USPS COLLECTION BOX - BLUE BOX", "address": {"city": "STURBRIDGE", "state": "MA", "street": "316 MAIN ST", "postcode": "01566"}}},
{"geometry": {"type": "Point", "coordinates": [-71.6300599363, 42.1734908031]}, "type": "Feature", "properties": {"collection_times": [{"days": "Mon-Fri", "time": "5:00pm"}, {"days": "Sat", "time": "12:00pm"}, {"days": "Sun", "time": "Closed"}], "id": "0156800000", "name": "USPS COLLECTION BOX - EXPRESS", "address": {"city": "UPTON", "state": "MA", "street": "116 MAIN ST", "postcode": "01568"}}},
{"geometry": {"type": "Point", "coordinates": [-71.6300599363, 42.1734908031]}, "type": "Feature", "properties": {"collection_times": [{"days": "Mon-Fri", "time": "5:00pm"}, {"days": "Sat", "time": "12:00pm"}, {"days": "Sun", "time": "Closed"}], "id": "0156800002", "name": "USPS COLLECTION BOX - BLUE BOX", "address": {"city": "UPTON", "state": "MA", "street": "116 MAIN ST", "postcode": "01568"}}},
{"geometry": {"type": "Point", "coordinates": [-71.6300599363, 42.1734908031]}, "type": "Feature", "properties": {"collection_times": [{"days": "Mon-Fri", "time": "5:00pm"}, {"days": "Sat", "time": "12:00pm"}, {"days": "Sun", "time": "Closed"}], "id": "0156800004", "name": "USPS COLLECTION BOX - PO LOBBY", "address": {"city": "UPTON", "state": "MA", "street": "116 MAIN ST", "postcode": "01568"}}},
{"geometry": {"type": "Point", "coordinates": [-71.6300599363, 42.1734908031]}, "type": "Feature", "properties": {"collection_times": [{"days": "Mon-Fri", "time": "5:00pm"}, {"days": "Sat", "time": "12:00pm"}, {"days": "Sun", "time": "Closed"}], "id": "0156800005", "name": "USPS COLLECTION BOX - PO LOBBY", "address": {"city": "UPTON", "state": "MA", "street": "116 MAIN ST", "postcode": "01568"}}},
{"geometry": {"type": "Point", "coordinates": [-71.6226381884, 42.0617706904]}, "type": "Feature", "properties": {"collection_times": [{"days": "Mon-Fri", "time": "5:00pm"}, {"days": "Sat", "time": "3:00pm"}, {"days": "Sun", "time": "Closed"}], "id": "0156900002", "name": "USPS COLLECTION BOX - BLUE BOX", "address": {"city": "UXBRIDGE", "state": "MA", "street": "287 MILLVILLE RD", "postcode": "01569"}}},
{"geometry": {"type": "Point", "coordinates": [-71.6328568216, 42.0701327265]}, "type": "Feature", "properties": {"collection_times": [{"days": "Mon-Fri", "time": "5:00pm"}, {"days": "Sat", "time": "3:00pm"}, {"days": "Sun", "time": "Closed"}], "id": "0156900003", "name": "USPS COLLECTION BOX - EXPRESS", "address": {"city": "UXBRIDGE", "state": "MA", "street": "287 MILLVILLE RD", "postcode": "01569"}}},
{"geometry": {"type": "Point", "coordinates": [-71.6380663392, 42.0824263369]}, "type": "Feature", "properties": {"collection_times": [{"days": "Mon-Sat", "time": "11:00am"}, {"days": "Sun", "time": "Closed"}], "id": "0156900004", "name": "USPS COLLECTION BOX - BLUE BOX", "address": {"city": "UXBRIDGE", "state": "MA", "street": "158 N MAIN ST", "postcode": "01569"}}},
{"geometry": {"type": "Point", "coordinates": [-71.6255609753, 42.061061368]}, "type": "Feature", "properties": {"collection_times": [{"days": "Mon-Sat", "time": "9:00am"}, {"days": "Sun", "time": "Closed"}], "id": "0156900005", "name": "USPS COLLECTION BOX - BLUE BOX", "address": {"city": "UXBRIDGE", "state": "MA", "street": "1 CROWNSHIELD AVE", "postcode": "01569"}}},
{"geometry": {"type": "Point", "coordinates": [-71.6248425295, 42.0783189858]}, "type": "Feature", "properties": {"collection_times": [{"days": "Mon-Sat", "time": "9:00am"}, {"days": "Sun", "time": "Closed"}], "id": "0156900006", "name": "USPS COLLECTION BOX - BLUE BOX", "address": {"city": "UXBRIDGE", "state": "MA", "street": "1 OAK ST", "postcode": "01569"}}},
{"geometry": {"type": "Point", "coordinates": [-71.6226381884, 42.0617706904]}, "type": "Feature", "properties": {"collection_times": [{"days": "Mon-Fri", "time": "5:00pm"}, {"days": "Sat", "time": "3:00pm"}, {"days": "Sun", "time": "Closed"}], "id": "0156900009", "name": "USPS COLLECTION BOX - PO LOBBY", "address": {"city": "UXBRIDGE", "state": "MA", "street": "287 MILLVILLE RD", "postcode": "01569"}}},
{"geometry": {"type": "Point", "coordinates": [-71.6307343596, 42.077985509]}, "type": "Feature", "properties": {"collection_times": [{"days": "Mon-Sat", "time": "10:00am"}, {"days": "Sun", "time": "Closed"}], "id": "0156900010", "name": "USPS COLLECTION BOX - BLUE BOX", "address": {"city": "UXBRIDGE", "state": "MA", "street": "21 S MAIN ST", "postcode": "01569"}}},
{"geometry": {"type": "Point", "coordinates": [-71.6328481314, 42.0701240824]}, "type": "Feature", "properties": {"collection_times": [{"days": "Mon-Sat", "time": "2:00pm"}, {"days": "Sun", "time": "Closed"}], "id": "0156900011", "name": "USPS COLLECTION BOX - BLUE BOX", "address": {"city": "UXBRIDGE", "state": "MA", "street": "6 N MAIN ST", "postcode": "01569"}}},
{"geometry": {"type": "Point", "coordinates": [-71.8807424271, 42.0497983929]}, "type": "Feature", "properties": {"collection_times": [{"days": "Mon-Fri", "time": "5:15pm"}, {"days": "Sat", "time": "3:45pm"}, {"days": "Sun", "time": "Closed"}], "id": "0157000005", "name": "USPS COLLECTION BOX - BLUE BOX", "address": {"city": "WEBSTER", "state": "MA", "street": "338 MAIN ST", "postcode": "01570"}}},
{"geometry": {"type": "Point", "coordinates": [-71.8408716725, 42.0549053175]}, "type": "Feature", "properties": {"collection_times": [{"days": "Mon-Sat", "time": "9:15am"}, {"days": "Sun", "time": "Closed"}], "id": "0157000006", "name": "USPS COLLECTION BOX - BLUE BOX", "address": {"city": "WEBSTER", "state": "MA", "street": "178 GORE RD", "postcode": "01570"}}},
{"geometry": {"type": "Point", "coordinates": [-71.8780863473, 42.0596744872]}, "type": "Feature", "properties": {"collection_times": [{"days": "Mon-Fri", "time": "12:00pm"}, {"days": "Sat", "time": "9:00am"}, {"days": "Sun", "time": "Closed"}], "id": "0157000007", "name": "USPS COLLECTION BOX - BLUE BOX", "address": {"city": "WEBSTER", "state": "MA", "street": "131 MAIN ST", "postcode": "01570"}}},
{"geometry": {"type": "Point", "coordinates": [-71.8780863473, 42.0596744872]}, "type": "Feature", "properties": {"collection_times": [{"days": "Mon-Sat", "time": "12:00pm"}, {"days": "Sun", "time": "Closed"}], "id": "0157000015", "name": "USPS COLLECTION BOX - BLUE BOX", "address": {"city": "WEBSTER", "state": "MA", "street": "131 E MAIN ST", "postcode": "01570"}}},
{"geometry": {"type": "Point", "coordinates": [-71.8680998077, 42.047484095]}, "type": "Feature", "properties": {"collection_times": [{"days": "Mon-Fri", "time": "3:45pm"}, {"days": "Sat", "time": "10:00am"}, {"days": "Sun", "time": "Closed"}], "id": "0157000016", "name": "USPS COLLECTION BOX - BLUE BOX", "address": {"city": "WEBSTER", "state": "MA", "street": "115 LAKE ST", "postcode": "01570"}}},
{"geometry": {"type": "Point", "coordinates": [-71.8682961789, 42.0584323802]}, "type": "Feature", "properties": {"collection_times": [{"days": "Mon-Fri", "time": "2:00pm"}, {"days": "Sat", "time": "12:00pm"}, {"days": "Sun", "time": "Closed"}], "id": "0157000019", "name": "USPS COLLECTION BOX - BLUE BOX", "address": {"city": "WEBSTER", "state": "MA", "street": "1 RACICOT AVE", "postcode": "01570"}}},
{"geometry": {"type": "Point", "coordinates": [-71.867198393, 42.071816378]}, "type": "Feature", "properties": {"collection_times": [{"days": "Mon-Sat", "time": "9:45am"}, {"days": "Sun", "time": "Closed"}], "id": "0157000023", "name": "USPS COLLECTION BOX - BLUE BOX", "address": {"city": "WEBSTER", "state": "MA", "street": "70 WORCESTER RD", "postcode": "01570"}}},
{"geometry": {"type": "Point", "coordinates": [-71.8652277158, 42.0487335744]}, "type": "Feature", "properties": {"collection_times": [{"days": "Mon-Sat", "time": "12:00pm"}, {"days": "Sun", "time": "Closed"}], "id": "0157000026", "name": "USPS COLLECTION BOX - BLUE BOX", "address": {"city": "WEBSTER", "state": "MA", "street": "2 WORCESTER RD", "postcode": "01570"}}},
{"geometry": {"type": "Point", "coordinates": [-71.8759690135, 42.0550597345]}, "type": "Feature", "properties": {"collection_times": [{"days": "Mon-Fri", "time": "3:30pm"}, {"days": "Sat", "time": "12:00pm"}, {"days": "Sun", "time": "Closed"}], "id": "0157000031", "name": "USPS COLLECTION BOX - BLUE BOX", "address": {"city": "WEBSTER", "state": "MA", "street": "24 E MAIN ST", "postcode": "01570"}}},
{"geometry": {"type": "Point", "coordinates": [-71.9160860052, 42.0501109412]}, "type": "Feature", "properties": {"collection_times": [{"days": "Mon-Fri", "time": "4:00pm"}, {"days": "Sat", "time": "12:00pm"}, {"days": "Sun", "time": "Closed"}], "id": "0157100001", "name": "USPS COLLECTION BOX - EXPRESS", "address": {"city": "DUDLEY", "state": "MA", "street": "124 W MAIN ST", "postcode": "01571"}}},
{"geometry": {"type": "Point", "coordinates": [-71.9032242253, 42.0435519394]}, "type": "Feature", "properties": {"collection_times": [{"days": "Mon-Fri", "time": "5:00pm"}, {"days": "Sat", "time": "12:00pm"}, {"days": "Sun", "time": "Closed"}], "id": "0157100002", "name": "USPS COLLECTION BOX - BLUE BOX", "address": {"city": "DUDLEY", "state": "MA", "street": "124 W MAIN ST", "postcode": "01571"}}},
{"geometry": {"type": "Point", "coordinates": [-71.9162598056, 42.0499719471]}, "type": "Feature", "properties": {"collection_times": [{"days": "Mon-Fri", "time": "4:00pm"}, {"days": "Sat", "time": "8:30am"}, {"days": "Sun", "time": "Closed"}], "id": "0157100003", "name": "USPS COLLECTION BOX - BLUE BOX", "address": {"city": "DUDLEY", "state": "MA", "street": "16 AIRPORT RD", "postcode": "01571"}}},
{"geometry": {"type": "Point", "coordinates": [-71.9318553812, 42.0413977711]}, "type": "Feature", "properties": {"collection_times": [{"days": "Mon-Fri", "time": "4:00pm"}, {"days": "Sat", "time": "11:00am"}, {"days": "Sun", "time": "Closed"}], "id": "0157100005", "name": "USPS COLLECTION BOX - BLUE BOX", "address": {"city": "DUDLEY", "state": "MA", "street": "123 CENTER RD", "postcode": "01571"}}},
{"geometry": {"type": "Point", "coordinates": [-71.9234220389, 42.0347998079]}, "type": "Feature", "properties": {"collection_times": [{"days": "Mon-Fri", "time": "4:00pm"}, {"days": "Sat-Sun", "time": "Closed"}], "id": "0157100006", "name": "USPS COLLECTION BOX - BLUE BOX", "address": {"city": "DUDLEY", "state": "MA", "street": "273 W MAIN ST", "postcode": "01571"}}},
{"geometry": {"type": "Point", "coordinates": [-71.8958603058, 42.0457025588]}, "type": "Feature", "properties": {"collection_times": [{"days": "Mon-Fri", "time": "4:00pm"}, {"days": "Sat-Sun", "time": "Closed"}], "id": "0157100007", "name": "USPS COLLECTION BOX - BLUE BOX", "address": {"city": "DUDLEY", "state": "MA", "street": "71 W MAIN ST", "postcode": "01571"}}},
{"geometry": {"type": "Point", "coordinates": [-71.9032242253, 42.0435519394]}, "type": "Feature", "properties": {"collection_times": [{"days": "Mon-Fri", "time": "5:00pm"}, {"days": "Sat", "time": "12:00pm"}, {"days": "Sun", "time": "Closed"}], "id": "0157100008", "name": "USPS COLLECTION BOX - PO LOBBY", "address": {"city": "DUDLEY", "state": "MA", "street": "124 W MAIN ST", "postcode": "01571"}}},
{"geometry": {"type": "Point", "coordinates": [-71.9032242253, 42.0435519394]}, "type": "Feature", "properties": {"collection_times": [{"days": "Mon-Fri", "time": "5:00pm"}, {"days": "Sat", "time": "12:00pm"}, {"days": "Sun", "time": "Closed"}], "id": "0157100009", "name": "USPS COLLECTION BOX - PO LOBBY", "address": {"city": "DUDLEY", "state": "MA", "street": "124 W MAIN ST", "postcode": "01571"}}},
{"geometry": {"type": "Point", "coordinates": [-71.9162598056, 42.0499719471]}, "type": "Feature", "properties": {"collection_times": [{"days": "Mon-Fri", "time": "4:00pm"}, {"days": "Sat-Sun", "time": "Closed"}], "id": "0157100010", "name": "USPS COLLECTION BOX - BLUE BOX", "address": {"city": "DUDLEY", "state": "MA", "street": "19 MILL ST", "postcode": "01571"}}},
{"geometry": {"type": "Point", "coordinates": [-71.6118574101, 42.2714237963]}, "type": "Feature", "properties": {"collection_times": [{"days": "Mon-Fri", "time": "5:00pm"}, {"days": "Sat", "time": "4:00pm"}, {"days": "Sun", "time": "Closed"}], "id": "0158100001", "name": "USPS COLLECTION BOX - EXPRESS", "address": {"city": "WESTBOROUGH", "state": "MA", "street": "150 E MAIN ST", "postcode": "01581"}}},
{"geometry": {"type": "Point", "coordinates": [-71.627866867, 42.2608496717]}, "type": "Feature", "properties": {"collection_times": [{"days": "Mon-Fri", "time": "5:00pm"}, {"days": "Sat", "time": "4:00pm"}, {"days": "Sun", "time": "Closed"}], "id": "0158100002", "name": "USPS COLLECTION BOX - BLUE BOX", "address": {"city": "WESTBOROUGH", "state": "MA", "street": "150 E MAIN ST", "postcode": "01581"}}},
{"geometry": {"type": "Point", "coordinates": [-71.6118574101, 42.2714237963]}, "type": "Feature", "properties": {"collection_times": [{"days": "Mon-Fri", "time": "5:00pm"}, {"days": "Sat", "time": "2:30pm"}, {"days": "Sun", "time": "Closed"}], "id": "0158100005", "name": "USPS COLLECTION BOX - EXPRESS", "address": {"city": "WESTBOROUGH", "state": "MA", "street": "57 E MAIN ST", "postcode": "01581"}}},
{"geometry": {"type": "Point", "coordinates": [-71.6099691648, 42.2745773562]}, "type": "Feature", "properties": {"collection_times": [{"days": "Mon-Fri", "time": "5:00pm"}, {"days": "Sat", "time": "2:30pm"}, {"days": "Sun", "time": "Closed"}], "id": "0158100006", "name": "USPS COLLECTION BOX - BLUE BOX", "address": {"city": "WESTBOROUGH", "state": "MA", "street": "57 E MAIN ST", "postcode": "01581"}}},
{"geometry": {"type": "Point", "coordinates": [-71.6118574101, 42.2714237963]}, "type": "Feature", "properties": {"collection_times": [{"days": "Mon-Fri", "time": "5:00pm"}, {"days": "Sat", "time": "2:30pm"}, {"days": "Sun", "time": "Closed"}], "id": "0158100008", "name": "USPS COLLECTION BOX - EXPRESS", "address": {"city": "WESTBOROUGH", "state": "MA", "street": "18 LYMAN ST", "postcode": "01581"}}},
{"geometry": {"type": "Point", "coordinates": [-71.6066685868, 42.2813533988]}, "type": "Feature", "properties": {"collection_times": [{"days": "Mon-Fri", "time": "5:00pm"}, {"days": "Sat", "time": "2:30pm"}, {"days": "Sun", "time": "Closed"}], "id": "0158100009", "name": "USPS COLLECTION BOX - BLUE BOX", "address": {"city": "WESTBOROUGH", "state": "MA", "street": "18 LYMAN ST", "postcode": "01581"}}},
{"geometry": {"type": "Point", "coordinates": [-71.6118487197, 42.2714238424]}, "type": "Feature", "properties": {"collection_times": [{"days": "Mon-Sat", "time": "10:30am"}, {"days": "Sun", "time": "Closed"}], "id": "0158100010", "name": "USPS COLLECTION BOX - BLUE BOX", "address": {"city": "WESTBOROUGH", "state": "MA", "street": "16 MAYBERRY DR", "postcode": "01581"}}},
{"geometry": {"type": "Point", "coordinates": [-71.6329037908, 42.2882626699]}, "type": "Feature", "properties": {"collection_times": [{"days": "Mon-Fri", "time": "5:00pm"}, {"days": "Sat", "time": "2:30pm"}, {"days": "Sun", "time": "Closed"}], "id": "0158100012", "name": "USPS COLLECTION BOX - BLUE BOX", "address": {"city": "WESTBOROUGH", "state": "MA", "street": "180 MILK ST", "postcode": "01581"}}},
{"geometry": {"type": "Point", "coordinates": [-71.6118574101, 42.2714237963]}, "type": "Feature", "properties": {"collection_times": [{"days": "Mon-Fri", "time": "5:00pm"}, {"days": "Sat", "time": "2:30pm"}, {"days": "Sun", "time": "Closed"}], "id": "0158100013", "name": "USPS COLLECTION BOX - EXPRESS", "address": {"city": "WESTBOROUGH", "state": "MA", "street": "180 MILK ST", "postcode": "01581"}}},
{"geometry": {"type": "Point", "coordinates": [-71.6126092987, 42.2690308872]}, "type": "Feature", "properties": {"collection_times": [{"days": "Mon-Fri", "time": "5:00pm"}, {"days": "Sat", "time": "2:30pm"}, {"days": "Sun", "time": "Closed"}], "id": "0158100014", "name": "USPS COLLECTION BOX - BLUE BOX", "address": {"city": "WESTBOROUGH", "state": "MA", "street": "20 SOUTH ST", "postcode": "01581"}}},
{"geometry": {"type": "Point", "coordinates": [-71.6587073742, 42.2826203174]}, "type": "Feature", "properties": {"collection_times": [{"days": "Mon-Fri", "time": "5:00pm"}, {"days": "Sat", "time": "2:30pm"}, {"days": "Sun", "time": "Closed"}], "id": "0158100015", "name": "USPS COLLECTION BOX - BLUE BOX", "address": {"city": "WESTBOROUGH", "state": "MA", "street": "290 TURNPIKE RD", "postcode": "01581"}}},
{"geometry": {"type": "Point", "coordinates": [-71.6587073742, 42.2826203174]}, "type": "Feature", "properties": {"collection_times": [{"days": "Mon-Fri", "time": "5:00pm"}, {"days": "Sat", "time": "2:30pm"}, {"days": "Sun", "time": "Closed"}], "id": "0158100016", "name": "USPS COLLECTION BOX - EXPRESS", "address": {"city": "WESTBOROUGH", "state": "MA", "street": "290 TURNPIKE RD", "postcode": "01581"}}},
{"geometry": {"type": "Point", "coordinates": [-71.614410649, 42.2682578952]}, "type": "Feature", "properties": {"collection_times": [{"days": "Mon-Fri", "time": "5:00pm"}, {"days": "Sat", "time": "2:30pm"}, {"days": "Sun", "time": "Closed"}], "id": "0158100018", "name": "USPS COLLECTION BOX - BLUE BOX", "address": {"city": "WESTBOROUGH", "state": "MA", "street": "31 W MAIN ST", "postcode": "01581"}}},
{"geometry": {"type": "Point", "coordinates": [-71.610600398, 42.2736540195]}, "type": "Feature", "properties": {"collection_times": [{"days": "Mon-Fri", "time": "5:00pm"}, {"days": "Sat", "time": "2:30pm"}, {"days": "Sun", "time": "Closed"}], "id": "0158100019", "name": "USPS COLLECTION BOX - BLUE BOX", "address": {"city": "WESTBOROUGH", "state": "MA", "street": "50 W MAIN ST", "postcode": "01581"}}},
{"geometry": {"type": "Point", "coordinates": [-71.5692404013, 42.2757233712]}, "type": "Feature", "properties": {"collection_times": [{"days": "Mon-Fri", "time": "5:00pm"}, {"days": "Sat", "time": "2:30pm"}, {"days": "Sun", "time": "Closed"}], "id": "0158100020", "name": "USPS COLLECTION BOX - BLUE BOX", "address": {"city": "WESTBOROUGH", "state": "MA", "street": "1 WALKUP DR", "postcode": "01581"}}},
{"geometry": {"type": "Point", "coordinates": [-71.6118574101, 42.2714237963]}, "type": "Feature", "properties": {"collection_times": [{"days": "Mon-Fri", "time": "5:00pm"}, {"days": "Sat", "time": "2:30pm"}, {"days": "Sun", "time": "Closed"}], "id": "0158100021", "name": "USPS COLLECTION BOX - EXPRESS", "address": {"city": "WESTBOROUGH", "state": "MA", "street": "1 WALKUP DR", "postcode": "01581"}}},
{"geometry": {"type": "Point", "coordinates": [-71.627866867, 42.2608496717]}, "type": "Feature", "properties": {"collection_times": [{"days": "Mon-Fri", "time": "5:00pm"}, {"days": "Sat", "time": "4:00pm"}, {"days": "Sun", "time": "Closed"}], "id": "0158100054", "name": "USPS COLLECTION BOX - APC", "address": {"city": "WESTBOROUGH", "state": "MA", "street": "150 E MAIN ST", "postcode": "01581"}}},
{"geometry": {"type": "Point", "coordinates": [-71.7887168811, 42.3394723527]}, "type": "Feature", "properties": {"collection_times": [{"days": "Mon-Fri", "time": "5:00pm"}, {"days": "Sat", "time": "3:00pm"}, {"days": "Sun", "time": "Closed"}], "id": "0158300001", "name": "USPS COLLECTION BOX - BLUE BOX", "address": {"city": "WEST BOYLSTON", "state": "MA", "street": "67 W BOYLSTON ST", "postcode": "01583"}}},
{"geometry": {"type": "Point", "coordinates": [-71.7887168811, 42.3394723527]}, "type": "Feature", "properties": {"collection_times": [{"days": "Mon-Fri", "time": "5:00pm"}, {"days": "Sat", "time": "3:00pm"}, {"days": "Sun", "time": "Closed"}], "id": "0158300002", "name": "USPS COLLECTION BOX - EXPRESS", "address": {"city": "WEST BOYLSTON", "state": "MA", "street": "67 W BOYLSTON ST", "postcode": "01583"}}},
{"geometry": {"type": "Point", "coordinates": [-71.7887168811, 42.3394723527]}, "type": "Feature", "properties": {"collection_times": [{"days": "Mon-Fri", "time": "5:00pm"}, {"days": "Sat", "time": "3:00pm"}, {"days": "Sun", "time": "Closed"}], "id": "0158300003", "name": "USPS COLLECTION BOX - BLUE BOX", "address": {"city": "WEST BOYLSTON", "state": "MA", "street": "67 W BOYLSTON ST", "postcode": "01583"}}},
{"geometry": {"type": "Point", "coordinates": [-71.7753037747, 42.3774160822]}, "type": "Feature", "properties": {"collection_times": [{"days": "Mon-Sat", "time": "2:00pm"}, {"days": "Sun", "time": "Closed"}], "id": "0158300004", "name": "USPS COLLECTION BOX - BLUE BOX", "address": {"city": "WEST BOYLSTON", "state": "MA", "street": "45 STERLING ST", "postcode": "01583"}}},
{"geometry": {"type": "Point", "coordinates": [-71.7860182655, 42.358910482]}, "type": "Feature", "properties": {"collection_times": [{"days": "Mon-Sat", "time": "2:00pm"}, {"days": "Sun", "time": "Closed"}], "id": "0158300005", "name": "USPS COLLECTION BOX - EXPRESS", "address": {"city": "WEST BOYLSTON", "state": "MA", "street": "45 STERLING ST", "postcode": "01583"}}},
{"geometry": {"type": "Point", "coordinates": [-71.7816269831, 42.3630005392]}, "type": "Feature", "properties": {"collection_times": [{"days": "Mon-Sat", "time": "2:00pm"}, {"days": "Sun", "time": "Closed"}], "id": "0158300008", "name": "USPS COLLECTION BOX - BLUE BOX", "address": {"city": "WEST BOYLSTON", "state": "MA", "street": "76 CENTRAL ST", "postcode": "01583"}}},
{"geometry": {"type": "Point", "coordinates": [-71.7864342356, 42.3469477911]}, "type": "Feature", "properties": {"collection_times": [{"days": "Mon-Sat", "time": "2:00pm"}, {"days": "Sun", "time": "Closed"}], "id": "0158300012", "name": "USPS COLLECTION BOX - BLUE BOX", "address": {"city": "WEST BOYLSTON", "state": "MA", "street": "240 W BOYLSTON ST", "postcode": "01583"}}},
{"geometry": {"type": "Point", "coordinates": [-71.7842640783, 42.3690571903]}, "type": "Feature", "properties": {"collection_times": [{"days": "Mon-Sat", "time": "2:00pm"}, {"days": "Sun", "time": "Closed"}], "id": "0158300013", "name": "USPS COLLECTION BOX - BLUE BOX", "address": {"city": "WEST BOYLSTON", "state": "MA", "street": "354 W BOYLSTON ST", "postcode": "01583"}}},
{"geometry": {"type": "Point", "coordinates": [-71.7860486807, 42.3589235635]}, "type": "Feature", "properties": {"collection_times": [{"days": "Mon-Sat", "time": "2:00pm"}, {"days": "Sun", "time": "Closed"}], "id": "0158300014", "name": "USPS COLLECTION BOX - BLUE BOX", "address": {"city": "WEST BOYLSTON", "state": "MA", "street": "91 W BOYLSTON ST", "postcode": "01583"}}},
{"geometry": {"type": "Point", "coordinates": [-71.7887168811, 42.3394723527]}, "type": "Feature", "properties": {"collection_times": [{"days": "Mon-Fri", "time": "5:00pm"}, {"days": "Sat", "time": "3:00pm"}, {"days": "Sun", "time": "Closed"}], "id": "0158300015", "name": "USPS COLLECTION BOX - PO LOBBY", "address": {"city": "WEST BOYLSTON", "state": "MA", "street": "67 W BOYLSTON ST", "postcode": "01583"}}},
{"geometry": {"type": "Point", "coordinates": [-71.7887168811, 42.3394723527]}, "type": "Feature", "properties": {"collection_times": [{"days": "Mon-Fri", "time": "5:00pm"}, {"days": "Sat", "time": "3:00pm"}, {"days": "Sun", "time": "Closed"}], "id": "0158300016", "name": "USPS COLLECTION BOX - PO LOBBY", "address": {"city": "WEST BOYLSTON", "state": "MA", "street": "67 W BOYLSTON ST", "postcode": "01583"}}},
{"geometry": {"type": "Point", "coordinates": [-71.7852749358, 42.3507450894]}, "type": "Feature", "properties": {"collection_times": [{"days": "Mon-Sat", "time": "2:00pm"}, {"days": "Sun", "time": "Closed"}], "id": "0158300017", "name": "USPS COLLECTION BOX - BLUE BOX", "address": {"city": "WEST BOYLSTON", "state": "MA", "street": "184 W BOYLSTON ST", "postcode": "01583"}}},
{"geometry": {"type": "Point", "coordinates": [-72.1423378942, 42.2341730559]}, "type": "Feature", "properties": {"collection_times": [{"days": "Mon-Fri", "time": "4:30pm"}, {"days": "Sat", "time": "11:45am"}, {"days": "Sun", "time": "Closed"}], "id": "0158500001", "name": "USPS COLLECTION BOX - BLUE BOX", "address": {"city": "WEST BROOKFIELD", "state": "MA", "street": "10 CENTRAL ST", "postcode": "01585"}}},
{"geometry": {"type": "Point", "coordinates": [-72.1423378942, 42.2341730559]}, "type": "Feature", "properties": {"collection_times": [{"days": "Mon-Fri", "time": "4:30pm"}, {"days": "Sat", "time": "11:45am"}, {"days": "Sun", "time": "Closed"}], "id": "0158500003", "name": "USPS COLLECTION BOX - PO LOBBY", "address": {"city": "WEST BROOKFIELD", "state": "MA", "street": "10 CENTRAL ST", "postcode": "01585"}}},
{"geometry": {"type": "Point", "coordinates": [-72.1423378942, 42.2341730559]}, "type": "Feature", "properties": {"collection_times": [{"days": "Mon-Fri", "time": "4:30pm"}, {"days": "Sat", "time": "11:45am"}, {"days": "Sun", "time": "Closed"}], "id": "0158500004", "name": "USPS COLLECTION BOX - PO LOBBY", "address": {"city": "WEST BROOKFIELD", "state": "MA", "street": "10 CENTRAL ST", "postcode": "01585"}}},
{"geometry": {"type": "Point", "coordinates": [-71.6641191364, 42.1195528653]}, "type": "Feature", "properties": {"collection_times": [{"days": "Mon-Fri", "time": "5:00pm"}, {"days": "Sat", "time": "3:30pm"}, {"days": "Sun", "time": "Closed"}], "id": "0158800002", "name": "USPS COLLECTION BOX - BLUE BOX", "address": {"city": "WHITINSVILLE", "state": "MA", "street": "44 CHURCH ST", "postcode": "01588"}}},
{"geometry": {"type": "Point", "coordinates": [-71.6464117959, 42.1254018503]}, "type": "Feature", "properties": {"collection_times": [{"days": "Mon-Sat", "time": "11:15am"}, {"days": "Sun", "time": "Closed"}], "id": "0158800007", "name": "USPS COLLECTION BOX - BLUE BOX", "address": {"city": "WHITINSVILLE", "state": "MA", "street": "1177 PROVIDENCE RD", "postcode": "01588"}}},
{"geometry": {"type": "Point", "coordinates": [-71.6650962335, 42.1103896107]}, "type": "Feature", "properties": {"collection_times": [{"days": "Mon-Sat", "time": "2:30pm"}, {"days": "Sun", "time": "Closed"}], "id": "0158800008", "name": "USPS COLLECTION BOX - BLUE BOX", "address": {"city": "WHITINSVILLE", "state": "MA", "street": "1 MAIN ST", "postcode": "01588"}}},
{"geometry": {"type": "Point", "coordinates": [-71.6627080441, 42.1109955926]}, "type": "Feature", "properties": {"collection_times": [{"days": "Mon-Fri", "time": "4:45pm"}, {"days": "Sat", "time": "3:30pm"}, {"days": "Sun", "time": "Closed"}], "id": "0158800013", "name": "USPS COLLECTION BOX - PO LOBBY", "address": {"city": "WHITINSVILLE", "state": "MA", "street": "44 CHURCH ST", "postcode": "01588"}}},
{"geometry": {"type": "Point", "coordinates": [-71.6627080441, 42.1109955926]}, "type": "Feature", "properties": {"collection_times": [{"days": "Mon-Fri", "time": "4:45pm"}, {"days": "Sat", "time": "3:30pm"}, {"days": "Sun", "time": "Closed"}], "id": "0158800014", "name": "USPS COLLECTION BOX - PO LOBBY", "address": {"city": "WHITINSVILLE", "state": "MA", "street": "44 CHURCH ST", "postcode": "01588"}}},
{"geometry": {"type": "Point", "coordinates": [-71.7009563174, 42.1059541361]}, "type": "Feature", "properties": {"collection_times": [{"days": "Mon-Sat", "time": "11:00am"}, {"days": "Sun", "time": "Closed"}], "id": "0158800015", "name": "USPS COLLECTION BOX - BLUE BOX", "address": {"city": "WHITINSVILLE", "state": "MA", "street": "100 VALLEY PARK WAY", "postcode": "01588"}}},
{"geometry": {"type": "Point", "coordinates": [-71.7292387939, 42.1559011259]}, "type": "Feature", "properties": {"collection_times": [{"days": "Mon-Fri", "time": "4:45pm"}, {"days": "Sat", "time": "12:00pm"}, {"days": "Sun", "time": "Closed"}], "id": "0159000002", "name": "USPS COLLECTION BOX - BLUE BOX", "address": {"city": "SUTTON", "state": "MA", "street": "156 WORCESTER PROVIDENCE TPKE", "postcode": "01590"}}},
{"geometry": {"type": "Point", "coordinates": [-71.7292387939, 42.1559011259]}, "type": "Feature", "properties": {"collection_times": [{"days": "Mon-Fri", "time": "4:45pm"}, {"days": "Sat", "time": "12:00pm"}, {"days": "Sun", "time": "Closed"}], "id": "0159000003", "name": "USPS COLLECTION BOX - EXPRESS", "address": {"city": "SUTTON", "state": "MA", "street": "156 WORCESTER PROVIDENCE TPKE", "postcode": "01590"}}},
{"geometry": {"type": "Point", "coordinates": [-71.7624781336, 42.1498360706]}, "type": "Feature", "properties": {"collection_times": [{"days": "Mon-Sat", "time": "11:00am"}, {"days": "Sun", "time": "Closed"}], "id": "0159000004", "name": "USPS COLLECTION BOX - BLUE BOX", "address": {"city": "SUTTON", "state": "MA", "street": "4 UXBRIDGE RD", "postcode": "01590"}}},
{"geometry": {"type": "Point", "coordinates": [-71.7218718841, 42.1757795437]}, "type": "Feature", "properties": {"collection_times": [{"days": "Mon-Sat", "time": "9:00am"}, {"days": "Sun", "time": "Closed"}], "id": "0159000005", "name": "USPS COLLECTION BOX - BLUE BOX", "address": {"city": "SUTTON", "state": "MA", "street": "5 CHURCH ST", "postcode": "01590"}}},
{"geometry": {"type": "Point", "coordinates": [-71.7225038024, 42.174575096]}, "type": "Feature", "properties": {"collection_times": [{"days": "Mon-Sat", "time": "9:00am"}, {"days": "Sun", "time": "Closed"}], "id": "0159000006", "name": "USPS COLLECTION BOX - BLUE BOX", "address": {"city": "SUTTON", "state": "MA", "street": "3 BOSTON RD", "postcode": "01590"}}},
{"geometry": {"type": "Point", "coordinates": [-71.7292387939, 42.1559011259]}, "type": "Feature", "properties": {"collection_times": [{"days": "Mon-Fri", "time": "4:45pm"}, {"days": "Sat", "time": "12:00pm"}, {"days": "Sun", "time": "Closed"}], "id": "0159000007", "name": "USPS COLLECTION BOX - PO LOBBY", "address": {"city": "SUTTON", "state": "MA", "street": "156 WORCESTER PROVIDENCE TPKE", "postcode": "01590"}}},
{"geometry": {"type": "Point", "coordinates": [-71.7292387939, 42.1559011259]}, "type": "Feature", "properties": {"collection_times": [{"days": "Mon-Fri", "time": "4:45pm"}, {"days": "Sat", "time": "12:00pm"}, {"days": "Sun", "time": "Closed"}], "id": "0159000008", "name": "USPS COLLECTION BOX - PO LOBBY", "address": {"city": "SUTTON", "state": "MA", "street": "156 WORCESTER PROVIDENCE TPKE", "postcode": "01590"}}}
]}
