{"type": "FeatureCollection", "features": [
{"geometry": {"type": "Point", "coordinates": [-71.841577851, 42.2704940109]}, "type": "Feature", "properties": {"collection_times": [{"days": "Mon-Fri", "time": "4:00pm"}, {"days": "Sat", "time": "12:00pm"}, {"days": "Sun", "time": "Closed"}], "id": "0160200003", "name": "USPS COLLECTION BOX - BLUE BOX", "address": {"city": "WORCESTER", "state": "MA", "street": "636 CHANDLER ST", "postcode": "01602"}}},
{"geometry": {"type": "Point", "coordinates": [-71.8218330997, 42.2700140548]}, "type": "Feature", "properties": {"collection_times": [{"days": "Mon-Sat", "time": "11:30am"}, {"days": "Sun", "time": "Closed"}], "id": "0160200005", "name": "USPS COLLECTION BOX - BLUE BOX", "address": {"city": "WORCESTER", "state": "MA", "street": "314 HIGHLAND ST", "postcode": "01602"}}},
{"geometry": {"type": "Point", "coordinates": [-71.8314959257, 42.2632870338]}, "type": "Feature", "properties": {"collection_times": [{"days": "Mon-Fri", "time": "5:00pm"}, {"days": "Sat", "time": "1:00pm"}, {"days": "Sun", "time": "Closed"}], "id": "0160200006", "name": "USPS COLLECTION BOX - BLUE BOX", "address": {"city": "WORCESTER", "state": "MA", "street": "381 CHANDLER ST", "postcode": "01602"}}},
{"geometry": {"type": "Point", "coordinates": [-71.8314959257, 42.2632870338]}, "type": "Feature", "properties": {"collection_times": [{"days": "Mon-Fri", "time": "5:00pm"}, {"days": "Sat", "time": "1:00pm"}, {"days": "Sun", "time": "Closed"}], "id": "0160200007", "name": "USPS COLLECTION BOX - BLUE BOX", "address": {"city": "WORCESTER", "state": "MA", "street": "381 CHANDLER ST", "postcode": "01602"}}},
{"geometry": {"type": "Point", "coordinates": [-71.8314959257, 42.2632870338]}, "type": "Feature", "properties": {"collection_times": [{"days": "Mon-Fri", "time": "5:00pm"}, {"days": "Sat", "time": "1:00pm"}, {"days": "Sun", "time": "Closed"}], "id": "0160200008", "name": "USPS COLLECTION BOX - EXPRESS", "address": {"city": "WORCESTER", "state": "MA", "street": "381 CHANDLER ST", "postcode": "01602"}}},
{"geometry": {"type": "Point", "coordinates": [-71.841577851, 42.2704940109]}, "type": "Feature", "properties": {"collection_times": [{"days": "Mon-Sat", "time": "8:00am"}, {"days": "Sun", "time": "Closed"}], "id": "0160200009", "name": "USPS COLLECTION BOX - BLUE BOX", "address": {"city": "WORCESTER", "state": "MA", "street": "189 MAY ST", "postcode": "01602"}}},
{"geometry": {"type": "Point", "coordinates": [-71.841577851, 42.2704940109]}, "type": "Feature", "properties": {"collection_times": [{"days": "Mon-Sat", "time": "12:30pm"}, {"days": "Sun", "time": "Closed"}], "id": "0160200010", "name": "USPS COLLECTION BOX - BLUE BOX", "address": {"city": "WORCESTER", "state": "MA", "street": "265 MAY ST", "postcode": "01602"}}},
{"geometry": {"type": "Point", "coordinates": [-71.8456425147, 42.2543280189]}, "type": "Feature", "properties": {"collection_times": [{"days": "Mon-Fri", "time": "2:30pm"}, {"days": "Sat", "time": "1:00pm"}, {"days": "Sun", "time": "Closed"}], "id": "0160200011", "name": "USPS COLLECTION BOX - BLUE BOX", "address": {"city": "WORCESTER", "state": "MA", "street": "253 MILL ST", "postcode": "01602"}}},
{"geometry": {"type": "Point", "coordinates": [-71.8258170561, 42.2699589898]}, "type": "Feature", "properties": {"collection_times": [{"days": "Mon-Sat", "time": "9:30am"}, {"days": "Sun", "time": "Closed"}], "id": "0160200013", "name": "USPS COLLECTION BOX - BLUE BOX", "address": {"city": "WORCESTER", "state": "MA", "street": "710 PLEASANT ST", "postcode": "01602"}}},
{"geometry": {"type": "Point", "coordinates": [-71.8223267242, 42.2652863571]}, "type": "Feature", "properties": {"collection_times": [{"days": "Mon-Fri", "time": "4:00pm"}, {"days": "Sat", "time": "12:00pm"}, {"days": "Sun", "time": "Closed"}], "id": "0160200016", "name": "USPS COLLECTION BOX - BLUE BOX", "address": {"city": "WORCESTER", "state": "MA", "street": "577 PLEASANT ST PAXTON", "postcode": "01602"}}},
{"geometry": {"type": "Point", "coordinates": [-71.8256315809, 42.2699560898]}, "type": "Feature", "properties": {"collection_times": [{"days": "Mon-Fri", "time": "4:00pm"}, {"days": "Sat", "time": "12:00pm"}, {"days": "Sun", "time": "Closed"}], "id": "0160200018", "name": "USPS COLLECTION BOX - BLUE BOX", "address": {"city": "WORCESTER", "state": "MA", "street": "711 PLEASANT ST", "postcode": "01602"}}},
{"geometry": {"type": "Point", "coordinates": [-71.841577851, 42.2704940109]}, "type": "Feature", "properties": {"collection_times": [{"days": "Mon-Fri", "time": "2:00pm"}, {"days": "Sat", "time": "12:00pm"}, {"days": "Sun", "time": "Closed"}], "id": "0160200020", "name": "USPS COLLECTION BOX - BLUE BOX", "address": {"city": "WORCESTER", "state": "MA", "street": "970 PLEASANT ST", "postcode": "01602"}}},
{"geometry": {"type": "Point", "coordinates": [-71.8523435368, 42.278096544]}, "type": "Feature", "properties": {"collection_times": [{"days": "Mon-Fri", "time": "4:30pm"}, {"days": "Sat", "time": "12:00pm"}, {"days": "Sun", "time": "Closed"}], "id": "0160200024", "name": "USPS COLLECTION BOX - BLUE BOX", "address": {"city": "WORCESTER", "state": "MA", "street": "1102 PLEASANT ST", "postcode": "01602"}}},
{"geometry": {"type": "Point", "coordinates": [-71.8415778508, 42.2704939651]}, "type": "Feature", "properties": {"collection_times": [{"days": "Mon-Fri", "time": "4:30pm"}, {"days": "Sat", "time": "12:00pm"}, {"days": "Sun", "time": "Closed"}], "id": "0160200025", "name": "USPS COLLECTION BOX - EXPRESS", "address": {"city": "WORCESTER", "state": "MA", "street": "1102 PLEASANT ST", "postcode": "01602"}}},
{"geometry": {"type": "Point", "coordinates": [-71.8311367582, 42.2632599752]}, "type": "Feature", "properties": {"collection_times": [{"days": "Mon-Fri", "time": "5:00pm"}, {"days": "Sat", "time": "1:00pm"}, {"days": "Sun", "time": "Closed"}], "id": "0160200027", "name": "USPS COLLECTION BOX - PO LOBBY", "address": {"city": "WORCESTER", "state": "MA", "street": "381 CHANDLER ST", "postcode": "01602"}}},
{"geometry": {"type": "Point", "coordinates": [-71.8311367582, 42.2632599752]}, "type": "Feature", "properties": {"collection_times": [{"days": "Mon-Fri", "time": "5:00pm"}, {"days": "Sat", "time": "1:00pm"}, {"days": "Sun", "time": "Closed"}], "id": "0160200028", "name": "USPS COLLECTION BOX - PO LOBBY", "address": {"city": "WORCESTER", "state": "MA", "street": "381 CHANDLER ST", "postcode": "01602"}}},
{"geometry": {"type": "Point", "coordinates": [-71.8380366716, 42.2441024477]}, "type": "Feature", "properties": {"collection_times": [{"days": "Mon-Fri", "time": "5:00pm"}, {"days": "Sat", "time": "1:00pm"}, {"days": "Sun", "time": "Closed"}], "id": "0160300001", "name": "USPS COLLECTION BOX - EXPRESS", "address": {"city": "WORCESTER", "state": "MA", "street": "1049 MAIN ST", "postcode": "01603"}}},
{"geometry": {"type": "Point", "coordinates": [-71.8380366716, 42.2441024477]}, "type": "Feature", "properties": {"collection_times": [{"days": "Mon-Fri", "time": "5:00pm"}, {"days": "Sat", "time": "1:00pm"}, {"days": "Sun", "time": "Closed"}], "id": "0160300003", "name": "USPS COLLECTION BOX - BLUE BOX", "address": {"city": "WORCESTER", "state": "MA", "street": "1049 MAIN ST", "postcode": "01603"}}},
{"geometry": {"type": "Point", "coordinates": [-71.8500407562, 42.2302015708]}, "type": "Feature", "properties": {"collection_times": [{"days": "Mon-Sat", "time": "9:00am"}, {"days": "Sun", "time": "Closed"}], "id": "0160300008", "name": "USPS COLLECTION BOX - BLUE BOX", "address": {"city": "WORCESTER", "state": "MA", "street": "70 JAMES ST", "postcode": "01603"}}},
{"geometry": {"type": "Point", "coordinates": [-71.800625108, 42.2682805023]}, "type": "Feature", "properties": {"collection_times": [{"days": "Mon-Fri", "time": "4:30pm"}, {"days": "Sat", "time": "12:00pm"}, {"days": "Sun", "time": "Closed"}], "id": "0160300009", "name": "USPS COLLECTION BOX - BLUE BOX", "address": {"city": "WORCESTER", "state": "MA", "street": "152 MAIN ST", "postcode": "01603"}}},
{"geometry": {"type": "Point", "coordinates": [-71.8322760201, 42.2543568495]}, "type": "Feature", "properties": {"collection_times": [{"days": "Mon-Sat", "time": "10:00am"}, {"days": "Sun", "time": "Closed"}], "id": "0160300014", "name": "USPS COLLECTION BOX - BLUE BOX", "address": {"city": "WORCESTER", "state": "MA", "street": "148 MAYWOOD ST", "postcode": "01603"}}},
{"geometry": {"type": "Point", "coordinates": [-71.8380366716, 42.2441024477]}, "type": "Feature", "properties": {"collection_times": [{"days": "Mon-Fri", "time": "4:30pm"}, {"days": "Sat", "time": "12:00pm"}, {"days": "Sun", "time": "Closed"}], "id": "0160300019", "name": "USPS COLLECTION BOX - BLUE BOX", "address": {"city": "WORCESTER", "state": "MA", "street": "68 STAFFORD ST", "postcode": "01603"}}},
{"geometry": {"type": "Point", "coordinates": [-71.8447919672, 42.2387957677]}, "type": "Feature", "properties": {"collection_times": [{"days": "Mon-Fri", "time": "4:30pm"}, {"days": "Sat", "time": "12:00pm"}, {"days": "Sun", "time": "Closed"}], "id": "0160300020", "name": "USPS COLLECTION BOX - BLUE BOX", "address": {"city": "WORCESTER", "state": "MA", "street": "115 STAFFORD ST", "postcode": "01603"}}},
{"geometry": {"type": "Point", "coordinates": [-71.8441401569, 42.2391719487]}, "type": "Feature", "properties": {"collection_times": [{"days": "Mon-Fri", "time": "4:30pm"}, {"days": "Sat", "time": "12:00pm"}, {"days": "Sun", "time": "Closed"}], "id": "0160300021", "name": "USPS COLLECTION BOX - BLUE BOX", "address": {"city": "WORCESTER", "state": "MA", "street": "120 STAFFORD ST", "postcode": "01603"}}},
{"geometry": {"type": "Point", "coordinates": [-71.8380366716, 42.2441024477]}, "type": "Feature", "properties": {"collection_times": [{"days": "Mon-Fri", "time": "5:00pm"}, {"days": "Sat", "time": "12:00pm"}, {"days": "Sun", "time": "Closed"}], "id": "0160300024", "name": "USPS COLLECTION BOX - PO LOBBY", "address": {"city": "WORCESTER", "state": "MA", "street": "1049 MAIN ST", "postcode": "01603"}}},
{"geometry": {"type": "Point", "coordinates": [-71.8380366716, 42.2441024477]}, "type": "Feature", "properties": {"collection_times": [{"days": "Mon-Fri", "time": "5:00pm"}, {"days": "Sat", "time": "12:00pm"}, {"days": "Sun", "time": "Closed"}], "id": "0160300025", "name": "USPS COLLECTION BOX - PO LOBBY", "address": {"city": "WORCESTER", "state": "MA", "street": "1049 MAIN ST", "postcode": "01603"}}},
{"geometry": {"type": "Point", "coordinates": [-71.7859220144, 42.2559806126]}, "type": "Feature", "properties": {"collection_times": [{"days": "Mon-Fri", "time": "4:30pm"}, {"days": "Sat", "time": "12:00pm"}, {"days": "Sun", "time": "Closed"}], "id": "0160400005", "name": "USPS COLLECTION BOX - BLUE BOX", "address": {"city": "WORCESTER", "state": "MA", "street": "333 GRAFTON ST", "postcode": "01604"}}},
{"geometry": {"type": "Point", "coordinates": [-71.779790738, 42.2508796935]}, "type": "Feature", "properties": {"collection_times": [{"days": "Mon-Fri", "time": "4:30pm"}, {"days": "Sat", "time": "12:00pm"}, {"days": "Sun", "time": "Closed"}], "id": "0160400006", "name": "USPS COLLECTION BOX - BLUE BOX", "address": {"city": "WORCESTER", "state": "MA", "street": "500 GRAFTON ST", "postcode": "01604"}}},
{"geometry": {"type": "Point", "coordinates": [-71.7682521563, 42.2506833224]}, "type": "Feature", "properties": {"collection_times": [{"days": "Mon-Sat", "time": "10:30am"}, {"days": "Sun", "time": "Closed"}], "id": "0160400007", "name": "USPS COLLECTION BOX - BLUE BOX", "address": {"city": "WORCESTER", "state": "MA", "street": "725 GRAFTON ST", "postcode": "01604"}}},
{"geometry": {"type": "Point", "coordinates": [-71.7735176847, 42.2547824716]}, "type": "Feature", "properties": {"collection_times": [{"days": "Mon-Fri", "time": "4:30pm"}, {"days": "Sat", "time": "12:00pm"}, {"days": "Sun", "time": "Closed"}], "id": "0160400008", "name": "USPS COLLECTION BOX - BLUE BOX", "address": {"city": "WORCESTER", "state": "MA", "street": "945 GRAFTON ST", "postcode": "01604"}}},
{"geometry": {"type": "Point", "coordinates": [-71.7679236298, 42.2510382625]}, "type": "Feature", "properties": {"collection_times": [{"days": "Mon-Fri", "time": "4:30pm"}, {"days": "Sat", "time": "12:00pm"}, {"days": "Sun", "time": "Closed"}], "id": "0160400013", "name": "USPS COLLECTION BOX - BLUE BOX", "address": {"city": "WORCESTER", "state": "MA", "street": "83 A HAMILTON ST", "postcode": "01604"}}},
{"geometry": {"type": "Point", "coordinates": [-71.7590321741, 42.2731465301]}, "type": "Feature", "properties": {"collection_times": [{"days": "Mon-Sat", "time": "8:30am"}, {"days": "Sun", "time": "Closed"}], "id": "0160400015", "name": "USPS COLLECTION BOX - BLUE BOX", "address": {"city": "WORCESTER", "state": "MA", "street": "14 LAKE AVE", "postcode": "01604"}}},
{"geometry": {"type": "Point", "coordinates": [-71.7731716584, 42.246308976]}, "type": "Feature", "properties": {"collection_times": [{"days": "Mon-Sat", "time": "10:00am"}, {"days": "Sun", "time": "Closed"}], "id": "0160400016", "name": "USPS COLLECTION BOX - BLUE BOX", "address": {"city": "WORCESTER", "state": "MA", "street": "137 MASSASOIT RD", "postcode": "01604"}}},
{"geometry": {"type": "Point", "coordinates": [-71.7735176847, 42.2547824716]}, "type": "Feature", "properties": {"collection_times": [{"days": "Mon-Sat", "time": "10:30am"}, {"days": "Sun", "time": "Closed"}], "id": "0160400019", "name": "USPS COLLECTION BOX - BLUE BOX", "address": {"city": "WORCESTER", "state": "MA", "street": "169 SHREWSBURY ST", "postcode": "01604"}}},
{"geometry": {"type": "Point", "coordinates": [-71.7735176847, 42.2547824716]}, "type": "Feature", "properties": {"collection_times": [{"days": "Mon-Sat", "time": "11:30am"}, {"days": "Sun", "time": "Closed"}], "id": "0160400020", "name": "USPS COLLECTION BOX - BLUE BOX", "address": {"city": "WORCESTER", "state": "MA", "street": "346 SHREWSBURY ST", "postcode": "01604"}}},
{"geometry": {"type": "Point", "coordinates": [-71.7934740782, 42.249156802]}, "type": "Feature", "properties": {"collection_times": [{"days": "Mon-Sat", "time": "9:30am"}, {"days": "Sun", "time": "Closed"}], "id": "0160400026", "name": "USPS COLLECTION BOX - BLUE BOX", "address": {"city": "WORCESTER", "state": "MA", "street": "10 WINTHROP ST", "postcode": "01604"}}},
{"geometry": {"type": "Point", "coordinates": [-71.7458682068, 42.239306806]}, "type": "Feature", "properties": {"collection_times": [{"days": "Mon-Fri", "time": "4:30pm"}, {"days": "Sat", "time": "12:00pm"}, {"days": "Sun", "time": "Closed"}], "id": "0160400038", "name": "USPS COLLECTION BOX - BLUE BOX", "address": {"city": "WORCESTER", "state": "MA", "street": "50 SW CUTOFF", "postcode": "01604"}}},
{"geometry": {"type": "Point", "coordinates": [-71.7515712519, 42.2363801655]}, "type": "Feature", "properties": {"collection_times": [{"days": "Mon-Sat", "time": "10:30am"}, {"days": "Sun", "time": "Closed"}], "id": "0160400040", "name": "USPS COLLECTION BOX - BLUE BOX", "address": {"city": "WORCESTER", "state": "MA", "street": "1280 GRAFTON ST", "postcode": "01604"}}},
{"geometry": {"type": "Point", "coordinates": [-71.779790738, 42.2508796935]}, "type": "Feature", "properties": {"collection_times": [{"days": "Mon-Fri", "time": "4:30pm"}, {"days": "Sat", "time": "12:00pm"}, {"days": "Sun", "time": "Closed"}], "id": "0160400042", "name": "USPS COLLECTION BOX - BLUE BOX", "address": {"city": "WORCESTER", "state": "MA", "street": "500 GRAFTON ST", "postcode": "01604"}}},
{"geometry": {"type": "Point", "coordinates": [-71.7717320719, 42.272686728]}, "type": "Feature", "properties": {"collection_times": [{"days": "Mon-Sat", "time": "10:30am"}, {"days": "Sun", "time": "Closed"}], "id": "0160400045", "name": "USPS COLLECTION BOX - BLUE BOX", "address": {"city": "WORCESTER", "state": "MA", "street": "455 SHREWSBURY ST", "postcode": "01604"}}},
{"geometry": {"type": "Point", "coordinates": [-71.7960339476, 42.2716583678]}, "type": "Feature", "properties": {"collection_times": [{"days": "Mon-Sat", "time": "8:30am"}, {"days": "Sun", "time": "Closed"}], "id": "0160500001", "name": "USPS COLLECTION BOX - BLUE BOX", "address": {"city": "WORCESTER", "state": "MA", "street": "40 BELMONT ST", "postcode": "01605"}}},
{"geometry": {"type": "Point", "coordinates": [-71.791006332, 42.2870615168]}, "type": "Feature", "properties": {"collection_times": [{"days": "Mon-Fri", "time": "12:30pm"}, {"days": "Sat", "time": "12:00pm"}, {"days": "Sun", "time": "Closed"}], "id": "0160500002", "name": "USPS COLLECTION BOX - BLUE BOX", "address": {"city": "WORCESTER", "state": "MA", "street": "119 BELMONT ST", "postcode": "01605"}}},
{"geometry": {"type": "Point", "coordinates": [-71.7948921109, 42.2760779541]}, "type": "Feature", "properties": {"collection_times": [{"days": "Mon-Fri", "time": "12:30pm"}, {"days": "Sat", "time": "12:00pm"}, {"days": "Sun", "time": "Closed"}], "id": "0160500006", "name": "USPS COLLECTION BOX - BLUE BOX", "address": {"city": "WORCESTER", "state": "MA", "street": "5 CATHARINE ST", "postcode": "01605"}}},
{"geometry": {"type": "Point", "coordinates": [-71.8010766579, 42.2762859675]}, "type": "Feature", "properties": {"collection_times": [{"days": "Mon-Sat", "time": "3:00pm"}, {"days": "Sun", "time": "Closed"}], "id": "0160500014", "name": "USPS COLLECTION BOX - BLUE BOX", "address": {"city": "WORCESTER", "state": "MA", "street": "102 GROVE ST", "postcode": "01605"}}},
{"geometry": {"type": "Point", "coordinates": [-71.8010766579, 42.2762859675]}, "type": "Feature", "properties": {"collection_times": [{"days": "Mon-Sat", "time": "8:30am"}, {"days": "Sun", "time": "Closed"}], "id": "0160500015", "name": "USPS COLLECTION BOX - BLUE BOX", "address": {"city": "WORCESTER", "state": "MA", "street": "102 GROVE ST", "postcode": "01605"}}},
{"geometry": {"type": "Point", "coordinates": [-71.807026343, 42.2837117143]}, "type": "Feature", "properties": {"collection_times": [{"days": "Mon-Sat", "time": "9:30am"}, {"days": "Sun", "time": "Closed"}], "id": "0160500017", "name": "USPS COLLECTION BOX - BLUE BOX", "address": {"city": "WORCESTER", "state": "MA", "street": "324 GROVE ST", "postcode": "01605"}}},
{"geometry": {"type": "Point", "coordinates": [-71.7908064616, 42.2865835205]}, "type": "Feature", "properties": {"collection_times": [{"days": "Mon-Fri", "time": "4:30pm"}, {"days": "Sat", "time": "12:00pm"}, {"days": "Sun", "time": "Closed"}], "id": "0160500018", "name": "USPS COLLECTION BOX - EXPRESS", "address": {"city": "WORCESTER", "state": "MA", "street": "324 GROVE ST", "postcode": "01605"}}},
{"geometry": {"type": "Point", "coordinates": [-71.8116183792, 42.2894047662]}, "type": "Feature", "properties": {"collection_times": [{"days": "Mon-Fri", "time": "1:00pm"}, {"days": "Sat", "time": "12:00pm"}, {"days": "Sun", "time": "Closed"}], "id": "0160500020", "name": "USPS COLLECTION BOX - BLUE BOX", "address": {"city": "WORCESTER", "state": "MA", "street": "485 GROVE ST", "postcode": "01605"}}},
{"geometry": {"type": "Point", "coordinates": [-71.758289219, 42.279622278]}, "type": "Feature", "properties": {"collection_times": [{"days": "Mon-Fri", "time": "4:00pm"}, {"days": "Sat", "time": "12:00pm"}, {"days": "Sun", "time": "Closed"}], "id": "0160500022", "name": "USPS COLLECTION BOX - BLUE BOX", "address": {"city": "WORCESTER", "state": "MA", "street": "55 LAKE AVE N", "postcode": "01605"}}},
{"geometry": {"type": "Point", "coordinates": [-71.7948604523, 42.2772691421]}, "type": "Feature", "properties": {"collection_times": [{"days": "Mon-Sat", "time": "9:30am"}, {"days": "Sun", "time": "Closed"}], "id": "0160500024", "name": "USPS COLLECTION BOX - BLUE BOX", "address": {"city": "WORCESTER", "state": "MA", "street": "121 LINCOLN ST", "postcode": "01605"}}},
{"geometry": {"type": "Point", "coordinates": [-71.7925487294, 42.2822670808]}, "type": "Feature", "properties": {"collection_times": [{"days": "Mon-Fri", "time": "4:00pm"}, {"days": "Sat", "time": "12:00pm"}, {"days": "Sun", "time": "Closed"}], "id": "0160500025", "name": "USPS COLLECTION BOX - BLUE BOX", "address": {"city": "WORCESTER", "state": "MA", "street": "208 LINCOLN ST", "postcode": "01605"}}},
{"geometry": {"type": "Point", "coordinates": [-71.7910856302, 42.285663419]}, "type": "Feature", "properties": {"collection_times": [{"days": "Mon-Sat", "time": "9:30am"}, {"days": "Sun", "time": "Closed"}], "id": "0160500026", "name": "USPS COLLECTION BOX - BLUE BOX", "address": {"city": "WORCESTER", "state": "MA", "street": "281 LINCOLN ST", "postcode": "01605"}}},
{"geometry": {"type": "Point", "coordinates": [-71.791006332, 42.2870615168]}, "type": "Feature", "properties": {"collection_times": [{"days": "Mon-Sat", "time": "9:30am"}, {"days": "Sun", "time": "Closed"}], "id": "0160500027", "name": "USPS COLLECTION BOX - BLUE BOX", "address": {"city": "WORCESTER", "state": "MA", "street": "291 LINCOLN ST", "postcode": "01605"}}},
{"geometry": {"type": "Point", "coordinates": [-71.7779074674, 42.2932095142]}, "type": "Feature", "properties": {"collection_times": [{"days": "Mon-Sat", "time": "8:30am"}, {"days": "Sun", "time": "Closed"}], "id": "0160500030", "name": "USPS COLLECTION BOX - BLUE BOX", "address": {"city": "WORCESTER", "state": "MA", "street": "472 LINCOLN ST", "postcode": "01605"}}},
{"geometry": {"type": "Point", "coordinates": [-71.791006332, 42.2870615168]}, "type": "Feature", "properties": {"collection_times": [{"days": "Mon-Sat", "time": "8:30am"}, {"days": "Sun", "time": "Closed"}], "id": "0160500031", "name": "USPS COLLECTION BOX - BLUE BOX", "address": {"city": "WORCESTER", "state": "MA", "street": "490 LINCOLN ST", "postcode": "01605"}}},
{"geometry": {"type": "Point", "coordinates": [-71.791006332, 42.2870615168]}, "type": "Feature", "properties": {"collection_times": [{"days": "Mon-Sat", "time": "9:00am"}, {"days": "Sun", "time": "Closed"}], "id": "0160500034", "name": "USPS COLLECTION BOX - BLUE BOX", "address": {"city": "WORCESTER", "state": "MA", "street": "560 LINCOLN ST", "postcode": "01605"}}},
{"geometry": {"type": "Point", "coordinates": [-71.791006332, 42.2870615168]}, "type": "Feature", "properties": {"collection_times": [{"days": "Mon-Sat", "time": "8:30am"}, {"days": "Sun", "time": "Closed"}], "id": "0160500035", "name": "USPS COLLECTION BOX - BLUE BOX", "address": {"city": "WORCESTER", "state": "MA", "street": "623 LINCOLN ST", "postcode": "01605"}}},
{"geometry": {"type": "Point", "coordinates": [-71.7936502853, 42.2741946318]}, "type": "Feature", "properties": {"collection_times": [{"days": "Mon-Sat", "time": "9:30am"}, {"days": "Sun", "time": "Closed"}], "id": "0160500039", "name": "USPS COLLECTION BOX - BLUE BOX", "address": {"city": "WORCESTER", "state": "MA", "street": "33 OAK AVE", "postcode": "01605"}}},
{"geometry": {"type": "Point", "coordinates": [-71.7908064616, 42.2865835205]}, "type": "Feature", "properties": {"collection_times": [{"days": "Mon-Fri", "time": "4:30pm"}, {"days": "Sat", "time": "12:00pm"}, {"days": "Sun", "time": "Closed"}], "id": "0160500040", "name": "USPS COLLECTION BOX - EXPRESS", "address": {"city": "WORCESTER", "state": "MA", "street": "28 PARK AVE", "postcode": "01605"}}},
{"geometry": {"type": "Point", "coordinates": [-71.8085472875, 42.2832265235]}, "type": "Feature", "properties": {"collection_times": [{"days": "Mon-Fri", "time": "4:30pm"}, {"days": "Sat", "time": "12:00pm"}, {"days": "Sun", "time": "Closed"}], "id": "0160500041", "name": "USPS COLLECTION BOX - BLUE BOX", "address": {"city": "WORCESTER", "state": "MA", "street": "28 PARK AVE", "postcode": "01605"}}},
{"geometry": {"type": "Point", "coordinates": [-71.8085472875, 42.2832265235]}, "type": "Feature", "properties": {"collection_times": [{"days": "Mon-Fri", "time": "4:30pm"}, {"days": "Sat", "time": "12:00pm"}, {"days": "Sun", "time": "Closed"}], "id": "0160500042", "name": "USPS COLLECTION BOX - BLUE BOX", "address": {"city": "WORCESTER", "state": "MA", "street": "28 PARK AVE", "postcode": "01605"}}},
{"geometry": {"type": "Point", "coordinates": [-71.791006332, 42.2870615168]}, "type": "Feature", "properties": {"collection_times": [{"days": "Mon-Sat", "time": "9:30am"}, {"days": "Sun", "time": "Closed"}], "id": "0160500044", "name": "USPS COLLECTION BOX - BLUE BOX", "address": {"city": "WORCESTER", "state": "MA", "street": "365 PLANTATION ST", "postcode": "01605"}}},
{"geometry": {"type": "Point", "coordinates": [-71.791006332, 42.2870615168]}, "type": "Feature", "properties": {"collection_times": [{"days": "Mon-Fri", "time": "2:30pm"}, {"days": "Sat", "time": "12:00pm"}, {"days": "Sun", "time": "Closed"}], "id": "0160500048", "name": "USPS COLLECTION BOX - BLUE BOX", "address": {"city": "WORCESTER", "state": "MA", "street": "89 PRESCOTT ST", "postcode": "01605"}}},
{"geometry": {"type": "Point", "coordinates": [-71.8073870936, 42.2884304027]}, "type": "Feature", "properties": {"collection_times": [{"days": "Mon-Fri", "time": "4:30pm"}, {"days": "Sat", "time": "12:00pm"}, {"days": "Sun", "time": "Closed"}], "id": "0160500050", "name": "USPS COLLECTION BOX - BLUE BOX", "address": {"city": "WORCESTER", "state": "MA", "street": "29 W BOYLSTON ST", "postcode": "01605"}}},
{"geometry": {"type": "Point", "coordinates": [-71.791006332, 42.2870615168]}, "type": "Feature", "properties": {"collection_times": [{"days": "Mon-Sat", "time": "9:30am"}, {"days": "Sun", "time": "Closed"}], "id": "0160500051", "name": "USPS COLLECTION BOX - BLUE BOX", "address": {"city": "WORCESTER", "state": "MA", "street": "49 PLEASANT VALLEY DR", "postcode": "01605"}}},
{"geometry": {"type": "Point", "coordinates": [-71.7593047356, 42.2776281548]}, "type": "Feature", "properties": {"collection_times": [{"days": "Mon-Sat", "time": "9:30am"}, {"days": "Sun", "time": "Closed"}], "id": "0160500052", "name": "USPS COLLECTION BOX - BLUE BOX", "address": {"city": "WORCESTER", "state": "MA", "street": "55 N LAKE AVE", "postcode": "01605"}}},
{"geometry": {"type": "Point", "coordinates": [-71.7716775198, 42.2955866455]}, "type": "Feature", "properties": {"collection_times": [{"days": "Mon-Fri", "time": "3:30pm"}, {"days": "Sat", "time": "12:00pm"}, {"days": "Sun", "time": "Closed"}], "id": "0160500063", "name": "USPS COLLECTION BOX - PO LOBBY", "address": {"city": "WORCESTER", "state": "MA", "street": "560 LINCOLN ST", "postcode": "01605"}}},
{"geometry": {"type": "Point", "coordinates": [-71.7893372169, 42.3054590543]}, "type": "Feature", "properties": {"collection_times": [{"days": "Mon-Sat", "time": "10:00am"}, {"days": "Sun", "time": "Closed"}], "id": "0160600002", "name": "USPS COLLECTION BOX - BLUE BOX", "address": {"city": "WORCESTER", "state": "MA", "street": "282 BURNCOAT ST", "postcode": "01606"}}},
{"geometry": {"type": "Point", "coordinates": [-71.7920873991, 42.3236099714]}, "type": "Feature", "properties": {"collection_times": [{"days": "Mon-Sat", "time": "8:30am"}, {"days": "Sun", "time": "Closed"}], "id": "0160600003", "name": "USPS COLLECTION BOX - BLUE BOX", "address": {"city": "WORCESTER", "state": "MA", "street": "17 E MOUNTAIN ST", "postcode": "01606"}}},
{"geometry": {"type": "Point", "coordinates": [-71.7749862299, 42.3171456657]}, "type": "Feature", "properties": {"collection_times": [{"days": "Mon-Sat", "time": "10:00am"}, {"days": "Sun", "time": "Closed"}], "id": "0160600004", "name": "USPS COLLECTION BOX - BLUE BOX", "address": {"city": "WORCESTER", "state": "MA", "street": "228 E MOUNTAIN ST", "postcode": "01606"}}},
{"geometry": {"type": "Point", "coordinates": [-71.803181822, 42.2912542997]}, "type": "Feature", "properties": {"collection_times": [{"days": "Mon-Sat", "time": "8:30am"}, {"days": "Sun", "time": "Closed"}], "id": "0160600006", "name": "USPS COLLECTION BOX - BLUE BOX", "address": {"city": "WORCESTER", "state": "MA", "street": "115 GOLD STAR BLVD", "postcode": "01606"}}},
{"geometry": {"type": "Point", "coordinates": [-71.8023615951, 42.2884705806]}, "type": "Feature", "properties": {"collection_times": [{"days": "Mon-Fri", "time": "4:00pm"}, {"days": "Sat", "time": "12:00pm"}, {"days": "Sun", "time": "Closed"}], "id": "0160600008", "name": "USPS COLLECTION BOX - BLUE BOX", "address": {"city": "WORCESTER", "state": "MA", "street": "55 MILLBROOK ST", "postcode": "01606"}}},
{"geometry": {"type": "Point", "coordinates": [-71.8018032385, 42.3054507736]}, "type": "Feature", "properties": {"collection_times": [{"days": "Mon-Sat", "time": "8:30am"}, {"days": "Sun", "time": "Closed"}], "id": "0160600010", "name": "USPS COLLECTION BOX - BLUE BOX", "address": {"city": "WORCESTER", "state": "MA", "street": "1 NEW BOND ST", "postcode": "01606"}}},
{"geometry": {"type": "Point", "coordinates": [-71.7905083463, 42.3317337558]}, "type": "Feature", "properties": {"collection_times": [{"days": "Mon-Fri", "time": "4:30pm"}, {"days": "Sat", "time": "12:00pm"}, {"days": "Sun", "time": "Closed"}], "id": "0160600015", "name": "USPS COLLECTION BOX - BLUE BOX", "address": {"city": "WORCESTER", "state": "MA", "street": "1074 W BOYLSTON ST", "postcode": "01606"}}},
{"geometry": {"type": "Point", "coordinates": [-71.8185913937, 42.3134511065]}, "type": "Feature", "properties": {"collection_times": [{"days": "Mon-Sat", "time": "10:00am"}, {"days": "Sun", "time": "Closed"}], "id": "0160600018", "name": "USPS COLLECTION BOX - BLUE BOX", "address": {"city": "WORCESTER", "state": "MA", "street": "172 HOLDEN ST", "postcode": "01606"}}},
{"geometry": {"type": "Point", "coordinates": [-71.795877083, 42.3115716471]}, "type": "Feature", "properties": {"collection_times": [{"days": "Mon-Fri", "time": "4:30pm"}, {"days": "Sat", "time": "12:00pm"}, {"days": "Sun", "time": "Closed"}], "id": "0160600019", "name": "USPS COLLECTION BOX - EXPRESS", "address": {"city": "WORCESTER", "state": "MA", "street": "4 PULLMAN ST", "postcode": "01606"}}},
{"geometry": {"type": "Point", "coordinates": [-71.7891231013, 42.3114294482]}, "type": "Feature", "properties": {"collection_times": [{"days": "Mon-Sat", "time": "10:00am"}, {"days": "Sun", "time": "Closed"}], "id": "0160600020", "name": "USPS COLLECTION BOX - BLUE BOX", "address": {"city": "WORCESTER", "state": "MA", "street": "370 BURNCOAT ST", "postcode": "01606"}}},
{"geometry": {"type": "Point", "coordinates": [-71.7998317177, 42.3064852196]}, "type": "Feature", "properties": {"collection_times": [{"days": "Mon-Sat", "time": "8:30am"}, {"days": "Sun", "time": "Closed"}], "id": "0160600028", "name": "USPS COLLECTION BOX - BLUE BOX", "address": {"city": "WORCESTER", "state": "MA", "street": "444 W BOYLSTON ST", "postcode": "01606"}}},
{"geometry": {"type": "Point", "coordinates": [-71.7889427233, 42.2266277552]}, "type": "Feature", "properties": {"collection_times": [{"days": "Mon-Fri", "time": "5:00pm"}, {"days": "Sat", "time": "1:00pm"}, {"days": "Sun", "time": "Closed"}], "id": "0160700007", "name": "USPS COLLECTION BOX - BLUE BOX", "address": {"city": "WORCESTER", "state": "MA", "street": "35 TOBIAS BOLAND WAY", "postcode": "01607"}}},
{"geometry": {"type": "Point", "coordinates": [-71.7959854463, 42.2153104834]}, "type": "Feature", "properties": {"collection_times": [{"days": "Mon-Fri", "time": "5:00pm"}, {"days": "Sat", "time": "1:00pm"}, {"days": "Sun", "time": "Closed"}], "id": "0160700010", "name": "USPS COLLECTION BOX - BLUE BOX", "address": {"city": "WORCESTER", "state": "MA", "street": "345 GREENWOOD ST", "postcode": "01607"}}},
{"geometry": {"type": "Point", "coordinates": [-71.7959854463, 42.2153104834]}, "type": "Feature", "properties": {"collection_times": [{"days": "Mon-Fri", "time": "5:00pm"}, {"days": "Sat", "time": "1:00pm"}, {"days": "Sun", "time": "Closed"}], "id": "0160700011", "name": "USPS COLLECTION BOX - BLUE BOX", "address": {"city": "WORCESTER", "state": "MA", "street": "345 GREENWOOD ST", "postcode": "01607"}}},
{"geometry": {"type": "Point", "coordinates": [-71.7954078224, 42.2294727682]}, "type": "Feature", "properties": {"collection_times": [{"days": "Mon-Fri", "time": "5:00pm"}, {"days": "Sat", "time": "1:00pm"}, {"days": "Sun", "time": "Closed"}], "id": "0160700012", "name": "USPS COLLECTION BOX - EXPRESS", "address": {"city": "WORCESTER", "state": "MA", "street": "345 GREENWOOD ST", "postcode": "01607"}}},
{"geometry": {"type": "Point", "coordinates": [-71.7959854463, 42.2153104834]}, "type": "Feature", "properties": {"collection_times": [{"days": "Mon-Fri", "time": "5:00pm"}, {"days": "Sat", "time": "12:00pm"}, {"days": "Sun", "time": "Closed"}], "id": "0160700014", "name": "USPS COLLECTION BOX - PO LOBBY", "address": {"city": "WORCESTER", "state": "MA", "street": "345 GREENWOOD ST", "postcode": "01607"}}},
{"geometry": {"type": "Point", "coordinates": [-71.7959854463, 42.2153104834]}, "type": "Feature", "properties": {"collection_times": [{"days": "Mon-Fri", "time": "5:00pm"}, {"days": "Sat", "time": "12:00pm"}, {"days": "Sun", "time": "Closed"}], "id": "0160700015", "name": "USPS COLLECTION BOX - PO LOBBY", "address": {"city": "WORCESTER", "state": "MA", "street": "345 GREENWOOD ST", "postcode": "01607"}}},
{"geometry": {"type": "Point", "coordinates": [-71.7997111469, 42.264595273]}, "type": "Feature", "properties": {"collection_times": [{"days": "Mon-Sat", "time": "11:30am"}, {"days": "Sun", "time": "Closed"}], "id": "0160800002", "name": "USPS COLLECTION BOX - BLUE BOX", "address": {"city": "WORCESTER", "state": "MA", "street": "40 FOSTER ST", "postcode": "01608"}}},
{"geometry": {"type": "Point", "coordinates": [-71.8014082748, 42.2630119114]}, "type": "Feature", "properties": {"collection_times": [{"days": "Mon-Sat", "time": "12:00pm"}, {"days": "Sun", "time": "Closed"}], "id": "0160800008", "name": "USPS COLLECTION BOX - BLUE BOX", "address": {"city": "WORCESTER", "state": "MA", "street": "4 FRONT ST", "postcode": "01608"}}},
{"geometry": {"type": "Point", "coordinates": [-71.8014082748, 42.2630119114]}, "type": "Feature", "properties": {"collection_times": [{"days": "Mon-Fri", "time": "5:00pm"}, {"days": "Sat", "time": "1:00pm"}, {"days": "Sun", "time": "Closed"}], "id": "0160800010", "name": "USPS COLLECTION BOX - EXPRESS", "address": {"city": "WORCESTER", "state": "MA", "street": "4 FRONT ST", "postcode": "01608"}}},
{"geometry": {"type": "Point", "coordinates": [-71.8014082748, 42.2630119114]}, "type": "Feature", "properties": {"collection_times": [{"days": "Mon-Sat", "time": "11:30am"}, {"days": "Sun", "time": "Closed"}], "id": "0160800019", "name": "USPS COLLECTION BOX - BLUE BOX", "address": {"city": "WORCESTER", "state": "MA", "street": "90 MADISON ST", "postcode": "01608"}}},
{"geometry": {"type": "Point", "coordinates": [-71.8014082748, 42.2630119114]}, "type": "Feature", "properties": {"collection_times": [{"days": "Mon-Fri", "time": "4:30pm"}, {"days": "Sat", "time": "12:00pm"}, {"days": "Sun", "time": "Closed"}], "id": "0160800026", "name": "USPS COLLECTION BOX - BLUE BOX", "address": {"city": "WORCESTER", "state": "MA", "street": "146 MAIN ST", "postcode": "01608"}}},
{"geometry": {"type": "Point", "coordinates": [-71.8010880275, 42.2659343957]}, "type": "Feature", "properties": {"collection_times": [{"days": "Mon-Sat", "time": "12:30pm"}, {"days": "Sun", "time": "Closed"}], "id": "0160800029", "name": "USPS COLLECTION BOX - BLUE BOX", "address": {"city": "WORCESTER", "state": "MA", "street": "311 MAIN ST", "postcode": "01608"}}},
{"geometry": {"type": "Point", "coordinates": [-71.8014082748, 42.2630119114]}, "type": "Feature", "properties": {"collection_times": [{"days": "Mon-Fri", "time": "5:00pm"}, {"days": "Sat", "time": "1:00pm"}, {"days": "Sun", "time": "Closed"}], "id": "0160800030", "name": "USPS COLLECTION BOX - EXPRESS", "address": {"city": "WORCESTER", "state": "MA", "street": "316 MAIN ST", "postcode": "01608"}}},
{"geometry": {"type": "Point", "coordinates": [-71.8014082748, 42.2630119114]}, "type": "Feature", "properties": {"collection_times": [{"days": "Mon-Sat", "time": "1:00pm"}, {"days": "Sun", "time": "Closed"}], "id": "0160800032", "name": "USPS COLLECTION BOX - BLUE BOX", "address": {"city": "WORCESTER", "state": "MA", "street": "316 MAIN ST", "postcode": "01608"}}},
{"geometry": {"type": "Point", "coordinates": [-71.8014082748, 42.2630119114]}, "type": "Feature", "properties": {"collection_times": [{"days": "Mon-Sat", "time": "1:00pm"}, {"days": "Sun", "time": "Closed"}], "id": "0160800033", "name": "USPS COLLECTION BOX - BLUE BOX", "address": {"city": "WORCESTER", "state": "MA", "street": "316 MAIN ST", "postcode": "01608"}}},
{"geometry": {"type": "Point", "coordinates": [-71.801425655, 42.2630205557]}, "type": "Feature", "properties": {"collection_times": [{"days": "Mon-Fri", "time": "5:00pm"}, {"days": "Sat", "time": "1:00pm"}, {"days": "Sun", "time": "Closed"}], "id": "0160800038", "name": "USPS COLLECTION BOX - EXPRESS", "address": {"city": "WORCESTER", "state": "MA", "street": "340 MAIN ST", "postcode": "01608"}}},
{"geometry": {"type": "Point", "coordinates": [-71.8014175938, 42.265279853]}, "type": "Feature", "properties": {"collection_times": [{"days": "Mon-Fri", "time": "12:00pm"}, {"days": "Sat", "time": "1:00pm"}, {"days": "Sun", "time": "Closed"}], "id": "0160800039", "name": "USPS COLLECTION BOX - BLUE BOX", "address": {"city": "WORCESTER", "state": "MA", "street": "340 MAIN ST", "postcode": "01608"}}},
{"geometry": {"type": "Point", "coordinates": [-71.8014175938, 42.265279853]}, "type": "Feature", "properties": {"collection_times": [{"days": "Mon-Sat", "time": "12:00pm"}, {"days": "Sun", "time": "Closed"}], "id": "0160800040", "name": "USPS COLLECTION BOX - BLUE BOX", "address": {"city": "WORCESTER", "state": "MA", "street": "340 MAIN ST", "postcode": "01608"}}},
{"geometry": {"type": "Point", "coordinates": [-71.8014175938, 42.265279853]}, "type": "Feature", "properties": {"collection_times": [{"days": "Mon-Sat", "time": "12:00pm"}, {"days": "Sun", "time": "Closed"}], "id": "0160800041", "name": "USPS COLLECTION BOX - BLUE BOX", "address": {"city": "WORCESTER", "state": "MA", "street": "340 MAIN ST", "postcode": "01608"}}},
{"geometry": {"type": "Point", "coordinates": [-71.8014082748, 42.2630119114]}, "type": "Feature", "properties": {"collection_times": [{"days": "Mon-Sat", "time": "12:00pm"}, {"days": "Sun", "time": "Closed"}], "id": "0160800042", "name": "USPS COLLECTION BOX - BLUE BOX", "address": {"city": "WORCESTER", "state": "MA", "street": "359 MAIN ST", "postcode": "01608"}}},
{"geometry": {"type": "Point", "coordinates": [-71.8018085369, 42.2641950316]}, "type": "Feature", "properties": {"collection_times": [{"days": "Mon-Sat", "time": "1:00pm"}, {"days": "Sun", "time": "Closed"}], "id": "0160800047", "name": "USPS COLLECTION BOX - BLUE BOX", "address": {"city": "WORCESTER", "state": "MA", "street": "389 MAIN ST", "postcode": "01608"}}},
{"geometry": {"type": "Point", "coordinates": [-71.8014082748, 42.2630119114]}, "type": "Feature", "properties": {"collection_times": [{"days": "Mon-Fri", "time": "5:00pm"}, {"days": "Sat", "time": "1:00pm"}, {"days": "Sun", "time": "Closed"}], "id": "0160800049", "name": "USPS COLLECTION BOX - EXPRESS", "address": {"city": "WORCESTER", "state": "MA", "street": "390 MAIN ST", "postcode": "01608"}}},
{"geometry": {"type": "Point", "coordinates": [-71.8014082748, 42.2630119114]}, "type": "Feature", "properties": {"collection_times": [{"days": "Mon-Sat", "time": "11:30am"}, {"days": "Sun", "time": "Closed"}], "id": "0160800051", "name": "USPS COLLECTION BOX - BLUE BOX", "address": {"city": "WORCESTER", "state": "MA", "street": "390 MAIN ST", "postcode": "01608"}}},
{"geometry": {"type": "Point", "coordinates": [-71.8014082748, 42.2630119114]}, "type": "Feature", "properties": {"collection_times": [{"days": "Mon-Sat", "time": "11:30am"}, {"days": "Sun", "time": "Closed"}], "id": "0160800052", "name": "USPS COLLECTION BOX - BLUE BOX", "address": {"city": "WORCESTER", "state": "MA", "street": "390 MAIN ST", "postcode": "01608"}}},
{"geometry": {"type": "Point", "coordinates": [-71.8035457423, 42.2612672257]}, "type": "Feature", "properties": {"collection_times": [{"days": "Mon-Sat", "time": "10:30am"}, {"days": "Sun", "time": "Closed"}], "id": "0160800063", "name": "USPS COLLECTION BOX - BLUE BOX", "address": {"city": "WORCESTER", "state": "MA", "street": "544 MAIN ST", "postcode": "01608"}}},
{"geometry": {"type": "Point", "coordinates": [-71.8034330462, 42.2603500021]}, "type": "Feature", "properties": {"collection_times": [{"days": "Mon-Sat", "time": "11:30am"}, {"days": "Sun", "time": "Closed"}], "id": "0160800065", "name": "USPS COLLECTION BOX - BLUE BOX", "address": {"city": "WORCESTER", "state": "MA", "street": "38 SOUTHBRIDGE ST", "postcode": "01608"}}},
{"geometry": {"type": "Point", "coordinates": [-71.8004724096, 42.2636994199]}, "type": "Feature", "properties": {"collection_times": [{"days": "Mon-Sat", "time": "9:30am"}, {"days": "Sun", "time": "Closed"}], "id": "0160800068", "name": "USPS COLLECTION BOX - BLUE BOX", "address": {"city": "WORCESTER", "state": "MA", "street": "34 MECHANIC ST", "postcode": "01608"}}},
{"geometry": {"type": "Point", "coordinates": [-71.8004724096, 42.2636994199]}, "type": "Feature", "properties": {"collection_times": [{"days": "Mon-Sat", "time": "9:30am"}, {"days": "Sun", "time": "Closed"}], "id": "0160800069", "name": "USPS COLLECTION BOX - BLUE BOX", "address": {"city": "WORCESTER", "state": "MA", "street": "34 MECHANIC ST", "postcode": "01608"}}},
{"geometry": {"type": "Point", "coordinates": [-71.8014082748, 42.2630119114]}, "type": "Feature", "properties": {"collection_times": [{"days": "Mon-Sat", "time": "9:30am"}, {"days": "Sun", "time": "Closed"}], "id": "0160800072", "name": "USPS COLLECTION BOX - BLUE BOX", "address": {"city": "WORCESTER", "state": "MA", "street": "16 NORWICH ST", "postcode": "01608"}}},
{"geometry": {"type": "Point", "coordinates": [-71.8014082748, 42.2630119114]}, "type": "Feature", "properties": {"collection_times": [{"days": "Mon-Sat", "time": "9:30am"}, {"days": "Sun", "time": "Closed"}], "id": "0160800073", "name": "USPS COLLECTION BOX - BLUE BOX", "address": {"city": "WORCESTER", "state": "MA", "street": "16 NORWICH ST", "postcode": "01608"}}},
{"geometry": {"type": "Point", "coordinates": [-71.8000954459, 42.2660208919]}, "type": "Feature", "properties": {"collection_times": [{"days": "Mon-Fri", "time": "4:00pm"}, {"days": "Sat", "time": "12:00pm"}, {"days": "Sun", "time": "Closed"}], "id": "0160800080", "name": "USPS COLLECTION BOX - BLUE BOX", "address": {"city": "WORCESTER", "state": "MA", "street": "2 WALDO ST", "postcode": "01608"}}},
{"geometry": {"type": "Point", "coordinates": [-71.8000926798, 42.261417492]}, "type": "Feature", "properties": {"collection_times": [{"days": "Mon-Sat", "time": "9:30am"}, {"days": "Sun", "time": "Closed"}], "id": "0160800091", "name": "USPS COLLECTION BOX - BLUE BOX", "address": {"city": "WORCESTER", "state": "MA", "street": "120 FRONT ST", "postcode": "01608"}}},
{"geometry": {"type": "Point", "coordinates": [-71.7983538982, 42.2698756762]}, "type": "Feature", "properties": {"collection_times": [{"days": "Mon-Sat", "time": "9:30am"}, {"days": "Sun", "time": "Closed"}], "id": "0160800093", "name": "USPS COLLECTION BOX - BLUE BOX", "address": {"city": "WORCESTER", "state": "MA", "street": "51 UNION ST", "postcode": "01608"}}},
{"geometry": {"type": "Point", "coordinates": [-71.802720359, 42.2624166529]}, "type": "Feature", "properties": {"collection_times": [{"days": "Mon-Fri", "time": "5:00pm"}, {"days": "Sat", "time": "12:00pm"}, {"days": "Sun", "time": "Closed"}], "id": "0160800098", "name": "USPS COLLECTION BOX - PO LOBBY", "address": {"city": "WORCESTER", "state": "MA", "street": "484 MAIN ST", "postcode": "01608"}}},
{"geometry": {"type": "Point", "coordinates": [-71.802720359, 42.2624166529]}, "type": "Feature", "properties": {"collection_times": [{"days": "Mon-Fri", "time": "5:00pm"}, {"days": "Sat", "time": "12:00pm"}, {"days": "Sun", "time": "Closed"}], "id": "0160800099", "name": "USPS COLLECTION BOX - PO LOBBY", "address": {"city": "WORCESTER", "state": "MA", "street": "484 MAIN ST", "postcode": "01608"}}},
{"geometry": {"type": "Point", "coordinates": [-71.8014082748, 42.2630119114]}, "type": "Feature", "properties": {"collection_times": [{"days": "Mon-Sat", "time": "12:00pm"}, {"days": "Sun", "time": "Closed"}], "id": "0160800101", "name": "USPS COLLECTION BOX - BLUE BOX", "address": {"city": "WORCESTER", "state": "MA", "street": "359 MAIN ST", "postcode": "01608"}}},
{"geometry": {"type": "Point", "coordinates": [-71.795567195, 42.2660066176]}, "type": "Feature", "properties": {"collection_times": [{"days": "Mon-Fri", "time": "5:00pm"}, {"days": "Sat", "time": "1:00pm"}, {"days": "Sun", "time": "Closed"}], "id": "0160800102", "name": "USPS COLLECTION BOX - BLUE BOX", "address": {"city": "WORCESTER", "state": "MA", "street": "123 SUMMER ST", "postcode": "01608"}}},
{"geometry": {"type": "Point", "coordinates": [-71.8064723775, 42.2652727553]}, "type": "Feature", "properties": {"collection_times": [{"days": "Mon-Fri", "time": "3:30pm"}, {"days": "Sat", "time": "12:00pm"}, {"days": "Sun", "time": "Closed"}], "id": "0160900001", "name": "USPS COLLECTION BOX - BLUE BOX", "address": {"city": "WORCESTER", "state": "MA", "street": "48 ELM ST", "postcode": "01609"}}},
{"geometry": {"type": "Point", "coordinates": [-71.8428074869, 42.2932401146]}, "type": "Feature", "properties": {"collection_times": [{"days": "Mon-Sat", "time": "10:00am"}, {"days": "Sun", "time": "Closed"}], "id": "0160900005", "name": "USPS COLLECTION BOX - BLUE BOX", "address": {"city": "WORCESTER", "state": "MA", "street": "59 ELM ST", "postcode": "01609"}}},
{"geometry": {"type": "Point", "coordinates": [-71.8153765096, 42.266116205]}, "type": "Feature", "properties": {"collection_times": [{"days": "Mon-Sat", "time": "10:00am"}, {"days": "Sun", "time": "Closed"}], "id": "0160900008", "name": "USPS COLLECTION BOX - BLUE BOX", "address": {"city": "WORCESTER", "state": "MA", "street": "128 ELM ST", "postcode": "01609"}}},
{"geometry": {"type": "Point", "coordinates": [-71.8028028388, 42.2680337815]}, "type": "Feature", "properties": {"collection_times": [{"days": "Mon-Sat", "time": "8:30am"}, {"days": "Sun", "time": "Closed"}], "id": "0160900009", "name": "USPS COLLECTION BOX - BLUE BOX", "address": {"city": "WORCESTER", "state": "MA", "street": "10 HARVARD ST", "postcode": "01609"}}},
{"geometry": {"type": "Point", "coordinates": [-71.8428074869, 42.2932401146]}, "type": "Feature", "properties": {"collection_times": [{"days": "Mon-Sat", "time": "9:30am"}, {"days": "Sun", "time": "Closed"}], "id": "0160900010", "name": "USPS COLLECTION BOX - BLUE BOX", "address": {"city": "WORCESTER", "state": "MA", "street": "26 HARVARD ST", "postcode": "01609"}}},
{"geometry": {"type": "Point", "coordinates": [-71.8020667728, 42.2706106004]}, "type": "Feature", "properties": {"collection_times": [{"days": "Mon-Sat", "time": "8:00am"}, {"days": "Sun", "time": "Closed"}], "id": "0160900012", "name": "USPS COLLECTION BOX - BLUE BOX", "address": {"city": "WORCESTER", "state": "MA", "street": "43 HARVARD ST", "postcode": "01609"}}},
{"geometry": {"type": "Point", "coordinates": [-71.8428074869, 42.2932401146]}, "type": "Feature", "properties": {"collection_times": [{"days": "Mon-Fri", "time": "5:00pm"}, {"days": "Sat", "time": "1:00pm"}, {"days": "Sun", "time": "Closed"}], "id": "0160900014", "name": "USPS COLLECTION BOX - EXPRESS", "address": {"city": "WORCESTER", "state": "MA", "street": "43 HARVARD ST", "postcode": "01609"}}},
{"geometry": {"type": "Point", "coordinates": [-71.8046093295, 42.2616895461]}, "type": "Feature", "properties": {"collection_times": [{"days": "Mon-Sat", "time": "9:30am"}, {"days": "Sun", "time": "Closed"}], "id": "0160900015", "name": "USPS COLLECTION BOX - BLUE BOX", "address": {"city": "WORCESTER", "state": "MA", "street": "25 HIGH ST", "postcode": "01609"}}},
{"geometry": {"type": "Point", "coordinates": [-71.8045216782, 42.2617132318]}, "type": "Feature", "properties": {"collection_times": [{"days": "Mon-Sat", "time": "9:30am"}, {"days": "Sun", "time": "Closed"}], "id": "0160900017", "name": "USPS COLLECTION BOX - BLUE BOX", "address": {"city": "WORCESTER", "state": "MA", "street": "38 HIGH ST", "postcode": "01609"}}},
{"geometry": {"type": "Point", "coordinates": [-71.8428074869, 42.2932401146]}, "type": "Feature", "properties": {"collection_times": [{"days": "Mon-Fri", "time": "5:00pm"}, {"days": "Sat", "time": "1:00pm"}, {"days": "Sun", "time": "Closed"}], "id": "0160900018", "name": "USPS COLLECTION BOX - BLUE BOX", "address": {"city": "WORCESTER", "state": "MA", "street": "63 HIGHLAND ST", "postcode": "01609"}}},
{"geometry": {"type": "Point", "coordinates": [-71.801327689, 42.2722877019]}, "type": "Feature", "properties": {"collection_times": [{"days": "Mon-Sat", "time": "8:00am"}, {"days": "Sun", "time": "Closed"}], "id": "0160900022", "name": "USPS COLLECTION BOX - BLUE BOX", "address": {"city": "WORCESTER", "state": "MA", "street": "10 INSTITUTE RD", "postcode": "01609"}}},
{"geometry": {"type": "Point", "coordinates": [-71.806226322, 42.2627376742]}, "type": "Feature", "properties": {"collection_times": [{"days": "Mon-Sat", "time": "9:30am"}, {"days": "Sun", "time": "Closed"}], "id": "0160900023", "name": "USPS COLLECTION BOX - BLUE BOX", "address": {"city": "WORCESTER", "state": "MA", "street": "20 IRVING ST", "postcode": "01609"}}},
{"geometry": {"type": "Point", "coordinates": [-71.8152593967, 42.2715329741]}, "type": "Feature", "properties": {"collection_times": [{"days": "Mon-Sat", "time": "8:30am"}, {"days": "Sun", "time": "Closed"}], "id": "0160900024", "name": "USPS COLLECTION BOX - BLUE BOX", "address": {"city": "WORCESTER", "state": "MA", "street": "210 PARK AVE", "postcode": "01609"}}},
{"geometry": {"type": "Point", "coordinates": [-71.842468577, 42.293300899]}, "type": "Feature", "properties": {"collection_times": [{"days": "Mon-Fri", "time": "5:00pm"}, {"days": "Sat", "time": "1:00pm"}, {"days": "Sun", "time": "Closed"}], "id": "0160900026", "name": "USPS COLLECTION BOX - EXPRESS", "address": {"city": "WORCESTER", "state": "MA", "street": "255 PARK AVE", "postcode": "01609"}}},
{"geometry": {"type": "Point", "coordinates": [-71.8188201032, 42.2652656575]}, "type": "Feature", "properties": {"collection_times": [{"days": "Mon-Fri", "time": "5:00pm"}, {"days": "Sat", "time": "1:00pm"}, {"days": "Sun", "time": "Closed"}], "id": "0160900027", "name": "USPS COLLECTION BOX - BLUE BOX", "address": {"city": "WORCESTER", "state": "MA", "street": "255 PARK AVE", "postcode": "01609"}}},
{"geometry": {"type": "Point", "coordinates": [-71.8188201032, 42.2652656575]}, "type": "Feature", "properties": {"collection_times": [{"days": "Mon-Fri", "time": "5:00pm"}, {"days": "Sat", "time": "1:00pm"}, {"days": "Sun", "time": "Closed"}], "id": "0160900028", "name": "USPS COLLECTION BOX - BLUE BOX", "address": {"city": "WORCESTER", "state": "MA", "street": "255 PARK AVE", "postcode": "01609"}}},
{"geometry": {"type": "Point", "coordinates": [-71.8060657714, 42.26379878]}, "type": "Feature", "properties": {"collection_times": [{"days": "Mon-Fri", "time": "3:00pm"}, {"days": "Sat", "time": "12:00pm"}, {"days": "Sun", "time": "Closed"}], "id": "0160900034", "name": "USPS COLLECTION BOX - BLUE BOX", "address": {"city": "WORCESTER", "state": "MA", "street": "101 PLEASANT ST", "postcode": "01609"}}},
{"geometry": {"type": "Point", "coordinates": [-71.8116241638, 42.2640531246]}, "type": "Feature", "properties": {"collection_times": [{"days": "Mon-Sat", "time": "10:00am"}, {"days": "Sun", "time": "Closed"}], "id": "0160900035", "name": "USPS COLLECTION BOX - BLUE BOX", "address": {"city": "WORCESTER", "state": "MA", "street": "275 PLEASANT ST", "postcode": "01609"}}},
{"geometry": {"type": "Point", "coordinates": [-71.8161892024, 42.2634521814]}, "type": "Feature", "properties": {"collection_times": [{"days": "Mon-Sat", "time": "10:00am"}, {"days": "Sun", "time": "Closed"}], "id": "0160900038", "name": "USPS COLLECTION BOX - BLUE BOX", "address": {"city": "WORCESTER", "state": "MA", "street": "425 PLEASANT ST", "postcode": "01609"}}},
{"geometry": {"type": "Point", "coordinates": [-71.8098425729, 42.2779589965]}, "type": "Feature", "properties": {"collection_times": [{"days": "Mon-Fri", "time": "3:00pm"}, {"days": "Sat", "time": "12:00pm"}, {"days": "Sun", "time": "Closed"}], "id": "0160900040", "name": "USPS COLLECTION BOX - BLUE BOX", "address": {"city": "WORCESTER", "state": "MA", "street": "185 SALISBURY ST", "postcode": "01609"}}},
{"geometry": {"type": "Point", "coordinates": [-71.8428074869, 42.2932401146]}, "type": "Feature", "properties": {"collection_times": [{"days": "Mon-Sat", "time": "10:00am"}, {"days": "Sun", "time": "Closed"}], "id": "0160900042", "name": "USPS COLLECTION BOX - BLUE BOX", "address": {"city": "WORCESTER", "state": "MA", "street": "509 SALISBURY ST", "postcode": "01609"}}},
{"geometry": {"type": "Point", "coordinates": [-71.8428074869, 42.2932401146]}, "type": "Feature", "properties": {"collection_times": [{"days": "Mon-Sat", "time": "10:00am"}, {"days": "Sun", "time": "Closed"}], "id": "0160900045", "name": "USPS COLLECTION BOX - BLUE BOX", "address": {"city": "WORCESTER", "state": "MA", "street": "629 SALISBURY ST", "postcode": "01609"}}},
{"geometry": {"type": "Point", "coordinates": [-71.8195251467, 42.2611915468]}, "type": "Feature", "properties": {"collection_times": [{"days": "Mon-Sat", "time": "10:30am"}, {"days": "Sun", "time": "Closed"}], "id": "0160900046", "name": "USPS COLLECTION BOX - BLUE BOX", "address": {"city": "WORCESTER", "state": "MA", "street": "227 CHANDLER ST", "postcode": "01609"}}},
{"geometry": {"type": "Point", "coordinates": [-71.7989274652, 42.2530811802]}, "type": "Feature", "properties": {"collection_times": [{"days": "Mon-Fri", "time": "4:00pm"}, {"days": "Sat", "time": "12:00pm"}, {"days": "Sun", "time": "Closed"}], "id": "0161000009", "name": "USPS COLLECTION BOX - BLUE BOX", "address": {"city": "WORCESTER", "state": "MA", "street": "82 MILLBURY ST", "postcode": "01610"}}},
{"geometry": {"type": "Point", "coordinates": [-71.8073915366, 42.2592491282]}, "type": "Feature", "properties": {"collection_times": [{"days": "Mon-Sat", "time": "10:00am"}, {"days": "Sun", "time": "Closed"}], "id": "0161000010", "name": "USPS COLLECTION BOX - BLUE BOX", "address": {"city": "WORCESTER", "state": "MA", "street": "50 MURRAY AVE", "postcode": "01610"}}},
{"geometry": {"type": "Point", "coordinates": [-71.8234786668, 42.2567627081]}, "type": "Feature", "properties": {"collection_times": [{"days": "Mon-Fri", "time": "2:00pm"}, {"days": "Sat", "time": "12:00pm"}, {"days": "Sun", "time": "Closed"}], "id": "0161000011", "name": "USPS COLLECTION BOX - BLUE BOX", "address": {"city": "WORCESTER", "state": "MA", "street": "414 PARK AVE", "postcode": "01610"}}},
{"geometry": {"type": "Point", "coordinates": [-71.810015731, 42.251493302]}, "type": "Feature", "properties": {"collection_times": [{"days": "Mon-Sat", "time": "8:00am"}, {"days": "Sun", "time": "Closed"}], "id": "0161000015", "name": "USPS COLLECTION BOX - BLUE BOX", "address": {"city": "WORCESTER", "state": "MA", "street": "26 QUEEN ST", "postcode": "01610"}}},
{"geometry": {"type": "Point", "coordinates": [-71.811503502, 42.2428119134]}, "type": "Feature", "properties": {"collection_times": [{"days": "Mon-Fri", "time": "4:00pm"}, {"days": "Sat", "time": "12:00pm"}, {"days": "Sun", "time": "Closed"}], "id": "0161000016", "name": "USPS COLLECTION BOX - BLUE BOX", "address": {"city": "WORCESTER", "state": "MA", "street": "700 SOUTHBRIDGE ST", "postcode": "01610"}}},
{"geometry": {"type": "Point", "coordinates": [-71.819170259, 42.2312827953]}, "type": "Feature", "properties": {"collection_times": [{"days": "Mon-Fri", "time": "4:00pm"}, {"days": "Sat", "time": "12:00pm"}, {"days": "Sun", "time": "Closed"}], "id": "0161000017", "name": "USPS COLLECTION BOX - BLUE BOX", "address": {"city": "WORCESTER", "state": "MA", "street": "1025 SOUTHBRIDGE ST", "postcode": "01610"}}},
{"geometry": {"type": "Point", "coordinates": [-71.810015731, 42.251493302]}, "type": "Feature", "properties": {"collection_times": [{"days": "Mon-Fri", "time": "2:00pm"}, {"days": "Sat", "time": "12:00pm"}, {"days": "Sun", "time": "Closed"}], "id": "0161000018", "name": "USPS COLLECTION BOX - BLUE BOX", "address": {"city": "WORCESTER", "state": "MA", "street": "66 VERNON ST", "postcode": "01610"}}},
{"geometry": {"type": "Point", "coordinates": [-71.7961990254, 42.2446909339]}, "type": "Feature", "properties": {"collection_times": [{"days": "Mon-Fri", "time": "2:30pm"}, {"days": "Sat", "time": "12:00pm"}, {"days": "Sun", "time": "Closed"}], "id": "0161000019", "name": "USPS COLLECTION BOX - BLUE BOX", "address": {"city": "WORCESTER", "state": "MA", "street": "140 VERNON ST", "postcode": "01610"}}},
{"geometry": {"type": "Point", "coordinates": [-71.8226116915, 42.2517253276]}, "type": "Feature", "properties": {"collection_times": [{"days": "Mon-Fri", "time": "2:00pm"}, {"days": "Sat", "time": "12:00pm"}, {"days": "Sun", "time": "Closed"}], "id": "0161000020", "name": "USPS COLLECTION BOX - BLUE BOX", "address": {"city": "WORCESTER", "state": "MA", "street": "144 WOODLAND ST", "postcode": "01610"}}},
{"geometry": {"type": "Point", "coordinates": [-71.8109723213, 42.2361474196]}, "type": "Feature", "properties": {"collection_times": [{"days": "Mon-Fri", "time": "2:30pm"}, {"days": "Sat", "time": "12:00pm"}, {"days": "Sun", "time": "Closed"}], "id": "0161000022", "name": "USPS COLLECTION BOX - BLUE BOX", "address": {"city": "WORCESTER", "state": "MA", "street": "1 COLLEGE ST", "postcode": "01610"}}},
{"geometry": {"type": "Point", "coordinates": [-71.8148922554, 42.2596143437]}, "type": "Feature", "properties": {"collection_times": [{"days": "Mon-Fri", "time": "4:00pm"}, {"days": "Sat-Sun", "time": "Closed"}], "id": "0161000034", "name": "USPS COLLECTION BOX - BLUE BOX", "address": {"city": "WORCESTER", "state": "MA", "street": "72 JAQUES AVE", "postcode": "01610"}}},
{"geometry": {"type": "Point", "coordinates": [-71.7941589576, 42.2662155736]}, "type": "Feature", "properties": {"collection_times": [{"days": "Mon-Fri", "time": "6:00pm"}, {"days": "Sat", "time": "5:00pm"}, {"days": "Sun", "time": "Closed"}], "id": "0161300004", "name": "USPS COLLECTION BOX - BLUE BOX", "address": {"city": "WORCESTER", "state": "MA", "street": "4 E CENTRAL ST", "postcode": "01613"}}},
{"geometry": {"type": "Point", "coordinates": [-71.7941589576, 42.2662155736]}, "type": "Feature", "properties": {"collection_times": [{"days": "Mon-Fri", "time": "6:00pm"}, {"days": "Sat", "time": "5:00pm"}, {"days": "Sun", "time": "Closed"}], "id": "0161300006", "name": "USPS COLLECTION BOX - BLUE BOX", "address": {"city": "WORCESTER", "state": "MA", "street": "4 E CENTRAL ST", "postcode": "01613"}}},
{"geometry": {"type": "Point", "coordinates": [-71.7954382374, 42.2664009699]}, "type": "Feature", "properties": {"collection_times": [{"days": "Mon-Fri", "time": "6:00pm"}, {"days": "Sat", "time": "5:00pm"}, {"days": "Sun", "time": "Closed"}], "id": "0161300007", "name": "USPS COLLECTION BOX - EXPRESS", "address": {"city": "WORCESTER", "state": "MA", "street": "4 E CENTRAL ST", "postcode": "01613"}}},
{"geometry": {"type": "Point", "coordinates": [-71.7941589576, 42.2662155736]}, "type": "Feature", "properties": {"collection_times": [{"days": "Mon-Fri", "time": "6:30pm"}, {"days": "Sat", "time": "5:00pm"}, {"days": "Sun", "time": "Closed"}], "id": "0161300022", "name": "USPS COLLECTION BOX - PO LOBBY", "address": {"city": "WORCESTER", "state": "MA", "street": "4 E CENTRAL ST", "postcode": "01613"}}},
{"geometry": {"type": "Point", "coordinates": [-71.7941589576, 42.2662155736]}, "type": "Feature", "properties": {"collection_times": [{"days": "Mon-Fri", "time": "6:30pm"}, {"days": "Sat", "time": "5:00pm"}, {"days": "Sun", "time": "Closed"}], "id": "0161300024", "name": "USPS COLLECTION BOX - APC", "address": {"city": "WORCESTER", "state": "MA", "street": "4 E CENTRAL ST", "postcode": "01613"}}},
{"geometry": {"type": "Point", "coordinates": [-71.7941589576, 42.2662155736]}, "type": "Feature", "properties": {"collection_times": [{"days": "Mon-Fri", "time": "6:30pm"}, {"days": "Sat", "time": "5:00pm"}, {"days": "Sun", "time": "Closed"}], "id": "0161300026", "name": "USPS COLLECTION BOX - PO LOBBY", "address": {"city": "WORCESTER", "state": "MA", "street": "4 E CENTRAL ST", "postcode": "01613"}}}
]}
