{"type": "FeatureCollection", "features": [
{"geometry": {"type": "Point", "coordinates": [-71.4635645134, 42.2940186581]}, "type": "Feature", "properties": {"collection_times": [{"days": "Mon-Sat", "time": "10:00am"}, {"days": "Sun", "time": "Closed"}], "id": "0170100006", "name": "USPS COLLECTION BOX - BLUE BOX", "address": {"city": "FRAMINGHAM", "state": "MA", "street": "1550 WORCESTER RD", "postcode": "01701"}}},
{"geometry": {"type": "Point", "coordinates": [-71.4481094805, 42.2984771202]}, "type": "Feature", "properties": {"collection_times": [{"days": "Mon-Sat", "time": "10:00am"}, {"days": "Sun", "time": "Closed"}], "id": "0170100007", "name": "USPS COLLECTION BOX - BLUE BOX", "address": {"city": "FRAMINGHAM", "state": "MA", "street": "1243 WORCESTER RD", "postcode": "01701"}}},
{"geometry": {"type": "Point", "coordinates": [-71.4248874784, 42.3167639287]}, "type": "Feature", "properties": {"collection_times": [{"days": "Mon-Fri", "time": "5:00pm"}, {"days": "Sat", "time": "1:00pm"}, {"days": "Sun", "time": "Closed"}], "id": "0170100008", "name": "USPS COLLECTION BOX - EXPRESS", "address": {"city": "FRAMINGHAM", "state": "MA", "street": "855 WORCESTER RD", "postcode": "01701"}}},
{"geometry": {"type": "Point", "coordinates": [-71.4318398103, 42.2998970184]}, "type": "Feature", "properties": {"collection_times": [{"days": "Mon-Fri", "time": "5:00pm"}, {"days": "Sat", "time": "1:00pm"}, {"days": "Sun", "time": "Closed"}], "id": "0170100009", "name": "USPS COLLECTION BOX - BLUE BOX", "address": {"city": "FRAMINGHAM", "state": "MA", "street": "855 WORCESTER RD", "postcode": "01701"}}},
{"geometry": {"type": "Point", "coordinates": [-71.4501316005, 42.2990810686]}, "type": "Feature", "properties": {"collection_times": [{"days": "Mon-Sat", "time": "10:00am"}, {"days": "Sun", "time": "Closed"}], "id": "0170100019", "name": "USPS COLLECTION BOX - BLUE BOX", "address": {"city": "FRAMINGHAM", "state": "MA", "street": "27 TEMPLE ST", "postcode": "01701"}}},
{"geometry": {"type": "Point", "coordinates": [-71.4248787886, 42.3167509398]}, "type": "Feature", "properties": {"collection_times": [{"days": "Mon-Sat", "time": "10:00am"}, {"days": "Sun", "time": "Closed"}], "id": "0170100026", "name": "USPS COLLECTION BOX - BLUE BOX", "address": {"city": "FRAMINGHAM", "state": "MA", "street": "792 WATER ST", "postcode": "01701"}}},
{"geometry": {"type": "Point", "coordinates": [-71.4279090793, 42.2942161407]}, "type": "Feature", "properties": {"collection_times": [{"days": "Mon-Fri", "time": "5:00pm"}, {"days": "Sat", "time": "1:00pm"}, {"days": "Sun", "time": "Closed"}], "id": "0170100030", "name": "USPS COLLECTION BOX - BLUE BOX", "address": {"city": "FRAMINGHAM", "state": "MA", "street": "40 UNION AVE", "postcode": "01701"}}},
{"geometry": {"type": "Point", "coordinates": [-71.4184192504, 42.2810356835]}, "type": "Feature", "properties": {"collection_times": [{"days": "Mon-Sat", "time": "10:00am"}, {"days": "Sun", "time": "Closed"}], "id": "0170100031", "name": "USPS COLLECTION BOX - BLUE BOX", "address": {"city": "FRAMINGHAM", "state": "MA", "street": "118 UNION AVE", "postcode": "01701"}}},
{"geometry": {"type": "Point", "coordinates": [-71.4163489492, 42.279793928]}, "type": "Feature", "properties": {"collection_times": [{"days": "Mon-Fri", "time": "4:00pm"}, {"days": "Sat", "time": "10:00am"}, {"days": "Sun", "time": "Closed"}], "id": "0170100035", "name": "USPS COLLECTION BOX - BLUE BOX", "address": {"city": "FRAMINGHAM", "state": "MA", "street": "39 UNION AVE", "postcode": "01701"}}},
{"geometry": {"type": "Point", "coordinates": [-71.4371250821, 42.2973743063]}, "type": "Feature", "properties": {"collection_times": [{"days": "Mon-Sat", "time": "10:00am"}, {"days": "Sun", "time": "Closed"}], "id": "0170100036", "name": "USPS COLLECTION BOX - BLUE BOX", "address": {"city": "FRAMINGHAM", "state": "MA", "street": "100 STATE ST", "postcode": "01701"}}},
{"geometry": {"type": "Point", "coordinates": [-71.3868200506, 42.3112106008]}, "type": "Feature", "properties": {"collection_times": [{"days": "Mon-Sat", "time": "10:00am"}, {"days": "Sun", "time": "Closed"}], "id": "0170100037", "name": "USPS COLLECTION BOX - BLUE BOX", "address": {"city": "FRAMINGHAM", "state": "MA", "street": "150 SPEEN ST", "postcode": "01701"}}},
{"geometry": {"type": "Point", "coordinates": [-71.4163489492, 42.279793928]}, "type": "Feature", "properties": {"collection_times": [{"days": "Mon-Sat", "time": "10:00am"}, {"days": "Sun", "time": "Closed"}], "id": "0170100040", "name": "USPS COLLECTION BOX - BLUE BOX", "address": {"city": "FRAMINGHAM", "state": "MA", "street": "63 FOUNTAIN ST", "postcode": "01701"}}},
{"geometry": {"type": "Point", "coordinates": [-71.3911189235, 42.3119807071]}, "type": "Feature", "properties": {"collection_times": [{"days": "Mon-Sat", "time": "10:00am"}, {"days": "Sun", "time": "Closed"}], "id": "0170100041", "name": "USPS COLLECTION BOX - BLUE BOX", "address": {"city": "FRAMINGHAM", "state": "MA", "street": "10 SPEEN ST", "postcode": "01701"}}},
{"geometry": {"type": "Point", "coordinates": [-71.3886843939, 42.3113620195]}, "type": "Feature", "properties": {"collection_times": [{"days": "Mon-Sat", "time": "10:00am"}, {"days": "Sun", "time": "Closed"}], "id": "0170100044", "name": "USPS COLLECTION BOX - BLUE BOX", "address": {"city": "FRAMINGHAM", "state": "MA", "street": "5 SPEEN ST", "postcode": "01701"}}},
{"geometry": {"type": "Point", "coordinates": [-71.3907238152, 42.3118174587]}, "type": "Feature", "properties": {"collection_times": [{"days": "Mon-Sat", "time": "10:00am"}, {"days": "Sun", "time": "Closed"}], "id": "0170100046", "name": "USPS COLLECTION BOX - BLUE BOX", "address": {"city": "FRAMINGHAM", "state": "MA", "street": "1 SPEEN ST", "postcode": "01701"}}},
{"geometry": {"type": "Point", "coordinates": [-71.3962829036, 42.3212837392]}, "type": "Feature", "properties": {"collection_times": [{"days": "Mon-Sat", "time": "10:00am"}, {"days": "Sun", "time": "Closed"}], "id": "0170100049", "name": "USPS COLLECTION BOX - BLUE BOX", "address": {"city": "FRAMINGHAM", "state": "MA", "street": "15 SCHOOL ST", "postcode": "01701"}}},
{"geometry": {"type": "Point", "coordinates": [-71.4163489492, 42.279793928]}, "type": "Feature", "properties": {"collection_times": [{"days": "Mon-Sat", "time": "10:00am"}, {"days": "Sun", "time": "Closed"}], "id": "0170100050", "name": "USPS COLLECTION BOX - BLUE BOX", "address": {"city": "FRAMINGHAM", "state": "MA", "street": "56 ROSE KENNEDY LN", "postcode": "01701"}}},
{"geometry": {"type": "Point", "coordinates": [-71.4362089012, 42.3008706139]}, "type": "Feature", "properties": {"collection_times": [{"days": "Mon-Sat", "time": "10:00am"}, {"days": "Sun", "time": "Closed"}], "id": "0170100053", "name": "USPS COLLECTION BOX - BLUE BOX", "address": {"city": "FRAMINGHAM", "state": "MA", "street": "1 PLEASANT ST", "postcode": "01701"}}},
{"geometry": {"type": "Point", "coordinates": [-71.418979973, 42.2780782861]}, "type": "Feature", "properties": {"collection_times": [{"days": "Mon-Fri", "time": "5:00pm"}, {"days": "Sat", "time": "1:00pm"}, {"days": "Sun", "time": "Closed"}], "id": "0170100055", "name": "USPS COLLECTION BOX - BLUE BOX", "address": {"city": "FRAMINGHAM", "state": "MA", "street": "43 PARK ST", "postcode": "01701"}}},
{"geometry": {"type": "Point", "coordinates": [-71.4193999234, 42.2970766071]}, "type": "Feature", "properties": {"collection_times": [{"days": "Mon-Sat", "time": "10:00am"}, {"days": "Sun", "time": "Closed"}], "id": "0170100057", "name": "USPS COLLECTION BOX - BLUE BOX", "address": {"city": "FRAMINGHAM", "state": "MA", "street": "188 OAKS RD", "postcode": "01701"}}},
{"geometry": {"type": "Point", "coordinates": [-71.3920141521, 42.3118880649]}, "type": "Feature", "properties": {"collection_times": [{"days": "Mon-Fri", "time": "5:00pm"}, {"days": "Sat", "time": "1:00pm"}, {"days": "Sun", "time": "Closed"}], "id": "0170100061", "name": "USPS COLLECTION BOX - BLUE BOX", "address": {"city": "FRAMINGHAM", "state": "MA", "street": "205 NEWBURY ST", "postcode": "01701"}}},
{"geometry": {"type": "Point", "coordinates": [-71.4248787886, 42.3167509398]}, "type": "Feature", "properties": {"collection_times": [{"days": "Mon-Sat", "time": "10:00am"}, {"days": "Sun", "time": "Closed"}], "id": "0170100064", "name": "USPS COLLECTION BOX - BLUE BOX", "address": {"city": "FRAMINGHAM", "state": "MA", "street": "136 MAYNARD RD", "postcode": "01701"}}},
{"geometry": {"type": "Point", "coordinates": [-71.4163489492, 42.279793928]}, "type": "Feature", "properties": {"collection_times": [{"days": "Mon-Sat", "time": "9:00am"}, {"days": "Sun", "time": "Closed"}], "id": "0170100065", "name": "USPS COLLECTION BOX - BLUE BOX", "address": {"city": "FRAMINGHAM", "state": "MA", "street": "235 WALNUT ST", "postcode": "01701"}}},
{"geometry": {"type": "Point", "coordinates": [-71.4096715548, 42.2695953602]}, "type": "Feature", "properties": {"collection_times": [{"days": "Mon-Fri", "time": "4:00pm"}, {"days": "Sat", "time": "10:00am"}, {"days": "Sun", "time": "Closed"}], "id": "0170100066", "name": "USPS COLLECTION BOX - BLUE BOX", "address": {"city": "FRAMINGHAM", "state": "MA", "street": "37 LORING DR", "postcode": "01701"}}},
{"geometry": {"type": "Point", "coordinates": [-71.4163489492, 42.279793928]}, "type": "Feature", "properties": {"collection_times": [{"days": "Mon-Sat", "time": "10:00am"}, {"days": "Sun", "time": "Closed"}], "id": "0170100068", "name": "USPS COLLECTION BOX - BLUE BOX", "address": {"city": "FRAMINGHAM", "state": "MA", "street": "61 LINCOLN ST", "postcode": "01701"}}},
{"geometry": {"type": "Point", "coordinates": [-71.4182186441, 42.2818834683]}, "type": "Feature", "properties": {"collection_times": [{"days": "Mon-Sat", "time": "10:00am"}, {"days": "Sun", "time": "Closed"}], "id": "0170100069", "name": "USPS COLLECTION BOX - BLUE BOX", "address": {"city": "FRAMINGHAM", "state": "MA", "street": "42 LEXINGTON ST", "postcode": "01701"}}},
{"geometry": {"type": "Point", "coordinates": [-71.4817477761, 42.3097532367]}, "type": "Feature", "properties": {"collection_times": [{"days": "Mon-Sat", "time": "10:00am"}, {"days": "Sun", "time": "Closed"}], "id": "0170100071", "name": "USPS COLLECTION BOX - BLUE BOX", "address": {"city": "FRAMINGHAM", "state": "MA", "street": "6 LANEWOOD AVE", "postcode": "01701"}}},
{"geometry": {"type": "Point", "coordinates": [-71.4182075008, 42.2738835136]}, "type": "Feature", "properties": {"collection_times": [{"days": "Mon-Fri", "time": "4:00pm"}, {"days": "Sat", "time": "10:00am"}, {"days": "Sun", "time": "Closed"}], "id": "0170100076", "name": "USPS COLLECTION BOX - BLUE BOX", "address": {"city": "FRAMINGHAM", "state": "MA", "street": "181 HOLLIS ST", "postcode": "01701"}}},
{"geometry": {"type": "Point", "coordinates": [-71.4163489492, 42.279793928]}, "type": "Feature", "properties": {"collection_times": [{"days": "Mon-Fri", "time": "4:00pm"}, {"days": "Sat", "time": "10:00am"}, {"days": "Sun", "time": "Closed"}], "id": "0170100078", "name": "USPS COLLECTION BOX - BLUE BOX", "address": {"city": "FRAMINGHAM", "state": "MA", "street": "76 GRANT ST", "postcode": "01701"}}},
{"geometry": {"type": "Point", "coordinates": [-71.4248787886, 42.3167509398]}, "type": "Feature", "properties": {"collection_times": [{"days": "Mon-Fri", "time": "4:00pm"}, {"days": "Sat", "time": "10:00am"}, {"days": "Sun", "time": "Closed"}], "id": "0170100088", "name": "USPS COLLECTION BOX - BLUE BOX", "address": {"city": "FRAMINGHAM", "state": "MA", "street": "959 CONCORD ST", "postcode": "01701"}}},
{"geometry": {"type": "Point", "coordinates": [-71.4163489492, 42.279793928]}, "type": "Feature", "properties": {"collection_times": [{"days": "Mon-Fri", "time": "4:00pm"}, {"days": "Sat", "time": "10:00am"}, {"days": "Sun", "time": "Closed"}], "id": "0170100090", "name": "USPS COLLECTION BOX - BLUE BOX", "address": {"city": "FRAMINGHAM", "state": "MA", "street": "600 CONCORD ST", "postcode": "01701"}}},
{"geometry": {"type": "Point", "coordinates": [-71.4089588511, 42.299484116]}, "type": "Feature", "properties": {"collection_times": [{"days": "Mon-Sat", "time": "10:00am"}, {"days": "Sun", "time": "Closed"}], "id": "0170100098", "name": "USPS COLLECTION BOX - BLUE BOX", "address": {"city": "FRAMINGHAM", "state": "MA", "street": "2 FAIRBANKS ST", "postcode": "01701"}}},
{"geometry": {"type": "Point", "coordinates": [-71.389633127, 42.3070489511]}, "type": "Feature", "properties": {"collection_times": [{"days": "Mon-Sat", "time": "10:00am"}, {"days": "Sun", "time": "Closed"}], "id": "0170100102", "name": "USPS COLLECTION BOX - BLUE BOX", "address": {"city": "FRAMINGHAM", "state": "MA", "street": "550 COCHITUATE RD", "postcode": "01701"}}},
{"geometry": {"type": "Point", "coordinates": [-71.4148514339, 42.282387132]}, "type": "Feature", "properties": {"collection_times": [{"days": "Mon-Sat", "time": "9:30am"}, {"days": "Sun", "time": "Closed"}], "id": "0170100105", "name": "USPS COLLECTION BOX - BLUE BOX", "address": {"city": "FRAMINGHAM", "state": "MA", "street": "1 CLARK HILL RD", "postcode": "01701"}}},
{"geometry": {"type": "Point", "coordinates": [-71.4248874784, 42.3167639287]}, "type": "Feature", "properties": {"collection_times": [{"days": "Mon-Fri", "time": "4:00pm"}, {"days": "Sat", "time": "10:00am"}, {"days": "Sun", "time": "Closed"}], "id": "0170100107", "name": "USPS COLLECTION BOX - EXPRESS", "address": {"city": "FRAMINGHAM", "state": "MA", "street": "1 NEW YORK AVE", "postcode": "01701"}}},
{"geometry": {"type": "Point", "coordinates": [-71.4839244202, 42.3004019047]}, "type": "Feature", "properties": {"collection_times": [{"days": "Mon-Fri", "time": "10:30am"}, {"days": "Sat", "time": "10:00am"}, {"days": "Sun", "time": "Closed"}], "id": "0170100108", "name": "USPS COLLECTION BOX - BLUE BOX", "address": {"city": "FRAMINGHAM", "state": "MA", "street": "1 NEW YORK AVE", "postcode": "01701"}}},
{"geometry": {"type": "Point", "coordinates": [-71.4047899203, 42.2858805075]}, "type": "Feature", "properties": {"collection_times": [{"days": "Mon-Sat", "time": "10:00am"}, {"days": "Sun", "time": "Closed"}], "id": "0170100110", "name": "USPS COLLECTION BOX - BLUE BOX", "address": {"city": "FRAMINGHAM", "state": "MA", "street": "2-4 BISHOP DR", "postcode": "01701"}}},
{"geometry": {"type": "Point", "coordinates": [-71.4248787886, 42.3167509398]}, "type": "Feature", "properties": {"collection_times": [{"days": "Mon-Sat", "time": "10:00am"}, {"days": "Sun", "time": "Closed"}], "id": "0170100111", "name": "USPS COLLECTION BOX - BLUE BOX", "address": {"city": "FRAMINGHAM", "state": "MA", "street": "126 BEAVER ST", "postcode": "01701"}}},
{"geometry": {"type": "Point", "coordinates": [-71.4248874784, 42.3167639287]}, "type": "Feature", "properties": {"collection_times": [{"days": "Mon-Fri", "time": "6:00pm"}, {"days": "Sat", "time": "4:15pm"}, {"days": "Sun", "time": "Closed"}], "id": "0170100113", "name": "USPS COLLECTION BOX - EXPRESS", "address": {"city": "FRAMINGHAM", "state": "MA", "street": "330 COCHITUATE RD", "postcode": "01701"}}},
{"geometry": {"type": "Point", "coordinates": [-71.4013810925, 42.3032078834]}, "type": "Feature", "properties": {"collection_times": [{"days": "Mon-Fri", "time": "6:00pm"}, {"days": "Sat", "time": "4:15pm"}, {"days": "Sun", "time": "Closed"}], "id": "0170100114", "name": "USPS COLLECTION BOX - BLUE BOX", "address": {"city": "FRAMINGHAM", "state": "MA", "street": "330 COCHITUATE RD", "postcode": "01701"}}},
{"geometry": {"type": "Point", "coordinates": [-71.4013810925, 42.3032078834]}, "type": "Feature", "properties": {"collection_times": [{"days": "Mon-Fri", "time": "6:00pm"}, {"days": "Sat", "time": "4:15pm"}, {"days": "Sun", "time": "Closed"}], "id": "0170100115", "name": "USPS COLLECTION BOX - BLUE BOX", "address": {"city": "FRAMINGHAM", "state": "MA", "street": "330 COCHITUATE RD", "postcode": "01701"}}},
{"geometry": {"type": "Point", "coordinates": [-71.4163489492, 42.279793928]}, "type": "Feature", "properties": {"collection_times": [{"days": "Mon-Sat", "time": "10:00am"}, {"days": "Sun", "time": "Closed"}], "id": "0170100119", "name": "USPS COLLECTION BOX - BLUE BOX", "address": {"city": "FRAMINGHAM", "state": "MA", "street": "26 ARSENAL RD", "postcode": "01701"}}},
{"geometry": {"type": "Point", "coordinates": [-71.4481094805, 42.2984771202]}, "type": "Feature", "properties": {"collection_times": [{"days": "Mon-Sat", "time": "10:00am"}, {"days": "Sun", "time": "Closed"}], "id": "0170100120", "name": "USPS COLLECTION BOX - BLUE BOX", "address": {"city": "FRAMINGHAM", "state": "MA", "street": "1243 WORCESTER RD", "postcode": "01701"}}},
{"geometry": {"type": "Point", "coordinates": [-71.4106223679, 42.2786177154]}, "type": "Feature", "properties": {"collection_times": [{"days": "Mon-Fri", "time": "11:30am"}, {"days": "Sat", "time": "10:00am"}, {"days": "Sun", "time": "Closed"}], "id": "0170100124", "name": "USPS COLLECTION BOX - BLUE BOX", "address": {"city": "FRAMINGHAM", "state": "MA", "street": "300 HOWARD ST", "postcode": "01701"}}},
{"geometry": {"type": "Point", "coordinates": [-71.403422324, 42.3272784851]}, "type": "Feature", "properties": {"collection_times": [{"days": "Mon-Fri", "time": "5:00pm"}, {"days": "Sat", "time": "1:00pm"}, {"days": "Sun", "time": "Closed"}], "id": "0170100125", "name": "USPS COLLECTION BOX - BLUE BOX", "address": {"city": "FRAMINGHAM", "state": "MA", "street": "31 NICHOLAS RD", "postcode": "01701"}}},
{"geometry": {"type": "Point", "coordinates": [-71.437838331, 42.3215290901]}, "type": "Feature", "properties": {"collection_times": [{"days": "Mon-Sat", "time": "10:00am"}, {"days": "Sun", "time": "Closed"}], "id": "0170100126", "name": "USPS COLLECTION BOX - BLUE BOX", "address": {"city": "FRAMINGHAM", "state": "MA", "street": "1 JJ BRADY DR", "postcode": "01701"}}},
{"geometry": {"type": "Point", "coordinates": [-71.402094311, 42.3067350447]}, "type": "Feature", "properties": {"collection_times": [{"days": "Mon-Sat", "time": "10:00am"}, {"days": "Sun", "time": "Closed"}], "id": "0170100130", "name": "USPS COLLECTION BOX - BLUE BOX", "address": {"city": "FRAMINGHAM", "state": "MA", "street": "235 OLD CONNECTICUT PATH", "postcode": "01701"}}},
{"geometry": {"type": "Point", "coordinates": [-71.4318398103, 42.2998970184]}, "type": "Feature", "properties": {"collection_times": [{"days": "Mon-Fri", "time": "5:00pm"}, {"days": "Sat", "time": "12:00pm"}, {"days": "Sun", "time": "Closed"}], "id": "0170100133", "name": "USPS COLLECTION BOX - PO LOBBY", "address": {"city": "FRAMINGHAM", "state": "MA", "street": "855 WORCESTER RD", "postcode": "01701"}}},
{"geometry": {"type": "Point", "coordinates": [-71.4318398103, 42.2998970184]}, "type": "Feature", "properties": {"collection_times": [{"days": "Mon-Fri", "time": "5:00pm"}, {"days": "Sat", "time": "12:00pm"}, {"days": "Sun", "time": "Closed"}], "id": "0170100134", "name": "USPS COLLECTION BOX - PO LOBBY", "address": {"city": "FRAMINGHAM", "state": "MA", "street": "855 WORCESTER RD", "postcode": "01701"}}},
{"geometry": {"type": "Point", "coordinates": [-71.4318398103, 42.2998970184]}, "type": "Feature", "properties": {"collection_times": [{"days": "Mon-Fri", "time": "5:00pm"}, {"days": "Sat", "time": "12:00pm"}, {"days": "Sun", "time": "Closed"}], "id": "0170100135", "name": "USPS COLLECTION BOX - PO LOBBY", "address": {"city": "FRAMINGHAM", "state": "MA", "street": "855 WORCESTER RD", "postcode": "01701"}}},
{"geometry": {"type": "Point", "coordinates": [-71.4318398103, 42.2998970184]}, "type": "Feature", "properties": {"collection_times": [{"days": "Mon-Fri", "time": "5:00pm"}, {"days": "Sat", "time": "12:00pm"}, {"days": "Sun", "time": "Closed"}], "id": "0170100136", "name": "USPS COLLECTION BOX - PO LOBBY", "address": {"city": "FRAMINGHAM", "state": "MA", "street": "855 WORCESTER RD", "postcode": "01701"}}},
{"geometry": {"type": "Point", "coordinates": [-71.418979973, 42.2780782861]}, "type": "Feature", "properties": {"collection_times": [{"days": "Mon-Fri", "time": "5:00pm"}, {"days": "Sat", "time": "12:00pm"}, {"days": "Sun", "time": "Closed"}], "id": "0170100137", "name": "USPS COLLECTION BOX - PO LOBBY", "address": {"city": "FRAMINGHAM", "state": "MA", "street": "43 PARK ST", "postcode": "01701"}}},
{"geometry": {"type": "Point", "coordinates": [-71.418979973, 42.2780782861]}, "type": "Feature", "properties": {"collection_times": [{"days": "Mon-Fri", "time": "5:00pm"}, {"days": "Sat", "time": "12:00pm"}, {"days": "Sun", "time": "Closed"}], "id": "0170100138", "name": "USPS COLLECTION BOX - PO LOBBY", "address": {"city": "FRAMINGHAM", "state": "MA", "street": "43 PARK ST", "postcode": "01701"}}},
{"geometry": {"type": "Point", "coordinates": [-71.403422324, 42.3272784851]}, "type": "Feature", "properties": {"collection_times": [{"days": "Mon-Fri", "time": "5:00pm"}, {"days": "Sat", "time": "10:00am"}, {"days": "Sun", "time": "Closed"}], "id": "0170100139", "name": "USPS COLLECTION BOX - PO LOBBY", "address": {"city": "FRAMINGHAM", "state": "MA", "street": "31 NICHOLAS RD", "postcode": "01701"}}},
{"geometry": {"type": "Point", "coordinates": [-71.4013810925, 42.3032078834]}, "type": "Feature", "properties": {"collection_times": [{"days": "Mon-Fri", "time": "6:00pm"}, {"days": "Sat", "time": "5:00pm"}, {"days": "Sun", "time": "Closed"}], "id": "0170100141", "name": "USPS COLLECTION BOX - PO LOBBY", "address": {"city": "FRAMINGHAM", "state": "MA", "street": "330 COCHITUATE RD", "postcode": "01701"}}},
{"geometry": {"type": "Point", "coordinates": [-71.4013810925, 42.3032078834]}, "type": "Feature", "properties": {"collection_times": [{"days": "Mon-Fri", "time": "6:00pm"}, {"days": "Sat", "time": "5:00pm"}, {"days": "Sun", "time": "Closed"}], "id": "0170100142", "name": "USPS COLLECTION BOX - PO LOBBY", "address": {"city": "FRAMINGHAM", "state": "MA", "street": "330 COCHITUATE RD", "postcode": "01701"}}},
{"geometry": {"type": "Point", "coordinates": [-71.403422324, 42.3272784851]}, "type": "Feature", "properties": {"collection_times": [{"days": "Mon-Fri", "time": "5:00pm"}, {"days": "Sat", "time": "1:00pm"}, {"days": "Sun", "time": "Closed"}], "id": "0170100143", "name": "USPS COLLECTION BOX - BLUE BOX", "address": {"city": "FRAMINGHAM", "state": "MA", "street": "31 NICHOLAS RD", "postcode": "01701"}}},
{"geometry": {"type": "Point", "coordinates": [-71.4194271315, 42.2840806199]}, "type": "Feature", "properties": {"collection_times": [{"days": "Mon-Sat", "time": "10:00am"}, {"days": "Sun", "time": "Closed"}], "id": "0170100147", "name": "USPS COLLECTION BOX - BLUE BOX", "address": {"city": "FRAMINGHAM", "state": "MA", "street": "115 LINCOLN ST", "postcode": "01701"}}},
{"geometry": {"type": "Point", "coordinates": [-71.4013810925, 42.3032078834]}, "type": "Feature", "properties": {"collection_times": [{"days": "Mon-Fri", "time": "6:00pm"}, {"days": "Sat", "time": "5:00pm"}, {"days": "Sun", "time": "Closed"}], "id": "0170100150", "name": "USPS COLLECTION BOX - PO LOBBY", "address": {"city": "FRAMINGHAM", "state": "MA", "street": "330 COCHITUATE RD", "postcode": "01701"}}},
{"geometry": {"type": "Point", "coordinates": [-71.4013810925, 42.3032078834]}, "type": "Feature", "properties": {"collection_times": [{"days": "Mon-Fri", "time": "6:00pm"}, {"days": "Sat", "time": "5:00pm"}, {"days": "Sun", "time": "Closed"}], "id": "0170100151", "name": "USPS COLLECTION BOX - PO LOBBY", "address": {"city": "FRAMINGHAM", "state": "MA", "street": "330 COCHITUATE RD", "postcode": "01701"}}},
{"geometry": {"type": "Point", "coordinates": [-71.4013810925, 42.3032078834]}, "type": "Feature", "properties": {"collection_times": [{"days": "Mon-Fri", "time": "6:00pm"}, {"days": "Sat", "time": "5:00pm"}, {"days": "Sun", "time": "Closed"}], "id": "0170100152", "name": "USPS COLLECTION BOX - PO LOBBY", "address": {"city": "FRAMINGHAM", "state": "MA", "street": "330 COCHITUATE RD", "postcode": "01701"}}},
{"geometry": {"type": "Point", "coordinates": [-71.4013810925, 42.3032078834]}, "type": "Feature", "properties": {"collection_times": [{"days": "Mon-Fri", "time": "6:00pm"}, {"days": "Sat", "time": "5:00pm"}, {"days": "Sun", "time": "Closed"}], "id": "0170100153", "name": "USPS COLLECTION BOX - PO LOBBY", "address": {"city": "FRAMINGHAM", "state": "MA", "street": "330 COCHITUATE RD", "postcode": "01701"}}},
{"geometry": {"type": "Point", "coordinates": [-71.491481162, 42.2950537472]}, "type": "Feature", "properties": {"collection_times": [{"days": "Mon-Fri", "time": "4:00pm"}, {"days": "Sat", "time": "10:00am"}, {"days": "Sun", "time": "Closed"}], "id": "0170100155", "name": "USPS COLLECTION BOX - BLUE BOX", "address": {"city": "FRAMINGHAM", "state": "MA", "street": "175 CROSSING BLVD", "postcode": "01701"}}},
{"geometry": {"type": "Point", "coordinates": [-71.4891306226, 42.2920821543]}, "type": "Feature", "properties": {"collection_times": [{"days": "Mon-Fri", "time": "4:00pm"}, {"days": "Sat", "time": "10:00am"}, {"days": "Sun", "time": "Closed"}], "id": "0170100156", "name": "USPS COLLECTION BOX - BLUE BOX", "address": {"city": "FRAMINGHAM", "state": "MA", "street": "500 STAPLES DR", "postcode": "01701"}}},
{"geometry": {"type": "Point", "coordinates": [-71.4248874784, 42.3167639287]}, "type": "Feature", "properties": {"collection_times": [{"days": "Mon-Fri", "time": "4:00pm"}, {"days": "Sat", "time": "10:00am"}, {"days": "Sun", "time": "Closed"}], "id": "0170100157", "name": "USPS COLLECTION BOX - EXPRESS", "address": {"city": "FRAMINGHAM", "state": "MA", "street": "300 HOWARD ST", "postcode": "01701"}}},
{"geometry": {"type": "Point", "coordinates": [-71.4163489492, 42.279793928]}, "type": "Feature", "properties": {"collection_times": [{"days": "Mon-Fri", "time": "4:00pm"}, {"days": "Sat", "time": "10:00am"}, {"days": "Sun", "time": "Closed"}], "id": "0170100158", "name": "USPS COLLECTION BOX - BLUE BOX", "address": {"city": "FRAMINGHAM", "state": "MA", "street": "39 UNION AVE", "postcode": "01701"}}},
{"geometry": {"type": "Point", "coordinates": [-71.4013810925, 42.3032078834]}, "type": "Feature", "properties": {"collection_times": [{"days": "Mon-Fri", "time": "6:00pm"}, {"days": "Sat", "time": "5:00pm"}, {"days": "Sun", "time": "Closed"}], "id": "0170100159", "name": "USPS COLLECTION BOX - APC", "address": {"city": "FRAMINGHAM", "state": "MA", "street": "330 COCHITUATE RD", "postcode": "01701"}}},
{"geometry": {"type": "Point", "coordinates": [-71.4243115691, 42.488379999]}, "type": "Feature", "properties": {"collection_times": [{"days": "Mon-Fri", "time": "5:15pm"}, {"days": "Sat", "time": "3:00pm"}, {"days": "Sun", "time": "Closed"}], "id": "0172000001", "name": "USPS COLLECTION BOX - BLUE BOX", "address": {"city": "ACTON", "state": "MA", "street": "7 POST OFFICE SQ", "postcode": "01720"}}},
{"geometry": {"type": "Point", "coordinates": [-71.4243115691, 42.488379999]}, "type": "Feature", "properties": {"collection_times": [{"days": "Mon-Fri", "time": "5:15pm"}, {"days": "Sat", "time": "3:00pm"}, {"days": "Sun", "time": "Closed"}], "id": "0172000002", "name": "USPS COLLECTION BOX - BLUE BOX", "address": {"city": "ACTON", "state": "MA", "street": "7 POST OFFICE SQ", "postcode": "01720"}}},
{"geometry": {"type": "Point", "coordinates": [-71.4243115691, 42.488379999]}, "type": "Feature", "properties": {"collection_times": [{"days": "Mon-Fri", "time": "5:15pm"}, {"days": "Sat", "time": "3:00pm"}, {"days": "Sun", "time": "Closed"}], "id": "0172000003", "name": "USPS COLLECTION BOX - BLUE BOX", "address": {"city": "ACTON", "state": "MA", "street": "7 POST OFFICE SQ", "postcode": "01720"}}},
{"geometry": {"type": "Point", "coordinates": [-71.4243115691, 42.488379999]}, "type": "Feature", "properties": {"collection_times": [{"days": "Mon-Fri", "time": "5:15pm"}, {"days": "Sat", "time": "3:00pm"}, {"days": "Sun", "time": "Closed"}], "id": "0172000004", "name": "USPS COLLECTION BOX - BLUE BOX", "address": {"city": "ACTON", "state": "MA", "street": "7 POST OFFICE SQ", "postcode": "01720"}}},
{"geometry": {"type": "Point", "coordinates": [-71.4396387723, 42.4823130294]}, "type": "Feature", "properties": {"collection_times": [{"days": "Mon-Fri", "time": "4:00pm"}, {"days": "Sat", "time": "1:00pm"}, {"days": "Sun", "time": "Closed"}], "id": "0172000007", "name": "USPS COLLECTION BOX - BLUE BOX", "address": {"city": "ACTON", "state": "MA", "street": "291 MAIN ST", "postcode": "01720"}}},
{"geometry": {"type": "Point", "coordinates": [-71.4201974907, 42.5224075492]}, "type": "Feature", "properties": {"collection_times": [{"days": "Mon-Fri", "time": "4:00pm"}, {"days": "Sat", "time": "1:00pm"}, {"days": "Sun", "time": "Closed"}], "id": "0172000008", "name": "USPS COLLECTION BOX - BLUE BOX", "address": {"city": "ACTON", "state": "MA", "street": "505 NAGOG PARK", "postcode": "01720"}}},
{"geometry": {"type": "Point", "coordinates": [-71.4561967472, 42.4620092799]}, "type": "Feature", "properties": {"collection_times": [{"days": "Mon-Fri", "time": "2:00pm"}, {"days": "Sat", "time": "1:00pm"}, {"days": "Sun", "time": "Closed"}], "id": "0172000015", "name": "USPS COLLECTION BOX - BLUE BOX", "address": {"city": "ACTON", "state": "MA", "street": "8 CENTRAL ST", "postcode": "01720"}}},
{"geometry": {"type": "Point", "coordinates": [-71.4376905694, 42.4843851513]}, "type": "Feature", "properties": {"collection_times": [{"days": "Mon-Fri", "time": "4:00pm"}, {"days": "Sat", "time": "1:00pm"}, {"days": "Sun", "time": "Closed"}], "id": "0172000016", "name": "USPS COLLECTION BOX - BLUE BOX", "address": {"city": "ACTON", "state": "MA", "street": "1233 MASSACHUSETTS AVE", "postcode": "01720"}}},
{"geometry": {"type": "Point", "coordinates": [-71.4499817786, 42.4744506572]}, "type": "Feature", "properties": {"collection_times": [{"days": "Mon-Fri", "time": "4:00pm"}, {"days": "Sat", "time": "1:00pm"}, {"days": "Sun", "time": "Closed"}], "id": "0172000017", "name": "USPS COLLECTION BOX - BLUE BOX", "address": {"city": "ACTON", "state": "MA", "street": "381 MASSACHUSETTS AVE", "postcode": "01720"}}},
{"geometry": {"type": "Point", "coordinates": [-71.4114492562, 42.4769514325]}, "type": "Feature", "properties": {"collection_times": [{"days": "Mon-Fri", "time": "4:00pm"}, {"days": "Sat", "time": "1:00pm"}, {"days": "Sun", "time": "Closed"}], "id": "0172000018", "name": "USPS COLLECTION BOX - BLUE BOX", "address": {"city": "ACTON", "state": "MA", "street": "75 GREAT RD", "postcode": "01720"}}},
{"geometry": {"type": "Point", "coordinates": [-71.4167075088, 42.4885053927]}, "type": "Feature", "properties": {"collection_times": [{"days": "Mon-Fri", "time": "4:00pm"}, {"days": "Sat", "time": "1:00pm"}, {"days": "Sun", "time": "Closed"}], "id": "0172000019", "name": "USPS COLLECTION BOX - BLUE BOX", "address": {"city": "ACTON", "state": "MA", "street": "201 GREAT RD", "postcode": "01720"}}},
{"geometry": {"type": "Point", "coordinates": [-71.4396387723, 42.4823130294]}, "type": "Feature", "properties": {"collection_times": [{"days": "Mon-Fri", "time": "4:00pm"}, {"days": "Sat", "time": "1:00pm"}, {"days": "Sun", "time": "Closed"}], "id": "0172000020", "name": "USPS COLLECTION BOX - BLUE BOX", "address": {"city": "ACTON", "state": "MA", "street": "256 GREAT RD", "postcode": "01720"}}},
{"geometry": {"type": "Point", "coordinates": [-71.4376905694, 42.4843851513]}, "type": "Feature", "properties": {"collection_times": [{"days": "Mon-Fri", "time": "4:00pm"}, {"days": "Sat", "time": "1:00pm"}, {"days": "Sun", "time": "Closed"}], "id": "0172000022", "name": "USPS COLLECTION BOX - BLUE BOX", "address": {"city": "ACTON", "state": "MA", "street": "2 NONSET PTH", "postcode": "01720"}}},
{"geometry": {"type": "Point", "coordinates": [-71.4198735675, 42.5026691739]}, "type": "Feature", "properties": {"collection_times": [{"days": "Mon-Fri", "time": "4:00pm"}, {"days": "Sat", "time": "1:00pm"}, {"days": "Sun", "time": "Closed"}], "id": "0172000023", "name": "USPS COLLECTION BOX - BLUE BOX", "address": {"city": "ACTON", "state": "MA", "street": "344 GREAT RD", "postcode": "01720"}}},
{"geometry": {"type": "Point", "coordinates": [-71.4396387723, 42.4823130294]}, "type": "Feature", "properties": {"collection_times": [{"days": "Mon-Fri", "time": "4:00pm"}, {"days": "Sat", "time": "1:00pm"}, {"days": "Sun", "time": "Closed"}], "id": "0172000024", "name": "USPS COLLECTION BOX - BLUE BOX", "address": {"city": "ACTON", "state": "MA", "street": "392 GREAT RD", "postcode": "01720"}}},
{"geometry": {"type": "Point", "coordinates": [-71.4562882659, 42.4681961291]}, "type": "Feature", "properties": {"collection_times": [{"days": "Mon-Fri", "time": "2:00pm"}, {"days": "Sat", "time": "1:00pm"}, {"days": "Sun", "time": "Closed"}], "id": "0172000026", "name": "USPS COLLECTION BOX - BLUE BOX", "address": {"city": "ACTON", "state": "MA", "street": "210 MAIN ST", "postcode": "01720"}}},
{"geometry": {"type": "Point", "coordinates": [-71.4286270113, 42.4413511096]}, "type": "Feature", "properties": {"collection_times": [{"days": "Mon-Fri", "time": "2:00pm"}, {"days": "Sat", "time": "1:00pm"}, {"days": "Sun", "time": "Closed"}], "id": "0172000027", "name": "USPS COLLECTION BOX - BLUE BOX", "address": {"city": "ACTON", "state": "MA", "street": "100 POWDERMILL RD", "postcode": "01720"}}},
{"geometry": {"type": "Point", "coordinates": [-71.4396387723, 42.4823130294]}, "type": "Feature", "properties": {"collection_times": [{"days": "Mon-Fri", "time": "4:00pm"}, {"days": "Sat", "time": "1:00pm"}, {"days": "Sun", "time": "Closed"}], "id": "0172000030", "name": "USPS COLLECTION BOX - BLUE BOX", "address": {"city": "ACTON", "state": "MA", "street": "563 MASSACHUSETTS AVE", "postcode": "01720"}}},
{"geometry": {"type": "Point", "coordinates": [-71.4729501099, 42.4772057687]}, "type": "Feature", "properties": {"collection_times": [{"days": "Mon-Fri", "time": "5:00pm"}, {"days": "Sat", "time": "2:30pm"}, {"days": "Sun", "time": "Closed"}], "id": "0172000031", "name": "USPS COLLECTION BOX - BLUE BOX", "address": {"city": "ACTON", "state": "MA", "street": "241 ARLINGTON ST", "postcode": "01720"}}},
{"geometry": {"type": "Point", "coordinates": [-71.4729501099, 42.4772057687]}, "type": "Feature", "properties": {"collection_times": [{"days": "Mon-Fri", "time": "5:00pm"}, {"days": "Sat", "time": "2:30pm"}, {"days": "Sun", "time": "Closed"}], "id": "0172000032", "name": "USPS COLLECTION BOX - BLUE BOX", "address": {"city": "ACTON", "state": "MA", "street": "241 ARLINGTON ST", "postcode": "01720"}}},
{"geometry": {"type": "Point", "coordinates": [-71.4396474621, 42.4823129832]}, "type": "Feature", "properties": {"collection_times": [{"days": "Mon-Fri", "time": "5:15pm"}, {"days": "Sat", "time": "3:00pm"}, {"days": "Sun", "time": "Closed"}], "id": "0172000037", "name": "USPS COLLECTION BOX - EXPRESS", "address": {"city": "ACTON", "state": "MA", "street": "7 POST OFFICE SQ", "postcode": "01720"}}},
{"geometry": {"type": "Point", "coordinates": [-71.4332819469, 42.4858177099]}, "type": "Feature", "properties": {"collection_times": [{"days": "Mon-Fri", "time": "4:00pm"}, {"days": "Sat", "time": "1:00pm"}, {"days": "Sun", "time": "Closed"}], "id": "0172000040", "name": "USPS COLLECTION BOX - BLUE BOX", "address": {"city": "ACTON", "state": "MA", "street": "472 MAIN ST", "postcode": "01720"}}},
{"geometry": {"type": "Point", "coordinates": [-71.4243115691, 42.488379999]}, "type": "Feature", "properties": {"collection_times": [{"days": "Mon-Fri", "time": "5:15pm"}, {"days": "Sat", "time": "3:00pm"}, {"days": "Sun", "time": "Closed"}], "id": "0172000041", "name": "USPS COLLECTION BOX - PO LOBBY", "address": {"city": "ACTON", "state": "MA", "street": "7 POST OFFICE SQ", "postcode": "01720"}}},
{"geometry": {"type": "Point", "coordinates": [-71.4243115691, 42.488379999]}, "type": "Feature", "properties": {"collection_times": [{"days": "Mon-Fri", "time": "5:15pm"}, {"days": "Sat", "time": "3:00pm"}, {"days": "Sun", "time": "Closed"}], "id": "0172000042", "name": "USPS COLLECTION BOX - PO LOBBY", "address": {"city": "ACTON", "state": "MA", "street": "7 POST OFFICE SQ", "postcode": "01720"}}},
{"geometry": {"type": "Point", "coordinates": [-71.4729501099, 42.4772057687]}, "type": "Feature", "properties": {"collection_times": [{"days": "Mon-Fri", "time": "5:00pm"}, {"days": "Sat", "time": "2:30pm"}, {"days": "Sun", "time": "Closed"}], "id": "0172000043", "name": "USPS COLLECTION BOX - PO LOBBY", "address": {"city": "ACTON", "state": "MA", "street": "241 ARLINGTON ST", "postcode": "01720"}}},
{"geometry": {"type": "Point", "coordinates": [-71.4729501099, 42.4772057687]}, "type": "Feature", "properties": {"collection_times": [{"days": "Mon-Fri", "time": "5:00pm"}, {"days": "Sat", "time": "2:30pm"}, {"days": "Sun", "time": "Closed"}], "id": "0172000044", "name": "USPS COLLECTION BOX - PO LOBBY", "address": {"city": "ACTON", "state": "MA", "street": "241 ARLINGTON ST", "postcode": "01720"}}},
{"geometry": {"type": "Point", "coordinates": [-71.4243115691, 42.488379999]}, "type": "Feature", "properties": {"collection_times": [{"days": "Mon-Fri", "time": "5:15pm"}, {"days": "Sat", "time": "3:00pm"}, {"days": "Sun", "time": "Closed"}], "id": "0172000045", "name": "USPS COLLECTION BOX - APC", "address": {"city": "ACTON", "state": "MA", "street": "7 POST OFFICE SQ", "postcode": "01720"}}},
{"geometry": {"type": "Point", "coordinates": [-71.4315938644, 42.2417969346]}, "type": "Feature", "properties": {"collection_times": [{"days": "Mon-Fri", "time": "1:00pm"}, {"days": "Sat", "time": "12:00pm"}, {"days": "Sun", "time": "Closed"}], "id": "0172100001", "name": "USPS COLLECTION BOX - BLUE BOX", "address": {"city": "ASHLAND", "state": "MA", "street": "300 ELIOT ST", "postcode": "01721"}}},
{"geometry": {"type": "Point", "coordinates": [-71.4646788608, 42.2605882378]}, "type": "Feature", "properties": {"collection_times": [{"days": "Mon-Fri", "time": "2:30pm"}, {"days": "Sat", "time": "1:30pm"}, {"days": "Sun", "time": "Closed"}], "id": "0172100002", "name": "USPS COLLECTION BOX - BLUE BOX", "address": {"city": "ASHLAND", "state": "MA", "street": "12 FRONT ST", "postcode": "01721"}}},
{"geometry": {"type": "Point", "coordinates": [-71.4666705077, 42.2622429196]}, "type": "Feature", "properties": {"collection_times": [{"days": "Mon-Fri", "time": "2:30pm"}, {"days": "Sat", "time": "1:30pm"}, {"days": "Sun", "time": "Closed"}], "id": "0172100005", "name": "USPS COLLECTION BOX - BLUE BOX", "address": {"city": "ASHLAND", "state": "MA", "street": "30 MAIN ST", "postcode": "01721"}}},
{"geometry": {"type": "Point", "coordinates": [-71.4638568077, 42.2592776629]}, "type": "Feature", "properties": {"collection_times": [{"days": "Mon-Fri", "time": "5:00pm"}, {"days": "Sat", "time": "3:00pm"}, {"days": "Sun", "time": "Closed"}], "id": "0172100006", "name": "USPS COLLECTION BOX - BLUE BOX", "address": {"city": "ASHLAND", "state": "MA", "street": "205 MAIN ST", "postcode": "01721"}}},
{"geometry": {"type": "Point", "coordinates": [-71.4638568077, 42.2592776629]}, "type": "Feature", "properties": {"collection_times": [{"days": "Mon-Fri", "time": "5:00pm"}, {"days": "Sat", "time": "3:00pm"}, {"days": "Sun", "time": "Closed"}], "id": "0172100007", "name": "USPS COLLECTION BOX - BLUE BOX", "address": {"city": "ASHLAND", "state": "MA", "street": "205 MAIN ST", "postcode": "01721"}}},
{"geometry": {"type": "Point", "coordinates": [-71.4272031631, 42.2559968727]}, "type": "Feature", "properties": {"collection_times": [{"days": "Mon-Fri", "time": "1:00pm"}, {"days": "Sat", "time": "12:00pm"}, {"days": "Sun", "time": "Closed"}], "id": "0172100012", "name": "USPS COLLECTION BOX - BLUE BOX", "address": {"city": "ASHLAND", "state": "MA", "street": "47 POND ST", "postcode": "01721"}}},
{"geometry": {"type": "Point", "coordinates": [-71.4320753287, 42.2402543561]}, "type": "Feature", "properties": {"collection_times": [{"days": "Mon-Sat", "time": "12:00pm"}, {"days": "Sun", "time": "Closed"}], "id": "0172100013", "name": "USPS COLLECTION BOX - BLUE BOX", "address": {"city": "ASHLAND", "state": "MA", "street": "301 POND ST", "postcode": "01721"}}},
{"geometry": {"type": "Point", "coordinates": [-71.4295532602, 42.2394357485]}, "type": "Feature", "properties": {"collection_times": [{"days": "Mon-Sat", "time": "11:00am"}, {"days": "Sun", "time": "Closed"}], "id": "0172100014", "name": "USPS COLLECTION BOX - BLUE BOX", "address": {"city": "ASHLAND", "state": "MA", "street": "42 SPYGLASS HILL DR", "postcode": "01721"}}},
{"geometry": {"type": "Point", "coordinates": [-71.4596866274, 42.2559512317]}, "type": "Feature", "properties": {"collection_times": [{"days": "Mon-Fri", "time": "5:00pm"}, {"days": "Sat", "time": "3:00pm"}, {"days": "Sun", "time": "Closed"}], "id": "0172100019", "name": "USPS COLLECTION BOX - EXPRESS", "address": {"city": "ASHLAND", "state": "MA", "street": "205 MAIN ST", "postcode": "01721"}}},
{"geometry": {"type": "Point", "coordinates": [-71.4646812267, 42.2601055905]}, "type": "Feature", "properties": {"collection_times": [{"days": "Mon-Fri", "time": "1:30pm"}, {"days": "Sat", "time": "12:30pm"}, {"days": "Sun", "time": "Closed"}], "id": "0172100023", "name": "USPS COLLECTION BOX - BLUE BOX", "address": {"city": "ASHLAND", "state": "MA", "street": "171 MAIN ST", "postcode": "01721"}}},
{"geometry": {"type": "Point", "coordinates": [-71.4638568077, 42.2592776629]}, "type": "Feature", "properties": {"collection_times": [{"days": "Mon-Fri", "time": "5:00pm"}, {"days": "Sat", "time": "1:00pm"}, {"days": "Sun", "time": "Closed"}], "id": "0172100025", "name": "USPS COLLECTION BOX - PO LOBBY", "address": {"city": "ASHLAND", "state": "MA", "street": "205 MAIN ST", "postcode": "01721"}}},
{"geometry": {"type": "Point", "coordinates": [-71.4638568077, 42.2592776629]}, "type": "Feature", "properties": {"collection_times": [{"days": "Mon-Fri", "time": "5:00pm"}, {"days": "Sat", "time": "1:00pm"}, {"days": "Sun", "time": "Closed"}], "id": "0172100026", "name": "USPS COLLECTION BOX - PO LOBBY", "address": {"city": "ASHLAND", "state": "MA", "street": "205 MAIN ST", "postcode": "01721"}}},
{"geometry": {"type": "Point", "coordinates": [-71.4638568077, 42.2592776629]}, "type": "Feature", "properties": {"collection_times": [{"days": "Mon-Fri", "time": "5:00pm"}, {"days": "Sat", "time": "1:00pm"}, {"days": "Sun", "time": "Closed"}], "id": "0172100027", "name": "USPS COLLECTION BOX - PO LOBBY", "address": {"city": "ASHLAND", "state": "MA", "street": "205 MAIN ST", "postcode": "01721"}}},
{"geometry": {"type": "Point", "coordinates": [-71.4638568077, 42.2592776629]}, "type": "Feature", "properties": {"collection_times": [{"days": "Mon-Fri", "time": "5:00pm"}, {"days": "Sat", "time": "1:00pm"}, {"days": "Sun", "time": "Closed"}], "id": "0172100028", "name": "USPS COLLECTION BOX - PO LOBBY", "address": {"city": "ASHLAND", "state": "MA", "street": "205 MAIN ST", "postcode": "01721"}}},
{"geometry": {"type": "Point", "coordinates": [-71.4638318622, 42.2604770396]}, "type": "Feature", "properties": {"collection_times": [{"days": "Mon-Fri", "time": "2:30pm"}, {"days": "Sat", "time": "2:00pm"}, {"days": "Sun", "time": "Closed"}], "id": "0172100029", "name": "USPS COLLECTION BOX - BLUE BOX", "address": {"city": "ASHLAND", "state": "MA", "street": "41 FRONT ST", "postcode": "01721"}}},
{"geometry": {"type": "Point", "coordinates": [-71.2613947265, 42.4859764979]}, "type": "Feature", "properties": {"collection_times": [{"days": "Mon-Sat", "time": "11:30am"}, {"days": "Sun", "time": "Closed"}], "id": "0173000002", "name": "USPS COLLECTION BOX - BLUE BOX", "address": {"city": "BEDFORD", "state": "MA", "street": "335 GREAT RD", "postcode": "01730"}}},
{"geometry": {"type": "Point", "coordinates": [-71.2732465263, 42.505447731]}, "type": "Feature", "properties": {"collection_times": [{"days": "Mon-Fri", "time": "3:00pm"}, {"days": "Sat", "time": "2:00pm"}, {"days": "Sun", "time": "Closed"}], "id": "0173000012", "name": "USPS COLLECTION BOX - BLUE BOX", "address": {"city": "BEDFORD", "state": "MA", "street": "200 SPRINGS RD", "postcode": "01730"}}},
{"geometry": {"type": "Point", "coordinates": [-71.2853564772, 42.4963578743]}, "type": "Feature", "properties": {"collection_times": [{"days": "Mon-Fri", "time": "3:00pm"}, {"days": "Sat", "time": "2:00pm"}, {"days": "Sun", "time": "Closed"}], "id": "0173000013", "name": "USPS COLLECTION BOX - BLUE BOX", "address": {"city": "BEDFORD", "state": "MA", "street": "41 NORTH RD", "postcode": "01730"}}},
{"geometry": {"type": "Point", "coordinates": [-71.243301103, 42.5080100201]}, "type": "Feature", "properties": {"collection_times": [{"days": "Mon-Fri", "time": "3:00pm"}, {"days": "Sat", "time": "10:00am"}, {"days": "Sun", "time": "Closed"}], "id": "0173000014", "name": "USPS COLLECTION BOX - BLUE BOX", "address": {"city": "BEDFORD", "state": "MA", "street": "23 CROSBY DR", "postcode": "01730"}}},
{"geometry": {"type": "Point", "coordinates": [-71.2754279788, 42.4950830005]}, "type": "Feature", "properties": {"collection_times": [{"days": "Mon-Fri", "time": "2:30pm"}, {"days": "Sat", "time": "2:00pm"}, {"days": "Sun", "time": "Closed"}], "id": "0173000015", "name": "USPS COLLECTION BOX - BLUE BOX", "address": {"city": "BEDFORD", "state": "MA", "street": "60 GREAT RD", "postcode": "01730"}}},
{"geometry": {"type": "Point", "coordinates": [-71.2749641827, 42.4873389951]}, "type": "Feature", "properties": {"collection_times": [{"days": "Mon-Fri", "time": "4:00pm"}, {"days": "Sat", "time": "2:00pm"}, {"days": "Sun", "time": "Closed"}], "id": "0173000016", "name": "USPS COLLECTION BOX - BLUE BOX", "address": {"city": "BEDFORD", "state": "MA", "street": "50 LOOMIS ST", "postcode": "01730"}}},
{"geometry": {"type": "Point", "coordinates": [-71.2754279792, 42.4950829544]}, "type": "Feature", "properties": {"collection_times": [{"days": "Mon-Fri", "time": "4:00pm"}, {"days": "Sat", "time": "2:00pm"}, {"days": "Sun", "time": "Closed"}], "id": "0173000017", "name": "USPS COLLECTION BOX - EXPRESS", "address": {"city": "BEDFORD", "state": "MA", "street": "50 LOOMIS ST", "postcode": "01730"}}},
{"geometry": {"type": "Point", "coordinates": [-71.2477371991, 42.5185986858]}, "type": "Feature", "properties": {"collection_times": [{"days": "Mon-Fri", "time": "3:00pm"}, {"days": "Sat", "time": "10:00am"}, {"days": "Sun", "time": "Closed"}], "id": "0173000021", "name": "USPS COLLECTION BOX - BLUE BOX", "address": {"city": "BEDFORD", "state": "MA", "street": "2 OAK PARK DR", "postcode": "01730"}}},
{"geometry": {"type": "Point", "coordinates": [-71.2907516465, 42.4628415554]}, "type": "Feature", "properties": {"collection_times": [{"days": "Mon-Sat", "time": "10:00am"}, {"days": "Sun", "time": "Closed"}], "id": "0173000027", "name": "USPS COLLECTION BOX - BLUE BOX", "address": {"city": "BEDFORD", "state": "MA", "street": "200 HANSCOM DR", "postcode": "01730"}}},
{"geometry": {"type": "Point", "coordinates": [-71.2754279788, 42.4950830005]}, "type": "Feature", "properties": {"collection_times": [{"days": "Mon-Fri", "time": "3:00pm"}, {"days": "Sat", "time": "10:00am"}, {"days": "Sun", "time": "Closed"}], "id": "0173000028", "name": "USPS COLLECTION BOX - BLUE BOX", "address": {"city": "BEDFORD", "state": "MA", "street": "98 BARKSDALE ST", "postcode": "01730"}}},
{"geometry": {"type": "Point", "coordinates": [-71.2642379992, 42.4738588563]}, "type": "Feature", "properties": {"collection_times": [{"days": "Mon-Fri", "time": "3:30pm"}, {"days": "Sat", "time": "2:00pm"}, {"days": "Sun", "time": "Closed"}], "id": "0173000029", "name": "USPS COLLECTION BOX - BLUE BOX", "address": {"city": "BEDFORD", "state": "MA", "street": "1 WIGGINS AVE", "postcode": "01730"}}},
{"geometry": {"type": "Point", "coordinates": [-71.2754279792, 42.4950829544]}, "type": "Feature", "properties": {"collection_times": [{"days": "Mon-Fri", "time": "4:00pm"}, {"days": "Sat-Sun", "time": "Closed"}], "id": "0173000031", "name": "USPS COLLECTION BOX - PO LOBBY", "address": {"city": "BEDFORD", "state": "MA", "street": "50 GRIFFISS ST", "postcode": "01730"}}},
{"geometry": {"type": "Point", "coordinates": [-71.2741763842, 42.4899274327]}, "type": "Feature", "properties": {"collection_times": [{"days": "Mon-Fri", "time": "5:00pm"}, {"days": "Sat", "time": "3:00pm"}, {"days": "Sun", "time": "Closed"}], "id": "0173000032", "name": "USPS COLLECTION BOX - BLUE BOX", "address": {"city": "BEDFORD", "state": "MA", "street": "168 GREAT RD", "postcode": "01730"}}},
{"geometry": {"type": "Point", "coordinates": [-71.2741763842, 42.4899274327]}, "type": "Feature", "properties": {"collection_times": [{"days": "Mon-Fri", "time": "5:00pm"}, {"days": "Sat", "time": "3:00pm"}, {"days": "Sun", "time": "Closed"}], "id": "0173000034", "name": "USPS COLLECTION BOX - BLUE BOX", "address": {"city": "BEDFORD", "state": "MA", "street": "168 GREAT RD", "postcode": "01730"}}},
{"geometry": {"type": "Point", "coordinates": [-71.2754279788, 42.4950830005]}, "type": "Feature", "properties": {"collection_times": [{"days": "Mon-Fri", "time": "1:00pm"}, {"days": "Sat", "time": "10:00am"}, {"days": "Sun", "time": "Closed"}], "id": "0173000035", "name": "USPS COLLECTION BOX - BLUE BOX", "address": {"city": "BEDFORD", "state": "MA", "street": "19 CROSBY DR", "postcode": "01730"}}},
{"geometry": {"type": "Point", "coordinates": [-71.5510082397, 42.4412816913]}, "type": "Feature", "properties": {"collection_times": [{"days": "Mon-Fri", "time": "5:00pm"}, {"days": "Sat", "time": "1:00pm"}, {"days": "Sun", "time": "Closed"}], "id": "0174000001", "name": "USPS COLLECTION BOX - BLUE BOX", "address": {"city": "BOLTON", "state": "MA", "street": "1092 MAIN ST", "postcode": "01740"}}},
{"geometry": {"type": "Point", "coordinates": [-71.5510082397, 42.4412816913]}, "type": "Feature", "properties": {"collection_times": [{"days": "Mon-Fri", "time": "5:00pm"}, {"days": "Sat", "time": "1:00pm"}, {"days": "Sun", "time": "Closed"}], "id": "0174000002", "name": "USPS COLLECTION BOX - BLUE BOX", "address": {"city": "BOLTON", "state": "MA", "street": "1092 MAIN ST", "postcode": "01740"}}},
{"geometry": {"type": "Point", "coordinates": [-71.6082771252, 42.4331840517]}, "type": "Feature", "properties": {"collection_times": [{"days": "Mon-Sat", "time": "11:00am"}, {"days": "Sun", "time": "Closed"}], "id": "0174000003", "name": "USPS COLLECTION BOX - BLUE BOX", "address": {"city": "BOLTON", "state": "MA", "street": "739 MAIN ST", "postcode": "01740"}}},
{"geometry": {"type": "Point", "coordinates": [-71.5510082397, 42.4412816913]}, "type": "Feature", "properties": {"collection_times": [{"days": "Mon-Fri", "time": "5:00pm"}, {"days": "Sat", "time": "1:00pm"}, {"days": "Sun", "time": "Closed"}], "id": "0174000004", "name": "USPS COLLECTION BOX - PO LOBBY", "address": {"city": "BOLTON", "state": "MA", "street": "1092 MAIN ST", "postcode": "01740"}}},
{"geometry": {"type": "Point", "coordinates": [-71.6082771252, 42.4331840517]}, "type": "Feature", "properties": {"collection_times": [{"days": "Mon-Sat", "time": "9:30am"}, {"days": "Sun", "time": "Closed"}], "id": "0174000006", "name": "USPS COLLECTION BOX - BLUE BOX", "address": {"city": "BOLTON", "state": "MA", "street": "476 MAIN ST", "postcode": "01740"}}},
{"geometry": {"type": "Point", "coordinates": [-71.3458754749, 42.5291518627]}, "type": "Feature", "properties": {"collection_times": [{"days": "Mon-Fri", "time": "5:00pm"}, {"days": "Sat", "time": "1:30pm"}, {"days": "Sun", "time": "Closed"}], "id": "0174100001", "name": "USPS COLLECTION BOX - BLUE BOX", "address": {"city": "CARLISLE", "state": "MA", "street": "70 BEDFORD RD", "postcode": "01741"}}},
{"geometry": {"type": "Point", "coordinates": [-71.3458754749, 42.5291518627]}, "type": "Feature", "properties": {"collection_times": [{"days": "Mon-Fri", "time": "5:00pm"}, {"days": "Sat", "time": "1:30pm"}, {"days": "Sun", "time": "Closed"}], "id": "0174100002", "name": "USPS COLLECTION BOX - BLUE BOX", "address": {"city": "CARLISLE", "state": "MA", "street": "70 BEDFORD RD", "postcode": "01741"}}},
{"geometry": {"type": "Point", "coordinates": [-71.3458754749, 42.5291518627]}, "type": "Feature", "properties": {"collection_times": [{"days": "Mon-Fri", "time": "5:00pm"}, {"days": "Sat", "time": "1:30pm"}, {"days": "Sun", "time": "Closed"}], "id": "0174100003", "name": "USPS COLLECTION BOX - PO LOBBY", "address": {"city": "CARLISLE", "state": "MA", "street": "70 BEDFORD RD", "postcode": "01741"}}},
{"geometry": {"type": "Point", "coordinates": [-71.3458754749, 42.5291518627]}, "type": "Feature", "properties": {"collection_times": [{"days": "Mon-Fri", "time": "5:00pm"}, {"days": "Sat", "time": "1:30pm"}, {"days": "Sun", "time": "Closed"}], "id": "0174100004", "name": "USPS COLLECTION BOX - PO LOBBY", "address": {"city": "CARLISLE", "state": "MA", "street": "70 BEDFORD RD", "postcode": "01741"}}},
{"geometry": {"type": "Point", "coordinates": [-71.3496502969, 42.4590686418]}, "type": "Feature", "properties": {"collection_times": [{"days": "Mon-Fri", "time": "5:00pm"}, {"days": "Sat", "time": "1:00pm"}, {"days": "Sun", "time": "Closed"}], "id": "0174200002", "name": "USPS COLLECTION BOX - BLUE BOX", "address": {"city": "CONCORD", "state": "MA", "street": "34 WALDEN ST", "postcode": "01742"}}},
{"geometry": {"type": "Point", "coordinates": [-71.3496502969, 42.4590686418]}, "type": "Feature", "properties": {"collection_times": [{"days": "Mon-Fri", "time": "5:00pm"}, {"days": "Sat", "time": "1:00pm"}, {"days": "Sun", "time": "Closed"}], "id": "0174200004", "name": "USPS COLLECTION BOX - BLUE BOX", "address": {"city": "CONCORD", "state": "MA", "street": "34 WALDEN ST", "postcode": "01742"}}},
{"geometry": {"type": "Point", "coordinates": [-71.3496502969, 42.4590686418]}, "type": "Feature", "properties": {"collection_times": [{"days": "Mon-Fri", "time": "5:00pm"}, {"days": "Sat", "time": "1:00pm"}, {"days": "Sun", "time": "Closed"}], "id": "0174200007", "name": "USPS COLLECTION BOX - BLUE BOX", "address": {"city": "CONCORD", "state": "MA", "street": "34 WALDEN ST", "postcode": "01742"}}},
{"geometry": {"type": "Point", "coordinates": [-71.3496502969, 42.4590686418]}, "type": "Feature", "properties": {"collection_times": [{"days": "Mon-Fri", "time": "5:00pm"}, {"days": "Sat", "time": "1:00pm"}, {"days": "Sun", "time": "Closed"}], "id": "0174200008", "name": "USPS COLLECTION BOX - BLUE BOX", "address": {"city": "CONCORD", "state": "MA", "street": "34 WALDEN ST", "postcode": "01742"}}},
{"geometry": {"type": "Point", "coordinates": [-71.3490485086, 42.4610125013]}, "type": "Feature", "properties": {"collection_times": [{"days": "Mon-Fri", "time": "4:00pm"}, {"days": "Sat", "time": "10:30am"}, {"days": "Sun", "time": "Closed"}], "id": "0174200009", "name": "USPS COLLECTION BOX - BLUE BOX", "address": {"city": "CONCORD", "state": "MA", "street": "166 MAIN ST", "postcode": "01742"}}},
{"geometry": {"type": "Point", "coordinates": [-71.3576258063, 42.4569274861]}, "type": "Feature", "properties": {"collection_times": [{"days": "Mon-Fri", "time": "4:00pm"}, {"days": "Sat", "time": "10:00am"}, {"days": "Sun", "time": "Closed"}], "id": "0174200010", "name": "USPS COLLECTION BOX - BLUE BOX", "address": {"city": "CONCORD", "state": "MA", "street": "73 THOREAU ST", "postcode": "01742"}}},
{"geometry": {"type": "Point", "coordinates": [-71.3490485086, 42.4610125013]}, "type": "Feature", "properties": {"collection_times": [{"days": "Mon-Fri", "time": "4:00pm"}, {"days": "Sat", "time": "10:00am"}, {"days": "Sun", "time": "Closed"}], "id": "0174200012", "name": "USPS COLLECTION BOX - BLUE BOX", "address": {"city": "CONCORD", "state": "MA", "street": "199 SUDBURY RD", "postcode": "01742"}}},
{"geometry": {"type": "Point", "coordinates": [-71.374728735, 42.4553218549]}, "type": "Feature", "properties": {"collection_times": [{"days": "Mon-Fri", "time": "4:15pm"}, {"days": "Sat", "time": "10:30am"}, {"days": "Sun", "time": "Closed"}], "id": "0174200014", "name": "USPS COLLECTION BOX - BLUE BOX", "address": {"city": "CONCORD", "state": "MA", "street": "131 OLD RD TO 9 ACRE COR", "postcode": "01742"}}},
{"geometry": {"type": "Point", "coordinates": [-71.3490485086, 42.4610125013]}, "type": "Feature", "properties": {"collection_times": [{"days": "Mon-Fri", "time": "4:15pm"}, {"days": "Sat", "time": "10:30am"}, {"days": "Sun", "time": "Closed"}], "id": "0174200015", "name": "USPS COLLECTION BOX - BLUE BOX", "address": {"city": "CONCORD", "state": "MA", "street": "133 OLD RD TO 9 ACRE COR", "postcode": "01742"}}},
{"geometry": {"type": "Point", "coordinates": [-71.3844399371, 42.4595595698]}, "type": "Feature", "properties": {"collection_times": [{"days": "Mon-Fri", "time": "4:20pm"}, {"days": "Sat", "time": "10:30am"}, {"days": "Sun", "time": "Closed"}], "id": "0174200018", "name": "USPS COLLECTION BOX - BLUE BOX", "address": {"city": "CONCORD", "state": "MA", "street": "200 BAKER AVE", "postcode": "01742"}}},
{"geometry": {"type": "Point", "coordinates": [-71.3928112447, 42.4562185137]}, "type": "Feature", "properties": {"collection_times": [{"days": "Mon-Fri", "time": "4:25pm"}, {"days": "Sat", "time": "10:30am"}, {"days": "Sun", "time": "Closed"}], "id": "0174200020", "name": "USPS COLLECTION BOX - BLUE BOX", "address": {"city": "CONCORD", "state": "MA", "street": "1212 MAIN ST", "postcode": "01742"}}},
{"geometry": {"type": "Point", "coordinates": [-71.3765749801, 42.455527101]}, "type": "Feature", "properties": {"collection_times": [{"days": "Mon-Fri", "time": "4:30pm"}, {"days": "Sat", "time": "10:30am"}, {"days": "Sun", "time": "Closed"}], "id": "0174200023", "name": "USPS COLLECTION BOX - BLUE BOX", "address": {"city": "CONCORD", "state": "MA", "street": "801 MAIN ST", "postcode": "01742"}}},
{"geometry": {"type": "Point", "coordinates": [-71.3490485086, 42.4610125013]}, "type": "Feature", "properties": {"collection_times": [{"days": "Mon-Fri", "time": "4:30pm"}, {"days": "Sat", "time": "10:30am"}, {"days": "Sun", "time": "Closed"}], "id": "0174200024", "name": "USPS COLLECTION BOX - BLUE BOX", "address": {"city": "CONCORD", "state": "MA", "street": "97 LOWELL RD", "postcode": "01742"}}},
{"geometry": {"type": "Point", "coordinates": [-71.374728735, 42.4553218549]}, "type": "Feature", "properties": {"collection_times": [{"days": "Mon-Fri", "time": "5:00pm"}, {"days": "Sat", "time": "1:00pm"}, {"days": "Sun", "time": "Closed"}], "id": "0174200031", "name": "USPS COLLECTION BOX - BLUE BOX", "address": {"city": "CONCORD", "state": "MA", "street": "35 BEHARRELL ST", "postcode": "01742"}}},
{"geometry": {"type": "Point", "coordinates": [-71.3490312132, 42.4611011445]}, "type": "Feature", "properties": {"collection_times": [{"days": "Mon-Fri", "time": "4:30pm"}, {"days": "Sat", "time": "10:00am"}, {"days": "Sun", "time": "Closed"}], "id": "0174200037", "name": "USPS COLLECTION BOX - BLUE BOX", "address": {"city": "CONCORD", "state": "MA", "street": "30 MONUMENT SQ", "postcode": "01742"}}},
{"geometry": {"type": "Point", "coordinates": [-71.3496502969, 42.4590686418]}, "type": "Feature", "properties": {"collection_times": [{"days": "Mon-Fri", "time": "5:00pm"}, {"days": "Sat", "time": "1:00pm"}, {"days": "Sun", "time": "Closed"}], "id": "0174200041", "name": "USPS COLLECTION BOX - PO LOBBY", "address": {"city": "CONCORD", "state": "MA", "street": "34 WALDEN ST", "postcode": "01742"}}},
{"geometry": {"type": "Point", "coordinates": [-71.3496502969, 42.4590686418]}, "type": "Feature", "properties": {"collection_times": [{"days": "Mon-Fri", "time": "5:00pm"}, {"days": "Sat", "time": "1:00pm"}, {"days": "Sun", "time": "Closed"}], "id": "0174200043", "name": "USPS COLLECTION BOX - PO LOBBY", "address": {"city": "CONCORD", "state": "MA", "street": "34 WALDEN ST", "postcode": "01742"}}},
{"geometry": {"type": "Point", "coordinates": [-71.3946056403, 42.4577848622]}, "type": "Feature", "properties": {"collection_times": [{"days": "Mon-Fri", "time": "5:00pm"}, {"days": "Sat", "time": "1:00pm"}, {"days": "Sun", "time": "Closed"}], "id": "0174200045", "name": "USPS COLLECTION BOX - PO LOBBY", "address": {"city": "CONCORD", "state": "MA", "street": "35 BEHARRELL ST", "postcode": "01742"}}},
{"geometry": {"type": "Point", "coordinates": [-71.3946056403, 42.4577848622]}, "type": "Feature", "properties": {"collection_times": [{"days": "Mon-Fri", "time": "5:00pm"}, {"days": "Sat", "time": "1:00pm"}, {"days": "Sun", "time": "Closed"}], "id": "0174200046", "name": "USPS COLLECTION BOX - PO LOBBY", "address": {"city": "CONCORD", "state": "MA", "street": "35 BEHARRELL ST", "postcode": "01742"}}},
{"geometry": {"type": "Point", "coordinates": [-71.3747287349, 42.4553304991]}, "type": "Feature", "properties": {"collection_times": [{"days": "Mon-Fri", "time": "4:30pm"}, {"days": "Sat-Sun", "time": "Closed"}], "id": "0174200049", "name": "USPS COLLECTION BOX - BLUE BOX", "address": {"city": "CONCORD", "state": "MA", "street": "23 BRADFORD ST", "postcode": "01742"}}},
{"geometry": {"type": "Point", "coordinates": [-71.374728735, 42.4553218549]}, "type": "Feature", "properties": {"collection_times": [{"days": "Mon-Fri", "time": "10:00am"}, {"days": "Sat-Sun", "time": "Closed"}], "id": "0174200050", "name": "USPS COLLECTION BOX - BLUE BOX", "address": {"city": "CONCORD", "state": "MA", "street": "1627 SUDBURY RD", "postcode": "01742"}}},
{"geometry": {"type": "Point", "coordinates": [-71.4800694056, 42.1658340678]}, "type": "Feature", "properties": {"collection_times": [{"days": "Mon-Fri", "time": "5:00pm"}, {"days": "Sat", "time": "3:00pm"}, {"days": "Sun", "time": "Closed"}], "id": "0174600001", "name": "USPS COLLECTION BOX - BLUE BOX", "address": {"city": "HOLLISTON", "state": "MA", "street": "1661 WASHINGTON ST", "postcode": "01746"}}},
{"geometry": {"type": "Point", "coordinates": [-71.4800694056, 42.1658340678]}, "type": "Feature", "properties": {"collection_times": [{"days": "Mon-Fri", "time": "5:00pm"}, {"days": "Sat", "time": "3:00pm"}, {"days": "Sun", "time": "Closed"}], "id": "0174600002", "name": "USPS COLLECTION BOX - BLUE BOX", "address": {"city": "HOLLISTON", "state": "MA", "street": "1661 WASHINGTON ST", "postcode": "01746"}}},
{"geometry": {"type": "Point", "coordinates": [-71.4800694056, 42.1658340678]}, "type": "Feature", "properties": {"collection_times": [{"days": "Mon-Fri", "time": "5:00pm"}, {"days": "Sat", "time": "3:00pm"}, {"days": "Sun", "time": "Closed"}], "id": "0174600003", "name": "USPS COLLECTION BOX - EXPRESS", "address": {"city": "HOLLISTON", "state": "MA", "street": "1661 WASHINGTON ST", "postcode": "01746"}}},
{"geometry": {"type": "Point", "coordinates": [-71.4258837215, 42.2000361172]}, "type": "Feature", "properties": {"collection_times": [{"days": "Mon-Sat", "time": "3:00pm"}, {"days": "Sun", "time": "Closed"}], "id": "0174600004", "name": "USPS COLLECTION BOX - BLUE BOX", "address": {"city": "HOLLISTON", "state": "MA", "street": "101 CENTRAL ST", "postcode": "01746"}}},
{"geometry": {"type": "Point", "coordinates": [-71.4248143266, 42.2020684407]}, "type": "Feature", "properties": {"collection_times": [{"days": "Mon-Sat", "time": "2:00pm"}, {"days": "Sun", "time": "Closed"}], "id": "0174600006", "name": "USPS COLLECTION BOX - BLUE BOX", "address": {"city": "HOLLISTON", "state": "MA", "street": "84 ELM ST", "postcode": "01746"}}},
{"geometry": {"type": "Point", "coordinates": [-71.4289428534, 42.1969048249]}, "type": "Feature", "properties": {"collection_times": [{"days": "Mon-Sat", "time": "2:00pm"}, {"days": "Sun", "time": "Closed"}], "id": "0174600008", "name": "USPS COLLECTION BOX - BLUE BOX", "address": {"city": "HOLLISTON", "state": "MA", "street": "57 SCHOOL ST", "postcode": "01746"}}},
{"geometry": {"type": "Point", "coordinates": [-71.4255927252, 42.2112802183]}, "type": "Feature", "properties": {"collection_times": [{"days": "Mon-Sat", "time": "2:00pm"}, {"days": "Sun", "time": "Closed"}], "id": "0174600010", "name": "USPS COLLECTION BOX - BLUE BOX", "address": {"city": "HOLLISTON", "state": "MA", "street": "414 WASHINGTON ST", "postcode": "01746"}}},
{"geometry": {"type": "Point", "coordinates": [-71.4800694056, 42.1658340678]}, "type": "Feature", "properties": {"collection_times": [{"days": "Mon-Sat", "time": "2:00pm"}, {"days": "Sun", "time": "Closed"}], "id": "0174600011", "name": "USPS COLLECTION BOX - BLUE BOX", "address": {"city": "HOLLISTON", "state": "MA", "street": "492 WASHINGTON ST", "postcode": "01746"}}},
{"geometry": {"type": "Point", "coordinates": [-71.4290469538, 42.2020069269]}, "type": "Feature", "properties": {"collection_times": [{"days": "Mon-Sat", "time": "3:00pm"}, {"days": "Sun", "time": "Closed"}], "id": "0174600012", "name": "USPS COLLECTION BOX - BLUE BOX", "address": {"city": "HOLLISTON", "state": "MA", "street": "703 WASHINGTON ST", "postcode": "01746"}}},
{"geometry": {"type": "Point", "coordinates": [-71.4296384333, 42.2003093808]}, "type": "Feature", "properties": {"collection_times": [{"days": "Mon-Sat", "time": "3:00pm"}, {"days": "Sun", "time": "Closed"}], "id": "0174600013", "name": "USPS COLLECTION BOX - BLUE BOX", "address": {"city": "HOLLISTON", "state": "MA", "street": "755 WASHINGTON ST", "postcode": "01746"}}},
{"geometry": {"type": "Point", "coordinates": [-71.4800694056, 42.1658340678]}, "type": "Feature", "properties": {"collection_times": [{"days": "Mon-Sat", "time": "3:00pm"}, {"days": "Sun", "time": "Closed"}], "id": "0174600014", "name": "USPS COLLECTION BOX - BLUE BOX", "address": {"city": "HOLLISTON", "state": "MA", "street": "776 WASHINGTON ST", "postcode": "01746"}}},
{"geometry": {"type": "Point", "coordinates": [-71.430538665, 42.1986899099]}, "type": "Feature", "properties": {"collection_times": [{"days": "Mon-Sat", "time": "3:00pm"}, {"days": "Sun", "time": "Closed"}], "id": "0174600017", "name": "USPS COLLECTION BOX - BLUE BOX", "address": {"city": "HOLLISTON", "state": "MA", "street": "847 WASHINGTON ST", "postcode": "01746"}}},
{"geometry": {"type": "Point", "coordinates": [-71.4278463174, 42.1998757979]}, "type": "Feature", "properties": {"collection_times": [{"days": "Mon-Sat", "time": "3:00pm"}, {"days": "Sun", "time": "Closed"}], "id": "0174600019", "name": "USPS COLLECTION BOX - BLUE BOX", "address": {"city": "HOLLISTON", "state": "MA", "street": "58 CENTRAL ST", "postcode": "01746"}}},
{"geometry": {"type": "Point", "coordinates": [-71.4800694056, 42.1658340678]}, "type": "Feature", "properties": {"collection_times": [{"days": "Mon-Fri", "time": "5:00pm"}, {"days": "Sat", "time": "3:00pm"}, {"days": "Sun", "time": "Closed"}], "id": "0174600022", "name": "USPS COLLECTION BOX - BLUE BOX", "address": {"city": "HOLLISTON", "state": "MA", "street": "1661 WASHINGTON ST", "postcode": "01746"}}},
{"geometry": {"type": "Point", "coordinates": [-71.4261335793, 42.1979162027]}, "type": "Feature", "properties": {"collection_times": [{"days": "Mon-Sat", "time": "3:00pm"}, {"days": "Sun", "time": "Closed"}], "id": "0174600024", "name": "USPS COLLECTION BOX - BLUE BOX", "address": {"city": "HOLLISTON", "state": "MA", "street": "13 WATER ST", "postcode": "01746"}}},
{"geometry": {"type": "Point", "coordinates": [-71.4800694056, 42.1658340678]}, "type": "Feature", "properties": {"collection_times": [{"days": "Mon-Fri", "time": "5:30pm"}, {"days": "Sat", "time": "3:30pm"}, {"days": "Sun", "time": "Closed"}], "id": "0174600025", "name": "USPS COLLECTION BOX - PO LOBBY", "address": {"city": "HOLLISTON", "state": "MA", "street": "1661 WASHINGTON ST", "postcode": "01746"}}},
{"geometry": {"type": "Point", "coordinates": [-71.4800694056, 42.1658340678]}, "type": "Feature", "properties": {"collection_times": [{"days": "Mon-Fri", "time": "5:30pm"}, {"days": "Sat", "time": "3:30pm"}, {"days": "Sun", "time": "Closed"}], "id": "0174600026", "name": "USPS COLLECTION BOX - PO LOBBY", "address": {"city": "HOLLISTON", "state": "MA", "street": "1661 WASHINGTON ST", "postcode": "01746"}}},
{"geometry": {"type": "Point", "coordinates": [-71.4800694056, 42.1658340678]}, "type": "Feature", "properties": {"collection_times": [{"days": "Mon-Fri", "time": "5:30pm"}, {"days": "Sat", "time": "3:30pm"}, {"days": "Sun", "time": "Closed"}], "id": "0174600027", "name": "USPS COLLECTION BOX - PO LOBBY", "address": {"city": "HOLLISTON", "state": "MA", "street": "1661 WASHINGTON ST", "postcode": "01746"}}},
{"geometry": {"type": "Point", "coordinates": [-71.4800694056, 42.1658340678]}, "type": "Feature", "properties": {"collection_times": [{"days": "Mon-Fri", "time": "5:30pm"}, {"days": "Sat", "time": "3:30pm"}, {"days": "Sun", "time": "Closed"}], "id": "0174600028", "name": "USPS COLLECTION BOX - PO LOBBY", "address": {"city": "HOLLISTON", "state": "MA", "street": "1661 WASHINGTON ST", "postcode": "01746"}}},
{"geometry": {"type": "Point", "coordinates": [-71.4443355155, 42.1792775533]}, "type": "Feature", "properties": {"collection_times": [{"days": "Mon-Sat", "time": "2:00pm"}, {"days": "Sun", "time": "Closed"}], "id": "0174600030", "name": "USPS COLLECTION BOX - BLUE BOX", "address": {"city": "HOLLISTON", "state": "MA", "street": "100 SUMMER ST", "postcode": "01746"}}},
{"geometry": {"type": "Point", "coordinates": [-71.5357589837, 42.1253142963]}, "type": "Feature", "properties": {"collection_times": [{"days": "Mon-Fri", "time": "5:00pm"}, {"days": "Sat", "time": "2:30pm"}, {"days": "Sun", "time": "Closed"}], "id": "0174700002", "name": "USPS COLLECTION BOX - EXPRESS", "address": {"city": "HOPEDALE", "state": "MA", "street": "80 HOPEDALE ST", "postcode": "01747"}}},
{"geometry": {"type": "Point", "coordinates": [-71.5142778592, 42.1063008238]}, "type": "Feature", "properties": {"collection_times": [{"days": "Mon-Sat", "time": "11:00am"}, {"days": "Sun", "time": "Closed"}], "id": "0174700004", "name": "USPS COLLECTION BOX - BLUE BOX", "address": {"city": "HOPEDALE", "state": "MA", "street": "2 AIRPORT RD", "postcode": "01747"}}},
{"geometry": {"type": "Point", "coordinates": [-71.5025394624, 42.1039975937]}, "type": "Feature", "properties": {"collection_times": [{"days": "Mon-Sat", "time": "10:15am"}, {"days": "Sun", "time": "Closed"}], "id": "0174700005", "name": "USPS COLLECTION BOX - BLUE BOX", "address": {"city": "HOPEDALE", "state": "MA", "street": "4 CHARLESVIEW RD", "postcode": "01747"}}},
{"geometry": {"type": "Point", "coordinates": [-71.5357589837, 42.1253142963]}, "type": "Feature", "properties": {"collection_times": [{"days": "Mon-Sat", "time": "10:15am"}, {"days": "Sun", "time": "Closed"}], "id": "0174700008", "name": "USPS COLLECTION BOX - EXPRESS", "address": {"city": "HOPEDALE", "state": "MA", "street": "4 EVERGREEN LN", "postcode": "01747"}}},
{"geometry": {"type": "Point", "coordinates": [-71.5061604998, 42.1058098868]}, "type": "Feature", "properties": {"collection_times": [{"days": "Mon-Sat", "time": "10:15am"}, {"days": "Sun", "time": "Closed"}], "id": "0174700009", "name": "USPS COLLECTION BOX - BLUE BOX", "address": {"city": "HOPEDALE", "state": "MA", "street": "4 EVERGREEN LN", "postcode": "01747"}}},
{"geometry": {"type": "Point", "coordinates": [-71.5375806808, 42.127042321]}, "type": "Feature", "properties": {"collection_times": [{"days": "Mon-Sat", "time": "11:00am"}, {"days": "Sun", "time": "Closed"}], "id": "0174700011", "name": "USPS COLLECTION BOX - BLUE BOX", "address": {"city": "HOPEDALE", "state": "MA", "street": "114 HOPEDALE ST", "postcode": "01747"}}},
{"geometry": {"type": "Point", "coordinates": [-71.5393980979, 42.1288267194]}, "type": "Feature", "properties": {"collection_times": [{"days": "Mon-Fri", "time": "5:00pm"}, {"days": "Sat", "time": "2:30pm"}, {"days": "Sun", "time": "Closed"}], "id": "0174700017", "name": "USPS COLLECTION BOX - BLUE BOX", "address": {"city": "HOPEDALE", "state": "MA", "street": "80 HOPEDALE ST", "postcode": "01747"}}},
{"geometry": {"type": "Point", "coordinates": [-71.5393980979, 42.1288267194]}, "type": "Feature", "properties": {"collection_times": [{"days": "Mon-Fri", "time": "5:00pm"}, {"days": "Sat", "time": "2:30pm"}, {"days": "Sun", "time": "Closed"}], "id": "0174700021", "name": "USPS COLLECTION BOX - PO LOBBY", "address": {"city": "HOPEDALE", "state": "MA", "street": "80 HOPEDALE ST", "postcode": "01747"}}},
{"geometry": {"type": "Point", "coordinates": [-71.5338839787, 42.1155218099]}, "type": "Feature", "properties": {"collection_times": [{"days": "Mon-Sat", "time": "1:00pm"}, {"days": "Sun", "time": "Closed"}], "id": "0174700022", "name": "USPS COLLECTION BOX - BLUE BOX", "address": {"city": "HOPEDALE", "state": "MA", "street": "13 LAURELWOOD DR", "postcode": "01747"}}},
{"geometry": {"type": "Point", "coordinates": [-71.5223942457, 42.2298135603]}, "type": "Feature", "properties": {"collection_times": [{"days": "Mon-Fri", "time": "5:00pm"}, {"days": "Sat", "time": "1:00pm"}, {"days": "Sun", "time": "Closed"}], "id": "0174800001", "name": "USPS COLLECTION BOX - BLUE BOX", "address": {"city": "HOPKINTON", "state": "MA", "street": "5 CEDAR ST", "postcode": "01748"}}},
{"geometry": {"type": "Point", "coordinates": [-71.5322264943, 42.2209131074]}, "type": "Feature", "properties": {"collection_times": [{"days": "Mon-Fri", "time": "5:00pm"}, {"days": "Sat", "time": "1:00pm"}, {"days": "Sun", "time": "Closed"}], "id": "0174800003", "name": "USPS COLLECTION BOX - EXPRESS", "address": {"city": "HOPKINTON", "state": "MA", "street": "5 CEDAR ST", "postcode": "01748"}}},
{"geometry": {"type": "Point", "coordinates": [-71.5286045244, 42.2256482696]}, "type": "Feature", "properties": {"collection_times": [{"days": "Mon-Sat", "time": "10:00am"}, {"days": "Sun", "time": "Closed"}], "id": "0174800007", "name": "USPS COLLECTION BOX - BLUE BOX", "address": {"city": "HOPKINTON", "state": "MA", "street": "115 MAIN ST", "postcode": "01748"}}},
{"geometry": {"type": "Point", "coordinates": [-71.542483603, 42.2174372538]}, "type": "Feature", "properties": {"collection_times": [{"days": "Mon-Sat", "time": "10:00am"}, {"days": "Sun", "time": "Closed"}], "id": "0174800012", "name": "USPS COLLECTION BOX - BLUE BOX", "address": {"city": "HOPKINTON", "state": "MA", "street": "80 ELM ST", "postcode": "01748"}}},
{"geometry": {"type": "Point", "coordinates": [-71.5322264943, 42.2209131074]}, "type": "Feature", "properties": {"collection_times": [{"days": "Mon-Sat", "time": "10:00am"}, {"days": "Sun", "time": "Closed"}], "id": "0174800013", "name": "USPS COLLECTION BOX - EXPRESS", "address": {"city": "HOPKINTON", "state": "MA", "street": "80 ELM ST", "postcode": "01748"}}},
{"geometry": {"type": "Point", "coordinates": [-71.5448539046, 42.2052825402]}, "type": "Feature", "properties": {"collection_times": [{"days": "Mon-Sat", "time": "10:00am"}, {"days": "Sun", "time": "Closed"}], "id": "0174800014", "name": "USPS COLLECTION BOX - BLUE BOX", "address": {"city": "HOPKINTON", "state": "MA", "street": "75 SOUTH ST", "postcode": "01748"}}},
{"geometry": {"type": "Point", "coordinates": [-71.5223942457, 42.2298135603]}, "type": "Feature", "properties": {"collection_times": [{"days": "Mon-Fri", "time": "5:00pm"}, {"days": "Sat", "time": "1:00pm"}, {"days": "Sun", "time": "Closed"}], "id": "0174800018", "name": "USPS COLLECTION BOX - PO LOBBY", "address": {"city": "HOPKINTON", "state": "MA", "street": "5 CEDAR ST", "postcode": "01748"}}},
{"geometry": {"type": "Point", "coordinates": [-71.5223942457, 42.2298135603]}, "type": "Feature", "properties": {"collection_times": [{"days": "Mon-Fri", "time": "5:00pm"}, {"days": "Sat", "time": "1:00pm"}, {"days": "Sun", "time": "Closed"}], "id": "0174800019", "name": "USPS COLLECTION BOX - PO LOBBY", "address": {"city": "HOPKINTON", "state": "MA", "street": "5 CEDAR ST", "postcode": "01748"}}},
{"geometry": {"type": "Point", "coordinates": [-71.5223942457, 42.2298135603]}, "type": "Feature", "properties": {"collection_times": [{"days": "Mon-Fri", "time": "5:00pm"}, {"days": "Sat", "time": "1:00pm"}, {"days": "Sun", "time": "Closed"}], "id": "0174800021", "name": "USPS COLLECTION BOX - BLUE BOX", "address": {"city": "HOPKINTON", "state": "MA", "street": "5 CEDAR ST", "postcode": "01748"}}},
{"geometry": {"type": "Point", "coordinates": [-71.5223942457, 42.2298135603]}, "type": "Feature", "properties": {"collection_times": [{"days": "Mon-Fri", "time": "5:00pm"}, {"days": "Sat", "time": "1:00pm"}, {"days": "Sun", "time": "Closed"}], "id": "0174800022", "name": "USPS COLLECTION BOX - PO LOBBY", "address": {"city": "HOPKINTON", "state": "MA", "street": "5 CEDAR ST", "postcode": "01748"}}},
{"geometry": {"type": "Point", "coordinates": [-71.5223942457, 42.2298135603]}, "type": "Feature", "properties": {"collection_times": [{"days": "Mon-Fri", "time": "5:00pm"}, {"days": "Sat", "time": "1:00pm"}, {"days": "Sun", "time": "Closed"}], "id": "0174800023", "name": "USPS COLLECTION BOX - PO LOBBY", "address": {"city": "HOPKINTON", "state": "MA", "street": "5 CEDAR ST", "postcode": "01748"}}},
{"geometry": {"type": "Point", "coordinates": [-71.5668458237, 42.3930677921]}, "type": "Feature", "properties": {"collection_times": [{"days": "Mon-Fri", "time": "5:00pm"}, {"days": "Sat", "time": "4:00pm"}, {"days": "Sun", "time": "Closed"}], "id": "0174900001", "name": "USPS COLLECTION BOX - BLUE BOX", "address": {"city": "HUDSON", "state": "MA", "street": "25 CHURCH ST", "postcode": "01749"}}},
{"geometry": {"type": "Point", "coordinates": [-71.5613684461, 42.3913329131]}, "type": "Feature", "properties": {"collection_times": [{"days": "Mon-Fri", "time": "5:00pm"}, {"days": "Sat", "time": "4:00pm"}, {"days": "Sun", "time": "Closed"}], "id": "0174900003", "name": "USPS COLLECTION BOX - EXPRESS", "address": {"city": "HUDSON", "state": "MA", "street": "25 CHURCH ST", "postcode": "01749"}}},
{"geometry": {"type": "Point", "coordinates": [-71.5453278211, 42.3887904733]}, "type": "Feature", "properties": {"collection_times": [{"days": "Mon-Sat", "time": "11:00am"}, {"days": "Sun", "time": "Closed"}], "id": "0174900005", "name": "USPS COLLECTION BOX - BLUE BOX", "address": {"city": "HUDSON", "state": "MA", "street": "1 KANE DR", "postcode": "01749"}}},
{"geometry": {"type": "Point", "coordinates": [-71.5613684461, 42.3913329131]}, "type": "Feature", "properties": {"collection_times": [{"days": "Mon-Sat", "time": "11:00am"}, {"days": "Sun", "time": "Closed"}], "id": "0174900006", "name": "USPS COLLECTION BOX - EXPRESS", "address": {"city": "HUDSON", "state": "MA", "street": "1 KANE DR", "postcode": "01749"}}},
{"geometry": {"type": "Point", "coordinates": [-71.566731785, 42.3797734474]}, "type": "Feature", "properties": {"collection_times": [{"days": "Mon-Fri", "time": "11:00am"}, {"days": "Sat", "time": "10:30am"}, {"days": "Sun", "time": "Closed"}], "id": "0174900008", "name": "USPS COLLECTION BOX - BLUE BOX", "address": {"city": "HUDSON", "state": "MA", "street": "201 WASHINGTON ST", "postcode": "01749"}}},
{"geometry": {"type": "Point", "coordinates": [-71.5642590275, 42.3763265784]}, "type": "Feature", "properties": {"collection_times": [{"days": "Mon-Fri", "time": "11:00am"}, {"days": "Sat", "time": "10:40am"}, {"days": "Sun", "time": "Closed"}], "id": "0174900011", "name": "USPS COLLECTION BOX - BLUE BOX", "address": {"city": "HUDSON", "state": "MA", "street": "10 TECHNOLOGY DR", "postcode": "01749"}}},
{"geometry": {"type": "Point", "coordinates": [-71.5010433943, 42.3916615983]}, "type": "Feature", "properties": {"collection_times": [{"days": "Mon-Fri", "time": "11:00am"}, {"days": "Sat", "time": "10:00am"}, {"days": "Sun", "time": "Closed"}], "id": "0174900014", "name": "USPS COLLECTION BOX - BLUE BOX", "address": {"city": "HUDSON", "state": "MA", "street": "577 MAIN ST", "postcode": "01749"}}},
{"geometry": {"type": "Point", "coordinates": [-71.5620108226, 42.372053077]}, "type": "Feature", "properties": {"collection_times": [{"days": "Mon-Fri", "time": "11:00am"}, {"days": "Sat", "time": "10:30am"}, {"days": "Sun", "time": "Closed"}], "id": "0174900025", "name": "USPS COLLECTION BOX - BLUE BOX", "address": {"city": "HUDSON", "state": "MA", "street": "280 WASHINGTON ST", "postcode": "01749"}}},
{"geometry": {"type": "Point", "coordinates": [-71.5668458237, 42.3930677921]}, "type": "Feature", "properties": {"collection_times": [{"days": "Mon-Fri", "time": "5:00pm"}, {"days": "Sat", "time": "4:00pm"}, {"days": "Sun", "time": "Closed"}], "id": "0174900028", "name": "USPS COLLECTION BOX - BLUE BOX", "address": {"city": "HUDSON", "state": "MA", "street": "25 CHURCH ST", "postcode": "01749"}}},
{"geometry": {"type": "Point", "coordinates": [-71.5668458237, 42.3930677921]}, "type": "Feature", "properties": {"collection_times": [{"days": "Mon-Fri", "time": "5:00pm"}, {"days": "Sat", "time": "4:00pm"}, {"days": "Sun", "time": "Closed"}], "id": "0174900029", "name": "USPS COLLECTION BOX - PO LOBBY", "address": {"city": "HUDSON", "state": "MA", "street": "25 CHURCH ST", "postcode": "01749"}}},
{"geometry": {"type": "Point", "coordinates": [-71.5668458237, 42.3930677921]}, "type": "Feature", "properties": {"collection_times": [{"days": "Mon-Fri", "time": "5:00pm"}, {"days": "Sat", "time": "4:00pm"}, {"days": "Sun", "time": "Closed"}], "id": "0174900030", "name": "USPS COLLECTION BOX - PO LOBBY", "address": {"city": "HUDSON", "state": "MA", "street": "25 CHURCH ST", "postcode": "01749"}}},
{"geometry": {"type": "Point", "coordinates": [-71.5671333906, 42.392308995]}, "type": "Feature", "properties": {"collection_times": [{"days": "Mon-Fri", "time": "5:00pm"}, {"days": "Sat", "time": "4:00pm"}, {"days": "Sun", "time": "Closed"}], "id": "0174900031", "name": "USPS COLLECTION BOX - BLUE BOX", "address": {"city": "HUDSON", "state": "MA", "street": "18 CHURCH ST", "postcode": "01749"}}},
{"geometry": {"type": "Point", "coordinates": [-71.5962179252, 42.3218658564]}, "type": "Feature", "properties": {"collection_times": [{"days": "Mon-Fri", "time": "11:00am"}, {"days": "Sat-Sun", "time": "Closed"}], "id": "0175200002", "name": "USPS COLLECTION BOX - BLUE BOX", "address": {"city": "MARLBOROUGH", "state": "MA", "street": "5 HAYES MEMORIAL DR", "postcode": "01752"}}},
{"geometry": {"type": "Point", "coordinates": [-71.5487304612, 42.3459683011]}, "type": "Feature", "properties": {"collection_times": [{"days": "Mon-Fri", "time": "5:30pm"}, {"days": "Sat", "time": "3:15pm"}, {"days": "Sun", "time": "Closed"}], "id": "0175200003", "name": "USPS COLLECTION BOX - BLUE BOX", "address": {"city": "MARLBOROUGH", "state": "MA", "street": "20 FLORENCE ST", "postcode": "01752"}}},
{"geometry": {"type": "Point", "coordinates": [-71.5487304612, 42.3459683011]}, "type": "Feature", "properties": {"collection_times": [{"days": "Mon-Fri", "time": "5:30pm"}, {"days": "Sat", "time": "3:15pm"}, {"days": "Sun", "time": "Closed"}], "id": "0175200004", "name": "USPS COLLECTION BOX - BLUE BOX", "address": {"city": "MARLBOROUGH", "state": "MA", "street": "20 FLORENCE ST", "postcode": "01752"}}},
{"geometry": {"type": "Point", "coordinates": [-71.5487304612, 42.3459683011]}, "type": "Feature", "properties": {"collection_times": [{"days": "Mon-Fri", "time": "5:30pm"}, {"days": "Sat", "time": "3:15pm"}, {"days": "Sun", "time": "Closed"}], "id": "0175200005", "name": "USPS COLLECTION BOX - BLUE BOX", "address": {"city": "MARLBOROUGH", "state": "MA", "street": "20 FLORENCE ST", "postcode": "01752"}}},
{"geometry": {"type": "Point", "coordinates": [-71.5926868504, 42.3341682854]}, "type": "Feature", "properties": {"collection_times": [{"days": "Mon-Fri", "time": "5:00pm"}, {"days": "Sat-Sun", "time": "Closed"}], "id": "0175200008", "name": "USPS COLLECTION BOX - BLUE BOX", "address": {"city": "MARLBOROUGH", "state": "MA", "street": "400 NICKERSON RD", "postcode": "01752"}}},
{"geometry": {"type": "Point", "coordinates": [-71.5015528747, 42.3472565434]}, "type": "Feature", "properties": {"collection_times": [{"days": "Mon-Sat", "time": "10:00am"}, {"days": "Sun", "time": "Closed"}], "id": "0175200009", "name": "USPS COLLECTION BOX - BLUE BOX", "address": {"city": "MARLBOROUGH", "state": "MA", "street": "12 SETTLERS LN", "postcode": "01752"}}},
{"geometry": {"type": "Point", "coordinates": [-71.5771179274, 42.34824668]}, "type": "Feature", "properties": {"collection_times": [{"days": "Mon-Fri", "time": "4:00pm"}, {"days": "Sat-Sun", "time": "Closed"}], "id": "0175200011", "name": "USPS COLLECTION BOX - BLUE BOX", "address": {"city": "MARLBOROUGH", "state": "MA", "street": "40 LOCKE DR", "postcode": "01752"}}},
{"geometry": {"type": "Point", "coordinates": [-71.5454266208, 42.349381931]}, "type": "Feature", "properties": {"collection_times": [{"days": "Mon-Sat", "time": "11:00am"}, {"days": "Sun", "time": "Closed"}], "id": "0175200012", "name": "USPS COLLECTION BOX - BLUE BOX", "address": {"city": "MARLBOROUGH", "state": "MA", "street": "197 W MAIN ST", "postcode": "01752"}}},
{"geometry": {"type": "Point", "coordinates": [-71.5574192948, 42.3440661031]}, "type": "Feature", "properties": {"collection_times": [{"days": "Mon-Fri", "time": "9:00am"}, {"days": "Sat-Sun", "time": "Closed"}], "id": "0175200013", "name": "USPS COLLECTION BOX - BLUE BOX", "address": {"city": "MARLBOROUGH", "state": "MA", "street": "120 W MAIN ST", "postcode": "01752"}}},
{"geometry": {"type": "Point", "coordinates": [-71.5454266208, 42.349381931]}, "type": "Feature", "properties": {"collection_times": [{"days": "Mon-Sat", "time": "8:30am"}, {"days": "Sun", "time": "Closed"}], "id": "0175200014", "name": "USPS COLLECTION BOX - BLUE BOX", "address": {"city": "MARLBOROUGH", "state": "MA", "street": "126 UNION ST", "postcode": "01752"}}},
{"geometry": {"type": "Point", "coordinates": [-71.5327268341, 42.3563949955]}, "type": "Feature", "properties": {"collection_times": [{"days": "Mon-Sat", "time": "10:00am"}, {"days": "Sun", "time": "Closed"}], "id": "0175200016", "name": "USPS COLLECTION BOX - BLUE BOX", "address": {"city": "MARLBOROUGH", "state": "MA", "street": "1 ROYAL CREST DR", "postcode": "01752"}}},
{"geometry": {"type": "Point", "coordinates": [-71.5662784001, 42.3535317711]}, "type": "Feature", "properties": {"collection_times": [{"days": "Mon-Sat", "time": "10:00am"}, {"days": "Sun", "time": "Closed"}], "id": "0175200017", "name": "USPS COLLECTION BOX - BLUE BOX", "address": {"city": "MARLBOROUGH", "state": "MA", "street": "354 PLEASANT ST", "postcode": "01752"}}},
{"geometry": {"type": "Point", "coordinates": [-71.5454266208, 42.349381931]}, "type": "Feature", "properties": {"collection_times": [{"days": "Mon-Sat", "time": "8:30am"}, {"days": "Sun", "time": "Closed"}], "id": "0175200018", "name": "USPS COLLECTION BOX - BLUE BOX", "address": {"city": "MARLBOROUGH", "state": "MA", "street": "29 PLEASANT ST", "postcode": "01752"}}},
{"geometry": {"type": "Point", "coordinates": [-71.5459587883, 42.340924164]}, "type": "Feature", "properties": {"collection_times": [{"days": "Mon-Fri", "time": "10:00am"}, {"days": "Sat-Sun", "time": "Closed"}], "id": "0175200019", "name": "USPS COLLECTION BOX - BLUE BOX", "address": {"city": "MARLBOROUGH", "state": "MA", "street": "135 NEIL ST", "postcode": "01752"}}},
{"geometry": {"type": "Point", "coordinates": [-71.5454266208, 42.349381931]}, "type": "Feature", "properties": {"collection_times": [{"days": "Mon-Fri", "time": "9:30am"}, {"days": "Sat-Sun", "time": "Closed"}], "id": "0175200021", "name": "USPS COLLECTION BOX - BLUE BOX", "address": {"city": "MARLBOROUGH", "state": "MA", "street": "164 MAPLE ST", "postcode": "01752"}}},
{"geometry": {"type": "Point", "coordinates": [-71.552857805, 42.3465858057]}, "type": "Feature", "properties": {"collection_times": [{"days": "Mon-Sat", "time": "9:30am"}, {"days": "Sun", "time": "Closed"}], "id": "0175200022", "name": "USPS COLLECTION BOX - BLUE BOX", "address": {"city": "MARLBOROUGH", "state": "MA", "street": "277 MAIN ST", "postcode": "01752"}}},
{"geometry": {"type": "Point", "coordinates": [-71.5454266208, 42.349381931]}, "type": "Feature", "properties": {"collection_times": [{"days": "Mon-Sat", "time": "9:00am"}, {"days": "Sun", "time": "Closed"}], "id": "0175200024", "name": "USPS COLLECTION BOX - BLUE BOX", "address": {"city": "MARLBOROUGH", "state": "MA", "street": "193 MAIN ST", "postcode": "01752"}}},
{"geometry": {"type": "Point", "coordinates": [-71.5478846455, 42.3468330441]}, "type": "Feature", "properties": {"collection_times": [{"days": "Mon-Sat", "time": "9:30am"}, {"days": "Sun", "time": "Closed"}], "id": "0175200025", "name": "USPS COLLECTION BOX - BLUE BOX", "address": {"city": "MARLBOROUGH", "state": "MA", "street": "140 MAIN ST", "postcode": "01752"}}},
{"geometry": {"type": "Point", "coordinates": [-71.5454266208, 42.349381931]}, "type": "Feature", "properties": {"collection_times": [{"days": "Mon-Fri", "time": "10:00am"}, {"days": "Sat", "time": "11:00am"}, {"days": "Sun", "time": "Closed"}], "id": "0175200027", "name": "USPS COLLECTION BOX - BLUE BOX", "address": {"city": "MARLBOROUGH", "state": "MA", "street": "499 LINCOLN ST", "postcode": "01752"}}},
{"geometry": {"type": "Point", "coordinates": [-71.5962179252, 42.3218658564]}, "type": "Feature", "properties": {"collection_times": [{"days": "Mon-Fri", "time": "5:00pm"}, {"days": "Sat-Sun", "time": "Closed"}], "id": "0175200029", "name": "USPS COLLECTION BOX - EXPRESS", "address": {"city": "MARLBOROUGH", "state": "MA", "street": "5 HAYES MEMORIAL DR", "postcode": "01752"}}},
{"geometry": {"type": "Point", "coordinates": [-71.5962179252, 42.3218658564]}, "type": "Feature", "properties": {"collection_times": [{"days": "Mon-Fri", "time": "5:00pm"}, {"days": "Sat-Sun", "time": "Closed"}], "id": "0175200030", "name": "USPS COLLECTION BOX - BLUE BOX", "address": {"city": "MARLBOROUGH", "state": "MA", "street": "5 HAYES MEMORIAL DR", "postcode": "01752"}}},
{"geometry": {"type": "Point", "coordinates": [-71.5454266208, 42.349381931]}, "type": "Feature", "properties": {"collection_times": [{"days": "Mon-Sat", "time": "10:00am"}, {"days": "Sun", "time": "Closed"}], "id": "0175200032", "name": "USPS COLLECTION BOX - BLUE BOX", "address": {"city": "MARLBOROUGH", "state": "MA", "street": "65 FREMONT ST", "postcode": "01752"}}},
{"geometry": {"type": "Point", "coordinates": [-71.5365223246, 42.3511555761]}, "type": "Feature", "properties": {"collection_times": [{"days": "Mon-Sat", "time": "10:00am"}, {"days": "Sun", "time": "Closed"}], "id": "0175200037", "name": "USPS COLLECTION BOX - BLUE BOX", "address": {"city": "MARLBOROUGH", "state": "MA", "street": "222 E MAIN ST", "postcode": "01752"}}},
{"geometry": {"type": "Point", "coordinates": [-71.5093521583, 42.340206941]}, "type": "Feature", "properties": {"collection_times": [{"days": "Mon-Sat", "time": "10:00am"}, {"days": "Sun", "time": "Closed"}], "id": "0175200040", "name": "USPS COLLECTION BOX - BLUE BOX", "address": {"city": "MARLBOROUGH", "state": "MA", "street": "107 BROADMEADOW ST", "postcode": "01752"}}},
{"geometry": {"type": "Point", "coordinates": [-71.5454266208, 42.349381931]}, "type": "Feature", "properties": {"collection_times": [{"days": "Mon-Sat", "time": "10:00am"}, {"days": "Sun", "time": "Closed"}], "id": "0175200042", "name": "USPS COLLECTION BOX - BLUE BOX", "address": {"city": "MARLBOROUGH", "state": "MA", "street": "39 BRIARWOOD LN", "postcode": "01752"}}},
{"geometry": {"type": "Point", "coordinates": [-71.5903038434, 42.3388933127]}, "type": "Feature", "properties": {"collection_times": [{"days": "Mon-Fri", "time": "5:00pm"}, {"days": "Sat-Sun", "time": "Closed"}], "id": "0175200043", "name": "USPS COLLECTION BOX - BLUE BOX", "address": {"city": "MARLBOROUGH", "state": "MA", "street": "201 BOSTON POST RD W", "postcode": "01752"}}},
{"geometry": {"type": "Point", "coordinates": [-71.5454266208, 42.349381931]}, "type": "Feature", "properties": {"collection_times": [{"days": "Mon-Fri", "time": "5:00pm"}, {"days": "Sat-Sun", "time": "Closed"}], "id": "0175200044", "name": "USPS COLLECTION BOX - BLUE BOX", "address": {"city": "MARLBOROUGH", "state": "MA", "street": "65 BOSTON POST RD W", "postcode": "01752"}}},
{"geometry": {"type": "Point", "coordinates": [-71.545439656, 42.349390575]}, "type": "Feature", "properties": {"collection_times": [{"days": "Mon-Fri", "time": "5:00pm"}, {"days": "Sat-Sun", "time": "Closed"}], "id": "0175200045", "name": "USPS COLLECTION BOX - EXPRESS", "address": {"city": "MARLBOROUGH", "state": "MA", "street": "33 BOSTON POST RD W", "postcode": "01752"}}},
{"geometry": {"type": "Point", "coordinates": [-71.583212532, 42.3404568953]}, "type": "Feature", "properties": {"collection_times": [{"days": "Mon-Fri", "time": "5:00pm"}, {"days": "Sat-Sun", "time": "Closed"}], "id": "0175200046", "name": "USPS COLLECTION BOX - BLUE BOX", "address": {"city": "MARLBOROUGH", "state": "MA", "street": "33 BOSTON POST RD W", "postcode": "01752"}}},
{"geometry": {"type": "Point", "coordinates": [-71.5091830799, 42.3476763056]}, "type": "Feature", "properties": {"collection_times": [{"days": "Mon-Fri", "time": "5:00pm"}, {"days": "Sat", "time": "10:00am"}, {"days": "Sun", "time": "Closed"}], "id": "0175200047", "name": "USPS COLLECTION BOX - BLUE BOX", "address": {"city": "MARLBOROUGH", "state": "MA", "street": "530 BOSTON POST RD E", "postcode": "01752"}}},
{"geometry": {"type": "Point", "coordinates": [-71.4862202642, 42.3519452116]}, "type": "Feature", "properties": {"collection_times": [{"days": "Mon-Sat", "time": "9:30am"}, {"days": "Sun", "time": "Closed"}], "id": "0175200049", "name": "USPS COLLECTION BOX - BLUE BOX", "address": {"city": "MARLBOROUGH", "state": "MA", "street": "1015 BOSTON POST RD E", "postcode": "01752"}}},
{"geometry": {"type": "Point", "coordinates": [-71.5077078102, 42.3480633214]}, "type": "Feature", "properties": {"collection_times": [{"days": "Mon-Sat", "time": "10:00am"}, {"days": "Sun", "time": "Closed"}], "id": "0175200050", "name": "USPS COLLECTION BOX - BLUE BOX", "address": {"city": "MARLBOROUGH", "state": "MA", "street": "547 BOSTON POST RD E", "postcode": "01752"}}},
{"geometry": {"type": "Point", "coordinates": [-71.5454266208, 42.349381931]}, "type": "Feature", "properties": {"collection_times": [{"days": "Mon-Fri", "time": "5:00pm"}, {"days": "Sat-Sun", "time": "Closed"}], "id": "0175200051", "name": "USPS COLLECTION BOX - BLUE BOX", "address": {"city": "MARLBOROUGH", "state": "MA", "street": "293 BOSTON POST RD W", "postcode": "01752"}}},
{"geometry": {"type": "Point", "coordinates": [-71.5519776835, 42.3585869244]}, "type": "Feature", "properties": {"collection_times": [{"days": "Mon-Sat", "time": "10:00am"}, {"days": "Sun", "time": "Closed"}], "id": "0175200053", "name": "USPS COLLECTION BOX - BLUE BOX", "address": {"city": "MARLBOROUGH", "state": "MA", "street": "355 BOLTON ST", "postcode": "01752"}}},
{"geometry": {"type": "Point", "coordinates": [-71.5512525297, 42.3571661906]}, "type": "Feature", "properties": {"collection_times": [{"days": "Mon-Sat", "time": "10:00am"}, {"days": "Sun", "time": "Closed"}], "id": "0175200057", "name": "USPS COLLECTION BOX - BLUE BOX", "address": {"city": "MARLBOROUGH", "state": "MA", "street": "320 BOLTON ST", "postcode": "01752"}}},
{"geometry": {"type": "Point", "coordinates": [-71.5633281748, 42.3384967323]}, "type": "Feature", "properties": {"collection_times": [{"days": "Mon-Fri", "time": "4:00pm"}, {"days": "Sat-Sun", "time": "Closed"}], "id": "0175200058", "name": "USPS COLLECTION BOX - BLUE BOX", "address": {"city": "MARLBOROUGH", "state": "MA", "street": "45 WILLIAMS ST", "postcode": "01752"}}},
{"geometry": {"type": "Point", "coordinates": [-71.5797949636, 42.3396595809]}, "type": "Feature", "properties": {"collection_times": [{"days": "Mon-Fri", "time": "9:00am"}, {"days": "Sat-Sun", "time": "Closed"}], "id": "0175200059", "name": "USPS COLLECTION BOX - BLUE BOX", "address": {"city": "MARLBOROUGH", "state": "MA", "street": "5 MOUNT ROYAL AVE", "postcode": "01752"}}},
{"geometry": {"type": "Point", "coordinates": [-71.5454266208, 42.349381931]}, "type": "Feature", "properties": {"collection_times": [{"days": "Mon-Fri", "time": "9:30am"}, {"days": "Sat-Sun", "time": "Closed"}], "id": "0175200060", "name": "USPS COLLECTION BOX - BLUE BOX", "address": {"city": "MARLBOROUGH", "state": "MA", "street": "165 FOREST ST", "postcode": "01752"}}},
{"geometry": {"type": "Point", "coordinates": [-71.5454266208, 42.349381931]}, "type": "Feature", "properties": {"collection_times": [{"days": "Mon-Sat", "time": "11:00am"}, {"days": "Sun", "time": "Closed"}], "id": "0175200061", "name": "USPS COLLECTION BOX - BLUE BOX", "address": {"city": "MARLBOROUGH", "state": "MA", "street": "195 BOSTON POST RD W", "postcode": "01752"}}},
{"geometry": {"type": "Point", "coordinates": [-71.510449909, 42.3456418044]}, "type": "Feature", "properties": {"collection_times": [{"days": "Mon-Sat", "time": "10:00am"}, {"days": "Sun", "time": "Closed"}], "id": "0175200063", "name": "USPS COLLECTION BOX - BLUE BOX", "address": {"city": "MARLBOROUGH", "state": "MA", "street": "740 FARM RD", "postcode": "01752"}}},
{"geometry": {"type": "Point", "coordinates": [-71.5454266208, 42.349381931]}, "type": "Feature", "properties": {"collection_times": [{"days": "Mon-Fri", "time": "4:00pm"}, {"days": "Sat", "time": "11:00am"}, {"days": "Sun", "time": "Closed"}], "id": "0175200064", "name": "USPS COLLECTION BOX - BLUE BOX", "address": {"city": "MARLBOROUGH", "state": "MA", "street": "601 DONALD LYNCH BLVD", "postcode": "01752"}}},
{"geometry": {"type": "Point", "coordinates": [-71.5454266208, 42.349381931]}, "type": "Feature", "properties": {"collection_times": [{"days": "Mon-Fri", "time": "4:00pm"}, {"days": "Sat", "time": "11:00am"}, {"days": "Sun", "time": "Closed"}], "id": "0175200065", "name": "USPS COLLECTION BOX - EXPRESS", "address": {"city": "MARLBOROUGH", "state": "MA", "street": "601 DONALD LYNCH BLVD", "postcode": "01752"}}},
{"geometry": {"type": "Point", "coordinates": [-71.5788769874, 42.3405042136]}, "type": "Feature", "properties": {"collection_times": [{"days": "Mon-Fri", "time": "4:00pm"}, {"days": "Sat-Sun", "time": "Closed"}], "id": "0175200066", "name": "USPS COLLECTION BOX - BLUE BOX", "address": {"city": "MARLBOROUGH", "state": "MA", "street": "2 MOUNT ROYAL AVE", "postcode": "01752"}}},
{"geometry": {"type": "Point", "coordinates": [-71.583212532, 42.3404568953]}, "type": "Feature", "properties": {"collection_times": [{"days": "Mon-Fri", "time": "5:00pm"}, {"days": "Sat-Sun", "time": "Closed"}], "id": "0175200067", "name": "USPS COLLECTION BOX - BLUE BOX", "address": {"city": "MARLBOROUGH", "state": "MA", "street": "33 BOSTON POST RD W", "postcode": "01752"}}},
{"geometry": {"type": "Point", "coordinates": [-71.5487304612, 42.3459683011]}, "type": "Feature", "properties": {"collection_times": [{"days": "Mon-Fri", "time": "5:30pm"}, {"days": "Sat", "time": "3:15pm"}, {"days": "Sun", "time": "Closed"}], "id": "0175200068", "name": "USPS COLLECTION BOX - PO LOBBY", "address": {"city": "MARLBOROUGH", "state": "MA", "street": "20 FLORENCE ST", "postcode": "01752"}}},
{"geometry": {"type": "Point", "coordinates": [-71.5487304612, 42.3459683011]}, "type": "Feature", "properties": {"collection_times": [{"days": "Mon-Fri", "time": "5:30pm"}, {"days": "Sat", "time": "3:15pm"}, {"days": "Sun", "time": "Closed"}], "id": "0175200069", "name": "USPS COLLECTION BOX - PO LOBBY", "address": {"city": "MARLBOROUGH", "state": "MA", "street": "20 FLORENCE ST", "postcode": "01752"}}},
{"geometry": {"type": "Point", "coordinates": [-71.5487304612, 42.3459683011]}, "type": "Feature", "properties": {"collection_times": [{"days": "Mon-Fri", "time": "5:30pm"}, {"days": "Sat", "time": "3:15pm"}, {"days": "Sun", "time": "Closed"}], "id": "0175200070", "name": "USPS COLLECTION BOX - PO LOBBY", "address": {"city": "MARLBOROUGH", "state": "MA", "street": "20 FLORENCE ST", "postcode": "01752"}}},
{"geometry": {"type": "Point", "coordinates": [-71.5951639664, 42.3364265541]}, "type": "Feature", "properties": {"collection_times": [{"days": "Mon-Fri", "time": "11:00am"}, {"days": "Sat-Sun", "time": "Closed"}], "id": "0175200071", "name": "USPS COLLECTION BOX - BLUE BOX", "address": {"city": "MARLBOROUGH", "state": "MA", "street": "313 BOSTON POST RD W", "postcode": "01752"}}},
{"geometry": {"type": "Point", "coordinates": [-71.541792688, 42.3311714123]}, "type": "Feature", "properties": {"collection_times": [{"days": "Mon-Fri", "time": "10:00am"}, {"days": "Sat-Sun", "time": "Closed"}], "id": "0175200072", "name": "USPS COLLECTION BOX - BLUE BOX", "address": {"city": "MARLBOROUGH", "state": "MA", "street": "19 BRIGHAM ST", "postcode": "01752"}}},
{"geometry": {"type": "Point", "coordinates": [-71.5538645031, 42.3543164425]}, "type": "Feature", "properties": {"collection_times": [{"days": "Mon-Sat", "time": "10:00am"}, {"days": "Sun", "time": "Closed"}], "id": "0175200073", "name": "USPS COLLECTION BOX - BLUE BOX", "address": {"city": "MARLBOROUGH", "state": "MA", "street": "157 UNION ST", "postcode": "01752"}}},
{"geometry": {"type": "Point", "coordinates": [-71.5454266208, 42.349381931]}, "type": "Feature", "properties": {"collection_times": [{"days": "Mon-Fri", "time": "11:00am"}, {"days": "Sat-Sun", "time": "Closed"}], "id": "0175200074", "name": "USPS COLLECTION BOX - BLUE BOX", "address": {"city": "MARLBOROUGH", "state": "MA", "street": "62 FOREST ST", "postcode": "01752"}}},
{"geometry": {"type": "Point", "coordinates": [-71.583212532, 42.3404568953]}, "type": "Feature", "properties": {"collection_times": [{"days": "Mon-Fri", "time": "5:00pm"}, {"days": "Sat-Sun", "time": "Closed"}], "id": "0175200077", "name": "USPS COLLECTION BOX - BLUE BOX", "address": {"city": "MARLBOROUGH", "state": "MA", "street": "33 BOSTON POST RD W", "postcode": "01752"}}},
{"geometry": {"type": "Point", "coordinates": [-71.4560397115, 42.4315707607]}, "type": "Feature", "properties": {"collection_times": [{"days": "Mon-Fri", "time": "5:00pm"}, {"days": "Sat", "time": "1:00pm"}, {"days": "Sun", "time": "Closed"}], "id": "0175400001", "name": "USPS COLLECTION BOX - BLUE BOX", "address": {"city": "MAYNARD", "state": "MA", "street": "143 MAIN ST", "postcode": "01754"}}},
{"geometry": {"type": "Point", "coordinates": [-71.4560397115, 42.4315707607]}, "type": "Feature", "properties": {"collection_times": [{"days": "Mon-Fri", "time": "5:00pm"}, {"days": "Sat", "time": "1:00pm"}, {"days": "Sun", "time": "Closed"}], "id": "0175400002", "name": "USPS COLLECTION BOX - BLUE BOX", "address": {"city": "MAYNARD", "state": "MA", "street": "143 MAIN ST", "postcode": "01754"}}},
{"geometry": {"type": "Point", "coordinates": [-71.4536774848, 42.4320543046]}, "type": "Feature", "properties": {"collection_times": [{"days": "Mon-Fri", "time": "5:00pm"}, {"days": "Sat", "time": "1:00pm"}, {"days": "Sun", "time": "Closed"}], "id": "0175400003", "name": "USPS COLLECTION BOX - EXPRESS", "address": {"city": "MAYNARD", "state": "MA", "street": "143 MAIN ST", "postcode": "01754"}}},
{"geometry": {"type": "Point", "coordinates": [-71.4497814408, 42.4389780384]}, "type": "Feature", "properties": {"collection_times": [{"days": "Mon-Fri", "time": "1:00pm"}, {"days": "Sat-Sun", "time": "Closed"}], "id": "0175400007", "name": "USPS COLLECTION BOX - BLUE BOX", "address": {"city": "MAYNARD", "state": "MA", "street": "4 CONCORD STREET CIR", "postcode": "01754"}}},
{"geometry": {"type": "Point", "coordinates": [-71.4376180023, 42.4381868053]}, "type": "Feature", "properties": {"collection_times": [{"days": "Mon-Sat", "time": "9:30am"}, {"days": "Sun", "time": "Closed"}], "id": "0175400008", "name": "USPS COLLECTION BOX - BLUE BOX", "address": {"city": "MAYNARD", "state": "MA", "street": "1 DEER HEDGE RUN", "postcode": "01754"}}},
{"geometry": {"type": "Point", "coordinates": [-71.4534691416, 42.4321149218]}, "type": "Feature", "properties": {"collection_times": [{"days": "Mon-Fri", "time": "1:00pm"}, {"days": "Sat", "time": "9:30am"}, {"days": "Sun", "time": "Closed"}], "id": "0175400014", "name": "USPS COLLECTION BOX - BLUE BOX", "address": {"city": "MAYNARD", "state": "MA", "street": "81 MAIN ST", "postcode": "01754"}}},
{"geometry": {"type": "Point", "coordinates": [-71.453515277, 42.4328223312]}, "type": "Feature", "properties": {"collection_times": [{"days": "Mon-Fri", "time": "1:00pm"}, {"days": "Sat", "time": "9:30am"}, {"days": "Sun", "time": "Closed"}], "id": "0175400017", "name": "USPS COLLECTION BOX - BLUE BOX", "address": {"city": "MAYNARD", "state": "MA", "street": "25 NASON ST", "postcode": "01754"}}},
{"geometry": {"type": "Point", "coordinates": [-71.4503934483, 42.4308278624]}, "type": "Feature", "properties": {"collection_times": [{"days": "Mon-Fri", "time": "1:00pm"}, {"days": "Sat", "time": "9:30am"}, {"days": "Sun", "time": "Closed"}], "id": "0175400018", "name": "USPS COLLECTION BOX - BLUE BOX", "address": {"city": "MAYNARD", "state": "MA", "street": "1 OAK RIDGE DR", "postcode": "01754"}}},
{"geometry": {"type": "Point", "coordinates": [-71.4388817767, 42.4381258657]}, "type": "Feature", "properties": {"collection_times": [{"days": "Mon-Fri", "time": "1:00pm"}, {"days": "Sat", "time": "9:30am"}, {"days": "Sun", "time": "Closed"}], "id": "0175400021", "name": "USPS COLLECTION BOX - BLUE BOX", "address": {"city": "MAYNARD", "state": "MA", "street": "14 POWDERMILL CIR", "postcode": "01754"}}},
{"geometry": {"type": "Point", "coordinates": [-71.4604864542, 42.4352556778]}, "type": "Feature", "properties": {"collection_times": [{"days": "Mon-Fri", "time": "1:00pm"}, {"days": "Sat", "time": "9:30am"}, {"days": "Sun", "time": "Closed"}], "id": "0175400024", "name": "USPS COLLECTION BOX - BLUE BOX", "address": {"city": "MAYNARD", "state": "MA", "street": "100 SUMMER HILL GLN", "postcode": "01754"}}},
{"geometry": {"type": "Point", "coordinates": [-71.4560397115, 42.4315707607]}, "type": "Feature", "properties": {"collection_times": [{"days": "Mon-Fri", "time": "5:00pm"}, {"days": "Sat", "time": "1:00pm"}, {"days": "Sun", "time": "Closed"}], "id": "0175400033", "name": "USPS COLLECTION BOX - BLUE BOX", "address": {"city": "MAYNARD", "state": "MA", "street": "143 MAIN ST", "postcode": "01754"}}},
{"geometry": {"type": "Point", "coordinates": [-71.4560397115, 42.4315707607]}, "type": "Feature", "properties": {"collection_times": [{"days": "Mon-Fri", "time": "5:00pm"}, {"days": "Sat", "time": "1:00pm"}, {"days": "Sun", "time": "Closed"}], "id": "0175400034", "name": "USPS COLLECTION BOX - PO LOBBY", "address": {"city": "MAYNARD", "state": "MA", "street": "143 MAIN ST", "postcode": "01754"}}},
{"geometry": {"type": "Point", "coordinates": [-71.4560397115, 42.4315707607]}, "type": "Feature", "properties": {"collection_times": [{"days": "Mon-Fri", "time": "5:00pm"}, {"days": "Sat", "time": "1:00pm"}, {"days": "Sun", "time": "Closed"}], "id": "0175400035", "name": "USPS COLLECTION BOX - PO LOBBY", "address": {"city": "MAYNARD", "state": "MA", "street": "143 MAIN ST", "postcode": "01754"}}},
{"geometry": {"type": "Point", "coordinates": [-71.5528446031, 42.1053279265]}, "type": "Feature", "properties": {"collection_times": [{"days": "Mon-Fri", "time": "5:00pm"}, {"days": "Sat", "time": "2:45pm"}, {"days": "Sun", "time": "Closed"}], "id": "0175600001", "name": "USPS COLLECTION BOX - BLUE BOX", "address": {"city": "MENDON", "state": "MA", "street": "12 MAPLE ST", "postcode": "01756"}}},
{"geometry": {"type": "Point", "coordinates": [-71.5515661137, 42.1002523046]}, "type": "Feature", "properties": {"collection_times": [{"days": "Mon-Fri", "time": "5:00pm"}, {"days": "Sat", "time": "2:45pm"}, {"days": "Sun", "time": "Closed"}], "id": "0175600002", "name": "USPS COLLECTION BOX - EXPRESS", "address": {"city": "MENDON", "state": "MA", "street": "12 MAPLE ST", "postcode": "01756"}}},
{"geometry": {"type": "Point", "coordinates": [-71.5528446031, 42.1053279265]}, "type": "Feature", "properties": {"collection_times": [{"days": "Mon-Fri", "time": "5:00pm"}, {"days": "Sat", "time": "2:45pm"}, {"days": "Sun", "time": "Closed"}], "id": "0175600003", "name": "USPS COLLECTION BOX - BLUE BOX", "address": {"city": "MENDON", "state": "MA", "street": "12 MAPLE ST", "postcode": "01756"}}},
{"geometry": {"type": "Point", "coordinates": [-71.5528446031, 42.1053279265]}, "type": "Feature", "properties": {"collection_times": [{"days": "Mon-Fri", "time": "5:00pm"}, {"days": "Sat", "time": "12:30pm"}, {"days": "Sun", "time": "Closed"}], "id": "0175600004", "name": "USPS COLLECTION BOX - PO LOBBY", "address": {"city": "MENDON", "state": "MA", "street": "12 MAPLE ST", "postcode": "01756"}}},
{"geometry": {"type": "Point", "coordinates": [-71.5528446031, 42.1053279265]}, "type": "Feature", "properties": {"collection_times": [{"days": "Mon-Fri", "time": "5:00pm"}, {"days": "Sat", "time": "12:30pm"}, {"days": "Sun", "time": "Closed"}], "id": "0175600007", "name": "USPS COLLECTION BOX - PO LOBBY", "address": {"city": "MENDON", "state": "MA", "street": "12 MAPLE ST", "postcode": "01756"}}},
{"geometry": {"type": "Point", "coordinates": [-71.5591819036, 42.1036202297]}, "type": "Feature", "properties": {"collection_times": [{"days": "Mon-Sat", "time": "12:15pm"}, {"days": "Sun", "time": "Closed"}], "id": "0175600008", "name": "USPS COLLECTION BOX - BLUE BOX", "address": {"city": "MENDON", "state": "MA", "street": "32 HASTINGS ST", "postcode": "01756"}}},
{"geometry": {"type": "Point", "coordinates": [-71.5041423718, 42.1024396367]}, "type": "Feature", "properties": {"collection_times": [{"days": "Mon-Sat", "time": "11:00am"}, {"days": "Sun", "time": "Closed"}], "id": "0175600009", "name": "USPS COLLECTION BOX - BLUE BOX", "address": {"city": "MENDON", "state": "MA", "street": "1 CAPE RD", "postcode": "01756"}}},
{"geometry": {"type": "Point", "coordinates": [-71.5218438145, 42.1384485471]}, "type": "Feature", "properties": {"collection_times": [{"days": "Mon-Fri", "time": "5:00pm"}, {"days": "Sat", "time": "4:00pm"}, {"days": "Sun", "time": "Closed"}], "id": "0175700002", "name": "USPS COLLECTION BOX - BLUE BOX", "address": {"city": "MILFORD", "state": "MA", "street": "2 CONGRESS ST", "postcode": "01757"}}},
{"geometry": {"type": "Point", "coordinates": [-71.5240187789, 42.1508020986]}, "type": "Feature", "properties": {"collection_times": [{"days": "Mon-Fri", "time": "5:00pm"}, {"days": "Sat", "time": "4:00pm"}, {"days": "Sun", "time": "Closed"}], "id": "0175700003", "name": "USPS COLLECTION BOX - EXPRESS", "address": {"city": "MILFORD", "state": "MA", "street": "2 CONGRESS ST", "postcode": "01757"}}},
{"geometry": {"type": "Point", "coordinates": [-71.5370042851, 42.1582592877]}, "type": "Feature", "properties": {"collection_times": [{"days": "Mon-Sat", "time": "9:00am"}, {"days": "Sun", "time": "Closed"}], "id": "0175700006", "name": "USPS COLLECTION BOX - BLUE BOX", "address": {"city": "MILFORD", "state": "MA", "street": "7 CAPITAL RD", "postcode": "01757"}}},
{"geometry": {"type": "Point", "coordinates": [-71.5172862289, 42.1376634228]}, "type": "Feature", "properties": {"collection_times": [{"days": "Mon-Fri", "time": "9:00am"}, {"days": "Sat-Sun", "time": "Closed"}], "id": "0175700008", "name": "USPS COLLECTION BOX - BLUE BOX", "address": {"city": "MILFORD", "state": "MA", "street": "20 CLAFLIN ST", "postcode": "01757"}}},
{"geometry": {"type": "Point", "coordinates": [-71.5129858398, 42.1436742627]}, "type": "Feature", "properties": {"collection_times": [{"days": "Mon-Sat", "time": "10:00am"}, {"days": "Sun", "time": "Closed"}], "id": "0175700011", "name": "USPS COLLECTION BOX - BLUE BOX", "address": {"city": "MILFORD", "state": "MA", "street": "161 E MAIN ST", "postcode": "01757"}}},
{"geometry": {"type": "Point", "coordinates": [-71.5191030276, 42.1352892478]}, "type": "Feature", "properties": {"collection_times": [{"days": "Mon-Sat", "time": "9:10am"}, {"days": "Sun", "time": "Closed"}], "id": "0175700012", "name": "USPS COLLECTION BOX - BLUE BOX", "address": {"city": "MILFORD", "state": "MA", "street": "20 FOREST ST", "postcode": "01757"}}},
{"geometry": {"type": "Point", "coordinates": [-71.5231466076, 42.1366023087]}, "type": "Feature", "properties": {"collection_times": [{"days": "Mon-Sat", "time": "9:15am"}, {"days": "Sun", "time": "Closed"}], "id": "0175700019", "name": "USPS COLLECTION BOX - BLUE BOX", "address": {"city": "MILFORD", "state": "MA", "street": "288 MAIN ST / HOLLIS ST", "postcode": "01757"}}},
{"geometry": {"type": "Point", "coordinates": [-71.4847217345, 42.1597871214]}, "type": "Feature", "properties": {"collection_times": [{"days": "Mon-Sat", "time": "10:00am"}, {"days": "Sun", "time": "Closed"}], "id": "0175700021", "name": "USPS COLLECTION BOX - BLUE BOX", "address": {"city": "MILFORD", "state": "MA", "street": "52 MAIN ST", "postcode": "01757"}}},
{"geometry": {"type": "Point", "coordinates": [-71.528436591, 42.1316643923]}, "type": "Feature", "properties": {"collection_times": [{"days": "Mon-Sat", "time": "9:00am"}, {"days": "Sun", "time": "Closed"}], "id": "0175700022", "name": "USPS COLLECTION BOX - BLUE BOX", "address": {"city": "MILFORD", "state": "MA", "street": "126 MAIN ST", "postcode": "01757"}}},
{"geometry": {"type": "Point", "coordinates": [-71.5240187784, 42.1507934543]}, "type": "Feature", "properties": {"collection_times": [{"days": "Mon-Sat", "time": "9:00am"}, {"days": "Sun", "time": "Closed"}], "id": "0175700023", "name": "USPS COLLECTION BOX - BLUE BOX", "address": {"city": "MILFORD", "state": "MA", "street": "206 MAIN ST", "postcode": "01757"}}},
{"geometry": {"type": "Point", "coordinates": [-71.5240187784, 42.1507934543]}, "type": "Feature", "properties": {"collection_times": [{"days": "Mon-Sat", "time": "10:00am"}, {"days": "Sun", "time": "Closed"}], "id": "0175700026", "name": "USPS COLLECTION BOX - BLUE BOX", "address": {"city": "MILFORD", "state": "MA", "street": "109 MEDWAY RD", "postcode": "01757"}}},
{"geometry": {"type": "Point", "coordinates": [-71.4898101154, 42.1481681499]}, "type": "Feature", "properties": {"collection_times": [{"days": "Mon-Sat", "time": "10:00am"}, {"days": "Sun", "time": "Closed"}], "id": "0175700027", "name": "USPS COLLECTION BOX - BLUE BOX", "address": {"city": "MILFORD", "state": "MA", "street": "124 MEDWAY RD", "postcode": "01757"}}},
{"geometry": {"type": "Point", "coordinates": [-71.5193184781, 42.1414733383]}, "type": "Feature", "properties": {"collection_times": [{"days": "Mon-Sat", "time": "10:00am"}, {"days": "Sun", "time": "Closed"}], "id": "0175700029", "name": "USPS COLLECTION BOX - BLUE BOX", "address": {"city": "MILFORD", "state": "MA", "street": "76 PINE ST", "postcode": "01757"}}},
{"geometry": {"type": "Point", "coordinates": [-71.521635969, 42.1373392921]}, "type": "Feature", "properties": {"collection_times": [{"days": "Mon-Sat", "time": "10:00am"}, {"days": "Sun", "time": "Closed"}], "id": "0175700030", "name": "USPS COLLECTION BOX - BLUE BOX", "address": {"city": "MILFORD", "state": "MA", "street": "12 MAIN ST / POND ST", "postcode": "01757"}}},
{"geometry": {"type": "Point", "coordinates": [-71.5289478384, 42.1327801682]}, "type": "Feature", "properties": {"collection_times": [{"days": "Mon-Sat", "time": "10:00am"}, {"days": "Sun", "time": "Closed"}], "id": "0175700031", "name": "USPS COLLECTION BOX - BLUE BOX", "address": {"city": "MILFORD", "state": "MA", "street": "14 PROSPECT ST", "postcode": "01757"}}},
{"geometry": {"type": "Point", "coordinates": [-71.5240187784, 42.1507934543]}, "type": "Feature", "properties": {"collection_times": [{"days": "Mon-Sat", "time": "10:00am"}, {"days": "Sun", "time": "Closed"}], "id": "0175700032", "name": "USPS COLLECTION BOX - BLUE BOX", "address": {"city": "MILFORD", "state": "MA", "street": "91 PROSPECT ST", "postcode": "01757"}}},
{"geometry": {"type": "Point", "coordinates": [-71.5357683599, 42.1627682968]}, "type": "Feature", "properties": {"collection_times": [{"days": "Mon-Sat", "time": "10:00am"}, {"days": "Sun", "time": "Closed"}], "id": "0175700034", "name": "USPS COLLECTION BOX - BLUE BOX", "address": {"city": "MILFORD", "state": "MA", "street": "1 ROLLING GREEN DR", "postcode": "01757"}}},
{"geometry": {"type": "Point", "coordinates": [-71.5067460645, 42.1493877291]}, "type": "Feature", "properties": {"collection_times": [{"days": "Mon-Sat", "time": "10:00am"}, {"days": "Sun", "time": "Closed"}], "id": "0175700036", "name": "USPS COLLECTION BOX - BLUE BOX", "address": {"city": "MILFORD", "state": "MA", "street": "138 S MAIN ST", "postcode": "01757"}}},
{"geometry": {"type": "Point", "coordinates": [-71.525874511, 42.1433546384]}, "type": "Feature", "properties": {"collection_times": [{"days": "Mon-Fri", "time": "9:15am"}, {"days": "Sat-Sun", "time": "Closed"}], "id": "0175700040", "name": "USPS COLLECTION BOX - BLUE BOX", "address": {"city": "MILFORD", "state": "MA", "street": "143 W SPRUCE ST", "postcode": "01757"}}},
{"geometry": {"type": "Point", "coordinates": [-71.526681289, 42.1383684664]}, "type": "Feature", "properties": {"collection_times": [{"days": "Mon-Fri", "time": "9:00am"}, {"days": "Sat-Sun", "time": "Closed"}], "id": "0175700042", "name": "USPS COLLECTION BOX - BLUE BOX", "address": {"city": "MILFORD", "state": "MA", "street": "27 WATER ST", "postcode": "01757"}}},
{"geometry": {"type": "Point", "coordinates": [-71.5129858398, 42.1436742627]}, "type": "Feature", "properties": {"collection_times": [{"days": "Mon-Sat", "time": "10:00am"}, {"days": "Sun", "time": "Closed"}], "id": "0175700048", "name": "USPS COLLECTION BOX - BLUE BOX", "address": {"city": "MILFORD", "state": "MA", "street": "196 E MAIN ST", "postcode": "01757"}}},
{"geometry": {"type": "Point", "coordinates": [-71.4898936311, 42.1481184142]}, "type": "Feature", "properties": {"collection_times": [{"days": "Mon-Sat", "time": "10:00am"}, {"days": "Sun", "time": "Closed"}], "id": "0175700050", "name": "USPS COLLECTION BOX - BLUE BOX", "address": {"city": "MILFORD", "state": "MA", "street": "100 MEDWAY RD", "postcode": "01757"}}},
{"geometry": {"type": "Point", "coordinates": [-71.5024314802, 42.1501841874]}, "type": "Feature", "properties": {"collection_times": [{"days": "Mon-Sat", "time": "10:00am"}, {"days": "Sun", "time": "Closed"}], "id": "0175700052", "name": "USPS COLLECTION BOX - BLUE BOX", "address": {"city": "MILFORD", "state": "MA", "street": "7 MEDWAY RD", "postcode": "01757"}}},
{"geometry": {"type": "Point", "coordinates": [-71.5229486728, 42.1635797253]}, "type": "Feature", "properties": {"collection_times": [{"days": "Mon-Sat", "time": "10:00am"}, {"days": "Sun", "time": "Closed"}], "id": "0175700054", "name": "USPS COLLECTION BOX - BLUE BOX", "address": {"city": "MILFORD", "state": "MA", "street": "25 SHADOW BROOK LN", "postcode": "01757"}}},
{"geometry": {"type": "Point", "coordinates": [-71.5218438145, 42.1384485471]}, "type": "Feature", "properties": {"collection_times": [{"days": "Mon-Fri", "time": "5:00pm"}, {"days": "Sat", "time": "4:00pm"}, {"days": "Sun", "time": "Closed"}], "id": "0175700055", "name": "USPS COLLECTION BOX - BLUE BOX", "address": {"city": "MILFORD", "state": "MA", "street": "2 CONGRESS ST", "postcode": "01757"}}},
{"geometry": {"type": "Point", "coordinates": [-71.4900462328, 42.142934688]}, "type": "Feature", "properties": {"collection_times": [{"days": "Mon-Sat", "time": "10:00am"}, {"days": "Sun", "time": "Closed"}], "id": "0175700056", "name": "USPS COLLECTION BOX - BLUE BOX", "address": {"city": "MILFORD", "state": "MA", "street": "25 BIRCH ST", "postcode": "01757"}}},
{"geometry": {"type": "Point", "coordinates": [-71.5213047405, 42.1388937002]}, "type": "Feature", "properties": {"collection_times": [{"days": "Mon-Sat", "time": "10:00am"}, {"days": "Sun", "time": "Closed"}], "id": "0175700061", "name": "USPS COLLECTION BOX - BLUE BOX", "address": {"city": "MILFORD", "state": "MA", "street": "250 MAIN ST", "postcode": "01757"}}},
{"geometry": {"type": "Point", "coordinates": [-71.5218438145, 42.1384485471]}, "type": "Feature", "properties": {"collection_times": [{"days": "Mon-Fri", "time": "5:00pm"}, {"days": "Sat", "time": "4:00pm"}, {"days": "Sun", "time": "Closed"}], "id": "0175700065", "name": "USPS COLLECTION BOX - PO LOBBY", "address": {"city": "MILFORD", "state": "MA", "street": "2 CONGRESS ST", "postcode": "01757"}}},
{"geometry": {"type": "Point", "coordinates": [-71.5107267214, 42.1473530397]}, "type": "Feature", "properties": {"collection_times": [{"days": "Mon-Fri", "time": "10:00am"}, {"days": "Sat-Sun", "time": "Closed"}], "id": "0175700067", "name": "USPS COLLECTION BOX - BLUE BOX", "address": {"city": "MILFORD", "state": "MA", "street": "83 E MAIN ST", "postcode": "01757"}}},
{"geometry": {"type": "Point", "coordinates": [-71.5209156638, 42.1395130801]}, "type": "Feature", "properties": {"collection_times": [{"days": "Mon-Sat", "time": "10:00am"}, {"days": "Sun", "time": "Closed"}], "id": "0175700069", "name": "USPS COLLECTION BOX - BLUE BOX", "address": {"city": "MILFORD", "state": "MA", "street": "1 PARK ST", "postcode": "01757"}}},
{"geometry": {"type": "Point", "coordinates": [-71.5209156638, 42.1395130801]}, "type": "Feature", "properties": {"collection_times": [{"days": "Mon-Sat", "time": "10:00am"}, {"days": "Sun", "time": "Closed"}], "id": "0175700071", "name": "USPS COLLECTION BOX - BLUE BOX", "address": {"city": "MILFORD", "state": "MA", "street": "1 PARK ST", "postcode": "01757"}}},
{"geometry": {"type": "Point", "coordinates": [-71.3591979587, 42.2976290489]}, "type": "Feature", "properties": {"collection_times": [{"days": "Mon-Fri", "time": "12:30pm"}, {"days": "Sat", "time": "3:00pm"}, {"days": "Sun", "time": "Closed"}], "id": "0176000014", "name": "USPS COLLECTION BOX - BLUE BOX", "address": {"city": "NATICK", "state": "MA", "street": "172 N MAIN ST", "postcode": "01760"}}},
{"geometry": {"type": "Point", "coordinates": [-71.3889896142, 42.2764463634]}, "type": "Feature", "properties": {"collection_times": [{"days": "Mon-Fri", "time": "12:30pm"}, {"days": "Sat", "time": "1:45pm"}, {"days": "Sun", "time": "Closed"}], "id": "0176000022", "name": "USPS COLLECTION BOX - BLUE BOX", "address": {"city": "NATICK", "state": "MA", "street": "33 NEWFIELD DR", "postcode": "01760"}}},
{"geometry": {"type": "Point", "coordinates": [-71.3554673255, 42.2872439613]}, "type": "Feature", "properties": {"collection_times": [{"days": "Mon-Fri", "time": "12:30pm"}, {"days": "Sat", "time": "1:00pm"}, {"days": "Sun", "time": "Closed"}], "id": "0176000023", "name": "USPS COLLECTION BOX - EXPRESS", "address": {"city": "NATICK", "state": "MA", "street": "321 SPEEN ST", "postcode": "01760"}}},
{"geometry": {"type": "Point", "coordinates": [-71.3813098277, 42.3034361944]}, "type": "Feature", "properties": {"collection_times": [{"days": "Mon-Fri", "time": "12:30pm"}, {"days": "Sat", "time": "1:00pm"}, {"days": "Sun", "time": "Closed"}], "id": "0176000024", "name": "USPS COLLECTION BOX - BLUE BOX", "address": {"city": "NATICK", "state": "MA", "street": "321 SPEEN ST", "postcode": "01760"}}},
{"geometry": {"type": "Point", "coordinates": [-71.3581445535, 42.2912911609]}, "type": "Feature", "properties": {"collection_times": [{"days": "Mon-Fri", "time": "12:30pm"}, {"days": "Sat", "time": "3:00pm"}, {"days": "Sun", "time": "Closed"}], "id": "0176000026", "name": "USPS COLLECTION BOX - BLUE BOX", "address": {"city": "NATICK", "state": "MA", "street": "15 KANSAS ST", "postcode": "01760"}}},
{"geometry": {"type": "Point", "coordinates": [-71.3882714616, 42.2988810674]}, "type": "Feature", "properties": {"collection_times": [{"days": "Mon-Fri", "time": "2:30pm"}, {"days": "Sat", "time": "1:30pm"}, {"days": "Sun", "time": "Closed"}], "id": "0176000028", "name": "USPS COLLECTION BOX - BLUE BOX", "address": {"city": "NATICK", "state": "MA", "street": "1300 WORCESTER ST", "postcode": "01760"}}},
{"geometry": {"type": "Point", "coordinates": [-71.3554673255, 42.2872439613]}, "type": "Feature", "properties": {"collection_times": [{"days": "Mon-Fri", "time": "2:30pm"}, {"days": "Sat", "time": "1:30pm"}, {"days": "Sun", "time": "Closed"}], "id": "0176000029", "name": "USPS COLLECTION BOX - EXPRESS", "address": {"city": "NATICK", "state": "MA", "street": "21 STRATHMORE RD", "postcode": "01760"}}},
{"geometry": {"type": "Point", "coordinates": [-71.3854442008, 42.2961217761]}, "type": "Feature", "properties": {"collection_times": [{"days": "Mon-Fri", "time": "2:30pm"}, {"days": "Sat", "time": "1:30pm"}, {"days": "Sun", "time": "Closed"}], "id": "0176000030", "name": "USPS COLLECTION BOX - BLUE BOX", "address": {"city": "NATICK", "state": "MA", "street": "21 STRATHMORE RD", "postcode": "01760"}}},
{"geometry": {"type": "Point", "coordinates": [-71.3854442008, 42.2961217761]}, "type": "Feature", "properties": {"collection_times": [{"days": "Mon-Fri", "time": "2:30pm"}, {"days": "Sat", "time": "1:30pm"}, {"days": "Sun", "time": "Closed"}], "id": "0176000031", "name": "USPS COLLECTION BOX - BLUE BOX", "address": {"city": "NATICK", "state": "MA", "street": "21 STRATHMORE RD", "postcode": "01760"}}},
{"geometry": {"type": "Point", "coordinates": [-71.3381330085, 42.3152634182]}, "type": "Feature", "properties": {"collection_times": [{"days": "Mon-Fri", "time": "2:30pm"}, {"days": "Sat", "time": "3:00pm"}, {"days": "Sun", "time": "Closed"}], "id": "0176000033", "name": "USPS COLLECTION BOX - BLUE BOX", "address": {"city": "NATICK", "state": "MA", "street": "4 TECH CIR", "postcode": "01760"}}},
{"geometry": {"type": "Point", "coordinates": [-71.3381330085, 42.3152634182]}, "type": "Feature", "properties": {"collection_times": [{"days": "Mon-Fri", "time": "2:30pm"}, {"days": "Sat", "time": "3:00pm"}, {"days": "Sun", "time": "Closed"}], "id": "0176000034", "name": "USPS COLLECTION BOX - BLUE BOX", "address": {"city": "NATICK", "state": "MA", "street": "4 TECH CIR", "postcode": "01760"}}},
{"geometry": {"type": "Point", "coordinates": [-71.3554586351, 42.2872309724]}, "type": "Feature", "properties": {"collection_times": [{"days": "Mon-Fri", "time": "12:30pm"}, {"days": "Sat", "time": "1:00pm"}, {"days": "Sun", "time": "Closed"}], "id": "0176000035", "name": "USPS COLLECTION BOX - BLUE BOX", "address": {"city": "NATICK", "state": "MA", "street": "829 WORCESTER ST", "postcode": "01760"}}},
{"geometry": {"type": "Point", "coordinates": [-71.3165144879, 42.2720166625]}, "type": "Feature", "properties": {"collection_times": [{"days": "Mon-Fri", "time": "12:30pm"}, {"days": "Sat", "time": "3:00pm"}, {"days": "Sun", "time": "Closed"}], "id": "0176000036", "name": "USPS COLLECTION BOX - BLUE BOX", "address": {"city": "NATICK", "state": "MA", "street": "57 ELIOT ST", "postcode": "01760"}}},
{"geometry": {"type": "Point", "coordinates": [-71.3554673255, 42.2872439613]}, "type": "Feature", "properties": {"collection_times": [{"days": "Mon-Fri", "time": "2:30pm"}, {"days": "Sat", "time": "1:00pm"}, {"days": "Sun", "time": "Closed"}], "id": "0176000038", "name": "USPS COLLECTION BOX - EXPRESS", "address": {"city": "NATICK", "state": "MA", "street": "220 N MAIN ST", "postcode": "01760"}}},
{"geometry": {"type": "Point", "coordinates": [-71.3611817809, 42.3024247645]}, "type": "Feature", "properties": {"collection_times": [{"days": "Mon-Fri", "time": "2:30pm"}, {"days": "Sat", "time": "1:00pm"}, {"days": "Sun", "time": "Closed"}], "id": "0176000039", "name": "USPS COLLECTION BOX - BLUE BOX", "address": {"city": "NATICK", "state": "MA", "street": "220 N MAIN ST", "postcode": "01760"}}},
{"geometry": {"type": "Point", "coordinates": [-71.3611817809, 42.3024247645]}, "type": "Feature", "properties": {"collection_times": [{"days": "Mon-Fri", "time": "2:30pm"}, {"days": "Sat", "time": "1:00pm"}, {"days": "Sun", "time": "Closed"}], "id": "0176000040", "name": "USPS COLLECTION BOX - BLUE BOX", "address": {"city": "NATICK", "state": "MA", "street": "220 N MAIN ST", "postcode": "01760"}}},
{"geometry": {"type": "Point", "coordinates": [-71.3524421798, 42.3008737246]}, "type": "Feature", "properties": {"collection_times": [{"days": "Mon-Fri", "time": "12:30pm"}, {"days": "Sat", "time": "1:00pm"}, {"days": "Sun", "time": "Closed"}], "id": "0176000042", "name": "USPS COLLECTION BOX - BLUE BOX", "address": {"city": "NATICK", "state": "MA", "street": "2 WETHERSFIELD RD", "postcode": "01760"}}},
{"geometry": {"type": "Point", "coordinates": [-71.3473098511, 42.2838115621]}, "type": "Feature", "properties": {"collection_times": [{"days": "Mon-Fri", "time": "2:30pm"}, {"days": "Sat", "time": "2:00pm"}, {"days": "Sun", "time": "Closed"}], "id": "0176000048", "name": "USPS COLLECTION BOX - BLUE BOX", "address": {"city": "NATICK", "state": "MA", "street": "49 MAIN ST", "postcode": "01760"}}},
{"geometry": {"type": "Point", "coordinates": [-71.3356066904, 42.2929597477]}, "type": "Feature", "properties": {"collection_times": [{"days": "Mon-Fri", "time": "12:30pm"}, {"days": "Sat", "time": "3:00pm"}, {"days": "Sun", "time": "Closed"}], "id": "0176000052", "name": "USPS COLLECTION BOX - BLUE BOX", "address": {"city": "NATICK", "state": "MA", "street": "100 BACON ST", "postcode": "01760"}}},
{"geometry": {"type": "Point", "coordinates": [-71.3564771531, 42.2750286179]}, "type": "Feature", "properties": {"collection_times": [{"days": "Mon-Fri", "time": "12:30pm"}, {"days": "Sat", "time": "3:00pm"}, {"days": "Sun", "time": "Closed"}], "id": "0176000054", "name": "USPS COLLECTION BOX - BLUE BOX", "address": {"city": "NATICK", "state": "MA", "street": "40 CEDAR AVE", "postcode": "01760"}}},
{"geometry": {"type": "Point", "coordinates": [-71.35611353, 42.2744742157]}, "type": "Feature", "properties": {"collection_times": [{"days": "Mon-Fri", "time": "12:30pm"}, {"days": "Sat", "time": "3:00pm"}, {"days": "Sun", "time": "Closed"}], "id": "0176000055", "name": "USPS COLLECTION BOX - BLUE BOX", "address": {"city": "NATICK", "state": "MA", "street": "88 CEDAR AVE", "postcode": "01760"}}},
{"geometry": {"type": "Point", "coordinates": [-71.3554673255, 42.2872439613]}, "type": "Feature", "properties": {"collection_times": [{"days": "Mon-Fri", "time": "5:00pm"}, {"days": "Sat", "time": "3:00pm"}, {"days": "Sun", "time": "Closed"}], "id": "0176000056", "name": "USPS COLLECTION BOX - EXPRESS", "address": {"city": "NATICK", "state": "MA", "street": "18 HURON DR", "postcode": "01760"}}},
{"geometry": {"type": "Point", "coordinates": [-71.3417516799, 42.3155307669]}, "type": "Feature", "properties": {"collection_times": [{"days": "Mon-Fri", "time": "5:00pm"}, {"days": "Sat", "time": "3:00pm"}, {"days": "Sun", "time": "Closed"}], "id": "0176000058", "name": "USPS COLLECTION BOX - BLUE BOX", "address": {"city": "NATICK", "state": "MA", "street": "18 HURON DR", "postcode": "01760"}}},
{"geometry": {"type": "Point", "coordinates": [-71.3417516799, 42.3155307669]}, "type": "Feature", "properties": {"collection_times": [{"days": "Mon-Fri", "time": "5:00pm"}, {"days": "Sat", "time": "3:00pm"}, {"days": "Sun", "time": "Closed"}], "id": "0176000059", "name": "USPS COLLECTION BOX - BLUE BOX", "address": {"city": "NATICK", "state": "MA", "street": "18 HURON DR", "postcode": "01760"}}},
{"geometry": {"type": "Point", "coordinates": [-71.3417516799, 42.3155307669]}, "type": "Feature", "properties": {"collection_times": [{"days": "Mon-Fri", "time": "5:00pm"}, {"days": "Sat", "time": "3:00pm"}, {"days": "Sun", "time": "Closed"}], "id": "0176000060", "name": "USPS COLLECTION BOX - BLUE BOX", "address": {"city": "NATICK", "state": "MA", "street": "18 HURON DR", "postcode": "01760"}}},
{"geometry": {"type": "Point", "coordinates": [-71.3459973197, 42.2829213201]}, "type": "Feature", "properties": {"collection_times": [{"days": "Mon-Fri", "time": "5:00pm"}, {"days": "Sat", "time": "2:00pm"}, {"days": "Sun", "time": "Closed"}], "id": "0176000066", "name": "USPS COLLECTION BOX - PO LOBBY", "address": {"city": "NATICK", "state": "MA", "street": "15 COMMON ST", "postcode": "01760"}}},
{"geometry": {"type": "Point", "coordinates": [-71.3459973197, 42.2829213201]}, "type": "Feature", "properties": {"collection_times": [{"days": "Mon-Fri", "time": "5:00pm"}, {"days": "Sat", "time": "2:00pm"}, {"days": "Sun", "time": "Closed"}], "id": "0176000067", "name": "USPS COLLECTION BOX - PO LOBBY", "address": {"city": "NATICK", "state": "MA", "street": "15 COMMON ST", "postcode": "01760"}}},
{"geometry": {"type": "Point", "coordinates": [-71.37757853, 42.3019321174]}, "type": "Feature", "properties": {"collection_times": [{"days": "Mon-Fri", "time": "12:30pm"}, {"days": "Sat", "time": "1:00pm"}, {"days": "Sun", "time": "Closed"}], "id": "0176000068", "name": "USPS COLLECTION BOX - BLUE BOX", "address": {"city": "NATICK", "state": "MA", "street": "24 PRIME PARK WAY", "postcode": "01760"}}},
{"geometry": {"type": "Point", "coordinates": [-71.3703066282, 42.2425032759]}, "type": "Feature", "properties": {"collection_times": [{"days": "Mon-Fri", "time": "4:30pm"}, {"days": "Sat", "time": "2:00pm"}, {"days": "Sun", "time": "Closed"}], "id": "0177000002", "name": "USPS COLLECTION BOX - BLUE BOX", "address": {"city": "SHERBORN", "state": "MA", "street": "29 N MAIN ST", "postcode": "01770"}}},
{"geometry": {"type": "Point", "coordinates": [-71.3703066282, 42.2425032759]}, "type": "Feature", "properties": {"collection_times": [{"days": "Mon-Fri", "time": "4:30pm"}, {"days": "Sat", "time": "2:00pm"}, {"days": "Sun", "time": "Closed"}], "id": "0177000003", "name": "USPS COLLECTION BOX - BLUE BOX", "address": {"city": "SHERBORN", "state": "MA", "street": "29 N MAIN ST", "postcode": "01770"}}},
{"geometry": {"type": "Point", "coordinates": [-71.3703066282, 42.2425032759]}, "type": "Feature", "properties": {"collection_times": [{"days": "Mon-Fri", "time": "4:30pm"}, {"days": "Sat", "time": "2:00pm"}, {"days": "Sun", "time": "Closed"}], "id": "0177000004", "name": "USPS COLLECTION BOX - PO LOBBY", "address": {"city": "SHERBORN", "state": "MA", "street": "29 N MAIN ST", "postcode": "01770"}}},
{"geometry": {"type": "Point", "coordinates": [-71.3703066282, 42.2425032759]}, "type": "Feature", "properties": {"collection_times": [{"days": "Mon-Fri", "time": "4:30pm"}, {"days": "Sat", "time": "2:00pm"}, {"days": "Sun", "time": "Closed"}], "id": "0177000005", "name": "USPS COLLECTION BOX - PO LOBBY", "address": {"city": "SHERBORN", "state": "MA", "street": "29 N MAIN ST", "postcode": "01770"}}},
{"geometry": {"type": "Point", "coordinates": [-71.5300192314, 42.292362424]}, "type": "Feature", "properties": {"collection_times": [{"days": "Mon-Fri", "time": "4:30pm"}, {"days": "Sat", "time": "1:15pm"}, {"days": "Sun", "time": "Closed"}], "id": "0177200001", "name": "USPS COLLECTION BOX - BLUE BOX", "address": {"city": "SOUTHBOROUGH", "state": "MA", "street": "164 CORDAVILLE RD", "postcode": "01772"}}},
{"geometry": {"type": "Point", "coordinates": [-71.5300192314, 42.292362424]}, "type": "Feature", "properties": {"collection_times": [{"days": "Mon-Fri", "time": "4:30pm"}, {"days": "Sat", "time": "1:15pm"}, {"days": "Sun", "time": "Closed"}], "id": "0177200002", "name": "USPS COLLECTION BOX - BLUE BOX", "address": {"city": "SOUTHBOROUGH", "state": "MA", "street": "164 CORDAVILLE RD", "postcode": "01772"}}},
{"geometry": {"type": "Point", "coordinates": [-71.5259796755, 42.2868361503]}, "type": "Feature", "properties": {"collection_times": [{"days": "Mon-Fri", "time": "4:30pm"}, {"days": "Sat", "time": "1:15pm"}, {"days": "Sun", "time": "Closed"}], "id": "0177200003", "name": "USPS COLLECTION BOX - EXPRESS", "address": {"city": "SOUTHBOROUGH", "state": "MA", "street": "164 CORDAVILLE RD", "postcode": "01772"}}},
{"geometry": {"type": "Point", "coordinates": [-71.5300192314, 42.292362424]}, "type": "Feature", "properties": {"collection_times": [{"days": "Mon-Sat", "time": "9:30am"}, {"days": "Sun", "time": "Closed"}], "id": "0177200005", "name": "USPS COLLECTION BOX - BLUE BOX", "address": {"city": "SOUTHBOROUGH", "state": "MA", "street": "49 BOSTON RD", "postcode": "01772"}}},
{"geometry": {"type": "Point", "coordinates": [-71.5300192314, 42.292362424]}, "type": "Feature", "properties": {"collection_times": [{"days": "Mon-Fri", "time": "4:30pm"}, {"days": "Sat", "time": "1:15pm"}, {"days": "Sun", "time": "Closed"}], "id": "0177200010", "name": "USPS COLLECTION BOX - PO LOBBY", "address": {"city": "SOUTHBOROUGH", "state": "MA", "street": "164 CORDAVILLE RD", "postcode": "01772"}}},
{"geometry": {"type": "Point", "coordinates": [-71.5300192314, 42.292362424]}, "type": "Feature", "properties": {"collection_times": [{"days": "Mon-Fri", "time": "4:30pm"}, {"days": "Sat", "time": "1:15pm"}, {"days": "Sun", "time": "Closed"}], "id": "0177200011", "name": "USPS COLLECTION BOX - PO LOBBY", "address": {"city": "SOUTHBOROUGH", "state": "MA", "street": "164 CORDAVILLE RD", "postcode": "01772"}}},
{"geometry": {"type": "Point", "coordinates": [-71.5300192314, 42.292362424]}, "type": "Feature", "properties": {"collection_times": [{"days": "Mon-Sat", "time": "9:30am"}, {"days": "Sun", "time": "Closed"}], "id": "0177200014", "name": "USPS COLLECTION BOX - BLUE BOX", "address": {"city": "SOUTHBOROUGH", "state": "MA", "street": "6 MAIN ST", "postcode": "01772"}}},
{"geometry": {"type": "Point", "coordinates": [-71.3233110045, 42.4153529695]}, "type": "Feature", "properties": {"collection_times": [{"days": "Mon-Fri", "time": "4:30pm"}, {"days": "Sat", "time": "1:45pm"}, {"days": "Sun", "time": "Closed"}], "id": "0177300002", "name": "USPS COLLECTION BOX - BLUE BOX", "address": {"city": "LINCOLN", "state": "MA", "street": "145 LINCOLN RD", "postcode": "01773"}}},
{"geometry": {"type": "Point", "coordinates": [-71.3233110045, 42.4153529695]}, "type": "Feature", "properties": {"collection_times": [{"days": "Mon-Fri", "time": "4:30pm"}, {"days": "Sat", "time": "1:45pm"}, {"days": "Sun", "time": "Closed"}], "id": "0177300003", "name": "USPS COLLECTION BOX - BLUE BOX", "address": {"city": "LINCOLN", "state": "MA", "street": "145 LINCOLN RD", "postcode": "01773"}}},
{"geometry": {"type": "Point", "coordinates": [-71.3066770166, 42.4244967992]}, "type": "Feature", "properties": {"collection_times": [{"days": "Mon-Fri", "time": "12:00pm"}, {"days": "Sat", "time": "10:00am"}, {"days": "Sun", "time": "Closed"}], "id": "0177300005", "name": "USPS COLLECTION BOX - BLUE BOX", "address": {"city": "LINCOLN", "state": "MA", "street": "15 LINCOLN RD", "postcode": "01773"}}},
{"geometry": {"type": "Point", "coordinates": [-71.3570090702, 42.4095447131]}, "type": "Feature", "properties": {"collection_times": [{"days": "Mon-Fri", "time": "9:30am"}, {"days": "Sat-Sun", "time": "Closed"}], "id": "0177300008", "name": "USPS COLLECTION BOX - BLUE BOX", "address": {"city": "LINCOLN", "state": "MA", "street": "1 KETTLEHOLE DR", "postcode": "01773"}}},
{"geometry": {"type": "Point", "coordinates": [-71.3233110045, 42.4153529695]}, "type": "Feature", "properties": {"collection_times": [{"days": "Mon-Fri", "time": "4:30pm"}, {"days": "Sat", "time": "1:45pm"}, {"days": "Sun", "time": "Closed"}], "id": "0177300010", "name": "USPS COLLECTION BOX - PO LOBBY", "address": {"city": "LINCOLN", "state": "MA", "street": "145 LINCOLN RD", "postcode": "01773"}}},
{"geometry": {"type": "Point", "coordinates": [-71.3233110045, 42.4153529695]}, "type": "Feature", "properties": {"collection_times": [{"days": "Mon-Fri", "time": "4:30pm"}, {"days": "Sat", "time": "1:45pm"}, {"days": "Sun", "time": "Closed"}], "id": "0177300011", "name": "USPS COLLECTION BOX - PO LOBBY", "address": {"city": "LINCOLN", "state": "MA", "street": "145 LINCOLN RD", "postcode": "01773"}}},
{"geometry": {"type": "Point", "coordinates": [-71.3066770166, 42.4244967992]}, "type": "Feature", "properties": {"collection_times": [{"days": "Mon-Fri", "time": "12:00pm"}, {"days": "Sat", "time": "10:00am"}, {"days": "Sun", "time": "Closed"}], "id": "0177300013", "name": "USPS COLLECTION BOX - PO LOBBY", "address": {"city": "LINCOLN", "state": "MA", "street": "15 LINCOLN RD", "postcode": "01773"}}},
{"geometry": {"type": "Point", "coordinates": [-71.3066770166, 42.4244967992]}, "type": "Feature", "properties": {"collection_times": [{"days": "Mon-Fri", "time": "12:00pm"}, {"days": "Sat", "time": "10:00am"}, {"days": "Sun", "time": "Closed"}], "id": "0177300014", "name": "USPS COLLECTION BOX - PO LOBBY", "address": {"city": "LINCOLN", "state": "MA", "street": "15 LINCOLN RD", "postcode": "01773"}}},
{"geometry": {"type": "Point", "coordinates": [-71.3066770166, 42.4244967992]}, "type": "Feature", "properties": {"collection_times": [{"days": "Mon-Fri", "time": "12:00pm"}, {"days": "Sat", "time": "10:00am"}, {"days": "Sun", "time": "Closed"}], "id": "0177300015", "name": "USPS COLLECTION BOX - PO LOBBY", "address": {"city": "LINCOLN", "state": "MA", "street": "15 LINCOLN RD", "postcode": "01773"}}},
{"geometry": {"type": "Point", "coordinates": [-71.3066770166, 42.4244967992]}, "type": "Feature", "properties": {"collection_times": [{"days": "Mon-Fri", "time": "12:00pm"}, {"days": "Sat", "time": "10:00am"}, {"days": "Sun", "time": "Closed"}], "id": "0177300016", "name": "USPS COLLECTION BOX - PO LOBBY", "address": {"city": "LINCOLN", "state": "MA", "street": "15 LINCOLN RD", "postcode": "01773"}}},
{"geometry": {"type": "Point", "coordinates": [-71.3233110045, 42.4153529695]}, "type": "Feature", "properties": {"collection_times": [{"days": "Mon-Fri", "time": "4:30pm"}, {"days": "Sat", "time": "1:45pm"}, {"days": "Sun", "time": "Closed"}], "id": "0177300018", "name": "USPS COLLECTION BOX - BLUE BOX", "address": {"city": "LINCOLN", "state": "MA", "street": "145 LINCOLN RD", "postcode": "01773"}}},
{"geometry": {"type": "Point", "coordinates": [-71.4862418368, 42.4332422817]}, "type": "Feature", "properties": {"collection_times": [{"days": "Mon-Sat", "time": "11:00am"}, {"days": "Sun", "time": "Closed"}], "id": "0177500001", "name": "USPS COLLECTION BOX - BLUE BOX", "address": {"city": "STOW", "state": "MA", "street": "117 GREAT RD", "postcode": "01775"}}},
{"geometry": {"type": "Point", "coordinates": [-71.5052472555, 42.4350415623]}, "type": "Feature", "properties": {"collection_times": [{"days": "Mon-Sat", "time": "10:30am"}, {"days": "Sun", "time": "Closed"}], "id": "0177500004", "name": "USPS COLLECTION BOX - BLUE BOX", "address": {"city": "STOW", "state": "MA", "street": "23 GLEASONDALE RD", "postcode": "01775"}}},
{"geometry": {"type": "Point", "coordinates": [-71.4120916029, 42.3618164023]}, "type": "Feature", "properties": {"collection_times": [{"days": "Mon-Fri", "time": "4:00pm"}, {"days": "Sat", "time": "12:30pm"}, {"days": "Sun", "time": "Closed"}], "id": "0177600001", "name": "USPS COLLECTION BOX - BLUE BOX", "address": {"city": "SUDBURY", "state": "MA", "street": "321 BOSTON POST RD", "postcode": "01776"}}},
{"geometry": {"type": "Point", "coordinates": [-71.4826290317, 42.3530100273]}, "type": "Feature", "properties": {"collection_times": [{"days": "Mon-Fri", "time": "4:15pm"}, {"days": "Sat", "time": "12:30pm"}, {"days": "Sun", "time": "Closed"}], "id": "0177600002", "name": "USPS COLLECTION BOX - BLUE BOX", "address": {"city": "SUDBURY", "state": "MA", "street": "490 BOSTON POST RD", "postcode": "01776"}}},
{"geometry": {"type": "Point", "coordinates": [-71.4220659818, 42.3607509031]}, "type": "Feature", "properties": {"collection_times": [{"days": "Mon-Fri", "time": "5:00pm"}, {"days": "Sat", "time": "12:30pm"}, {"days": "Sun", "time": "Closed"}], "id": "0177600003", "name": "USPS COLLECTION BOX - BLUE BOX", "address": {"city": "SUDBURY", "state": "MA", "street": "18 UNION AVE", "postcode": "01776"}}},
{"geometry": {"type": "Point", "coordinates": [-71.3931842003, 42.3630661887]}, "type": "Feature", "properties": {"collection_times": [{"days": "Mon-Fri", "time": "4:15pm"}, {"days": "Sat", "time": "12:30pm"}, {"days": "Sun", "time": "Closed"}], "id": "0177600006", "name": "USPS COLLECTION BOX - BLUE BOX", "address": {"city": "SUDBURY", "state": "MA", "street": "111 BOSTON POST RD", "postcode": "01776"}}},
{"geometry": {"type": "Point", "coordinates": [-71.4130237746, 42.3619181368]}, "type": "Feature", "properties": {"collection_times": [{"days": "Mon-Fri", "time": "4:00pm"}, {"days": "Sat", "time": "12:30pm"}, {"days": "Sun", "time": "Closed"}], "id": "0177600007", "name": "USPS COLLECTION BOX - BLUE BOX", "address": {"city": "SUDBURY", "state": "MA", "street": "327 BOSTON POST RD", "postcode": "01776"}}},
{"geometry": {"type": "Point", "coordinates": [-71.4287675683, 42.3839029537]}, "type": "Feature", "properties": {"collection_times": [{"days": "Mon-Fri", "time": "4:15pm"}, {"days": "Sat", "time": "12:30pm"}, {"days": "Sun", "time": "Closed"}], "id": "0177600008", "name": "USPS COLLECTION BOX - EXPRESS", "address": {"city": "SUDBURY", "state": "MA", "street": "111 BOSTON POST RD", "postcode": "01776"}}},
{"geometry": {"type": "Point", "coordinates": [-71.4232066854, 42.3605447214]}, "type": "Feature", "properties": {"collection_times": [{"days": "Mon-Fri", "time": "3:45pm"}, {"days": "Sat", "time": "12:30pm"}, {"days": "Sun", "time": "Closed"}], "id": "0177600012", "name": "USPS COLLECTION BOX - BLUE BOX", "address": {"city": "SUDBURY", "state": "MA", "street": "447 BOSTON POST RD", "postcode": "01776"}}},
{"geometry": {"type": "Point", "coordinates": [-71.4826290317, 42.3530100273]}, "type": "Feature", "properties": {"collection_times": [{"days": "Mon-Fri", "time": "4:15pm"}, {"days": "Sat", "time": "12:30pm"}, {"days": "Sun", "time": "Closed"}], "id": "0177600014", "name": "USPS COLLECTION BOX - BLUE BOX", "address": {"city": "SUDBURY", "state": "MA", "street": "490 BOSTON POST RD", "postcode": "01776"}}},
{"geometry": {"type": "Point", "coordinates": [-71.4297368245, 42.359996946]}, "type": "Feature", "properties": {"collection_times": [{"days": "Mon-Fri", "time": "5:00pm"}, {"days": "Sat", "time": "12:30pm"}, {"days": "Sun", "time": "Closed"}], "id": "0177600015", "name": "USPS COLLECTION BOX - BLUE BOX", "address": {"city": "SUDBURY", "state": "MA", "street": "517 BOSTON POST RD", "postcode": "01776"}}},
{"geometry": {"type": "Point", "coordinates": [-71.4297368245, 42.359996946]}, "type": "Feature", "properties": {"collection_times": [{"days": "Mon-Fri", "time": "5:00pm"}, {"days": "Sat", "time": "12:30pm"}, {"days": "Sun", "time": "Closed"}], "id": "0177600016", "name": "USPS COLLECTION BOX - BLUE BOX", "address": {"city": "SUDBURY", "state": "MA", "street": "517 BOSTON POST RD", "postcode": "01776"}}},
{"geometry": {"type": "Point", "coordinates": [-71.4287675683, 42.3839029537]}, "type": "Feature", "properties": {"collection_times": [{"days": "Mon-Fri", "time": "5:00pm"}, {"days": "Sat", "time": "12:30pm"}, {"days": "Sun", "time": "Closed"}], "id": "0177600018", "name": "USPS COLLECTION BOX - EXPRESS", "address": {"city": "SUDBURY", "state": "MA", "street": "517 BOSTON POST RD", "postcode": "01776"}}},
{"geometry": {"type": "Point", "coordinates": [-71.431186566, 42.3602466443]}, "type": "Feature", "properties": {"collection_times": [{"days": "Mon-Fri", "time": "5:00pm"}, {"days": "Sat", "time": "12:30pm"}, {"days": "Sun", "time": "Closed"}], "id": "0177600019", "name": "USPS COLLECTION BOX - BLUE BOX", "address": {"city": "SUDBURY", "state": "MA", "street": "517 BOSTON POST RD", "postcode": "01776"}}},
{"geometry": {"type": "Point", "coordinates": [-71.4481198012, 42.360239518]}, "type": "Feature", "properties": {"collection_times": [{"days": "Mon-Fri", "time": "3:45pm"}, {"days": "Sat", "time": "12:30pm"}, {"days": "Sun", "time": "Closed"}], "id": "0177600020", "name": "USPS COLLECTION BOX - BLUE BOX", "address": {"city": "SUDBURY", "state": "MA", "street": "730 BOSTON POST RD", "postcode": "01776"}}},
{"geometry": {"type": "Point", "coordinates": [-71.4108070491, 42.3822798282]}, "type": "Feature", "properties": {"collection_times": [{"days": "Mon-Fri", "time": "3:30pm"}, {"days": "Sat", "time": "12:30pm"}, {"days": "Sun", "time": "Closed"}], "id": "0177600022", "name": "USPS COLLECTION BOX - BLUE BOX", "address": {"city": "SUDBURY", "state": "MA", "street": "278 OLD SUDBURY RD", "postcode": "01776"}}},
{"geometry": {"type": "Point", "coordinates": [-71.4287675683, 42.3839029537]}, "type": "Feature", "properties": {"collection_times": [{"days": "Mon-Fri", "time": "4:00pm"}, {"days": "Sat", "time": "12:30pm"}, {"days": "Sun", "time": "Closed"}], "id": "0177600028", "name": "USPS COLLECTION BOX - EXPRESS", "address": {"city": "SUDBURY", "state": "MA", "street": "321 BOSTON POST RD", "postcode": "01776"}}},
{"geometry": {"type": "Point", "coordinates": [-71.4434500672, 42.3933513521]}, "type": "Feature", "properties": {"collection_times": [{"days": "Mon-Fri", "time": "10:00am"}, {"days": "Sat", "time": "10:30am"}, {"days": "Sun", "time": "Closed"}], "id": "0177600030", "name": "USPS COLLECTION BOX - BLUE BOX", "address": {"city": "SUDBURY", "state": "MA", "street": "40 FAIRBANK RD", "postcode": "01776"}}},
{"geometry": {"type": "Point", "coordinates": [-71.4297368245, 42.359996946]}, "type": "Feature", "properties": {"collection_times": [{"days": "Mon-Fri", "time": "5:00pm"}, {"days": "Sat", "time": "1:30pm"}, {"days": "Sun", "time": "Closed"}], "id": "0177600031", "name": "USPS COLLECTION BOX - PO LOBBY", "address": {"city": "SUDBURY", "state": "MA", "street": "517 BOSTON POST RD", "postcode": "01776"}}},
{"geometry": {"type": "Point", "coordinates": [-71.3638730126, 42.3631046446]}, "type": "Feature", "properties": {"collection_times": [{"days": "Mon-Fri", "time": "5:15pm"}, {"days": "Sat", "time": "3:30pm"}, {"days": "Sun", "time": "Closed"}], "id": "0177800001", "name": "USPS COLLECTION BOX - BLUE BOX", "address": {"city": "WAYLAND", "state": "MA", "street": "277 BOSTON POST RD", "postcode": "01778"}}},
{"geometry": {"type": "Point", "coordinates": [-71.3587086996, 42.3457929104]}, "type": "Feature", "properties": {"collection_times": [{"days": "Mon-Fri", "time": "5:15pm"}, {"days": "Sat", "time": "3:30pm"}, {"days": "Sun", "time": "Closed"}], "id": "0177800003", "name": "USPS COLLECTION BOX - EXPRESS", "address": {"city": "WAYLAND", "state": "MA", "street": "277 BOSTON POST RD", "postcode": "01778"}}},
{"geometry": {"type": "Point", "coordinates": [-71.3639856548, 42.3174214958]}, "type": "Feature", "properties": {"collection_times": [{"days": "Mon-Fri", "time": "5:00pm"}, {"days": "Sat", "time": "2:00pm"}, {"days": "Sun", "time": "Closed"}], "id": "0177800004", "name": "USPS COLLECTION BOX - BLUE BOX", "address": {"city": "WAYLAND", "state": "MA", "street": "148 COMMONWEALTH RD", "postcode": "01778"}}},
{"geometry": {"type": "Point", "coordinates": [-71.3587086996, 42.3457929104]}, "type": "Feature", "properties": {"collection_times": [{"days": "Mon-Fri", "time": "5:00pm"}, {"days": "Sat", "time": "2:00pm"}, {"days": "Sun", "time": "Closed"}], "id": "0177800006", "name": "USPS COLLECTION BOX - EXPRESS", "address": {"city": "WAYLAND", "state": "MA", "street": "148 COMMONWEALTH RD", "postcode": "01778"}}},
{"geometry": {"type": "Point", "coordinates": [-71.3639856548, 42.3174214958]}, "type": "Feature", "properties": {"collection_times": [{"days": "Mon-Fri", "time": "5:00pm"}, {"days": "Sat", "time": "2:00pm"}, {"days": "Sun", "time": "Closed"}], "id": "0177800007", "name": "USPS COLLECTION BOX - BLUE BOX", "address": {"city": "WAYLAND", "state": "MA", "street": "148 COMMONWEALTH RD", "postcode": "01778"}}},
{"geometry": {"type": "Point", "coordinates": [-71.3751663617, 42.3359223497]}, "type": "Feature", "properties": {"collection_times": [{"days": "Mon-Fri", "time": "4:15pm"}, {"days": "Sat", "time": "2:00pm"}, {"days": "Sun", "time": "Closed"}], "id": "0177800008", "name": "USPS COLLECTION BOX - BLUE BOX", "address": {"city": "WAYLAND", "state": "MA", "street": "341 OLD CONNECTICUT PATH", "postcode": "01778"}}},
{"geometry": {"type": "Point", "coordinates": [-71.3655634634, 42.3630903988]}, "type": "Feature", "properties": {"collection_times": [{"days": "Mon-Fri", "time": "5:00pm"}, {"days": "Sat", "time": "2:00pm"}, {"days": "Sun", "time": "Closed"}], "id": "0177800011", "name": "USPS COLLECTION BOX - BLUE BOX", "address": {"city": "WAYLAND", "state": "MA", "street": "317 BOSTON POST RD", "postcode": "01778"}}},
{"geometry": {"type": "Point", "coordinates": [-71.3540698316, 42.322561092]}, "type": "Feature", "properties": {"collection_times": [{"days": "Mon-Fri", "time": "4:30pm"}, {"days": "Sat", "time": "2:00pm"}, {"days": "Sun", "time": "Closed"}], "id": "0177800014", "name": "USPS COLLECTION BOX - BLUE BOX", "address": {"city": "WAYLAND", "state": "MA", "street": "308 COMMONWEALTH RD", "postcode": "01778"}}},
{"geometry": {"type": "Point", "coordinates": [-71.3744161999, 42.3111924731]}, "type": "Feature", "properties": {"collection_times": [{"days": "Mon-Fri", "time": "4:30pm"}, {"days": "Sat", "time": "2:00pm"}, {"days": "Sun", "time": "Closed"}], "id": "0177800015", "name": "USPS COLLECTION BOX - BLUE BOX", "address": {"city": "WAYLAND", "state": "MA", "street": "179 COMMONWEALTH RD", "postcode": "01778"}}},
{"geometry": {"type": "Point", "coordinates": [-71.359023124, 42.3585263318]}, "type": "Feature", "properties": {"collection_times": [{"days": "Mon-Sat", "time": "2:00pm"}, {"days": "Sun", "time": "Closed"}], "id": "0177800016", "name": "USPS COLLECTION BOX - BLUE BOX", "address": {"city": "WAYLAND", "state": "MA", "street": "212 W PLAIN ST & EDGEWOOD", "postcode": "01778"}}},
{"geometry": {"type": "Point", "coordinates": [-71.3590560037, 42.3610439301]}, "type": "Feature", "properties": {"collection_times": [{"days": "Mon-Fri", "time": "4:15pm"}, {"days": "Sat", "time": "2:00pm"}, {"days": "Sun", "time": "Closed"}], "id": "0177800017", "name": "USPS COLLECTION BOX - BLUE BOX", "address": {"city": "WAYLAND", "state": "MA", "street": "41 COCHITUATE RD", "postcode": "01778"}}},
{"geometry": {"type": "Point", "coordinates": [-71.3547831559, 42.3223517083]}, "type": "Feature", "properties": {"collection_times": [{"days": "Mon-Fri", "time": "4:30pm"}, {"days": "Sat", "time": "2:00pm"}, {"days": "Sun", "time": "Closed"}], "id": "0177800018", "name": "USPS COLLECTION BOX - BLUE BOX", "address": {"city": "WAYLAND", "state": "MA", "street": "321 COMMONWEALTH RD", "postcode": "01778"}}},
{"geometry": {"type": "Point", "coordinates": [-71.3638730126, 42.3631046446]}, "type": "Feature", "properties": {"collection_times": [{"days": "Mon-Fri", "time": "5:15pm"}, {"days": "Sat", "time": "12:00pm"}, {"days": "Sun", "time": "Closed"}], "id": "0177800019", "name": "USPS COLLECTION BOX - PO LOBBY", "address": {"city": "WAYLAND", "state": "MA", "street": "277 BOSTON POST RD", "postcode": "01778"}}},
{"geometry": {"type": "Point", "coordinates": [-71.3638730126, 42.3631046446]}, "type": "Feature", "properties": {"collection_times": [{"days": "Mon-Fri", "time": "5:15pm"}, {"days": "Sat", "time": "12:00pm"}, {"days": "Sun", "time": "Closed"}], "id": "0177800020", "name": "USPS COLLECTION BOX - PO LOBBY", "address": {"city": "WAYLAND", "state": "MA", "street": "277 BOSTON POST RD", "postcode": "01778"}}},
{"geometry": {"type": "Point", "coordinates": [-71.3639856548, 42.3174214958]}, "type": "Feature", "properties": {"collection_times": [{"days": "Mon-Fri", "time": "5:00pm"}, {"days": "Sat", "time": "12:00pm"}, {"days": "Sun", "time": "Closed"}], "id": "0177800021", "name": "USPS COLLECTION BOX - PO LOBBY", "address": {"city": "WAYLAND", "state": "MA", "street": "148 COMMONWEALTH RD", "postcode": "01778"}}},
{"geometry": {"type": "Point", "coordinates": [-71.3639856548, 42.3174214958]}, "type": "Feature", "properties": {"collection_times": [{"days": "Mon-Fri", "time": "5:00pm"}, {"days": "Sat", "time": "12:00pm"}, {"days": "Sun", "time": "Closed"}], "id": "0177800022", "name": "USPS COLLECTION BOX - PO LOBBY", "address": {"city": "WAYLAND", "state": "MA", "street": "148 COMMONWEALTH RD", "postcode": "01778"}}},
{"geometry": {"type": "Point", "coordinates": [-71.3639856548, 42.3174214958]}, "type": "Feature", "properties": {"collection_times": [{"days": "Mon-Fri", "time": "5:00pm"}, {"days": "Sat", "time": "12:00pm"}, {"days": "Sun", "time": "Closed"}], "id": "0177800023", "name": "USPS COLLECTION BOX - PO LOBBY", "address": {"city": "WAYLAND", "state": "MA", "street": "148 COMMONWEALTH RD", "postcode": "01778"}}},
{"geometry": {"type": "Point", "coordinates": [-71.3638730126, 42.3631046446]}, "type": "Feature", "properties": {"collection_times": [{"days": "Mon-Fri", "time": "5:15pm"}, {"days": "Sat", "time": "3:30pm"}, {"days": "Sun", "time": "Closed"}], "id": "0177800024", "name": "USPS COLLECTION BOX - BLUE BOX", "address": {"city": "WAYLAND", "state": "MA", "street": "277 BOSTON POST RD", "postcode": "01778"}}},
{"geometry": {"type": "Point", "coordinates": [-71.5627608532, 42.2376359974]}, "type": "Feature", "properties": {"collection_times": [{"days": "Mon-Fri", "time": "5:00pm"}, {"days": "Sat", "time": "11:55am"}, {"days": "Sun", "time": "Closed"}], "id": "0178400001", "name": "USPS COLLECTION BOX - BLUE BOX", "address": {"city": "WOODVILLE", "state": "MA", "street": "234 WOOD ST", "postcode": "01784"}}},
{"geometry": {"type": "Point", "coordinates": [-71.5627608532, 42.2376359974]}, "type": "Feature", "properties": {"collection_times": [{"days": "Mon-Fri", "time": "5:00pm"}, {"days": "Sat", "time": "11:55am"}, {"days": "Sun", "time": "Closed"}], "id": "0178400002", "name": "USPS COLLECTION BOX - PO LOBBY", "address": {"city": "WOODVILLE", "state": "MA", "street": "234 WOOD ST", "postcode": "01784"}}},
{"geometry": {"type": "Point", "coordinates": [-71.5627608532, 42.2376359974]}, "type": "Feature", "properties": {"collection_times": [{"days": "Mon-Fri", "time": "5:00pm"}, {"days": "Sat", "time": "11:55am"}, {"days": "Sun", "time": "Closed"}], "id": "0178400003", "name": "USPS COLLECTION BOX - PO LOBBY", "address": {"city": "WOODVILLE", "state": "MA", "street": "234 WOOD ST", "postcode": "01784"}}}
]}
