{"type": "FeatureCollection", "features": [
{"geometry": {"type": "Point", "coordinates": [-70.9461728359, 42.4612888702]}, "type": "Feature", "properties": {"collection_times": [{"days": "Mon-Sat", "time": "12:00pm"}, {"days": "Sun", "time": "Closed"}], "id": "0190100002", "name": "USPS COLLECTION BOX - BLUE BOX", "address": {"city": "LYNN", "state": "MA", "street": "11 BROADWAY & BAYSTATE", "postcode": "01901"}}},
{"geometry": {"type": "Point", "coordinates": [-70.9596287262, 42.4703481555]}, "type": "Feature", "properties": {"collection_times": [{"days": "Mon-Sat", "time": "12:00pm"}, {"days": "Sun", "time": "Closed"}], "id": "0190100005", "name": "USPS COLLECTION BOX - BLUE BOX", "address": {"city": "LYNN", "state": "MA", "street": "225 BOSTON ST", "postcode": "01901"}}},
{"geometry": {"type": "Point", "coordinates": [-70.9461728359, 42.4612888702]}, "type": "Feature", "properties": {"collection_times": [{"days": "Mon-Sat", "time": "12:00pm"}, {"days": "Sun", "time": "Closed"}], "id": "0190100009", "name": "USPS COLLECTION BOX - BLUE BOX", "address": {"city": "LYNN", "state": "MA", "street": "232 LEWIS & ATLANTIC", "postcode": "01901"}}},
{"geometry": {"type": "Point", "coordinates": [-70.9502166918, 42.4637011253]}, "type": "Feature", "properties": {"collection_times": [{"days": "Mon-Sat", "time": "12:00pm"}, {"days": "Sun", "time": "Closed"}], "id": "0190100017", "name": "USPS COLLECTION BOX - BLUE BOX", "address": {"city": "LYNN", "state": "MA", "street": "166 BROADWAY & MAYFAIR", "postcode": "01901"}}},
{"geometry": {"type": "Point", "coordinates": [-70.95756725, 42.483225559]}, "type": "Feature", "properties": {"collection_times": [{"days": "Mon-Sat", "time": "5:00pm"}, {"days": "Sun", "time": "Closed"}], "id": "0190100018", "name": "USPS COLLECTION BOX - BLUE BOX", "address": {"city": "LYNN", "state": "MA", "street": "404 BROADWAY", "postcode": "01901"}}},
{"geometry": {"type": "Point", "coordinates": [-70.9459375224, 42.463412255]}, "type": "Feature", "properties": {"collection_times": [{"days": "Mon-Sat", "time": "4:30pm"}, {"days": "Sun", "time": "Closed"}], "id": "0190100021", "name": "USPS COLLECTION BOX - BLUE BOX", "address": {"city": "LYNN", "state": "MA", "street": "56 CENTRAL AVE / ANDREW", "postcode": "01901"}}},
{"geometry": {"type": "Point", "coordinates": [-70.9461728359, 42.4612888702]}, "type": "Feature", "properties": {"collection_times": [{"days": "Mon-Sat", "time": "12:00pm"}, {"days": "Sun", "time": "Closed"}], "id": "0190100024", "name": "USPS COLLECTION BOX - BLUE BOX", "address": {"city": "LYNN", "state": "MA", "street": "428 CHATHAM & GOODRIDGE", "postcode": "01901"}}},
{"geometry": {"type": "Point", "coordinates": [-70.9502166918, 42.4637011253]}, "type": "Feature", "properties": {"collection_times": [{"days": "Mon-Sat", "time": "12:00pm"}, {"days": "Sun", "time": "Closed"}], "id": "0190100025", "name": "USPS COLLECTION BOX - BLUE BOX", "address": {"city": "LYNN", "state": "MA", "street": "65 LEWIS & PHILIPS AVE", "postcode": "01901"}}},
{"geometry": {"type": "Point", "coordinates": [-70.9517715127, 42.4641991348]}, "type": "Feature", "properties": {"collection_times": [{"days": "Mon-Sat", "time": "12:00pm"}, {"days": "Sun", "time": "Closed"}], "id": "0190100030", "name": "USPS COLLECTION BOX - BLUE BOX", "address": {"city": "LYNN", "state": "MA", "street": "12 CITY HALL SQ", "postcode": "01901"}}},
{"geometry": {"type": "Point", "coordinates": [-70.9500443926, 42.478147404]}, "type": "Feature", "properties": {"collection_times": [{"days": "Mon-Sat", "time": "5:00pm"}, {"days": "Sun", "time": "Closed"}], "id": "0190100035", "name": "USPS COLLECTION BOX - BLUE BOX", "address": {"city": "LYNN", "state": "MA", "street": "245 MAPLE ST", "postcode": "01901"}}},
{"geometry": {"type": "Point", "coordinates": [-70.9255855331, 42.4718020121]}, "type": "Feature", "properties": {"collection_times": [{"days": "Mon-Sat", "time": "12:00pm"}, {"days": "Sun", "time": "Closed"}], "id": "0190100041", "name": "USPS COLLECTION BOX - BLUE BOX", "address": {"city": "LYNN", "state": "MA", "street": "130 EASTERN AVE EAST", "postcode": "01901"}}},
{"geometry": {"type": "Point", "coordinates": [-70.9461728359, 42.4612888702]}, "type": "Feature", "properties": {"collection_times": [{"days": "Mon-Sat", "time": "12:00pm"}, {"days": "Sun", "time": "Closed"}], "id": "0190100042", "name": "USPS COLLECTION BOX - BLUE BOX", "address": {"city": "LYNN", "state": "MA", "street": "78 FAYS AVE & EDGEMERE", "postcode": "01901"}}},
{"geometry": {"type": "Point", "coordinates": [-70.9385188234, 42.4702558847]}, "type": "Feature", "properties": {"collection_times": [{"days": "Mon-Sat", "time": "12:00pm"}, {"days": "Sun", "time": "Closed"}], "id": "0190100043", "name": "USPS COLLECTION BOX - BLUE BOX", "address": {"city": "LYNN", "state": "MA", "street": "301 ESSEX ST", "postcode": "01901"}}},
{"geometry": {"type": "Point", "coordinates": [-70.9508765154, 42.4854281074]}, "type": "Feature", "properties": {"collection_times": [{"days": "Mon-Sat", "time": "12:00pm"}, {"days": "Sun", "time": "Closed"}], "id": "0190100047", "name": "USPS COLLECTION BOX - BLUE BOX", "address": {"city": "LYNN", "state": "MA", "street": "137 EUCLID AVE", "postcode": "01901"}}},
{"geometry": {"type": "Point", "coordinates": [-70.9429501877, 42.4635496904]}, "type": "Feature", "properties": {"collection_times": [{"days": "Mon-Sat", "time": "5:00pm"}, {"days": "Sun", "time": "Closed"}], "id": "0190100050", "name": "USPS COLLECTION BOX - BLUE BOX", "address": {"city": "LYNN", "state": "MA", "street": "38 EXCHANGE ST", "postcode": "01901"}}},
{"geometry": {"type": "Point", "coordinates": [-70.9403351483, 42.4623187217]}, "type": "Feature", "properties": {"collection_times": [{"days": "Mon-Sat", "time": "12:00pm"}, {"days": "Sun", "time": "Closed"}], "id": "0190100052", "name": "USPS COLLECTION BOX - BLUE BOX", "address": {"city": "LYNN", "state": "MA", "street": "10 FARRAR ST", "postcode": "01901"}}},
{"geometry": {"type": "Point", "coordinates": [-70.9394565811, 42.4665530192]}, "type": "Feature", "properties": {"collection_times": [{"days": "Mon-Sat", "time": "12:00pm"}, {"days": "Sun", "time": "Closed"}], "id": "0190100057", "name": "USPS COLLECTION BOX - BLUE BOX", "address": {"city": "LYNN", "state": "MA", "street": "37 GREEN ST", "postcode": "01901"}}},
{"geometry": {"type": "Point", "coordinates": [-70.9502166918, 42.4637011253]}, "type": "Feature", "properties": {"collection_times": [{"days": "Mon-Sat", "time": "12:00pm"}, {"days": "Sun", "time": "Closed"}], "id": "0190100059", "name": "USPS COLLECTION BOX - BLUE BOX", "address": {"city": "LYNN", "state": "MA", "street": "79 RANGE & JENNESS", "postcode": "01901"}}},
{"geometry": {"type": "Point", "coordinates": [-70.9461728359, 42.4612888702]}, "type": "Feature", "properties": {"collection_times": [{"days": "Mon-Sat", "time": "12:00pm"}, {"days": "Sun", "time": "Closed"}], "id": "0190100060", "name": "USPS COLLECTION BOX - BLUE BOX", "address": {"city": "LYNN", "state": "MA", "street": "7 LAFAYETTE PARK & LEWIS", "postcode": "01901"}}},
{"geometry": {"type": "Point", "coordinates": [-70.9461728359, 42.4612888702]}, "type": "Feature", "properties": {"collection_times": [{"days": "Mon-Sat", "time": "12:00pm"}, {"days": "Sun", "time": "Closed"}], "id": "0190100062", "name": "USPS COLLECTION BOX - BLUE BOX", "address": {"city": "LYNN", "state": "MA", "street": "725 LYNNFIELD & CUMBERLAND", "postcode": "01901"}}},
{"geometry": {"type": "Point", "coordinates": [-70.9502166918, 42.4637011253]}, "type": "Feature", "properties": {"collection_times": [{"days": "Mon-Sat", "time": "12:00pm"}, {"days": "Sun", "time": "Closed"}], "id": "0190100063", "name": "USPS COLLECTION BOX - BLUE BOX", "address": {"city": "LYNN", "state": "MA", "street": "263 LYNNFIELD & FAIR OAKS", "postcode": "01901"}}},
{"geometry": {"type": "Point", "coordinates": [-70.980130588, 42.5031527906]}, "type": "Feature", "properties": {"collection_times": [{"days": "Mon-Sat", "time": "12:00pm"}, {"days": "Sun", "time": "Closed"}], "id": "0190100065", "name": "USPS COLLECTION BOX - BLUE BOX", "address": {"city": "LYNN", "state": "MA", "street": "534 LYNNFIELD ST", "postcode": "01901"}}},
{"geometry": {"type": "Point", "coordinates": [-70.9426422995, 42.4594157637]}, "type": "Feature", "properties": {"collection_times": [{"days": "Mon-Sat", "time": "5:00pm"}, {"days": "Sun", "time": "Closed"}], "id": "0190100068", "name": "USPS COLLECTION BOX - BLUE BOX", "address": {"city": "LYNN", "state": "MA", "street": "152 LYNNWAY STAMPED MAIL", "postcode": "01901"}}},
{"geometry": {"type": "Point", "coordinates": [-70.9376044168, 42.4577756548]}, "type": "Feature", "properties": {"collection_times": [{"days": "Mon-Sat", "time": "12:00pm"}, {"days": "Sun", "time": "Closed"}], "id": "0190100071", "name": "USPS COLLECTION BOX - BLUE BOX", "address": {"city": "LYNN", "state": "MA", "street": "35 LYNNWAY", "postcode": "01901"}}},
{"geometry": {"type": "Point", "coordinates": [-70.9461728359, 42.4612888702]}, "type": "Feature", "properties": {"collection_times": [{"days": "Mon-Sat", "time": "4:30pm"}, {"days": "Sun", "time": "Closed"}], "id": "0190100075", "name": "USPS COLLECTION BOX - BLUE BOX", "address": {"city": "LYNN", "state": "MA", "street": "112 MARKET & ANDREW", "postcode": "01901"}}},
{"geometry": {"type": "Point", "coordinates": [-70.9461728359, 42.4612888702]}, "type": "Feature", "properties": {"collection_times": [{"days": "Mon-Sat", "time": "12:00pm"}, {"days": "Sun", "time": "Closed"}], "id": "0190100083", "name": "USPS COLLECTION BOX - BLUE BOX", "address": {"city": "LYNN", "state": "MA", "street": "142 OCEAN & KIMBALL", "postcode": "01901"}}},
{"geometry": {"type": "Point", "coordinates": [-70.9461728359, 42.4612888702]}, "type": "Feature", "properties": {"collection_times": [{"days": "Mon-Sat", "time": "12:00pm"}, {"days": "Sun", "time": "Closed"}], "id": "0190100084", "name": "USPS COLLECTION BOX - BLUE BOX", "address": {"city": "LYNN", "state": "MA", "street": "2 LEWIS & OCEAN", "postcode": "01901"}}},
{"geometry": {"type": "Point", "coordinates": [-70.9339809929, 42.4615291964]}, "type": "Feature", "properties": {"collection_times": [{"days": "Mon-Sat", "time": "12:00pm"}, {"days": "Sun", "time": "Closed"}], "id": "0190100085", "name": "USPS COLLECTION BOX - BLUE BOX", "address": {"city": "LYNN", "state": "MA", "street": "243 OCEAN ST", "postcode": "01901"}}},
{"geometry": {"type": "Point", "coordinates": [-70.9461728359, 42.4612888702]}, "type": "Feature", "properties": {"collection_times": [{"days": "Mon-Sat", "time": "12:00pm"}, {"days": "Sun", "time": "Closed"}], "id": "0190100086", "name": "USPS COLLECTION BOX - BLUE BOX", "address": {"city": "LYNN", "state": "MA", "street": "108 WOODLAWN & PNE", "postcode": "01901"}}},
{"geometry": {"type": "Point", "coordinates": [-70.9521866712, 42.4590909136]}, "type": "Feature", "properties": {"collection_times": [{"days": "Mon-Sat", "time": "5:00pm"}, {"days": "Sun", "time": "Closed"}], "id": "0190100087", "name": "USPS COLLECTION BOX - BLUE BOX", "address": {"city": "LYNN", "state": "MA", "street": "77 ALLEY ST", "postcode": "01901"}}},
{"geometry": {"type": "Point", "coordinates": [-70.9461728359, 42.4612888702]}, "type": "Feature", "properties": {"collection_times": [{"days": "Mon-Sat", "time": "5:00pm"}, {"days": "Sun", "time": "Closed"}], "id": "0190100092", "name": "USPS COLLECTION BOX - BLUE BOX", "address": {"city": "LYNN", "state": "MA", "street": "270 UNION ST & SILSBEE", "postcode": "01901"}}},
{"geometry": {"type": "Point", "coordinates": [-70.9461728359, 42.4612888702]}, "type": "Feature", "properties": {"collection_times": [{"days": "Mon-Sat", "time": "12:00pm"}, {"days": "Sun", "time": "Closed"}], "id": "0190100093", "name": "USPS COLLECTION BOX - BLUE BOX", "address": {"city": "LYNN", "state": "MA", "street": "54 SO COMMON", "postcode": "01901"}}},
{"geometry": {"type": "Point", "coordinates": [-70.9413015305, 42.4670707252]}, "type": "Feature", "properties": {"collection_times": [{"days": "Mon-Sat", "time": "5:00pm"}, {"days": "Sun", "time": "Closed"}], "id": "0190100097", "name": "USPS COLLECTION BOX - BLUE BOX", "address": {"city": "LYNN", "state": "MA", "street": "140 UNION ST", "postcode": "01901"}}},
{"geometry": {"type": "Point", "coordinates": [-70.9461728359, 42.4612888702]}, "type": "Feature", "properties": {"collection_times": [{"days": "Mon-Sat", "time": "12:00pm"}, {"days": "Sun", "time": "Closed"}], "id": "0190100099", "name": "USPS COLLECTION BOX - BLUE BOX", "address": {"city": "LYNN", "state": "MA", "street": "147 WASHINGTON & HANOVER", "postcode": "01901"}}},
{"geometry": {"type": "Point", "coordinates": [-70.9459375224, 42.463412255]}, "type": "Feature", "properties": {"collection_times": [{"days": "Mon-Sat", "time": "4:30pm"}, {"days": "Sun", "time": "Closed"}], "id": "0190100100", "name": "USPS COLLECTION BOX - BLUE BOX", "address": {"city": "LYNN", "state": "MA", "street": "465 WASHINGTON & 118 MONROE", "postcode": "01901"}}},
{"geometry": {"type": "Point", "coordinates": [-70.9461728359, 42.4612888702]}, "type": "Feature", "properties": {"collection_times": [{"days": "Mon-Sat", "time": "12:00pm"}, {"days": "Sun", "time": "Closed"}], "id": "0190100101", "name": "USPS COLLECTION BOX - BLUE BOX", "address": {"city": "LYNN", "state": "MA", "street": "108 WESTERN & CHATHAM", "postcode": "01901"}}},
{"geometry": {"type": "Point", "coordinates": [-70.9461728359, 42.4612888702]}, "type": "Feature", "properties": {"collection_times": [{"days": "Mon-Sat", "time": "12:00pm"}, {"days": "Sun", "time": "Closed"}], "id": "0190100103", "name": "USPS COLLECTION BOX - BLUE BOX", "address": {"city": "LYNN", "state": "MA", "street": "570 WESTERN & HARWOOD", "postcode": "01901"}}},
{"geometry": {"type": "Point", "coordinates": [-70.9461728359, 42.4612888702]}, "type": "Feature", "properties": {"collection_times": [{"days": "Mon-Sat", "time": "12:00pm"}, {"days": "Sun", "time": "Closed"}], "id": "0190100104", "name": "USPS COLLECTION BOX - BLUE BOX", "address": {"city": "LYNN", "state": "MA", "street": "472 WESTERN & WASHINGTON", "postcode": "01901"}}},
{"geometry": {"type": "Point", "coordinates": [-70.9499960865, 42.4761803638]}, "type": "Feature", "properties": {"collection_times": [{"days": "Mon-Sat", "time": "5:00pm"}, {"days": "Sun", "time": "Closed"}], "id": "0190100105", "name": "USPS COLLECTION BOX - BLUE BOX", "address": {"city": "LYNN", "state": "MA", "street": "271 WESTERN AVE", "postcode": "01901"}}},
{"geometry": {"type": "Point", "coordinates": [-70.9510499078, 42.4609483636]}, "type": "Feature", "properties": {"collection_times": [{"days": "Mon-Sat", "time": "12:00pm"}, {"days": "Sun", "time": "Closed"}], "id": "0190100106", "name": "USPS COLLECTION BOX - BLUE BOX", "address": {"city": "LYNN", "state": "MA", "street": "20 WHEELER ST", "postcode": "01901"}}},
{"geometry": {"type": "Point", "coordinates": [-70.9462683876, 42.4646616718]}, "type": "Feature", "properties": {"collection_times": [{"days": "Mon-Sat", "time": "6:00pm"}, {"days": "Sun", "time": "Closed"}], "id": "0190100107", "name": "USPS COLLECTION BOX - BLUE BOX", "address": {"city": "LYNN", "state": "MA", "street": "51 WILLOW ST", "postcode": "01901"}}},
{"geometry": {"type": "Point", "coordinates": [-70.9462683876, 42.4646616718]}, "type": "Feature", "properties": {"collection_times": [{"days": "Mon-Sat", "time": "5:30pm"}, {"days": "Sun", "time": "Closed"}], "id": "0190100108", "name": "USPS COLLECTION BOX - BLUE BOX", "address": {"city": "LYNN", "state": "MA", "street": "51 WILLOW ST", "postcode": "01901"}}},
{"geometry": {"type": "Point", "coordinates": [-70.9462683876, 42.4646616718]}, "type": "Feature", "properties": {"collection_times": [{"days": "Mon-Sat", "time": "5:30pm"}, {"days": "Sun", "time": "Closed"}], "id": "0190100109", "name": "USPS COLLECTION BOX - BLUE BOX", "address": {"city": "LYNN", "state": "MA", "street": "51 WILLOW ST", "postcode": "01901"}}},
{"geometry": {"type": "Point", "coordinates": [-70.9609276151, 42.485324416]}, "type": "Feature", "properties": {"collection_times": [{"days": "Mon-Sat", "time": "12:00pm"}, {"days": "Sun", "time": "Closed"}], "id": "0190100111", "name": "USPS COLLECTION BOX - BLUE BOX", "address": {"city": "LYNN", "state": "MA", "street": "4 LYNNFIELD ST", "postcode": "01901"}}},
{"geometry": {"type": "Point", "coordinates": [-70.9583559212, 42.4728307366]}, "type": "Feature", "properties": {"collection_times": [{"days": "Mon-Sat", "time": "4:30pm"}, {"days": "Sun", "time": "Closed"}], "id": "0190100112", "name": "USPS COLLECTION BOX - BLUE BOX", "address": {"city": "LYNN", "state": "MA", "street": "154 BOSTON ST", "postcode": "01901"}}},
{"geometry": {"type": "Point", "coordinates": [-70.9459375221, 42.4634208993]}, "type": "Feature", "properties": {"collection_times": [{"days": "Mon-Sat", "time": "4:30pm"}, {"days": "Sun", "time": "Closed"}], "id": "0190100113", "name": "USPS COLLECTION BOX - BLUE BOX", "address": {"city": "LYNN", "state": "MA", "street": "580 ESSEX ST", "postcode": "01901"}}},
{"geometry": {"type": "Point", "coordinates": [-70.9459375221, 42.4634208993]}, "type": "Feature", "properties": {"collection_times": [{"days": "Mon-Sat", "time": "5:00pm"}, {"days": "Sun", "time": "Closed"}], "id": "0190100117", "name": "USPS COLLECTION BOX - EXPRESS", "address": {"city": "LYNN", "state": "MA", "street": "152 LYNNWAY", "postcode": "01901"}}},
{"geometry": {"type": "Point", "coordinates": [-70.9459375221, 42.4634208993]}, "type": "Feature", "properties": {"collection_times": [{"days": "Mon-Sat", "time": "5:30pm"}, {"days": "Sun", "time": "Closed"}], "id": "0190100118", "name": "USPS COLLECTION BOX - EXPRESS", "address": {"city": "LYNN", "state": "MA", "street": "51 WILLOW ST", "postcode": "01901"}}},
{"geometry": {"type": "Point", "coordinates": [-70.9461728359, 42.4612888702]}, "type": "Feature", "properties": {"collection_times": [{"days": "Mon-Sat", "time": "12:00pm"}, {"days": "Sun", "time": "Closed"}], "id": "0190100120", "name": "USPS COLLECTION BOX - BLUE BOX", "address": {"city": "LYNN", "state": "MA", "street": "71 HOLLY & PARK RD", "postcode": "01901"}}},
{"geometry": {"type": "Point", "coordinates": [-70.9461728359, 42.4612888702]}, "type": "Feature", "properties": {"collection_times": [{"days": "Mon-Sat", "time": "12:00pm"}, {"days": "Sun", "time": "Closed"}], "id": "0190100126", "name": "USPS COLLECTION BOX - BLUE BOX", "address": {"city": "LYNN", "state": "MA", "street": "328 CHESTNUT & ADAM", "postcode": "01901"}}},
{"geometry": {"type": "Point", "coordinates": [-70.9500443926, 42.478147404]}, "type": "Feature", "properties": {"collection_times": [{"days": "Mon-Fri", "time": "5:00pm"}, {"days": "Sat", "time": "1:30pm"}, {"days": "Sun", "time": "Closed"}], "id": "0190100128", "name": "USPS COLLECTION BOX - PO LOBBY", "address": {"city": "LYNN", "state": "MA", "street": "245 MAPLE ST", "postcode": "01901"}}},
{"geometry": {"type": "Point", "coordinates": [-70.9789125973, 42.5019192401]}, "type": "Feature", "properties": {"collection_times": [{"days": "Mon-Sat", "time": "12:00pm"}, {"days": "Sun", "time": "Closed"}], "id": "0190100130", "name": "USPS COLLECTION BOX - BLUE BOX", "address": {"city": "LYNN", "state": "MA", "street": "500 LYNNFIELD ST   STAMPED", "postcode": "01901"}}},
{"geometry": {"type": "Point", "coordinates": [-70.939695131, 42.4634735815]}, "type": "Feature", "properties": {"collection_times": [{"days": "Mon-Sat", "time": "5:00pm"}, {"days": "Sun", "time": "Closed"}], "id": "0190100132", "name": "USPS COLLECTION BOX - BLUE BOX", "address": {"city": "LYNN", "state": "MA", "street": "144 BROAD ST", "postcode": "01901"}}},
{"geometry": {"type": "Point", "coordinates": [-70.9462683876, 42.4646616718]}, "type": "Feature", "properties": {"collection_times": [{"days": "Mon-Sat", "time": "5:30pm"}, {"days": "Sun", "time": "Closed"}], "id": "0190100133", "name": "USPS COLLECTION BOX - BLUE BOX", "address": {"city": "LYNN", "state": "MA", "street": "51 WILLOW ST", "postcode": "01901"}}},
{"geometry": {"type": "Point", "coordinates": [-70.9459375221, 42.4634208993]}, "type": "Feature", "properties": {"collection_times": [{"days": "Mon-Sat", "time": "5:00pm"}, {"days": "Sun", "time": "Closed"}], "id": "0190100135", "name": "USPS COLLECTION BOX - EXPRESS", "address": {"city": "LYNN", "state": "MA", "street": "245 MAPLE ST", "postcode": "01901"}}},
{"geometry": {"type": "Point", "coordinates": [-70.9462683876, 42.4646616718]}, "type": "Feature", "properties": {"collection_times": [{"days": "Mon-Sat", "time": "6:00pm"}, {"days": "Sun", "time": "Closed"}], "id": "0190100141", "name": "USPS COLLECTION BOX - PO LOBBY", "address": {"city": "LYNN", "state": "MA", "street": "51 WILLOW ST", "postcode": "01901"}}},
{"geometry": {"type": "Point", "coordinates": [-70.9462683876, 42.4646616718]}, "type": "Feature", "properties": {"collection_times": [{"days": "Mon-Sat", "time": "6:00pm"}, {"days": "Sun", "time": "Closed"}], "id": "0190100142", "name": "USPS COLLECTION BOX - PO LOBBY", "address": {"city": "LYNN", "state": "MA", "street": "51 WILLOW ST", "postcode": "01901"}}},
{"geometry": {"type": "Point", "coordinates": [-70.9577265282, 42.4703233134]}, "type": "Feature", "properties": {"collection_times": [{"days": "Mon-Sat", "time": "4:30pm"}, {"days": "Sun", "time": "Closed"}], "id": "0190100143", "name": "USPS COLLECTION BOX - BLUE BOX", "address": {"city": "LYNN", "state": "MA", "street": "35 WASHINGTON ST", "postcode": "01901"}}},
{"geometry": {"type": "Point", "coordinates": [-70.9490860893, 42.4579267652]}, "type": "Feature", "properties": {"collection_times": [{"days": "Mon-Sat", "time": "5:00pm"}, {"days": "Sun", "time": "Closed"}], "id": "0190100144", "name": "USPS COLLECTION BOX - BLUE BOX", "address": {"city": "LYNN", "state": "MA", "street": "330 LYNNWAY", "postcode": "01901"}}},
{"geometry": {"type": "Point", "coordinates": [-70.9459375221, 42.4634208993]}, "type": "Feature", "properties": {"collection_times": [{"days": "Mon-Sat", "time": "5:00pm"}, {"days": "Sun", "time": "Closed"}], "id": "0190100146", "name": "USPS COLLECTION BOX - EXPRESS", "address": {"city": "LYNN", "state": "MA", "street": "330 LYNNWAY", "postcode": "01901"}}},
{"geometry": {"type": "Point", "coordinates": [-70.9420239, 42.4632286494]}, "type": "Feature", "properties": {"collection_times": [{"days": "Mon-Sat", "time": "5:00pm"}, {"days": "Sun", "time": "Closed"}], "id": "0190100147", "name": "USPS COLLECTION BOX - BLUE BOX", "address": {"city": "LYNN", "state": "MA", "street": "85 EXCHANGE ST", "postcode": "01901"}}},
{"geometry": {"type": "Point", "coordinates": [-70.9511753014, 42.4643612002]}, "type": "Feature", "properties": {"collection_times": [{"days": "Mon-Sat", "time": "4:30pm"}, {"days": "Sun", "time": "Closed"}], "id": "0190100151", "name": "USPS COLLECTION BOX - BLUE BOX", "address": {"city": "LYNN", "state": "MA", "street": "3 CITY HALL SQ", "postcode": "01901"}}},
{"geometry": {"type": "Point", "coordinates": [-70.9459375224, 42.463412255]}, "type": "Feature", "properties": {"collection_times": [{"days": "Mon-Sat", "time": "12:00pm"}, {"days": "Sun", "time": "Closed"}], "id": "0190100153", "name": "USPS COLLECTION BOX - BLUE BOX", "address": {"city": "LYNN", "state": "MA", "street": "95 TREMONT ST", "postcode": "01901"}}},
{"geometry": {"type": "Point", "coordinates": [-70.9459375224, 42.463412255]}, "type": "Feature", "properties": {"collection_times": [{"days": "Mon-Fri", "time": "5:00pm"}, {"days": "Sat-Sun", "time": "Closed"}], "id": "0190100154", "name": "USPS COLLECTION BOX - BLUE BOX", "address": {"city": "LYNN", "state": "MA", "street": "195 MARKET ST", "postcode": "01901"}}},
{"geometry": {"type": "Point", "coordinates": [-70.9572863104, 42.4842785851]}, "type": "Feature", "properties": {"collection_times": [{"days": "Mon-Fri", "time": "12:00pm"}, {"days": "Sat-Sun", "time": "Closed"}], "id": "0190400001", "name": "USPS COLLECTION BOX - BLUE BOX", "address": {"city": "EAST LYNN", "state": "MA", "street": "1 MEADOW CT", "postcode": "01904"}}},
{"geometry": {"type": "Point", "coordinates": [-70.9502166918, 42.4637011253]}, "type": "Feature", "properties": {"collection_times": [{"days": "Mon-Sat", "time": "5:00pm"}, {"days": "Sun", "time": "Closed"}], "id": "0190500001", "name": "USPS COLLECTION BOX - BLUE BOX", "address": {"city": "LYNN", "state": "MA", "street": "564 BOSTON & COTTAGE", "postcode": "01905"}}},
{"geometry": {"type": "Point", "coordinates": [-70.979849703, 42.4744993292]}, "type": "Feature", "properties": {"collection_times": [{"days": "Mon-Sat", "time": "12:00pm"}, {"days": "Sun", "time": "Closed"}], "id": "0190500002", "name": "USPS COLLECTION BOX - BLUE BOX", "address": {"city": "LYNN", "state": "MA", "street": "430 BOSTON & 112 FEDERAL", "postcode": "01905"}}},
{"geometry": {"type": "Point", "coordinates": [-70.9715296045, 42.4636512309]}, "type": "Feature", "properties": {"collection_times": [{"days": "Mon-Sat", "time": "12:00pm"}, {"days": "Sun", "time": "Closed"}], "id": "0190500004", "name": "USPS COLLECTION BOX - BLUE BOX", "address": {"city": "LYNN", "state": "MA", "street": "620 BOSTON & LAUREL", "postcode": "01905"}}},
{"geometry": {"type": "Point", "coordinates": [-70.9502166918, 42.4637011253]}, "type": "Feature", "properties": {"collection_times": [{"days": "Mon-Sat", "time": "12:00pm"}, {"days": "Sun", "time": "Closed"}], "id": "0190500005", "name": "USPS COLLECTION BOX - BLUE BOX", "address": {"city": "LYNN", "state": "MA", "street": "309 BOSTON ST", "postcode": "01905"}}},
{"geometry": {"type": "Point", "coordinates": [-70.9917401473, 42.4706592737]}, "type": "Feature", "properties": {"collection_times": [{"days": "Mon-Sat", "time": "12:00pm"}, {"days": "Sun", "time": "Closed"}], "id": "0190500008", "name": "USPS COLLECTION BOX - BLUE BOX", "address": {"city": "LYNN", "state": "MA", "street": "84 GARFIELD CATALINA", "postcode": "01905"}}},
{"geometry": {"type": "Point", "coordinates": [-70.9502166918, 42.4637011253]}, "type": "Feature", "properties": {"collection_times": [{"days": "Mon-Sat", "time": "12:00pm"}, {"days": "Sun", "time": "Closed"}], "id": "0190500009", "name": "USPS COLLECTION BOX - BLUE BOX", "address": {"city": "LYNN", "state": "MA", "street": "229 KINGSHILL DR & 55 NEW CASTLE", "postcode": "01905"}}},
{"geometry": {"type": "Point", "coordinates": [-70.9502166918, 42.4637011253]}, "type": "Feature", "properties": {"collection_times": [{"days": "Mon-Sat", "time": "12:00pm"}, {"days": "Sun", "time": "Closed"}], "id": "0190500014", "name": "USPS COLLECTION BOX - BLUE BOX", "address": {"city": "LYNN", "state": "MA", "street": "320 PARKLAND & 259 LINWOOD", "postcode": "01905"}}},
{"geometry": {"type": "Point", "coordinates": [-70.9610080563, 42.4627405464]}, "type": "Feature", "properties": {"collection_times": [{"days": "Mon-Sat", "time": "12:00pm"}, {"days": "Sun", "time": "Closed"}], "id": "0190500015", "name": "USPS COLLECTION BOX - BLUE BOX", "address": {"city": "LYNN", "state": "MA", "street": "170 S COMMON ST", "postcode": "01905"}}},
{"geometry": {"type": "Point", "coordinates": [-70.9820647259, 42.4616593219]}, "type": "Feature", "properties": {"collection_times": [{"days": "Mon-Sat", "time": "12:00pm"}, {"days": "Sun", "time": "Closed"}], "id": "0190500016", "name": "USPS COLLECTION BOX - BLUE BOX", "address": {"city": "LYNN", "state": "MA", "street": "840 SUMMER ST", "postcode": "01905"}}},
{"geometry": {"type": "Point", "coordinates": [-70.979849703, 42.4744993292]}, "type": "Feature", "properties": {"collection_times": [{"days": "Mon-Sat", "time": "12:00pm"}, {"days": "Sun", "time": "Closed"}], "id": "0190500019", "name": "USPS COLLECTION BOX - BLUE BOX", "address": {"city": "LYNN", "state": "MA", "street": "28 WALNUT & MOULTON", "postcode": "01905"}}},
{"geometry": {"type": "Point", "coordinates": [-70.988216555, 42.4736729667]}, "type": "Feature", "properties": {"collection_times": [{"days": "Mon-Sat", "time": "12:00pm"}, {"days": "Sun", "time": "Closed"}], "id": "0190500020", "name": "USPS COLLECTION BOX - BLUE BOX", "address": {"city": "LYNN", "state": "MA", "street": "550 WALNUT ST", "postcode": "01905"}}},
{"geometry": {"type": "Point", "coordinates": [-70.9784270296, 42.4514316261]}, "type": "Feature", "properties": {"collection_times": [{"days": "Mon-Sat", "time": "5:00pm"}, {"days": "Sun", "time": "Closed"}], "id": "0190500023", "name": "USPS COLLECTION BOX - BLUE BOX", "address": {"city": "LYNN", "state": "MA", "street": "947 WESTERN AVE", "postcode": "01905"}}},
{"geometry": {"type": "Point", "coordinates": [-70.9715296045, 42.4636512309]}, "type": "Feature", "properties": {"collection_times": [{"days": "Mon-Sat", "time": "5:00pm"}, {"days": "Sun", "time": "Closed"}], "id": "0190500025", "name": "USPS COLLECTION BOX - BLUE BOX", "address": {"city": "LYNN", "state": "MA", "street": "776 WESTERN AVE", "postcode": "01905"}}},
{"geometry": {"type": "Point", "coordinates": [-70.9707987785, 42.4618486493]}, "type": "Feature", "properties": {"collection_times": [{"days": "Mon-Sat", "time": "12:00pm"}, {"days": "Sun", "time": "Closed"}], "id": "0190500028", "name": "USPS COLLECTION BOX - BLUE BOX", "address": {"city": "LYNN", "state": "MA", "street": "48 WOODMAN ST", "postcode": "01905"}}},
{"geometry": {"type": "Point", "coordinates": [-70.9715296045, 42.4636512309]}, "type": "Feature", "properties": {"collection_times": [{"days": "Mon-Sat", "time": "12:00pm"}, {"days": "Sun", "time": "Closed"}], "id": "0190500029", "name": "USPS COLLECTION BOX - BLUE BOX", "address": {"city": "LYNN", "state": "MA", "street": "669 WESTERN & MALL", "postcode": "01905"}}},
{"geometry": {"type": "Point", "coordinates": [-70.979849703, 42.4744993292]}, "type": "Feature", "properties": {"collection_times": [{"days": "Mon-Sat", "time": "12:00pm"}, {"days": "Sun", "time": "Closed"}], "id": "0190500030", "name": "USPS COLLECTION BOX - BLUE BOX", "address": {"city": "LYNN", "state": "MA", "street": "55 WEST NEPTUNE & 24 ELMWOOD", "postcode": "01905"}}},
{"geometry": {"type": "Point", "coordinates": [-70.9718484484, 42.4700688014]}, "type": "Feature", "properties": {"collection_times": [{"days": "Mon-Sat", "time": "12:00pm"}, {"days": "Sun", "time": "Closed"}], "id": "0190500031", "name": "USPS COLLECTION BOX - BLUE BOX", "address": {"city": "LYNN", "state": "MA", "street": "157 WALNUT ST", "postcode": "01905"}}},
{"geometry": {"type": "Point", "coordinates": [-70.9764362071, 42.4685453261]}, "type": "Feature", "properties": {"collection_times": [{"days": "Mon-Sat", "time": "12:00pm"}, {"days": "Sun", "time": "Closed"}], "id": "0190500032", "name": "USPS COLLECTION BOX - BLUE BOX", "address": {"city": "LYNN", "state": "MA", "street": "128 MYRTLE / HOLYOKE", "postcode": "01905"}}},
{"geometry": {"type": "Point", "coordinates": [-70.9715296045, 42.4636512309]}, "type": "Feature", "properties": {"collection_times": [{"days": "Mon-Fri", "time": "5:00pm"}, {"days": "Sat", "time": "12:00pm"}, {"days": "Sun", "time": "Closed"}], "id": "0190500034", "name": "USPS COLLECTION BOX - PO LOBBY", "address": {"city": "LYNN", "state": "MA", "street": "776 WESTERN AVE", "postcode": "01905"}}},
{"geometry": {"type": "Point", "coordinates": [-70.9715296045, 42.4636512309]}, "type": "Feature", "properties": {"collection_times": [{"days": "Mon-Sat", "time": "5:00pm"}, {"days": "Sun", "time": "Closed"}], "id": "0190500037", "name": "USPS COLLECTION BOX - EXPRESS", "address": {"city": "LYNN", "state": "MA", "street": "776 WESTERN AVE", "postcode": "01905"}}},
{"geometry": {"type": "Point", "coordinates": [-70.9815163532, 42.4664333487]}, "type": "Feature", "properties": {"collection_times": [{"days": "Mon-Sat", "time": "12:00pm"}, {"days": "Sun", "time": "Closed"}], "id": "0190500038", "name": "USPS COLLECTION BOX - BLUE BOX", "address": {"city": "LYNN", "state": "MA", "street": "1 CURWIN CIR", "postcode": "01905"}}},
{"geometry": {"type": "Point", "coordinates": [-70.9797099734, 42.4651926818]}, "type": "Feature", "properties": {"collection_times": [{"days": "Mon-Sat", "time": "12:00pm"}, {"days": "Sun", "time": "Closed"}], "id": "0190500042", "name": "USPS COLLECTION BOX - BLUE BOX", "address": {"city": "LYNN", "state": "MA", "street": "33 CURRAN RD", "postcode": "01905"}}},
{"geometry": {"type": "Point", "coordinates": [-70.9773870248, 42.452261467]}, "type": "Feature", "properties": {"collection_times": [{"days": "Mon-Sat", "time": "12:00pm"}, {"days": "Sun", "time": "Closed"}], "id": "0190500043", "name": "USPS COLLECTION BOX - BLUE BOX", "address": {"city": "LYNN", "state": "MA", "street": "1102 WESTERN AVE", "postcode": "01905"}}},
{"geometry": {"type": "Point", "coordinates": [-71.0075205562, 42.4488850626]}, "type": "Feature", "properties": {"collection_times": [{"days": "Mon-Sat", "time": "5:00pm"}, {"days": "Sun", "time": "Closed"}], "id": "0190600001", "name": "USPS COLLECTION BOX - BLUE BOX", "address": {"city": "SAUGUS", "state": "MA", "street": "437 LINCOLN AVE", "postcode": "01906"}}},
{"geometry": {"type": "Point", "coordinates": [-71.0075205562, 42.4488850626]}, "type": "Feature", "properties": {"collection_times": [{"days": "Mon-Sat", "time": "5:00pm"}, {"days": "Sun", "time": "Closed"}], "id": "0190600002", "name": "USPS COLLECTION BOX - BLUE BOX", "address": {"city": "SAUGUS", "state": "MA", "street": "437 LINCOLN AVE", "postcode": "01906"}}},
{"geometry": {"type": "Point", "coordinates": [-71.0075205562, 42.4488850626]}, "type": "Feature", "properties": {"collection_times": [{"days": "Mon-Sat", "time": "5:00pm"}, {"days": "Sun", "time": "Closed"}], "id": "0190600003", "name": "USPS COLLECTION BOX - BLUE BOX", "address": {"city": "SAUGUS", "state": "MA", "street": "437 LINCOLN AVE", "postcode": "01906"}}},
{"geometry": {"type": "Point", "coordinates": [-71.0259896728, 42.4507308731]}, "type": "Feature", "properties": {"collection_times": [{"days": "Mon-Fri", "time": "2:45pm"}, {"days": "Sat-Sun", "time": "Closed"}], "id": "0190600006", "name": "USPS COLLECTION BOX - BLUE BOX", "address": {"city": "SAUGUS", "state": "MA", "street": "1715 BROADWAY", "postcode": "01906"}}},
{"geometry": {"type": "Point", "coordinates": [-71.0148275547, 42.5015192401]}, "type": "Feature", "properties": {"collection_times": [{"days": "Mon-Sat", "time": "2:00pm"}, {"days": "Sun", "time": "Closed"}], "id": "0190600007", "name": "USPS COLLECTION BOX - BLUE BOX", "address": {"city": "SAUGUS", "state": "MA", "street": "5 BROADWAY", "postcode": "01906"}}},
{"geometry": {"type": "Point", "coordinates": [-71.0096969005, 42.4653223386]}, "type": "Feature", "properties": {"collection_times": [{"days": "Mon-Sat", "time": "4:30pm"}, {"days": "Sun", "time": "Closed"}], "id": "0190600008", "name": "USPS COLLECTION BOX - BLUE BOX", "address": {"city": "SAUGUS", "state": "MA", "street": "605 BROADWAY", "postcode": "01906"}}},
{"geometry": {"type": "Point", "coordinates": [-71.0096969005, 42.4653223386]}, "type": "Feature", "properties": {"collection_times": [{"days": "Mon-Sat", "time": "2:30pm"}, {"days": "Sun", "time": "Closed"}], "id": "0190600009", "name": "USPS COLLECTION BOX - BLUE BOX", "address": {"city": "SAUGUS", "state": "MA", "street": "999 BROADWAY", "postcode": "01906"}}},
{"geometry": {"type": "Point", "coordinates": [-71.0111473649, 42.4629734101]}, "type": "Feature", "properties": {"collection_times": [{"days": "Mon-Sat", "time": "3:00pm"}, {"days": "Sun", "time": "Closed"}], "id": "0190600012", "name": "USPS COLLECTION BOX - BLUE BOX", "address": {"city": "SAUGUS", "state": "MA", "street": "466 CENTRAL ST", "postcode": "01906"}}},
{"geometry": {"type": "Point", "coordinates": [-71.0149956619, 42.4684965125]}, "type": "Feature", "properties": {"collection_times": [{"days": "Mon-Sat", "time": "3:00pm"}, {"days": "Sun", "time": "Closed"}], "id": "0190600014", "name": "USPS COLLECTION BOX - BLUE BOX", "address": {"city": "SAUGUS", "state": "MA", "street": "487 CENTRAL ST", "postcode": "01906"}}},
{"geometry": {"type": "Point", "coordinates": [-71.0149956619, 42.4684965125]}, "type": "Feature", "properties": {"collection_times": [{"days": "Mon-Sat", "time": "3:00pm"}, {"days": "Sun", "time": "Closed"}], "id": "0190600016", "name": "USPS COLLECTION BOX - BLUE BOX", "address": {"city": "SAUGUS", "state": "MA", "street": "433 CENTRAL & KNOWLES", "postcode": "01906"}}},
{"geometry": {"type": "Point", "coordinates": [-71.0063605757, 42.4652905804]}, "type": "Feature", "properties": {"collection_times": [{"days": "Mon-Sat", "time": "5:00pm"}, {"days": "Sun", "time": "Closed"}], "id": "0190600017", "name": "USPS COLLECTION BOX - BLUE BOX", "address": {"city": "SAUGUS", "state": "MA", "street": "40 HAMILTON ST", "postcode": "01906"}}},
{"geometry": {"type": "Point", "coordinates": [-71.0149956619, 42.4684965125]}, "type": "Feature", "properties": {"collection_times": [{"days": "Mon-Sat", "time": "3:00pm"}, {"days": "Sun", "time": "Closed"}], "id": "0190600021", "name": "USPS COLLECTION BOX - BLUE BOX", "address": {"city": "SAUGUS", "state": "MA", "street": "127 VINE & ESSEX", "postcode": "01906"}}},
{"geometry": {"type": "Point", "coordinates": [-71.0176467958, 42.4594178888]}, "type": "Feature", "properties": {"collection_times": [{"days": "Mon-Sat", "time": "3:00pm"}, {"days": "Sun", "time": "Closed"}], "id": "0190600023", "name": "USPS COLLECTION BOX - BLUE BOX", "address": {"city": "SAUGUS", "state": "MA", "street": "2 RICE ST  LAUREL TOWERS", "postcode": "01906"}}},
{"geometry": {"type": "Point", "coordinates": [-70.9966061563, 42.4496554299]}, "type": "Feature", "properties": {"collection_times": [{"days": "Mon-Sat", "time": "2:00pm"}, {"days": "Sun", "time": "Closed"}], "id": "0190600024", "name": "USPS COLLECTION BOX - BLUE BOX", "address": {"city": "SAUGUS", "state": "MA", "street": "300 LINCOLN AVE", "postcode": "01906"}}},
{"geometry": {"type": "Point", "coordinates": [-71.0097577953, 42.4484113645]}, "type": "Feature", "properties": {"collection_times": [{"days": "Mon-Sat", "time": "2:00pm"}, {"days": "Sun", "time": "Closed"}], "id": "0190600025", "name": "USPS COLLECTION BOX - BLUE BOX", "address": {"city": "SAUGUS", "state": "MA", "street": "508 LINCOLN AVE", "postcode": "01906"}}},
{"geometry": {"type": "Point", "coordinates": [-71.0149956619, 42.4684965125]}, "type": "Feature", "properties": {"collection_times": [{"days": "Mon-Sat", "time": "2:00pm"}, {"days": "Sun", "time": "Closed"}], "id": "0190600027", "name": "USPS COLLECTION BOX - BLUE BOX", "address": {"city": "SAUGUS", "state": "MA", "street": "22 LINWOOD & MT. VERNON", "postcode": "01906"}}},
{"geometry": {"type": "Point", "coordinates": [-71.0149956619, 42.4684965125]}, "type": "Feature", "properties": {"collection_times": [{"days": "Mon-Sat", "time": "2:45pm"}, {"days": "Sun", "time": "Closed"}], "id": "0190600028", "name": "USPS COLLECTION BOX - BLUE BOX", "address": {"city": "SAUGUS", "state": "MA", "street": "4 HOWARD & MAIN ST", "postcode": "01906"}}},
{"geometry": {"type": "Point", "coordinates": [-71.0107775059, 42.4647823336]}, "type": "Feature", "properties": {"collection_times": [{"days": "Mon-Sat", "time": "5:00pm"}, {"days": "Sun", "time": "Closed"}], "id": "0190600029", "name": "USPS COLLECTION BOX - BLUE BOX", "address": {"city": "SAUGUS", "state": "MA", "street": "13 MAIN ST", "postcode": "01906"}}},
{"geometry": {"type": "Point", "coordinates": [-71.0358993212, 42.4726392648]}, "type": "Feature", "properties": {"collection_times": [{"days": "Mon-Sat", "time": "2:45pm"}, {"days": "Sun", "time": "Closed"}], "id": "0190600030", "name": "USPS COLLECTION BOX - BLUE BOX", "address": {"city": "SAUGUS", "state": "MA", "street": "325 MAIN ST", "postcode": "01906"}}},
{"geometry": {"type": "Point", "coordinates": [-71.0149956619, 42.4684965125]}, "type": "Feature", "properties": {"collection_times": [{"days": "Mon-Sat", "time": "2:15pm"}, {"days": "Sun", "time": "Closed"}], "id": "0190600031", "name": "USPS COLLECTION BOX - BLUE BOX", "address": {"city": "SAUGUS", "state": "MA", "street": "42 SUMMER & 47 PLEASANT", "postcode": "01906"}}},
{"geometry": {"type": "Point", "coordinates": [-71.0149956619, 42.4684965125]}, "type": "Feature", "properties": {"collection_times": [{"days": "Mon-Sat", "time": "2:15pm"}, {"days": "Sun", "time": "Closed"}], "id": "0190600032", "name": "USPS COLLECTION BOX - BLUE BOX", "address": {"city": "SAUGUS", "state": "MA", "street": "10 NEWHALL AVE & AUSTIN", "postcode": "01906"}}},
{"geometry": {"type": "Point", "coordinates": [-71.0111473649, 42.4629734101]}, "type": "Feature", "properties": {"collection_times": [{"days": "Mon-Sat", "time": "2:15pm"}, {"days": "Sun", "time": "Closed"}], "id": "0190600033", "name": "USPS COLLECTION BOX - BLUE BOX", "address": {"city": "SAUGUS", "state": "MA", "street": "298 CENTRAL ST", "postcode": "01906"}}},
{"geometry": {"type": "Point", "coordinates": [-71.01770365, 42.4871966867]}, "type": "Feature", "properties": {"collection_times": [{"days": "Mon-Sat", "time": "2:30pm"}, {"days": "Sun", "time": "Closed"}], "id": "0190600035", "name": "USPS COLLECTION BOX - BLUE BOX", "address": {"city": "SAUGUS", "state": "MA", "street": "200 BROADWAY WALNUT PLZ", "postcode": "01906"}}},
{"geometry": {"type": "Point", "coordinates": [-71.0096969005, 42.4653223386]}, "type": "Feature", "properties": {"collection_times": [{"days": "Mon-Sat", "time": "12:00pm"}, {"days": "Sun", "time": "Closed"}], "id": "0190600036", "name": "USPS COLLECTION BOX - BLUE BOX", "address": {"city": "SAUGUS", "state": "MA", "street": "126 WINTER ST", "postcode": "01906"}}},
{"geometry": {"type": "Point", "coordinates": [-70.9944056082, 42.4568187705]}, "type": "Feature", "properties": {"collection_times": [{"days": "Mon-Sat", "time": "2:15pm"}, {"days": "Sun", "time": "Closed"}], "id": "0190600037", "name": "USPS COLLECTION BOX - BLUE BOX", "address": {"city": "SAUGUS", "state": "MA", "street": "31 WINTER ST", "postcode": "01906"}}},
{"geometry": {"type": "Point", "coordinates": [-71.0111473649, 42.4629734101]}, "type": "Feature", "properties": {"collection_times": [{"days": "Mon-Sat", "time": "3:00pm"}, {"days": "Sun", "time": "Closed"}], "id": "0190600038", "name": "USPS COLLECTION BOX - BLUE BOX", "address": {"city": "SAUGUS", "state": "MA", "street": "156 ESSEX / HAYDEN", "postcode": "01906"}}},
{"geometry": {"type": "Point", "coordinates": [-71.0176467958, 42.4594178888]}, "type": "Feature", "properties": {"collection_times": [{"days": "Mon-Sat", "time": "3:00pm"}, {"days": "Sun", "time": "Closed"}], "id": "0190600039", "name": "USPS COLLECTION BOX - BLUE BOX", "address": {"city": "SAUGUS", "state": "MA", "street": "2 RICE ST APT 112", "postcode": "01906"}}},
{"geometry": {"type": "Point", "coordinates": [-70.9892389536, 42.4594598431]}, "type": "Feature", "properties": {"collection_times": [{"days": "Mon-Sat", "time": "2:00pm"}, {"days": "Sun", "time": "Closed"}], "id": "0190600040", "name": "USPS COLLECTION BOX - BLUE BOX", "address": {"city": "SAUGUS", "state": "MA", "street": "35 LINCOLN AVE", "postcode": "01906"}}},
{"geometry": {"type": "Point", "coordinates": [-71.0096969005, 42.4653223386]}, "type": "Feature", "properties": {"collection_times": [{"days": "Mon-Sat", "time": "4:30pm"}, {"days": "Sun", "time": "Closed"}], "id": "0190600041", "name": "USPS COLLECTION BOX - EXPRESS", "address": {"city": "SAUGUS", "state": "MA", "street": "605 BROADWAY", "postcode": "01906"}}},
{"geometry": {"type": "Point", "coordinates": [-71.0111473647, 42.4629733638]}, "type": "Feature", "properties": {"collection_times": [{"days": "Mon-Sat", "time": "5:00pm"}, {"days": "Sun", "time": "Closed"}], "id": "0190600043", "name": "USPS COLLECTION BOX - EXPRESS", "address": {"city": "SAUGUS", "state": "MA", "street": "437 LINCOLN AVE", "postcode": "01906"}}},
{"geometry": {"type": "Point", "coordinates": [-71.0111473649, 42.4629734101]}, "type": "Feature", "properties": {"collection_times": [{"days": "Mon-Sat", "time": "2:30pm"}, {"days": "Sun", "time": "Closed"}], "id": "0190600045", "name": "USPS COLLECTION BOX - BLUE BOX", "address": {"city": "SAUGUS", "state": "MA", "street": "99 WALNUT ST", "postcode": "01906"}}},
{"geometry": {"type": "Point", "coordinates": [-71.0243283008, 42.4602220268]}, "type": "Feature", "properties": {"collection_times": [{"days": "Mon-Sat", "time": "4:30pm"}, {"days": "Sun", "time": "Closed"}], "id": "0190600049", "name": "USPS COLLECTION BOX - BLUE BOX", "address": {"city": "SAUGUS", "state": "MA", "street": "357 BROADWAY", "postcode": "01906"}}},
{"geometry": {"type": "Point", "coordinates": [-71.0075205562, 42.4488850626]}, "type": "Feature", "properties": {"collection_times": [{"days": "Mon-Fri", "time": "5:00pm"}, {"days": "Sat", "time": "3:00pm"}, {"days": "Sun", "time": "Closed"}], "id": "0190600050", "name": "USPS COLLECTION BOX - PO LOBBY", "address": {"city": "SAUGUS", "state": "MA", "street": "437 LINCOLN AVE", "postcode": "01906"}}},
{"geometry": {"type": "Point", "coordinates": [-71.0149956619, 42.4684965125]}, "type": "Feature", "properties": {"collection_times": [{"days": "Mon-Sat", "time": "2:15pm"}, {"days": "Sun", "time": "Closed"}], "id": "0190600051", "name": "USPS COLLECTION BOX - BLUE BOX", "address": {"city": "SAUGUS", "state": "MA", "street": "202 CENTRAL & APPLETON ST", "postcode": "01906"}}},
{"geometry": {"type": "Point", "coordinates": [-71.0075205562, 42.4488850626]}, "type": "Feature", "properties": {"collection_times": [{"days": "Mon-Fri", "time": "5:00pm"}, {"days": "Sat", "time": "3:00pm"}, {"days": "Sun", "time": "Closed"}], "id": "0190600052", "name": "USPS COLLECTION BOX - PO LOBBY", "address": {"city": "SAUGUS", "state": "MA", "street": "437 LINCOLN AVE", "postcode": "01906"}}},
{"geometry": {"type": "Point", "coordinates": [-71.0096170232, 42.4631226422]}, "type": "Feature", "properties": {"collection_times": [{"days": "Mon-Sat", "time": "3:00pm"}, {"days": "Sun", "time": "Closed"}], "id": "0190600054", "name": "USPS COLLECTION BOX - BLUE BOX", "address": {"city": "SAUGUS", "state": "MA", "street": "320 CENTRAL ST", "postcode": "01906"}}},
{"geometry": {"type": "Point", "coordinates": [-70.9063880139, 42.4756828431]}, "type": "Feature", "properties": {"collection_times": [{"days": "Mon-Sat", "time": "1:30pm"}, {"days": "Sun", "time": "Closed"}], "id": "0190700003", "name": "USPS COLLECTION BOX - BLUE BOX", "address": {"city": "SWAMPSCOTT", "state": "MA", "street": "203 BURRILL & MIDDLESEX", "postcode": "01907"}}},
{"geometry": {"type": "Point", "coordinates": [-70.9079578286, 42.4738706833]}, "type": "Feature", "properties": {"collection_times": [{"days": "Mon-Sat", "time": "2:45pm"}, {"days": "Sun", "time": "Closed"}], "id": "0190700004", "name": "USPS COLLECTION BOX - BLUE BOX", "address": {"city": "SWAMPSCOTT", "state": "MA", "street": "61 BURRILL ST", "postcode": "01907"}}},
{"geometry": {"type": "Point", "coordinates": [-70.9241220859, 42.4717809658]}, "type": "Feature", "properties": {"collection_times": [{"days": "Mon-Sat", "time": "1:30pm"}, {"days": "Sun", "time": "Closed"}], "id": "0190700005", "name": "USPS COLLECTION BOX - BLUE BOX", "address": {"city": "SWAMPSCOTT", "state": "MA", "street": "8 DUNCAN TER", "postcode": "01907"}}},
{"geometry": {"type": "Point", "coordinates": [-70.9189312508, 42.4704049282]}, "type": "Feature", "properties": {"collection_times": [{"days": "Mon-Sat", "time": "5:00pm"}, {"days": "Sun", "time": "Closed"}], "id": "0190700008", "name": "USPS COLLECTION BOX - BLUE BOX", "address": {"city": "SWAMPSCOTT", "state": "MA", "street": "41 ELMWOOD RD", "postcode": "01907"}}},
{"geometry": {"type": "Point", "coordinates": [-70.9189312508, 42.4704049282]}, "type": "Feature", "properties": {"collection_times": [{"days": "Mon-Sat", "time": "5:00pm"}, {"days": "Sun", "time": "Closed"}], "id": "0190700009", "name": "USPS COLLECTION BOX - BLUE BOX", "address": {"city": "SWAMPSCOTT", "state": "MA", "street": "41 ELMWOOD RD", "postcode": "01907"}}},
{"geometry": {"type": "Point", "coordinates": [-70.9063880139, 42.4756828431]}, "type": "Feature", "properties": {"collection_times": [{"days": "Mon-Sat", "time": "1:45pm"}, {"days": "Sun", "time": "Closed"}], "id": "0190700011", "name": "USPS COLLECTION BOX - BLUE BOX", "address": {"city": "SWAMPSCOTT", "state": "MA", "street": "2 ESSEX & CHERRY", "postcode": "01907"}}},
{"geometry": {"type": "Point", "coordinates": [-70.9063880139, 42.4756828431]}, "type": "Feature", "properties": {"collection_times": [{"days": "Mon-Sat", "time": "1:45pm"}, {"days": "Sun", "time": "Closed"}], "id": "0190700012", "name": "USPS COLLECTION BOX - BLUE BOX", "address": {"city": "SWAMPSCOTT", "state": "MA", "street": "355 ESSEX & EASTMAN", "postcode": "01907"}}},
{"geometry": {"type": "Point", "coordinates": [-70.907239878, 42.478389464]}, "type": "Feature", "properties": {"collection_times": [{"days": "Mon-Sat", "time": "5:00pm"}, {"days": "Sun", "time": "Closed"}], "id": "0190700015", "name": "USPS COLLECTION BOX - BLUE BOX", "address": {"city": "SWAMPSCOTT", "state": "MA", "street": "435 PARADISE RD", "postcode": "01907"}}},
{"geometry": {"type": "Point", "coordinates": [-70.9094358217, 42.4678291657]}, "type": "Feature", "properties": {"collection_times": [{"days": "Mon-Sat", "time": "2:30pm"}, {"days": "Sun", "time": "Closed"}], "id": "0190700022", "name": "USPS COLLECTION BOX - BLUE BOX", "address": {"city": "SWAMPSCOTT", "state": "MA", "street": "434 HUMPHREY ST", "postcode": "01907"}}},
{"geometry": {"type": "Point", "coordinates": [-70.9063880139, 42.4756828431]}, "type": "Feature", "properties": {"collection_times": [{"days": "Mon-Sat", "time": "1:30pm"}, {"days": "Sun", "time": "Closed"}], "id": "0190700029", "name": "USPS COLLECTION BOX - BLUE BOX", "address": {"city": "SWAMPSCOTT", "state": "MA", "street": "2 PARADISE & BURRILL", "postcode": "01907"}}},
{"geometry": {"type": "Point", "coordinates": [-70.9063880139, 42.4756828431]}, "type": "Feature", "properties": {"collection_times": [{"days": "Mon-Sat", "time": "2:15pm"}, {"days": "Sun", "time": "Closed"}], "id": "0190700035", "name": "USPS COLLECTION BOX - BLUE BOX", "address": {"city": "SWAMPSCOTT", "state": "MA", "street": "135 PHILLIPS & BRADLEE", "postcode": "01907"}}},
{"geometry": {"type": "Point", "coordinates": [-70.9071021896, 42.4786095918]}, "type": "Feature", "properties": {"collection_times": [{"days": "Mon-Sat", "time": "5:00pm"}, {"days": "Sun", "time": "Closed"}], "id": "0190700039", "name": "USPS COLLECTION BOX - BLUE BOX", "address": {"city": "SWAMPSCOTT", "state": "MA", "street": "450A PARADISE RD", "postcode": "01907"}}},
{"geometry": {"type": "Point", "coordinates": [-70.9079578286, 42.4738706833]}, "type": "Feature", "properties": {"collection_times": [{"days": "Mon-Sat", "time": "1:45pm"}, {"days": "Sun", "time": "Closed"}], "id": "0190700040", "name": "USPS COLLECTION BOX - BLUE BOX", "address": {"city": "SWAMPSCOTT", "state": "MA", "street": "86 WINDSOR AVE", "postcode": "01907"}}},
{"geometry": {"type": "Point", "coordinates": [-70.9079665191, 42.4738836726]}, "type": "Feature", "properties": {"collection_times": [{"days": "Mon-Sat", "time": "2:30pm"}, {"days": "Sun", "time": "Closed"}], "id": "0190700042", "name": "USPS COLLECTION BOX - EXPRESS", "address": {"city": "SWAMPSCOTT", "state": "MA", "street": "434 HUMPHREY ST", "postcode": "01907"}}},
{"geometry": {"type": "Point", "coordinates": [-70.9063880139, 42.4756828431]}, "type": "Feature", "properties": {"collection_times": [{"days": "Mon-Sat", "time": "1:30pm"}, {"days": "Sun", "time": "Closed"}], "id": "0190700044", "name": "USPS COLLECTION BOX - BLUE BOX", "address": {"city": "SWAMPSCOTT", "state": "MA", "street": "117 ESSEX ST & BURRILL ST", "postcode": "01907"}}},
{"geometry": {"type": "Point", "coordinates": [-70.9079665191, 42.4738836726]}, "type": "Feature", "properties": {"collection_times": [{"days": "Mon-Sat", "time": "5:00pm"}, {"days": "Sun", "time": "Closed"}], "id": "0190700045", "name": "USPS COLLECTION BOX - EXPRESS", "address": {"city": "SWAMPSCOTT", "state": "MA", "street": "41 ELMWOOD RD", "postcode": "01907"}}},
{"geometry": {"type": "Point", "coordinates": [-70.9189312508, 42.4704049282]}, "type": "Feature", "properties": {"collection_times": [{"days": "Mon-Fri", "time": "5:00pm"}, {"days": "Sat", "time": "1:45pm"}, {"days": "Sun", "time": "Closed"}], "id": "0190700048", "name": "USPS COLLECTION BOX - PO LOBBY", "address": {"city": "SWAMPSCOTT", "state": "MA", "street": "41 ELMWOOD RD", "postcode": "01907"}}},
{"geometry": {"type": "Point", "coordinates": [-70.9189312508, 42.4704049282]}, "type": "Feature", "properties": {"collection_times": [{"days": "Mon-Fri", "time": "5:00pm"}, {"days": "Sat", "time": "1:45pm"}, {"days": "Sun", "time": "Closed"}], "id": "0190700049", "name": "USPS COLLECTION BOX - PO LOBBY", "address": {"city": "SWAMPSCOTT", "state": "MA", "street": "41 ELMWOOD RD", "postcode": "01907"}}},
{"geometry": {"type": "Point", "coordinates": [-70.9189312508, 42.4704049282]}, "type": "Feature", "properties": {"collection_times": [{"days": "Mon-Fri,Sun", "time": "Closed"}, {"days": "Sat", "time": "3:30pm"}], "id": "0190700050", "name": "USPS COLLECTION BOX - PO LOBBY", "address": {"city": "SWAMPSCOTT", "state": "MA", "street": "41 ELMWOOD RD", "postcode": "01907"}}},
{"geometry": {"type": "Point", "coordinates": [-70.9345594598, 42.4191508745]}, "type": "Feature", "properties": {"collection_times": [{"days": "Mon-Sat", "time": "12:00pm"}, {"days": "Sun", "time": "Closed"}], "id": "0190800001", "name": "USPS COLLECTION BOX - BLUE BOX", "address": {"city": "NAHANT", "state": "MA", "street": "48 BASS POINT RD", "postcode": "01908"}}},
{"geometry": {"type": "Point", "coordinates": [-70.9336343717, 42.4301602605]}, "type": "Feature", "properties": {"collection_times": [{"days": "Mon-Sat", "time": "12:00pm"}, {"days": "Sun", "time": "Closed"}], "id": "0190800002", "name": "USPS COLLECTION BOX - BLUE BOX", "address": {"city": "NAHANT", "state": "MA", "street": "2 CASTLE RD", "postcode": "01908"}}},
{"geometry": {"type": "Point", "coordinates": [-70.90671765, 42.4184000534]}, "type": "Feature", "properties": {"collection_times": [{"days": "Mon-Sat", "time": "12:00pm"}, {"days": "Sun", "time": "Closed"}], "id": "0190800004", "name": "USPS COLLECTION BOX - BLUE BOX", "address": {"city": "NAHANT", "state": "MA", "street": "169 NAHANT RD", "postcode": "01908"}}},
{"geometry": {"type": "Point", "coordinates": [-70.93632282, 42.436466814]}, "type": "Feature", "properties": {"collection_times": [{"days": "Mon-Sat", "time": "12:00pm"}, {"days": "Sun", "time": "Closed"}], "id": "0190800007", "name": "USPS COLLECTION BOX - BLUE BOX", "address": {"city": "NAHANT", "state": "MA", "street": "2 WILSON RD", "postcode": "01908"}}},
{"geometry": {"type": "Point", "coordinates": [-70.9137370161, 42.4239122843]}, "type": "Feature", "properties": {"collection_times": [{"days": "Mon-Fri", "time": "5:00pm"}, {"days": "Sat", "time": "12:00pm"}, {"days": "Sun", "time": "Closed"}], "id": "0190800010", "name": "USPS COLLECTION BOX - BLUE BOX", "address": {"city": "NAHANT", "state": "MA", "street": "334 NAHANT RD", "postcode": "01908"}}},
{"geometry": {"type": "Point", "coordinates": [-70.9269063975, 42.4257410574]}, "type": "Feature", "properties": {"collection_times": [{"days": "Mon-Sat", "time": "12:00pm"}, {"days": "Sun", "time": "Closed"}], "id": "0190800011", "name": "USPS COLLECTION BOX - BLUE BOX", "address": {"city": "NAHANT", "state": "MA", "street": "267 NAHANT RD", "postcode": "01908"}}},
{"geometry": {"type": "Point", "coordinates": [-70.9137370161, 42.4239122843]}, "type": "Feature", "properties": {"collection_times": [{"days": "Mon-Fri", "time": "5:00pm"}, {"days": "Sat", "time": "12:00pm"}, {"days": "Sun", "time": "Closed"}], "id": "0190800012", "name": "USPS COLLECTION BOX - PO LOBBY", "address": {"city": "NAHANT", "state": "MA", "street": "334 NAHANT RD", "postcode": "01908"}}},
{"geometry": {"type": "Point", "coordinates": [-70.9330381746, 42.8605530849]}, "type": "Feature", "properties": {"collection_times": [{"days": "Mon-Fri", "time": "1:00pm"}, {"days": "Sat", "time": "12:00pm"}, {"days": "Sun", "time": "Closed"}], "id": "0191300005", "name": "USPS COLLECTION BOX - BLUE BOX", "address": {"city": "AMESBURY", "state": "MA", "street": "30 POWOW VILLA ST", "postcode": "01913"}}},
{"geometry": {"type": "Point", "coordinates": [-70.9312660141, 42.8533125725]}, "type": "Feature", "properties": {"collection_times": [{"days": "Mon-Fri", "time": "1:00pm"}, {"days": "Sat", "time": "12:00pm"}, {"days": "Sun", "time": "Closed"}], "id": "0191300006", "name": "USPS COLLECTION BOX - BLUE BOX", "address": {"city": "AMESBURY", "state": "MA", "street": "40 HERITAGE VALE ST", "postcode": "01913"}}},
{"geometry": {"type": "Point", "coordinates": [-70.9344189121, 42.8552318167]}, "type": "Feature", "properties": {"collection_times": [{"days": "Mon-Fri", "time": "1:00pm"}, {"days": "Sat", "time": "12:00pm"}, {"days": "Sun", "time": "Closed"}], "id": "0191300008", "name": "USPS COLLECTION BOX - BLUE BOX", "address": {"city": "AMESBURY", "state": "MA", "street": "68 CONGRESS ST", "postcode": "01913"}}},
{"geometry": {"type": "Point", "coordinates": [-70.9331823755, 42.8488673421]}, "type": "Feature", "properties": {"collection_times": [{"days": "Mon-Fri", "time": "4:30pm"}, {"days": "Sat", "time": "12:00pm"}, {"days": "Sun", "time": "Closed"}], "id": "0191300015", "name": "USPS COLLECTION BOX - BLUE BOX", "address": {"city": "AMESBURY", "state": "MA", "street": "24 MORRILL PL", "postcode": "01913"}}},
{"geometry": {"type": "Point", "coordinates": [-70.9443857773, 42.8539925698]}, "type": "Feature", "properties": {"collection_times": [{"days": "Mon-Fri", "time": "1:00pm"}, {"days": "Sat", "time": "12:00pm"}, {"days": "Sun", "time": "Closed"}], "id": "0191300018", "name": "USPS COLLECTION BOX - BLUE BOX", "address": {"city": "AMESBURY", "state": "MA", "street": "109 FRIEND ST", "postcode": "01913"}}},
{"geometry": {"type": "Point", "coordinates": [-70.9315937817, 42.8510598392]}, "type": "Feature", "properties": {"collection_times": [{"days": "Mon-Fri", "time": "5:00pm"}, {"days": "Sat", "time": "3:45pm"}, {"days": "Sun", "time": "Closed"}], "id": "0191300019", "name": "USPS COLLECTION BOX - BLUE BOX", "address": {"city": "AMESBURY", "state": "MA", "street": "200 MAIN ST", "postcode": "01913"}}},
{"geometry": {"type": "Point", "coordinates": [-70.9344667076, 42.8553403954]}, "type": "Feature", "properties": {"collection_times": [{"days": "Mon-Fri", "time": "5:00pm"}, {"days": "Sat", "time": "3:45pm"}, {"days": "Sun", "time": "Closed"}], "id": "0191300020", "name": "USPS COLLECTION BOX - EXPRESS", "address": {"city": "AMESBURY", "state": "MA", "street": "200 MAIN ST", "postcode": "01913"}}},
{"geometry": {"type": "Point", "coordinates": [-70.9314258015, 42.8561382821]}, "type": "Feature", "properties": {"collection_times": [{"days": "Mon-Fri", "time": "5:00pm"}, {"days": "Sat", "time": "12:00pm"}, {"days": "Sun", "time": "Closed"}], "id": "0191300027", "name": "USPS COLLECTION BOX - BLUE BOX", "address": {"city": "AMESBURY", "state": "MA", "street": "103 MAIN ST", "postcode": "01913"}}},
{"geometry": {"type": "Point", "coordinates": [-70.9344667076, 42.8553403954]}, "type": "Feature", "properties": {"collection_times": [{"days": "Mon-Fri", "time": "5:00pm"}, {"days": "Sat", "time": "12:00pm"}, {"days": "Sun", "time": "Closed"}], "id": "0191300031", "name": "USPS COLLECTION BOX - EXPRESS", "address": {"city": "AMESBURY", "state": "MA", "street": "1 MARKET SQ", "postcode": "01913"}}},
{"geometry": {"type": "Point", "coordinates": [-70.9315937817, 42.8510598392]}, "type": "Feature", "properties": {"collection_times": [{"days": "Mon-Fri", "time": "5:00pm"}, {"days": "Sat", "time": "4:00pm"}, {"days": "Sun", "time": "Closed"}], "id": "0191300034", "name": "USPS COLLECTION BOX - PO LOBBY", "address": {"city": "AMESBURY", "state": "MA", "street": "200 MAIN ST", "postcode": "01913"}}},
{"geometry": {"type": "Point", "coordinates": [-70.9315937817, 42.8510598392]}, "type": "Feature", "properties": {"collection_times": [{"days": "Mon-Fri", "time": "5:00pm"}, {"days": "Sat", "time": "4:00pm"}, {"days": "Sun", "time": "Closed"}], "id": "0191300035", "name": "USPS COLLECTION BOX - PO LOBBY", "address": {"city": "AMESBURY", "state": "MA", "street": "200 MAIN ST", "postcode": "01913"}}},
{"geometry": {"type": "Point", "coordinates": [-70.9286358853, 42.8566735944]}, "type": "Feature", "properties": {"collection_times": [{"days": "Mon-Fri", "time": "5:00pm"}, {"days": "Sat", "time": "12:00pm"}, {"days": "Sun", "time": "Closed"}], "id": "0191300036", "name": "USPS COLLECTION BOX - BLUE BOX", "address": {"city": "AMESBURY", "state": "MA", "street": "21 WATER ST", "postcode": "01913"}}},
{"geometry": {"type": "Point", "coordinates": [-70.9081986165, 42.8443388095]}, "type": "Feature", "properties": {"collection_times": [{"days": "Mon-Fri", "time": "1:00pm"}, {"days": "Sat", "time": "12:00pm"}, {"days": "Sun", "time": "Closed"}], "id": "0191300038", "name": "USPS COLLECTION BOX - BLUE BOX", "address": {"city": "AMESBURY", "state": "MA", "street": "25 CLARKS RD", "postcode": "01913"}}},
{"geometry": {"type": "Point", "coordinates": [-70.9088366208, 42.8464481399]}, "type": "Feature", "properties": {"collection_times": [{"days": "Mon-Fri", "time": "4:30pm"}, {"days": "Sat", "time": "12:00pm"}, {"days": "Sun", "time": "Closed"}], "id": "0191300039", "name": "USPS COLLECTION BOX - BLUE BOX", "address": {"city": "AMESBURY", "state": "MA", "street": "100 MACY ST", "postcode": "01913"}}},
{"geometry": {"type": "Point", "coordinates": [-70.9443857773, 42.8539925698]}, "type": "Feature", "properties": {"collection_times": [{"days": "Mon-Fri", "time": "5:00pm"}, {"days": "Sat", "time": "12:00pm"}, {"days": "Sun", "time": "Closed"}], "id": "0191300042", "name": "USPS COLLECTION BOX - BLUE BOX", "address": {"city": "AMESBURY", "state": "MA", "street": "60 FRIEND ST", "postcode": "01913"}}},
{"geometry": {"type": "Point", "coordinates": [-70.9290175383, 42.8670052047]}, "type": "Feature", "properties": {"collection_times": [{"days": "Mon-Fri", "time": "5:00pm"}, {"days": "Sat", "time": "12:00pm"}, {"days": "Sun", "time": "Closed"}], "id": "0191300043", "name": "USPS COLLECTION BOX - BLUE BOX", "address": {"city": "AMESBURY", "state": "MA", "street": "1 MARKET SQ", "postcode": "01913"}}},
{"geometry": {"type": "Point", "coordinates": [-70.8842531696, 42.5468523763]}, "type": "Feature", "properties": {"collection_times": [{"days": "Mon-Fri", "time": "5:00pm"}, {"days": "Sat", "time": "12:00pm"}, {"days": "Sun", "time": "Closed"}], "id": "0191500001", "name": "USPS COLLECTION BOX - BLUE BOX", "address": {"city": "BEVERLY", "state": "MA", "street": "151 RANTOUL ST", "postcode": "01915"}}},
{"geometry": {"type": "Point", "coordinates": [-70.8842531696, 42.5468523763]}, "type": "Feature", "properties": {"collection_times": [{"days": "Mon-Fri", "time": "5:00pm"}, {"days": "Sat", "time": "12:00pm"}, {"days": "Sun", "time": "Closed"}], "id": "0191500002", "name": "USPS COLLECTION BOX - BLUE BOX", "address": {"city": "BEVERLY", "state": "MA", "street": "151 RANTOUL ST", "postcode": "01915"}}},
{"geometry": {"type": "Point", "coordinates": [-70.8842531696, 42.5468523763]}, "type": "Feature", "properties": {"collection_times": [{"days": "Mon-Fri", "time": "5:00pm"}, {"days": "Sat", "time": "12:00pm"}, {"days": "Sun", "time": "Closed"}], "id": "0191500003", "name": "USPS COLLECTION BOX - BLUE BOX", "address": {"city": "BEVERLY", "state": "MA", "street": "151 RANTOUL ST", "postcode": "01915"}}},
{"geometry": {"type": "Point", "coordinates": [-70.8126772959, 42.5617320521]}, "type": "Feature", "properties": {"collection_times": [{"days": "Mon-Fri", "time": "5:00pm"}, {"days": "Sat", "time": "12:00pm"}, {"days": "Sun", "time": "Closed"}], "id": "0191500007", "name": "USPS COLLECTION BOX - BLUE BOX", "address": {"city": "BEVERLY", "state": "MA", "street": "34 WEST ST", "postcode": "01915"}}},
{"geometry": {"type": "Point", "coordinates": [-70.8816035107, 42.5547813693]}, "type": "Feature", "properties": {"collection_times": [{"days": "Mon-Fri", "time": "1:30pm"}, {"days": "Sat", "time": "12:00pm"}, {"days": "Sun", "time": "Closed"}], "id": "0191500009", "name": "USPS COLLECTION BOX - BLUE BOX", "address": {"city": "BEVERLY", "state": "MA", "street": "434 RANTOUL ST", "postcode": "01915"}}},
{"geometry": {"type": "Point", "coordinates": [-70.8749049543, 42.5702499974]}, "type": "Feature", "properties": {"collection_times": [{"days": "Mon-Fri", "time": "4:00pm"}, {"days": "Sat", "time": "12:00pm"}, {"days": "Sun", "time": "Closed"}], "id": "0191500016", "name": "USPS COLLECTION BOX - BLUE BOX", "address": {"city": "BEVERLY", "state": "MA", "street": "83 HERRICK ST", "postcode": "01915"}}},
{"geometry": {"type": "Point", "coordinates": [-70.8797915597, 42.5629221481]}, "type": "Feature", "properties": {"collection_times": [{"days": "Mon-Fri", "time": "4:00pm"}, {"days": "Sat", "time": "12:00pm"}, {"days": "Sun", "time": "Closed"}], "id": "0191500017", "name": "USPS COLLECTION BOX - BLUE BOX", "address": {"city": "BEVERLY", "state": "MA", "street": "75 HERRICK ST", "postcode": "01915"}}},
{"geometry": {"type": "Point", "coordinates": [-70.8748806178, 42.5702890481]}, "type": "Feature", "properties": {"collection_times": [{"days": "Mon-Fri", "time": "4:00pm"}, {"days": "Sat", "time": "12:00pm"}, {"days": "Sun", "time": "Closed"}], "id": "0191500018", "name": "USPS COLLECTION BOX - BLUE BOX", "address": {"city": "BEVERLY", "state": "MA", "street": "85 HERRICK ST", "postcode": "01915"}}},
{"geometry": {"type": "Point", "coordinates": [-70.8447175358, 42.5524926001]}, "type": "Feature", "properties": {"collection_times": [{"days": "Mon-Fri", "time": "2:00pm"}, {"days": "Sat", "time": "12:00pm"}, {"days": "Sun", "time": "Closed"}], "id": "0191500021", "name": "USPS COLLECTION BOX - BLUE BOX", "address": {"city": "BEVERLY", "state": "MA", "street": "325 HALE ST", "postcode": "01915"}}},
{"geometry": {"type": "Point", "coordinates": [-70.8773776801, 42.5607707939]}, "type": "Feature", "properties": {"collection_times": [{"days": "Mon-Fri", "time": "2:00pm"}, {"days": "Sat", "time": "12:00pm"}, {"days": "Sun", "time": "Closed"}], "id": "0191500022", "name": "USPS COLLECTION BOX - BLUE BOX", "address": {"city": "BEVERLY", "state": "MA", "street": "160 HALE ST", "postcode": "01915"}}},
{"geometry": {"type": "Point", "coordinates": [-70.8760946589, 42.5459274317]}, "type": "Feature", "properties": {"collection_times": [{"days": "Mon-Fri", "time": "1:30pm"}, {"days": "Sat", "time": "12:00pm"}, {"days": "Sun", "time": "Closed"}], "id": "0191500024", "name": "USPS COLLECTION BOX - BLUE BOX", "address": {"city": "BEVERLY", "state": "MA", "street": "28 THORNDIKE ST", "postcode": "01915"}}},
{"geometry": {"type": "Point", "coordinates": [-70.8422089227, 42.5840209849]}, "type": "Feature", "properties": {"collection_times": [{"days": "Mon-Fri", "time": "11:15am"}, {"days": "Sat", "time": "12:00pm"}, {"days": "Sun", "time": "Closed"}], "id": "0191500025", "name": "USPS COLLECTION BOX - BLUE BOX", "address": {"city": "BEVERLY", "state": "MA", "street": "575 ESSEX ST", "postcode": "01915"}}},
{"geometry": {"type": "Point", "coordinates": [-70.8514705156, 42.5754565321]}, "type": "Feature", "properties": {"collection_times": [{"days": "Mon-Fri", "time": "11:15am"}, {"days": "Sat", "time": "12:00pm"}, {"days": "Sun", "time": "Closed"}], "id": "0191500026", "name": "USPS COLLECTION BOX - BLUE BOX", "address": {"city": "BEVERLY", "state": "MA", "street": "451 ESSEX ST", "postcode": "01915"}}},
{"geometry": {"type": "Point", "coordinates": [-70.8667054764, 42.5637583211]}, "type": "Feature", "properties": {"collection_times": [{"days": "Mon-Fri", "time": "11:15am"}, {"days": "Sat", "time": "12:00pm"}, {"days": "Sun", "time": "Closed"}], "id": "0191500028", "name": "USPS COLLECTION BOX - BLUE BOX", "address": {"city": "BEVERLY", "state": "MA", "street": "201 ESSEX ST", "postcode": "01915"}}},
{"geometry": {"type": "Point", "coordinates": [-70.8773776801, 42.5607707939]}, "type": "Feature", "properties": {"collection_times": [{"days": "Mon-Fri", "time": "11:15am"}, {"days": "Sat", "time": "12:00pm"}, {"days": "Sun", "time": "Closed"}], "id": "0191500029", "name": "USPS COLLECTION BOX - BLUE BOX", "address": {"city": "BEVERLY", "state": "MA", "street": "161 ESSEX ST", "postcode": "01915"}}},
{"geometry": {"type": "Point", "coordinates": [-70.8773776801, 42.5607707939]}, "type": "Feature", "properties": {"collection_times": [{"days": "Mon-Fri", "time": "11:45am"}, {"days": "Sat", "time": "12:00pm"}, {"days": "Sun", "time": "Closed"}], "id": "0191500034", "name": "USPS COLLECTION BOX - BLUE BOX", "address": {"city": "BEVERLY", "state": "MA", "street": "246 ELLIOTT ST", "postcode": "01915"}}},
{"geometry": {"type": "Point", "coordinates": [-70.886970856, 42.5590168656]}, "type": "Feature", "properties": {"collection_times": [{"days": "Mon-Fri", "time": "4:00pm"}, {"days": "Sat", "time": "12:00pm"}, {"days": "Sun", "time": "Closed"}], "id": "0191500036", "name": "USPS COLLECTION BOX - BLUE BOX", "address": {"city": "BEVERLY", "state": "MA", "street": "100 CUMMINGS CTR", "postcode": "01915"}}},
{"geometry": {"type": "Point", "coordinates": [-70.8773776803, 42.5607837826]}, "type": "Feature", "properties": {"collection_times": [{"days": "Mon-Fri", "time": "4:00pm"}, {"days": "Sat", "time": "12:00pm"}, {"days": "Sun", "time": "Closed"}], "id": "0191500037", "name": "USPS COLLECTION BOX - EXPRESS", "address": {"city": "BEVERLY", "state": "MA", "street": "100 CUMMINGS CTR", "postcode": "01915"}}},
{"geometry": {"type": "Point", "coordinates": [-70.8811201312, 42.5850116191]}, "type": "Feature", "properties": {"collection_times": [{"days": "Mon-Fri", "time": "11:15am"}, {"days": "Sat", "time": "12:00pm"}, {"days": "Sun", "time": "Closed"}], "id": "0191500038", "name": "USPS COLLECTION BOX - BLUE BOX", "address": {"city": "BEVERLY", "state": "MA", "street": "172 DODGE ST", "postcode": "01915"}}},
{"geometry": {"type": "Point", "coordinates": [-70.8773776801, 42.5607707939]}, "type": "Feature", "properties": {"collection_times": [{"days": "Mon-Fri", "time": "5:00pm"}, {"days": "Sat", "time": "12:00pm"}, {"days": "Sun", "time": "Closed"}], "id": "0191500040", "name": "USPS COLLECTION BOX - BLUE BOX", "address": {"city": "BEVERLY", "state": "MA", "street": "65 DODGE ST", "postcode": "01915"}}},
{"geometry": {"type": "Point", "coordinates": [-70.8931077433, 42.5720169612]}, "type": "Feature", "properties": {"collection_times": [{"days": "Mon-Fri", "time": "5:00pm"}, {"days": "Sat", "time": "12:00pm"}, {"days": "Sun", "time": "Closed"}], "id": "0191500041", "name": "USPS COLLECTION BOX - BLUE BOX", "address": {"city": "BEVERLY", "state": "MA", "street": "3 DODGE ST", "postcode": "01915"}}},
{"geometry": {"type": "Point", "coordinates": [-70.8773776801, 42.5607707939]}, "type": "Feature", "properties": {"collection_times": [{"days": "Mon-Fri", "time": "2:00pm"}, {"days": "Sat", "time": "12:00pm"}, {"days": "Sun", "time": "Closed"}], "id": "0191500043", "name": "USPS COLLECTION BOX - BLUE BOX", "address": {"city": "BEVERLY", "state": "MA", "street": "90 COLON ST", "postcode": "01915"}}},
{"geometry": {"type": "Point", "coordinates": [-70.8936778532, 42.5723810973]}, "type": "Feature", "properties": {"collection_times": [{"days": "Mon-Fri", "time": "11:45am"}, {"days": "Sat", "time": "12:00pm"}, {"days": "Sun", "time": "Closed"}], "id": "0191500044", "name": "USPS COLLECTION BOX - BLUE BOX", "address": {"city": "BEVERLY", "state": "MA", "street": "588 CABOT ST", "postcode": "01915"}}},
{"geometry": {"type": "Point", "coordinates": [-70.8821729726, 42.5589532004]}, "type": "Feature", "properties": {"collection_times": [{"days": "Mon-Fri", "time": "11:45am"}, {"days": "Sat", "time": "12:00pm"}, {"days": "Sun", "time": "Closed"}], "id": "0191500045", "name": "USPS COLLECTION BOX - BLUE BOX", "address": {"city": "BEVERLY", "state": "MA", "street": "407 CABOT ST", "postcode": "01915"}}},
{"geometry": {"type": "Point", "coordinates": [-70.8773776801, 42.5607707939]}, "type": "Feature", "properties": {"collection_times": [{"days": "Mon-Fri", "time": "1:30pm"}, {"days": "Sat", "time": "12:00pm"}, {"days": "Sun", "time": "Closed"}], "id": "0191500048", "name": "USPS COLLECTION BOX - BLUE BOX", "address": {"city": "BEVERLY", "state": "MA", "street": "296 CABOT ST", "postcode": "01915"}}},
{"geometry": {"type": "Point", "coordinates": [-70.8782820677, 42.5490697753]}, "type": "Feature", "properties": {"collection_times": [{"days": "Mon-Fri", "time": "4:30pm"}, {"days": "Sat", "time": "12:00pm"}, {"days": "Sun", "time": "Closed"}], "id": "0191500051", "name": "USPS COLLECTION BOX - BLUE BOX", "address": {"city": "BEVERLY", "state": "MA", "street": "240 CABOT ST", "postcode": "01915"}}},
{"geometry": {"type": "Point", "coordinates": [-70.8773776801, 42.5607707939]}, "type": "Feature", "properties": {"collection_times": [{"days": "Mon-Fri", "time": "4:30pm"}, {"days": "Sat", "time": "12:00pm"}, {"days": "Sun", "time": "Closed"}], "id": "0191500052", "name": "USPS COLLECTION BOX - BLUE BOX", "address": {"city": "BEVERLY", "state": "MA", "street": "191 CABOT ST", "postcode": "01915"}}},
{"geometry": {"type": "Point", "coordinates": [-70.8773776801, 42.5607707939]}, "type": "Feature", "properties": {"collection_times": [{"days": "Mon-Fri", "time": "4:30pm"}, {"days": "Sat", "time": "12:00pm"}, {"days": "Sun", "time": "Closed"}], "id": "0191500053", "name": "USPS COLLECTION BOX - BLUE BOX", "address": {"city": "BEVERLY", "state": "MA", "street": "165 CABOT ST", "postcode": "01915"}}},
{"geometry": {"type": "Point", "coordinates": [-70.8810056096, 42.5447168524]}, "type": "Feature", "properties": {"collection_times": [{"days": "Mon-Fri", "time": "1:30pm"}, {"days": "Sat", "time": "12:00pm"}, {"days": "Sun", "time": "Closed"}], "id": "0191500055", "name": "USPS COLLECTION BOX - BLUE BOX", "address": {"city": "BEVERLY", "state": "MA", "street": "84 CABOT ST", "postcode": "01915"}}},
{"geometry": {"type": "Point", "coordinates": [-70.8763173249, 42.572268244]}, "type": "Feature", "properties": {"collection_times": [{"days": "Mon-Fri", "time": "11:15am"}, {"days": "Sat", "time": "12:00pm"}, {"days": "Sun", "time": "Closed"}], "id": "0191500057", "name": "USPS COLLECTION BOX - BLUE BOX", "address": {"city": "BEVERLY", "state": "MA", "street": "133 BRIMBAL AVE", "postcode": "01915"}}},
{"geometry": {"type": "Point", "coordinates": [-70.8993435412, 42.5513619393]}, "type": "Feature", "properties": {"collection_times": [{"days": "Mon-Fri", "time": "11:45am"}, {"days": "Sat", "time": "12:00pm"}, {"days": "Sun", "time": "Closed"}], "id": "0191500058", "name": "USPS COLLECTION BOX - BLUE BOX", "address": {"city": "BEVERLY", "state": "MA", "street": "122 BRIDGE ST", "postcode": "01915"}}},
{"geometry": {"type": "Point", "coordinates": [-70.8957890927, 42.5506191735]}, "type": "Feature", "properties": {"collection_times": [{"days": "Mon-Fri", "time": "11:45am"}, {"days": "Sat", "time": "12:00pm"}, {"days": "Sun", "time": "Closed"}], "id": "0191500060", "name": "USPS COLLECTION BOX - BLUE BOX", "address": {"city": "BEVERLY", "state": "MA", "street": "83 BRIDGE ST", "postcode": "01915"}}},
{"geometry": {"type": "Point", "coordinates": [-70.9082199379, 42.5682987798]}, "type": "Feature", "properties": {"collection_times": [{"days": "Mon-Fri", "time": "11:15am"}, {"days": "Sat", "time": "12:00pm"}, {"days": "Sun", "time": "Closed"}], "id": "0191500065", "name": "USPS COLLECTION BOX - BLUE BOX", "address": {"city": "BEVERLY", "state": "MA", "street": "1 APPLE RD", "postcode": "01915"}}},
{"geometry": {"type": "Point", "coordinates": [-70.8851903744, 42.586558155]}, "type": "Feature", "properties": {"collection_times": [{"days": "Mon-Fri", "time": "11:15am"}, {"days": "Sat", "time": "12:00pm"}, {"days": "Sun", "time": "Closed"}], "id": "0191500066", "name": "USPS COLLECTION BOX - BLUE BOX", "address": {"city": "BEVERLY", "state": "MA", "street": "37 ENON ST", "postcode": "01915"}}},
{"geometry": {"type": "Point", "coordinates": [-70.8842531696, 42.5468523763]}, "type": "Feature", "properties": {"collection_times": [{"days": "Mon-Fri", "time": "5:00pm"}, {"days": "Sat", "time": "12:00pm"}, {"days": "Sun", "time": "Closed"}], "id": "0191500068", "name": "USPS COLLECTION BOX - BLUE BOX", "address": {"city": "BEVERLY", "state": "MA", "street": "151 RANTOUL ST", "postcode": "01915"}}},
{"geometry": {"type": "Point", "coordinates": [-70.8773776803, 42.5607837826]}, "type": "Feature", "properties": {"collection_times": [{"days": "Mon-Fri", "time": "5:00pm"}, {"days": "Sat", "time": "12:00pm"}, {"days": "Sun", "time": "Closed"}], "id": "0191500080", "name": "USPS COLLECTION BOX - PO LOBBY", "address": {"city": "BEVERLY", "state": "MA", "street": "151 RANTOUL ST", "postcode": "01915"}}},
{"geometry": {"type": "Point", "coordinates": [-70.8842531696, 42.5468523763]}, "type": "Feature", "properties": {"collection_times": [{"days": "Mon-Fri", "time": "5:00pm"}, {"days": "Sat", "time": "12:00pm"}, {"days": "Sun", "time": "Closed"}], "id": "0191500081", "name": "USPS COLLECTION BOX - PO LOBBY", "address": {"city": "BEVERLY", "state": "MA", "street": "151 RANTOUL ST", "postcode": "01915"}}},
{"geometry": {"type": "Point", "coordinates": [-70.8842531696, 42.5468523763]}, "type": "Feature", "properties": {"collection_times": [{"days": "Mon-Fri", "time": "5:00pm"}, {"days": "Sat", "time": "12:00pm"}, {"days": "Sun", "time": "Closed"}], "id": "0191500082", "name": "USPS COLLECTION BOX - PO LOBBY", "address": {"city": "BEVERLY", "state": "MA", "street": "151 RANTOUL ST", "postcode": "01915"}}},
{"geometry": {"type": "Point", "coordinates": [-70.8842531696, 42.5468523763]}, "type": "Feature", "properties": {"collection_times": [{"days": "Mon-Fri", "time": "5:00pm"}, {"days": "Sat", "time": "12:00pm"}, {"days": "Sun", "time": "Closed"}], "id": "0191500083", "name": "USPS COLLECTION BOX - PO LOBBY", "address": {"city": "BEVERLY", "state": "MA", "street": "151 RANTOUL ST", "postcode": "01915"}}},
{"geometry": {"type": "Point", "coordinates": [-70.8842531696, 42.5468523763]}, "type": "Feature", "properties": {"collection_times": [{"days": "Mon-Fri", "time": "5:00pm"}, {"days": "Sat", "time": "12:00pm"}, {"days": "Sun", "time": "Closed"}], "id": "0191500084", "name": "USPS COLLECTION BOX - PO LOBBY", "address": {"city": "BEVERLY", "state": "MA", "street": "151 RANTOUL ST", "postcode": "01915"}}},
{"geometry": {"type": "Point", "coordinates": [-70.8901166831, 42.556488949]}, "type": "Feature", "properties": {"collection_times": [{"days": "Mon-Fri", "time": "11:45am"}, {"days": "Sat", "time": "12:00pm"}, {"days": "Sun", "time": "Closed"}], "id": "0191500088", "name": "USPS COLLECTION BOX - BLUE BOX", "address": {"city": "BEVERLY", "state": "MA", "street": "224 ELLIOTT ST", "postcode": "01915"}}},
{"geometry": {"type": "Point", "coordinates": [-70.8773776803, 42.5607837826]}, "type": "Feature", "properties": {"collection_times": [{"days": "Mon-Fri", "time": "5:00pm"}, {"days": "Sat", "time": "12:00pm"}, {"days": "Sun", "time": "Closed"}], "id": "0191500089", "name": "USPS COLLECTION BOX - EXPRESS", "address": {"city": "BEVERLY", "state": "MA", "street": "151 RANTOUL ST", "postcode": "01915"}}},
{"geometry": {"type": "Point", "coordinates": [-70.8126772959, 42.5617320521]}, "type": "Feature", "properties": {"collection_times": [{"days": "Mon-Fri", "time": "5:00pm"}, {"days": "Sat", "time": "12:00pm"}, {"days": "Sun", "time": "Closed"}], "id": "0191500091", "name": "USPS COLLECTION BOX - PO LOBBY", "address": {"city": "BEVERLY", "state": "MA", "street": "34 WEST ST", "postcode": "01915"}}},
{"geometry": {"type": "Point", "coordinates": [-70.8842531696, 42.5468523763]}, "type": "Feature", "properties": {"collection_times": [{"days": "Mon-Fri", "time": "5:00pm"}, {"days": "Sat", "time": "12:00pm"}, {"days": "Sun", "time": "Closed"}], "id": "0191500093", "name": "USPS COLLECTION BOX - APC", "address": {"city": "BEVERLY", "state": "MA", "street": "151 RANTOUL ST", "postcode": "01915"}}},
{"geometry": {"type": "Point", "coordinates": [-70.8773776801, 42.5607707939]}, "type": "Feature", "properties": {"collection_times": [{"days": "Mon-Fri", "time": "4:30pm"}, {"days": "Sat", "time": "12:00pm"}, {"days": "Sun", "time": "Closed"}], "id": "0191500094", "name": "USPS COLLECTION BOX - BLUE BOX", "address": {"city": "BEVERLY", "state": "MA", "street": "191 CABOT ST", "postcode": "01915"}}},
{"geometry": {"type": "Point", "coordinates": [-70.997802812, 42.6625919999]}, "type": "Feature", "properties": {"collection_times": [{"days": "Mon-Fri", "time": "5:00pm"}, {"days": "Sat", "time": "12:00pm"}, {"days": "Sun", "time": "Closed"}], "id": "0192100002", "name": "USPS COLLECTION BOX - BLUE BOX", "address": {"city": "BOXFORD", "state": "MA", "street": "7 ELM ST", "postcode": "01921"}}},
{"geometry": {"type": "Point", "coordinates": [-70.9478097832, 42.7591900631]}, "type": "Feature", "properties": {"collection_times": [{"days": "Mon-Fri", "time": "4:45pm"}, {"days": "Sat", "time": "11:30am"}, {"days": "Sun", "time": "Closed"}], "id": "0192200001", "name": "USPS COLLECTION BOX - BLUE BOX", "address": {"city": "BYFIELD", "state": "MA", "street": "2 CENTRAL ST", "postcode": "01922"}}},
{"geometry": {"type": "Point", "coordinates": [-70.9478097832, 42.7591900631]}, "type": "Feature", "properties": {"collection_times": [{"days": "Mon-Fri", "time": "4:45pm"}, {"days": "Sat", "time": "11:30am"}, {"days": "Sun", "time": "Closed"}], "id": "0192200003", "name": "USPS COLLECTION BOX - PO LOBBY", "address": {"city": "BYFIELD", "state": "MA", "street": "2 CENTRAL ST", "postcode": "01922"}}},
{"geometry": {"type": "Point", "coordinates": [-70.9478097832, 42.7591900631]}, "type": "Feature", "properties": {"collection_times": [{"days": "Mon-Fri", "time": "4:45pm"}, {"days": "Sat", "time": "11:30am"}, {"days": "Sun", "time": "Closed"}], "id": "0192200004", "name": "USPS COLLECTION BOX - PO LOBBY", "address": {"city": "BYFIELD", "state": "MA", "street": "2 CENTRAL ST", "postcode": "01922"}}},
{"geometry": {"type": "Point", "coordinates": [-70.9437172243, 42.5669406554]}, "type": "Feature", "properties": {"collection_times": [{"days": "Mon-Fri", "time": "5:00pm"}, {"days": "Sat", "time": "2:00pm"}, {"days": "Sun", "time": "Closed"}], "id": "0192300001", "name": "USPS COLLECTION BOX - EXPRESS", "address": {"city": "DANVERS", "state": "MA", "street": "17 CONANT ST", "postcode": "01923"}}},
{"geometry": {"type": "Point", "coordinates": [-70.9346600113, 42.5660341573]}, "type": "Feature", "properties": {"collection_times": [{"days": "Mon-Fri", "time": "5:00pm"}, {"days": "Sat", "time": "2:00pm"}, {"days": "Sun", "time": "Closed"}], "id": "0192300002", "name": "USPS COLLECTION BOX - BLUE BOX", "address": {"city": "DANVERS", "state": "MA", "street": "17 CONANT ST", "postcode": "01923"}}},
{"geometry": {"type": "Point", "coordinates": [-70.9437172243, 42.5669406554]}, "type": "Feature", "properties": {"collection_times": [{"days": "Mon-Fri", "time": "5:00pm"}, {"days": "Sat", "time": "2:00pm"}, {"days": "Sun", "time": "Closed"}], "id": "0192300003", "name": "USPS COLLECTION BOX - EXPRESS", "address": {"city": "DANVERS", "state": "MA", "street": "17 CONANT ST", "postcode": "01923"}}},
{"geometry": {"type": "Point", "coordinates": [-70.9346600113, 42.5660341573]}, "type": "Feature", "properties": {"collection_times": [{"days": "Mon-Fri", "time": "5:00pm"}, {"days": "Sat", "time": "2:00pm"}, {"days": "Sun", "time": "Closed"}], "id": "0192300004", "name": "USPS COLLECTION BOX - BLUE BOX", "address": {"city": "DANVERS", "state": "MA", "street": "17 CONANT ST", "postcode": "01923"}}},
{"geometry": {"type": "Point", "coordinates": [-70.9346600113, 42.5660341573]}, "type": "Feature", "properties": {"collection_times": [{"days": "Mon-Fri", "time": "5:00pm"}, {"days": "Sat", "time": "2:00pm"}, {"days": "Sun", "time": "Closed"}], "id": "0192300005", "name": "USPS COLLECTION BOX - BLUE BOX", "address": {"city": "DANVERS", "state": "MA", "street": "17 CONANT ST", "postcode": "01923"}}},
{"geometry": {"type": "Point", "coordinates": [-70.9346600113, 42.5660341573]}, "type": "Feature", "properties": {"collection_times": [{"days": "Mon-Fri", "time": "5:00pm"}, {"days": "Sat", "time": "2:00pm"}, {"days": "Sun", "time": "Closed"}], "id": "0192300006", "name": "USPS COLLECTION BOX - BLUE BOX", "address": {"city": "DANVERS", "state": "MA", "street": "17 CONANT ST", "postcode": "01923"}}},
{"geometry": {"type": "Point", "coordinates": [-70.9346600113, 42.5660341573]}, "type": "Feature", "properties": {"collection_times": [{"days": "Mon-Fri", "time": "5:00pm"}, {"days": "Sat", "time": "2:00pm"}, {"days": "Sun", "time": "Closed"}], "id": "0192300007", "name": "USPS COLLECTION BOX - BLUE BOX", "address": {"city": "DANVERS", "state": "MA", "street": "17 CONANT ST", "postcode": "01923"}}},
{"geometry": {"type": "Point", "coordinates": [-70.9720509783, 42.5763495595]}, "type": "Feature", "properties": {"collection_times": [{"days": "Mon-Fri", "time": "4:00pm"}, {"days": "Sat", "time": "10:00am"}, {"days": "Sun", "time": "Closed"}], "id": "0192300008", "name": "USPS COLLECTION BOX - BLUE BOX", "address": {"city": "DANVERS", "state": "MA", "street": "2 ELECTRONICS AVE", "postcode": "01923"}}},
{"geometry": {"type": "Point", "coordinates": [-70.9694188946, 42.5665818673]}, "type": "Feature", "properties": {"collection_times": [{"days": "Mon-Fri", "time": "4:00pm"}, {"days": "Sat", "time": "10:00am"}, {"days": "Sun", "time": "Closed"}], "id": "0192300011", "name": "USPS COLLECTION BOX - BLUE BOX", "address": {"city": "DANVERS", "state": "MA", "street": "130 CENTRE ST", "postcode": "01923"}}},
{"geometry": {"type": "Point", "coordinates": [-70.9366196688, 42.5665890509]}, "type": "Feature", "properties": {"collection_times": [{"days": "Mon-Fri", "time": "4:00pm"}, {"days": "Sat", "time": "10:00am"}, {"days": "Sun", "time": "Closed"}], "id": "0192300013", "name": "USPS COLLECTION BOX - BLUE BOX", "address": {"city": "DANVERS", "state": "MA", "street": "52 MAPLE ST", "postcode": "01923"}}},
{"geometry": {"type": "Point", "coordinates": [-70.9357446392, 42.5654799946]}, "type": "Feature", "properties": {"collection_times": [{"days": "Mon-Fri", "time": "4:00pm"}, {"days": "Sat", "time": "10:00am"}, {"days": "Sun", "time": "Closed"}], "id": "0192300015", "name": "USPS COLLECTION BOX - BLUE BOX", "address": {"city": "DANVERS", "state": "MA", "street": "1 ELM ST", "postcode": "01923"}}},
{"geometry": {"type": "Point", "coordinates": [-70.9410444408, 42.568754963]}, "type": "Feature", "properties": {"collection_times": [{"days": "Mon-Fri", "time": "4:00pm"}, {"days": "Sat", "time": "10:00am"}, {"days": "Sun", "time": "Closed"}], "id": "0192300016", "name": "USPS COLLECTION BOX - BLUE BOX", "address": {"city": "DANVERS", "state": "MA", "street": "17 MAPLE ST", "postcode": "01923"}}},
{"geometry": {"type": "Point", "coordinates": [-70.9436829375, 42.5525291829]}, "type": "Feature", "properties": {"collection_times": [{"days": "Mon-Fri", "time": "4:00pm"}, {"days": "Sat", "time": "10:00am"}, {"days": "Sun", "time": "Closed"}], "id": "0192300025", "name": "USPS COLLECTION BOX - BLUE BOX", "address": {"city": "DANVERS", "state": "MA", "street": "140 COMMONWEALTH AVE", "postcode": "01923"}}},
{"geometry": {"type": "Point", "coordinates": [-70.926799249, 42.5556548754]}, "type": "Feature", "properties": {"collection_times": [{"days": "Mon-Sat", "time": "10:00am"}, {"days": "Sun", "time": "Closed"}], "id": "0192300039", "name": "USPS COLLECTION BOX - BLUE BOX", "address": {"city": "DANVERS", "state": "MA", "street": "11 PERRY ST", "postcode": "01923"}}},
{"geometry": {"type": "Point", "coordinates": [-70.9754933889, 42.5607285864]}, "type": "Feature", "properties": {"collection_times": [{"days": "Mon-Fri", "time": "4:00pm"}, {"days": "Sat", "time": "10:00am"}, {"days": "Sun", "time": "Closed"}], "id": "0192300042", "name": "USPS COLLECTION BOX - BLUE BOX", "address": {"city": "DANVERS", "state": "MA", "street": "175 ANDOVER ST", "postcode": "01923"}}},
{"geometry": {"type": "Point", "coordinates": [-70.9284814166, 42.5622723478]}, "type": "Feature", "properties": {"collection_times": [{"days": "Mon-Sat", "time": "10:00am"}, {"days": "Sun", "time": "Closed"}], "id": "0192300045", "name": "USPS COLLECTION BOX - BLUE BOX", "address": {"city": "DANVERS", "state": "MA", "street": "25 BAYVIEW TER", "postcode": "01923"}}},
{"geometry": {"type": "Point", "coordinates": [-70.9370105508, 42.5665428297]}, "type": "Feature", "properties": {"collection_times": [{"days": "Mon-Fri", "time": "5:00pm"}, {"days": "Sat", "time": "10:00am"}, {"days": "Sun", "time": "Closed"}], "id": "0192300046", "name": "USPS COLLECTION BOX - BLUE BOX", "address": {"city": "DANVERS", "state": "MA", "street": "2 CHERRY HILL DR", "postcode": "01923"}}},
{"geometry": {"type": "Point", "coordinates": [-70.9587471383, 42.5606231378]}, "type": "Feature", "properties": {"collection_times": [{"days": "Mon-Fri", "time": "4:00pm"}, {"days": "Sat", "time": "10:00am"}, {"days": "Sun", "time": "Closed"}], "id": "0192300051", "name": "USPS COLLECTION BOX - BLUE BOX", "address": {"city": "DANVERS", "state": "MA", "street": "89 HOLTEN ST", "postcode": "01923"}}},
{"geometry": {"type": "Point", "coordinates": [-70.962725258, 42.585451963]}, "type": "Feature", "properties": {"collection_times": [{"days": "Mon-Fri", "time": "4:00pm"}, {"days": "Sat", "time": "10:00am"}, {"days": "Sun", "time": "Closed"}], "id": "0192300058", "name": "USPS COLLECTION BOX - BLUE BOX", "address": {"city": "DANVERS", "state": "MA", "street": "100 CONIFER HILL DR", "postcode": "01923"}}},
{"geometry": {"type": "Point", "coordinates": [-70.968713851, 42.5953372339]}, "type": "Feature", "properties": {"collection_times": [{"days": "Mon-Fri", "time": "4:00pm"}, {"days": "Sat", "time": "10:00am"}, {"days": "Sun", "time": "Closed"}], "id": "0192300060", "name": "USPS COLLECTION BOX - BLUE BOX", "address": {"city": "DANVERS", "state": "MA", "street": "55 FERNCROFT RD", "postcode": "01923"}}},
{"geometry": {"type": "Point", "coordinates": [-70.9850696569, 42.5646618556]}, "type": "Feature", "properties": {"collection_times": [{"days": "Mon-Fri", "time": "5:00pm"}, {"days": "Sat", "time": "10:00am"}, {"days": "Sun", "time": "Closed"}], "id": "0192300062", "name": "USPS COLLECTION BOX - BLUE BOX", "address": {"city": "DANVERS", "state": "MA", "street": "99 ROSEWOOD DR", "postcode": "01923"}}},
{"geometry": {"type": "Point", "coordinates": [-70.9850696569, 42.5646618556]}, "type": "Feature", "properties": {"collection_times": [{"days": "Mon-Fri", "time": "5:00pm"}, {"days": "Sat", "time": "10:00am"}, {"days": "Sun", "time": "Closed"}], "id": "0192300063", "name": "USPS COLLECTION BOX - BLUE BOX", "address": {"city": "DANVERS", "state": "MA", "street": "99 ROSEWOOD DR", "postcode": "01923"}}},
{"geometry": {"type": "Point", "coordinates": [-70.976168536, 42.5550521876]}, "type": "Feature", "properties": {"collection_times": [{"days": "Mon-Sat", "time": "10:00am"}, {"days": "Sun", "time": "Closed"}], "id": "0192300065", "name": "USPS COLLECTION BOX - BLUE BOX", "address": {"city": "DANVERS", "state": "MA", "street": "89 NEWBURY ST", "postcode": "01923"}}},
{"geometry": {"type": "Point", "coordinates": [-70.9390878267, 42.5624758168]}, "type": "Feature", "properties": {"collection_times": [{"days": "Mon-Fri", "time": "4:00pm"}, {"days": "Sat-Sun", "time": "Closed"}], "id": "0192300067", "name": "USPS COLLECTION BOX - BLUE BOX", "address": {"city": "DANVERS", "state": "MA", "street": "1 SYLVAN ST", "postcode": "01923"}}},
{"geometry": {"type": "Point", "coordinates": [-70.937119383, 42.5642017539]}, "type": "Feature", "properties": {"collection_times": [{"days": "Mon-Fri", "time": "4:00pm"}, {"days": "Sat", "time": "10:00am"}, {"days": "Sun", "time": "Closed"}], "id": "0192300073", "name": "USPS COLLECTION BOX - BLUE BOX", "address": {"city": "DANVERS", "state": "MA", "street": "48 ELM ST", "postcode": "01923"}}},
{"geometry": {"type": "Point", "coordinates": [-70.9720509783, 42.5763495595]}, "type": "Feature", "properties": {"collection_times": [{"days": "Mon-Fri", "time": "4:00pm"}, {"days": "Sat", "time": "10:00am"}, {"days": "Sun", "time": "Closed"}], "id": "0192300075", "name": "USPS COLLECTION BOX - BLUE BOX", "address": {"city": "DANVERS", "state": "MA", "street": "2 ELECTRONICS AVE", "postcode": "01923"}}},
{"geometry": {"type": "Point", "coordinates": [-70.9370105508, 42.5665428297]}, "type": "Feature", "properties": {"collection_times": [{"days": "Mon-Fri", "time": "5:00pm"}, {"days": "Sat", "time": "10:00am"}, {"days": "Sun", "time": "Closed"}], "id": "0192300078", "name": "USPS COLLECTION BOX - BLUE BOX", "address": {"city": "DANVERS", "state": "MA", "street": "2 CHERRY HILL DR", "postcode": "01923"}}},
{"geometry": {"type": "Point", "coordinates": [-70.962725258, 42.585451963]}, "type": "Feature", "properties": {"collection_times": [{"days": "Mon-Fri", "time": "4:00pm"}, {"days": "Sat", "time": "10:00am"}, {"days": "Sun", "time": "Closed"}], "id": "0192300080", "name": "USPS COLLECTION BOX - BLUE BOX", "address": {"city": "DANVERS", "state": "MA", "street": "100 CONIFER HILL DR", "postcode": "01923"}}},
{"geometry": {"type": "Point", "coordinates": [-70.959980065, 42.5997745129]}, "type": "Feature", "properties": {"collection_times": [{"days": "Mon-Sat", "time": "10:00am"}, {"days": "Sun", "time": "Closed"}], "id": "0192300084", "name": "USPS COLLECTION BOX - BLUE BOX", "address": {"city": "DANVERS", "state": "MA", "street": "435 NEWBURY ST", "postcode": "01923"}}},
{"geometry": {"type": "Point", "coordinates": [-70.9441313676, 42.5734835775]}, "type": "Feature", "properties": {"collection_times": [{"days": "Mon-Fri", "time": "4:00pm"}, {"days": "Sat", "time": "10:00am"}, {"days": "Sun", "time": "Closed"}], "id": "0192300087", "name": "USPS COLLECTION BOX - BLUE BOX", "address": {"city": "DANVERS", "state": "MA", "street": "80 LINDALL ST", "postcode": "01923"}}},
{"geometry": {"type": "Point", "coordinates": [-70.9703985697, 42.557990414]}, "type": "Feature", "properties": {"collection_times": [{"days": "Mon-Fri", "time": "4:00pm"}, {"days": "Sat", "time": "10:00am"}, {"days": "Sun", "time": "Closed"}], "id": "0192300088", "name": "USPS COLLECTION BOX - BLUE BOX", "address": {"city": "DANVERS", "state": "MA", "street": "153 ANDOVER ST", "postcode": "01923"}}},
{"geometry": {"type": "Point", "coordinates": [-70.9510774118, 42.5826550133]}, "type": "Feature", "properties": {"collection_times": [{"days": "Mon-Sat", "time": "10:00am"}, {"days": "Sun", "time": "Closed"}], "id": "0192300089", "name": "USPS COLLECTION BOX - BLUE BOX", "address": {"city": "DANVERS", "state": "MA", "street": "71 SUMMER ST", "postcode": "01923"}}},
{"geometry": {"type": "Point", "coordinates": [-70.9346600113, 42.5660341573]}, "type": "Feature", "properties": {"collection_times": [{"days": "Mon-Fri", "time": "5:00pm"}, {"days": "Sat", "time": "2:00pm"}, {"days": "Sun", "time": "Closed"}], "id": "0192300091", "name": "USPS COLLECTION BOX - PO LOBBY", "address": {"city": "DANVERS", "state": "MA", "street": "17 CONANT ST", "postcode": "01923"}}},
{"geometry": {"type": "Point", "coordinates": [-70.9346600113, 42.5660341573]}, "type": "Feature", "properties": {"collection_times": [{"days": "Mon-Fri", "time": "5:00pm"}, {"days": "Sat", "time": "2:00pm"}, {"days": "Sun", "time": "Closed"}], "id": "0192300092", "name": "USPS COLLECTION BOX - PO LOBBY", "address": {"city": "DANVERS", "state": "MA", "street": "17 CONANT ST", "postcode": "01923"}}},
{"geometry": {"type": "Point", "coordinates": [-70.9346600113, 42.5660341573]}, "type": "Feature", "properties": {"collection_times": [{"days": "Mon-Fri", "time": "5:00pm"}, {"days": "Sat", "time": "2:00pm"}, {"days": "Sun", "time": "Closed"}], "id": "0192300093", "name": "USPS COLLECTION BOX - PO LOBBY", "address": {"city": "DANVERS", "state": "MA", "street": "17 CONANT ST", "postcode": "01923"}}},
{"geometry": {"type": "Point", "coordinates": [-70.9346600113, 42.5660341573]}, "type": "Feature", "properties": {"collection_times": [{"days": "Mon-Fri", "time": "5:00pm"}, {"days": "Sat", "time": "2:00pm"}, {"days": "Sun", "time": "Closed"}], "id": "0192300094", "name": "USPS COLLECTION BOX - PO LOBBY", "address": {"city": "DANVERS", "state": "MA", "street": "17 CONANT ST", "postcode": "01923"}}},
{"geometry": {"type": "Point", "coordinates": [-70.9387421501, 42.554367092]}, "type": "Feature", "properties": {"collection_times": [{"days": "Mon-Fri", "time": "4:00pm"}, {"days": "Sat", "time": "10:00am"}, {"days": "Sun", "time": "Closed"}], "id": "0192300095", "name": "USPS COLLECTION BOX - BLUE BOX", "address": {"city": "DANVERS", "state": "MA", "street": "85 CONSTITUTION LN", "postcode": "01923"}}},
{"geometry": {"type": "Point", "coordinates": [-70.7817875593, 42.6317942075]}, "type": "Feature", "properties": {"collection_times": [{"days": "Mon-Fri", "time": "4:30pm"}, {"days": "Sat", "time": "12:30pm"}, {"days": "Sun", "time": "Closed"}], "id": "0192900001", "name": "USPS COLLECTION BOX - EXPRESS", "address": {"city": "ESSEX", "state": "MA", "street": "4 MARTIN ST", "postcode": "01929"}}},
{"geometry": {"type": "Point", "coordinates": [-70.7809510552, 42.6325389274]}, "type": "Feature", "properties": {"collection_times": [{"days": "Mon-Fri", "time": "4:30pm"}, {"days": "Sat", "time": "12:30pm"}, {"days": "Sun", "time": "Closed"}], "id": "0192900002", "name": "USPS COLLECTION BOX - BLUE BOX", "address": {"city": "ESSEX", "state": "MA", "street": "4 MARTIN ST", "postcode": "01929"}}},
{"geometry": {"type": "Point", "coordinates": [-70.7810790588, 42.632521661]}, "type": "Feature", "properties": {"collection_times": [{"days": "Mon-Sat", "time": "12:30pm"}, {"days": "Sun", "time": "Closed"}], "id": "0192900003", "name": "USPS COLLECTION BOX - BLUE BOX", "address": {"city": "ESSEX", "state": "MA", "street": "156 MAIN ST", "postcode": "01929"}}},
{"geometry": {"type": "Point", "coordinates": [-70.7810790588, 42.632521661]}, "type": "Feature", "properties": {"collection_times": [{"days": "Mon-Sat", "time": "12:30pm"}, {"days": "Sun", "time": "Closed"}], "id": "0192900004", "name": "USPS COLLECTION BOX - BLUE BOX", "address": {"city": "ESSEX", "state": "MA", "street": "239 WESTERN AVE", "postcode": "01929"}}},
{"geometry": {"type": "Point", "coordinates": [-70.7829361612, 42.6326757518]}, "type": "Feature", "properties": {"collection_times": [{"days": "Mon-Fri", "time": "10:00am"}, {"days": "Sat", "time": "12:30pm"}, {"days": "Sun", "time": "Closed"}], "id": "0192900006", "name": "USPS COLLECTION BOX - BLUE BOX", "address": {"city": "ESSEX", "state": "MA", "street": "1 CHEBACCO TER", "postcode": "01929"}}},
{"geometry": {"type": "Point", "coordinates": [-70.7810790588, 42.632521661]}, "type": "Feature", "properties": {"collection_times": [{"days": "Mon-Sat", "time": "12:30pm"}, {"days": "Sun", "time": "Closed"}], "id": "0192900008", "name": "USPS COLLECTION BOX - BLUE BOX", "address": {"city": "ESSEX", "state": "MA", "street": "65 EASTERN AVE", "postcode": "01929"}}},
{"geometry": {"type": "Point", "coordinates": [-70.7809510552, 42.6325389274]}, "type": "Feature", "properties": {"collection_times": [{"days": "Mon-Fri", "time": "4:30pm"}, {"days": "Sat", "time": "12:30pm"}, {"days": "Sun", "time": "Closed"}], "id": "0192900011", "name": "USPS COLLECTION BOX - PO LOBBY", "address": {"city": "ESSEX", "state": "MA", "street": "4 MARTIN ST", "postcode": "01929"}}},
{"geometry": {"type": "Point", "coordinates": [-70.6630042879, 42.6137995503]}, "type": "Feature", "properties": {"collection_times": [{"days": "Mon-Fri", "time": "5:00pm"}, {"days": "Sat", "time": "3:45pm"},