{"type": "FeatureCollection", "features": [
{"geometry": {"type": "Point", "coordinates": [-70.8876882597, 42.1753347511]}, "type": "Feature", "properties": {"collection_times": [{"days": "Mon-Fri", "time": "5:00pm"}, {"days": "Sat", "time": "11:00am"}, {"days": "Sun", "time": "Closed"}], "id": "0201800004", "name": "USPS COLLECTION BOX - BLUE BOX", "address": {"city": "HINGHAM", "state": "MA", "street": "28 WHITING ST", "postcode": "02018"}}},
{"geometry": {"type": "Point", "coordinates": [-70.8876882597, 42.1753347511]}, "type": "Feature", "properties": {"collection_times": [{"days": "Mon-Fri", "time": "5:00pm"}, {"days": "Sat", "time": "11:00am"}, {"days": "Sun", "time": "Closed"}], "id": "0201800011", "name": "USPS COLLECTION BOX - BLUE BOX", "address": {"city": "HINGHAM", "state": "MA", "street": "28 WHITING ST", "postcode": "02018"}}},
{"geometry": {"type": "Point", "coordinates": [-71.4772507688, 42.0895947012]}, "type": "Feature", "properties": {"collection_times": [{"days": "Mon-Sat", "time": "9:00am"}, {"days": "Sun", "time": "Closed"}], "id": "0201900002", "name": "USPS COLLECTION BOX - BLUE BOX", "address": {"city": "BELLINGHAM", "state": "MA", "street": "11 DEPOT CT OFC", "postcode": "02019"}}},
{"geometry": {"type": "Point", "coordinates": [-71.4652987313, 42.1142751411]}, "type": "Feature", "properties": {"collection_times": [{"days": "Mon-Sat", "time": "9:00am"}, {"days": "Sun", "time": "Closed"}], "id": "0201900003", "name": "USPS COLLECTION BOX - BLUE BOX", "address": {"city": "BELLINGHAM", "state": "MA", "street": "250 HARTFORD AVE", "postcode": "02019"}}},
{"geometry": {"type": "Point", "coordinates": [-71.4670672549, 42.0822441613]}, "type": "Feature", "properties": {"collection_times": [{"days": "Mon-Fri", "time": "5:00pm"}, {"days": "Sat", "time": "3:15pm"}, {"days": "Sun", "time": "Closed"}], "id": "0201900013", "name": "USPS COLLECTION BOX - BLUE BOX", "address": {"city": "BELLINGHAM", "state": "MA", "street": "111 MECHANIC ST", "postcode": "02019"}}},
{"geometry": {"type": "Point", "coordinates": [-71.4670672549, 42.0822441613]}, "type": "Feature", "properties": {"collection_times": [{"days": "Mon-Fri", "time": "5:00pm"}, {"days": "Sat", "time": "3:15pm"}, {"days": "Sun", "time": "Closed"}], "id": "0201900014", "name": "USPS COLLECTION BOX - BLUE BOX", "address": {"city": "BELLINGHAM", "state": "MA", "street": "111 MECHANIC ST", "postcode": "02019"}}},
{"geometry": {"type": "Point", "coordinates": [-71.4670672549, 42.0822441613]}, "type": "Feature", "properties": {"collection_times": [{"days": "Mon-Fri", "time": "5:00pm"}, {"days": "Sat", "time": "3:15pm"}, {"days": "Sun", "time": "Closed"}], "id": "0201900015", "name": "USPS COLLECTION BOX - BLUE BOX", "address": {"city": "BELLINGHAM", "state": "MA", "street": "111 MECHANIC ST", "postcode": "02019"}}},
{"geometry": {"type": "Point", "coordinates": [-71.4888659094, 42.0268348373]}, "type": "Feature", "properties": {"collection_times": [{"days": "Mon-Sat", "time": "9:00am"}, {"days": "Sun", "time": "Closed"}], "id": "0201900023", "name": "USPS COLLECTION BOX - BLUE BOX", "address": {"city": "BELLINGHAM", "state": "MA", "street": "425 PULASKI BLVD", "postcode": "02019"}}},
{"geometry": {"type": "Point", "coordinates": [-71.4572984787, 42.0241335371]}, "type": "Feature", "properties": {"collection_times": [{"days": "Mon-Sat", "time": "9:00am"}, {"days": "Sun", "time": "Closed"}], "id": "0201900024", "name": "USPS COLLECTION BOX - BLUE BOX", "address": {"city": "BELLINGHAM", "state": "MA", "street": "61 WRENTHAM RD", "postcode": "02019"}}},
{"geometry": {"type": "Point", "coordinates": [-71.4753373375, 42.0687119561]}, "type": "Feature", "properties": {"collection_times": [{"days": "Mon-Sat", "time": "9:00am"}, {"days": "Sun", "time": "Closed"}], "id": "0201900026", "name": "USPS COLLECTION BOX - BLUE BOX", "address": {"city": "BELLINGHAM", "state": "MA", "street": "459 HARTFORD AVE", "postcode": "02019"}}},
{"geometry": {"type": "Point", "coordinates": [-70.6463786735, 42.0916830155]}, "type": "Feature", "properties": {"collection_times": [{"days": "Mon-Fri", "time": "2:00pm"}, {"days": "Sat", "time": "12:00pm"}, {"days": "Sun", "time": "Closed"}], "id": "0202000001", "name": "USPS COLLECTION BOX - BLUE BOX", "address": {"city": "BRANT ROCK", "state": "MA", "street": "33 DYKE RD", "postcode": "02020"}}},
{"geometry": {"type": "Point", "coordinates": [-71.128718692, 42.1504940268]}, "type": "Feature", "properties": {"collection_times": [{"days": "Mon-Fri", "time": "2:00pm"}, {"days": "Sat", "time": "11:00am"}, {"days": "Sun", "time": "Closed"}], "id": "0202100001", "name": "USPS COLLECTION BOX - BLUE BOX", "address": {"city": "CANTON", "state": "MA", "street": "489 BOLIVAR ST", "postcode": "02021"}}},
{"geometry": {"type": "Point", "coordinates": [-71.1530220557, 42.1542745483]}, "type": "Feature", "properties": {"collection_times": [{"days": "Mon-Fri", "time": "11:00am"}, {"days": "Sat", "time": "9:00am"}, {"days": "Sun", "time": "Closed"}], "id": "0202100002", "name": "USPS COLLECTION BOX - BLUE BOX", "address": {"city": "CANTON", "state": "MA", "street": "148 NEPONSET ST", "postcode": "02021"}}},
{"geometry": {"type": "Point", "coordinates": [-71.1321557678, 42.163732835]}, "type": "Feature", "properties": {"collection_times": [{"days": "Mon-Fri", "time": "4:45pm"}, {"days": "Sat-Sun", "time": "Closed"}], "id": "0202100003", "name": "USPS COLLECTION BOX - EXPRESS", "address": {"city": "CANTON", "state": "MA", "street": "5 DAN RD", "postcode": "02021"}}},
{"geometry": {"type": "Point", "coordinates": [-71.1267048835, 42.1752166495]}, "type": "Feature", "properties": {"collection_times": [{"days": "Mon-Sat", "time": "10:00am"}, {"days": "Sun", "time": "Closed"}], "id": "0202100006", "name": "USPS COLLECTION BOX - BLUE BOX", "address": {"city": "CANTON", "state": "MA", "street": "1 HAGEN CT", "postcode": "02021"}}},
{"geometry": {"type": "Point", "coordinates": [-71.1585973504, 42.1619271215]}, "type": "Feature", "properties": {"collection_times": [{"days": "Mon-Fri", "time": "4:30pm"}, {"days": "Sat", "time": "11:00am"}, {"days": "Sun", "time": "Closed"}], "id": "0202100007", "name": "USPS COLLECTION BOX - BLUE BOX", "address": {"city": "CANTON", "state": "MA", "street": "480 NEPONSET ST", "postcode": "02021"}}},
{"geometry": {"type": "Point", "coordinates": [-71.1321557678, 42.163732835]}, "type": "Feature", "properties": {"collection_times": [{"days": "Mon-Fri", "time": "4:30pm"}, {"days": "Sat", "time": "11:00am"}, {"days": "Sun", "time": "Closed"}], "id": "0202100008", "name": "USPS COLLECTION BOX - EXPRESS", "address": {"city": "CANTON", "state": "MA", "street": "480 NEPONSET ST", "postcode": "02021"}}},
{"geometry": {"type": "Point", "coordinates": [-71.1547041138, 42.1452609304]}, "type": "Feature", "properties": {"collection_times": [{"days": "Mon-Sat", "time": "9:30am"}, {"days": "Sun", "time": "Closed"}], "id": "0202100009", "name": "USPS COLLECTION BOX - BLUE BOX", "address": {"city": "CANTON", "state": "MA", "street": "0 RUBIN CT", "postcode": "02021"}}},
{"geometry": {"type": "Point", "coordinates": [-71.1533191161, 42.1851451037]}, "type": "Feature", "properties": {"collection_times": [{"days": "Mon-Fri", "time": "4:30pm"}, {"days": "Sat-Sun", "time": "Closed"}], "id": "0202100010", "name": "USPS COLLECTION BOX - BLUE BOX", "address": {"city": "CANTON", "state": "MA", "street": "110 SHAWMUT RD", "postcode": "02021"}}},
{"geometry": {"type": "Point", "coordinates": [-71.1533191161, 42.1851451037]}, "type": "Feature", "properties": {"collection_times": [{"days": "Mon-Fri", "time": "4:30pm"}, {"days": "Sat-Sun", "time": "Closed"}], "id": "0202100011", "name": "USPS COLLECTION BOX - BLUE BOX", "address": {"city": "CANTON", "state": "MA", "street": "110 SHAWMUT RD", "postcode": "02021"}}},
{"geometry": {"type": "Point", "coordinates": [-71.1321557678, 42.163732835]}, "type": "Feature", "properties": {"collection_times": [{"days": "Mon-Fri", "time": "4:30pm"}, {"days": "Sat-Sun", "time": "Closed"}], "id": "0202100012", "name": "USPS COLLECTION BOX - EXPRESS", "address": {"city": "CANTON", "state": "MA", "street": "110 SHAWMUT RD", "postcode": "02021"}}},
{"geometry": {"type": "Point", "coordinates": [-71.1267048835, 42.1752166495]}, "type": "Feature", "properties": {"collection_times": [{"days": "Mon-Fri", "time": "12:30pm"}, {"days": "Sat", "time": "9:30am"}, {"days": "Sun", "time": "Closed"}], "id": "0202100014", "name": "USPS COLLECTION BOX - BLUE BOX", "address": {"city": "CANTON", "state": "MA", "street": "1 STAGECOACH RD", "postcode": "02021"}}},
{"geometry": {"type": "Point", "coordinates": [-71.1097719583, 42.1669739364]}, "type": "Feature", "properties": {"collection_times": [{"days": "Mon-Fri", "time": "4:00pm"}, {"days": "Sat", "time": "10:00am"}, {"days": "Sun", "time": "Closed"}], "id": "0202100015", "name": "USPS COLLECTION BOX - BLUE BOX", "address": {"city": "CANTON", "state": "MA", "street": "540 TURNPIKE ST", "postcode": "02021"}}},
{"geometry": {"type": "Point", "coordinates": [-71.1321557678, 42.163732835]}, "type": "Feature", "properties": {"collection_times": [{"days": "Mon-Fri", "time": "4:00pm"}, {"days": "Sat", "time": "10:00am"}, {"days": "Sun", "time": "Closed"}], "id": "0202100016", "name": "USPS COLLECTION BOX - EXPRESS", "address": {"city": "CANTON", "state": "MA", "street": "540 TURNPIKE ST", "postcode": "02021"}}},
{"geometry": {"type": "Point", "coordinates": [-71.1492980981, 42.138656737]}, "type": "Feature", "properties": {"collection_times": [{"days": "Mon-Fri", "time": "5:00pm"}, {"days": "Sat", "time": "2:00pm"}, {"days": "Sun", "time": "Closed"}], "id": "0202100019", "name": "USPS COLLECTION BOX - BLUE BOX", "address": {"city": "CANTON", "state": "MA", "street": "4 WASHINGTON ST", "postcode": "02021"}}},
{"geometry": {"type": "Point", "coordinates": [-71.1471589755, 42.1528407959]}, "type": "Feature", "properties": {"collection_times": [{"days": "Mon-Fri", "time": "5:00pm"}, {"days": "Sat", "time": "2:00pm"}, {"days": "Sun", "time": "Closed"}], "id": "0202100023", "name": "USPS COLLECTION BOX - BLUE BOX", "address": {"city": "CANTON", "state": "MA", "street": "557 WASHINGTON ST", "postcode": "02021"}}},
{"geometry": {"type": "Point", "coordinates": [-71.1456202707, 42.1565821653]}, "type": "Feature", "properties": {"collection_times": [{"days": "Mon-Fri", "time": "5:00pm"}, {"days": "Sat", "time": "2:00pm"}, {"days": "Sun", "time": "Closed"}], "id": "0202100030", "name": "USPS COLLECTION BOX - BLUE BOX", "address": {"city": "CANTON", "state": "MA", "street": "710 WASHINGTON ST", "postcode": "02021"}}},
{"geometry": {"type": "Point", "coordinates": [-71.1450122923, 42.1589725625]}, "type": "Feature", "properties": {"collection_times": [{"days": "Mon-Fri", "time": "5:00pm"}, {"days": "Sat", "time": "2:00pm"}, {"days": "Sun", "time": "Closed"}], "id": "0202100031", "name": "USPS COLLECTION BOX - BLUE BOX", "address": {"city": "CANTON", "state": "MA", "street": "800 WASHINGTON ST", "postcode": "02021"}}},
{"geometry": {"type": "Point", "coordinates": [-71.1321557678, 42.1637241908]}, "type": "Feature", "properties": {"collection_times": [{"days": "Mon-Fri", "time": "4:30pm"}, {"days": "Sat", "time": "2:00pm"}, {"days": "Sun", "time": "Closed"}], "id": "0202100032", "name": "USPS COLLECTION BOX - BLUE BOX", "address": {"city": "CANTON", "state": "MA", "street": "2168 WASHINGTON ST", "postcode": "02021"}}},
{"geometry": {"type": "Point", "coordinates": [-71.1215309633, 42.1465129203]}, "type": "Feature", "properties": {"collection_times": [{"days": "Mon-Fri", "time": "2:00pm"}, {"days": "Sat", "time": "11:00am"}, {"days": "Sun", "time": "Closed"}], "id": "0202100033", "name": "USPS COLLECTION BOX - BLUE BOX", "address": {"city": "CANTON", "state": "MA", "street": "35 WILL DR", "postcode": "02021"}}},
{"geometry": {"type": "Point", "coordinates": [-71.1117963108, 42.1740029568]}, "type": "Feature", "properties": {"collection_times": [{"days": "Mon-Fri", "time": "12:30pm"}, {"days": "Sat", "time": "10:00am"}, {"days": "Sun", "time": "Closed"}], "id": "0202100034", "name": "USPS COLLECTION BOX - BLUE BOX", "address": {"city": "CANTON", "state": "MA", "street": "354 TURNPIKE ST", "postcode": "02021"}}},
{"geometry": {"type": "Point", "coordinates": [-71.1112628625, 42.16020875]}, "type": "Feature", "properties": {"collection_times": [{"days": "Mon-Fri", "time": "4:45pm"}, {"days": "Sat-Sun", "time": "Closed"}], "id": "0202100035", "name": "USPS COLLECTION BOX - BLUE BOX", "address": {"city": "CANTON", "state": "MA", "street": "5 DAN RD", "postcode": "02021"}}},
{"geometry": {"type": "Point", "coordinates": [-71.1563204981, 42.1604344492]}, "type": "Feature", "properties": {"collection_times": [{"days": "Mon-Fri", "time": "4:30pm"}, {"days": "Sat", "time": "9:00am"}, {"days": "Sun", "time": "Closed"}], "id": "0202100036", "name": "USPS COLLECTION BOX - BLUE BOX", "address": {"city": "CANTON", "state": "MA", "street": "399 NEPONSET ST", "postcode": "02021"}}},
{"geometry": {"type": "Point", "coordinates": [-71.1125501562, 42.1761652055]}, "type": "Feature", "properties": {"collection_times": [{"days": "Mon-Fri", "time": "4:30pm"}, {"days": "Sat", "time": "10:00am"}, {"days": "Sun", "time": "Closed"}], "id": "0202100041", "name": "USPS COLLECTION BOX - BLUE BOX", "address": {"city": "CANTON", "state": "MA", "street": "275 TURNPIKE ST", "postcode": "02021"}}},
{"geometry": {"type": "Point", "coordinates": [-71.1125501562, 42.1761652055]}, "type": "Feature", "properties": {"collection_times": [{"days": "Mon-Fri", "time": "4:30pm"}, {"days": "Sat", "time": "10:00am"}, {"days": "Sun", "time": "Closed"}], "id": "0202100042", "name": "USPS COLLECTION BOX - BLUE BOX", "address": {"city": "CANTON", "state": "MA", "street": "275 TURNPIKE ST", "postcode": "02021"}}},
{"geometry": {"type": "Point", "coordinates": [-71.1104260208, 42.152760198]}, "type": "Feature", "properties": {"collection_times": [{"days": "Mon-Fri", "time": "4:45pm"}, {"days": "Sat-Sun", "time": "Closed"}], "id": "0202100044", "name": "USPS COLLECTION BOX - BLUE BOX", "address": {"city": "CANTON", "state": "MA", "street": "100 JOHN RD", "postcode": "02021"}}},
{"geometry": {"type": "Point", "coordinates": [-71.1112628625, 42.16020875]}, "type": "Feature", "properties": {"collection_times": [{"days": "Mon-Fri", "time": "4:45pm"}, {"days": "Sat-Sun", "time": "Closed"}], "id": "0202100045", "name": "USPS COLLECTION BOX - BLUE BOX", "address": {"city": "CANTON", "state": "MA", "street": "5 DAN RD", "postcode": "02021"}}},
{"geometry": {"type": "Point", "coordinates": [-70.8206890128, 42.232936572]}, "type": "Feature", "properties": {"collection_times": [{"days": "Mon-Fri", "time": "5:00pm"}, {"days": "Sat", "time": "11:00am"}, {"days": "Sun", "time": "Closed"}], "id": "0202500001", "name": "USPS COLLECTION BOX - BLUE BOX", "address": {"city": "COHASSET", "state": "MA", "street": "400 CHIEF JUSTICE CUSHING HWY", "postcode": "02025"}}},
{"geometry": {"type": "Point", "coordinates": [-70.7971098672, 42.2181735452]}, "type": "Feature", "properties": {"collection_times": [{"days": "Mon-Fri", "time": "5:00pm"}, {"days": "Sat", "time": "11:00am"}, {"days": "Sun", "time": "Closed"}], "id": "0202500003", "name": "USPS COLLECTION BOX - BLUE BOX", "address": {"city": "COHASSET", "state": "MA", "street": "790 CHIEF JUSTICE CUSHING HWY", "postcode": "02025"}}},
{"geometry": {"type": "Point", "coordinates": [-70.8027778311, 42.2428438533]}, "type": "Feature", "properties": {"collection_times": [{"days": "Mon-Sat", "time": "10:00am"}, {"days": "Sun", "time": "Closed"}], "id": "0202500005", "name": "USPS COLLECTION BOX - BLUE BOX", "address": {"city": "COHASSET", "state": "MA", "street": "41 HIGHLAND AVE", "postcode": "02025"}}},
{"geometry": {"type": "Point", "coordinates": [-70.829216964, 42.2406163416]}, "type": "Feature", "properties": {"collection_times": [{"days": "Mon-Fri", "time": "5:00pm"}, {"days": "Sat", "time": "2:00pm"}, {"days": "Sun", "time": "Closed"}], "id": "0202500006", "name": "USPS COLLECTION BOX - BLUE BOX", "address": {"city": "COHASSET", "state": "MA", "street": "223 CHIEF JUSTICE CUSHING HWY", "postcode": "02025"}}},
{"geometry": {"type": "Point", "coordinates": [-70.8018432935, 42.2405536447]}, "type": "Feature", "properties": {"collection_times": [{"days": "Mon-Sat", "time": "9:30am"}, {"days": "Sun", "time": "Closed"}], "id": "0202500007", "name": "USPS COLLECTION BOX - BLUE BOX", "address": {"city": "COHASSET", "state": "MA", "street": "35 S MAIN ST", "postcode": "02025"}}},
{"geometry": {"type": "Point", "coordinates": [-70.808547122, 42.2314519585]}, "type": "Feature", "properties": {"collection_times": [{"days": "Mon-Fri", "time": "5:00pm"}, {"days": "Sat", "time": "9:00am"}, {"days": "Sun", "time": "Closed"}], "id": "0202500008", "name": "USPS COLLECTION BOX - BLUE BOX", "address": {"city": "COHASSET", "state": "MA", "street": "143 POND ST", "postcode": "02025"}}},
{"geometry": {"type": "Point", "coordinates": [-70.8046469063, 42.241181796]}, "type": "Feature", "properties": {"collection_times": [{"days": "Mon-Fri", "time": "5:15pm"}, {"days": "Sat", "time": "3:00pm"}, {"days": "Sun", "time": "Closed"}], "id": "0202500009", "name": "USPS COLLECTION BOX - BLUE BOX", "address": {"city": "COHASSET", "state": "MA", "street": "100 RIPLEY RD", "postcode": "02025"}}},
{"geometry": {"type": "Point", "coordinates": [-70.8046469063, 42.241181796]}, "type": "Feature", "properties": {"collection_times": [{"days": "Mon-Fri", "time": "5:15pm"}, {"days": "Sat", "time": "3:00pm"}, {"days": "Sun", "time": "Closed"}], "id": "0202500010", "name": "USPS COLLECTION BOX - BLUE BOX", "address": {"city": "COHASSET", "state": "MA", "street": "100 RIPLEY RD", "postcode": "02025"}}},
{"geometry": {"type": "Point", "coordinates": [-70.8114291869, 42.2414910534]}, "type": "Feature", "properties": {"collection_times": [{"days": "Mon-Fri", "time": "5:15pm"}, {"days": "Sat", "time": "3:00pm"}, {"days": "Sun", "time": "Closed"}], "id": "0202500011", "name": "USPS COLLECTION BOX - PO LOBBY", "address": {"city": "COHASSET", "state": "MA", "street": "100 RIPLEY RD", "postcode": "02025"}}},
{"geometry": {"type": "Point", "coordinates": [-70.8114291869, 42.2414910534]}, "type": "Feature", "properties": {"collection_times": [{"days": "Mon-Fri", "time": "5:15pm"}, {"days": "Sat", "time": "3:00pm"}, {"days": "Sun", "time": "Closed"}], "id": "0202500012", "name": "USPS COLLECTION BOX - PO LOBBY", "address": {"city": "COHASSET", "state": "MA", "street": "100 RIPLEY RD", "postcode": "02025"}}},
{"geometry": {"type": "Point", "coordinates": [-70.8114291869, 42.2414910534]}, "type": "Feature", "properties": {"collection_times": [{"days": "Mon-Fri", "time": "5:15pm"}, {"days": "Sat", "time": "3:00pm"}, {"days": "Sun", "time": "Closed"}], "id": "0202500013", "name": "USPS COLLECTION BOX - PO LOBBY", "address": {"city": "COHASSET", "state": "MA", "street": "100 RIPLEY RD", "postcode": "02025"}}},
{"geometry": {"type": "Point", "coordinates": [-70.797849413, 42.2362104929]}, "type": "Feature", "properties": {"collection_times": [{"days": "Mon-Sat", "time": "1:30pm"}, {"days": "Sun", "time": "Closed"}], "id": "0202500014", "name": "USPS COLLECTION BOX - BLUE BOX", "address": {"city": "COHASSET", "state": "MA", "street": "99 SUMMER ST", "postcode": "02025"}}},
{"geometry": {"type": "Point", "coordinates": [-70.7971098672, 42.2181735452]}, "type": "Feature", "properties": {"collection_times": [{"days": "Mon-Fri", "time": "5:00pm"}, {"days": "Sat", "time": "10:30am"}, {"days": "Sun", "time": "Closed"}], "id": "0202500015", "name": "USPS COLLECTION BOX - BLUE BOX", "address": {"city": "COHASSET", "state": "MA", "street": "739 CHIEF JUSTICE CUSHING HWY", "postcode": "02025"}}},
{"geometry": {"type": "Point", "coordinates": [-71.1752856944, 42.2687932412]}, "type": "Feature", "properties": {"collection_times": [{"days": "Mon-Fri", "time": "4:00pm"}, {"days": "Sat", "time": "10:00am"}, {"days": "Sun", "time": "Closed"}], "id": "0202600003", "name": "USPS COLLECTION BOX - BLUE BOX", "address": {"city": "DEDHAM", "state": "MA", "street": "80 BRIDGE ST", "postcode": "02026"}}},
{"geometry": {"type": "Point", "coordinates": [-71.1774743025, 42.2627066347]}, "type": "Feature", "properties": {"collection_times": [{"days": "Mon-Fri", "time": "4:00pm"}, {"days": "Sat", "time": "10:00am"}, {"days": "Sun", "time": "Closed"}], "id": "0202600004", "name": "USPS COLLECTION BOX - BLUE BOX", "address": {"city": "DEDHAM", "state": "MA", "street": "270 BRIDGE ST", "postcode": "02026"}}},
{"geometry": {"type": "Point", "coordinates": [-71.166246681, 42.2439416365]}, "type": "Feature", "properties": {"collection_times": [{"days": "Mon-Fri", "time": "4:30pm"}, {"days": "Sat-Sun", "time": "Closed"}], "id": "0202600008", "name": "USPS COLLECTION BOX - PO LOBBY", "address": {"city": "DEDHAM", "state": "MA", "street": "280 BUSSEY ST", "postcode": "02026"}}},
{"geometry": {"type": "Point", "coordinates": [-71.1548783091, 42.2487210412]}, "type": "Feature", "properties": {"collection_times": [{"days": "Mon-Fri", "time": "4:30pm"}, {"days": "Sat", "time": "12:00pm"}, {"days": "Sun", "time": "Closed"}], "id": "0202600011", "name": "USPS COLLECTION BOX - BLUE BOX", "address": {"city": "DEDHAM", "state": "MA", "street": "258 BUSSEY ST", "postcode": "02026"}}},
{"geometry": {"type": "Point", "coordinates": [-71.1706099385, 42.2246691883]}, "type": "Feature", "properties": {"collection_times": [{"days": "Mon-Fri", "time": "5:00pm"}, {"days": "Sat", "time": "10:00am"}, {"days": "Sun", "time": "Closed"}], "id": "0202600015", "name": "USPS COLLECTION BOX - BLUE BOX", "address": {"city": "DEDHAM", "state": "MA", "street": "25 ALLIED DR", "postcode": "02026"}}},
{"geometry": {"type": "Point", "coordinates": [-71.1659107446, 42.254699468]}, "type": "Feature", "properties": {"collection_times": [{"days": "Mon-Fri", "time": "4:30pm"}, {"days": "Sat", "time": "10:00am"}, {"days": "Sun", "time": "Closed"}], "id": "0202600018", "name": "USPS COLLECTION BOX - BLUE BOX", "address": {"city": "DEDHAM", "state": "MA", "street": "20 EASTBROOK RD", "postcode": "02026"}}},
{"geometry": {"type": "Point", "coordinates": [-71.1598386162, 42.2321972226]}, "type": "Feature", "properties": {"collection_times": [{"days": "Mon-Fri", "time": "4:45pm"}, {"days": "Sat", "time": "10:00am"}, {"days": "Sun", "time": "Closed"}], "id": "0202600020", "name": "USPS COLLECTION BOX - BLUE BOX", "address": {"city": "DEDHAM", "state": "MA", "street": "878 EAST ST", "postcode": "02026"}}},
{"geometry": {"type": "Point", "coordinates": [-71.1813436272, 42.2328963514]}, "type": "Feature", "properties": {"collection_times": [{"days": "Mon-Fri", "time": "5:00pm"}, {"days": "Sat", "time": "1:30pm"}, {"days": "Sun", "time": "Closed"}], "id": "0202600021", "name": "USPS COLLECTION BOX - BLUE BOX", "address": {"city": "DEDHAM", "state": "MA", "street": "55 ELM ST", "postcode": "02026"}}},
{"geometry": {"type": "Point", "coordinates": [-71.1773025124, 42.2275465932]}, "type": "Feature", "properties": {"collection_times": [{"days": "Mon-Fri", "time": "5:00pm"}, {"days": "Sat", "time": "10:00am"}, {"days": "Sun", "time": "Closed"}], "id": "0202600022", "name": "USPS COLLECTION BOX - BLUE BOX", "address": {"city": "DEDHAM", "state": "MA", "street": "333 ELM ST", "postcode": "02026"}}},
{"geometry": {"type": "Point", "coordinates": [-71.1662379905, 42.2439416822]}, "type": "Feature", "properties": {"collection_times": [{"days": "Mon-Fri", "time": "4:00pm"}, {"days": "Sat", "time": "12:00pm"}, {"days": "Sun", "time": "Closed"}], "id": "0202600024", "name": "USPS COLLECTION BOX - BLUE BOX", "address": {"city": "DEDHAM", "state": "MA", "street": "491 HIGH ST", "postcode": "02026"}}},
{"geometry": {"type": "Point", "coordinates": [-71.1659107446, 42.254699468]}, "type": "Feature", "properties": {"collection_times": [{"days": "Mon-Fri", "time": "4:30pm"}, {"days": "Sat", "time": "10:00am"}, {"days": "Sun", "time": "Closed"}], "id": "0202600025", "name": "USPS COLLECTION BOX - BLUE BOX", "address": {"city": "DEDHAM", "state": "MA", "street": "20 EAST BROOK RD", "postcode": "02026"}}},
{"geometry": {"type": "Point", "coordinates": [-71.1662379905, 42.2439416822]}, "type": "Feature", "properties": {"collection_times": [{"days": "Mon-Fri", "time": "5:30pm"}, {"days": "Sat", "time": "4:00pm"}, {"days": "Sun", "time": "Closed"}], "id": "0202600027", "name": "USPS COLLECTION BOX - BLUE BOX", "address": {"city": "DEDHAM", "state": "MA", "street": "611 HIGH ST", "postcode": "02026"}}},
{"geometry": {"type": "Point", "coordinates": [-71.1662379905, 42.2439416822]}, "type": "Feature", "properties": {"collection_times": [{"days": "Mon-Fri", "time": "5:30pm"}, {"days": "Sat", "time": "4:00pm"}, {"days": "Sun", "time": "Closed"}], "id": "0202600031", "name": "USPS COLLECTION BOX - PO LOBBY", "address": {"city": "DEDHAM", "state": "MA", "street": "611 HIGH ST", "postcode": "02026"}}},
{"geometry": {"type": "Point", "coordinates": [-71.1662379905, 42.2439416822]}, "type": "Feature", "properties": {"collection_times": [{"days": "Mon-Fri", "time": "5:30pm"}, {"days": "Sat", "time": "4:00pm"}, {"days": "Sun", "time": "Closed"}], "id": "0202600032", "name": "USPS COLLECTION BOX - PO LOBBY", "address": {"city": "DEDHAM", "state": "MA", "street": "611 HIGH ST", "postcode": "02026"}}},
{"geometry": {"type": "Point", "coordinates": [-71.1662379905, 42.2439416822]}, "type": "Feature", "properties": {"collection_times": [{"days": "Mon-Fri", "time": "5:30pm"}, {"days": "Sat", "time": "4:00pm"}, {"days": "Sun", "time": "Closed"}], "id": "0202600034", "name": "USPS COLLECTION BOX - BLUE BOX", "address": {"city": "DEDHAM", "state": "MA", "street": "611 HIGH ST", "postcode": "02026"}}},
{"geometry": {"type": "Point", "coordinates": [-71.1619078221, 42.248554298]}, "type": "Feature", "properties": {"collection_times": [{"days": "Mon-Fri", "time": "4:00pm"}, {"days": "Sat", "time": "12:00pm"}, {"days": "Sun", "time": "Closed"}], "id": "0202600037", "name": "USPS COLLECTION BOX - BLUE BOX", "address": {"city": "DEDHAM", "state": "MA", "street": "23 ONEIL DR", "postcode": "02026"}}},
{"geometry": {"type": "Point", "coordinates": [-71.178728821, 42.2584500104]}, "type": "Feature", "properties": {"collection_times": [{"days": "Mon-Fri", "time": "4:00pm"}, {"days": "Sat", "time": "12:00pm"}, {"days": "Sun", "time": "Closed"}], "id": "0202600038", "name": "USPS COLLECTION BOX - BLUE BOX", "address": {"city": "DEDHAM", "state": "MA", "street": "262 PINE ST", "postcode": "02026"}}},
{"geometry": {"type": "Point", "coordinates": [-71.1662379905, 42.2439416822]}, "type": "Feature", "properties": {"collection_times": [{"days": "Mon-Fri", "time": "5:00pm"}, {"days": "Sat", "time": "10:00am"}, {"days": "Sun", "time": "Closed"}], "id": "0202600039", "name": "USPS COLLECTION BOX - BLUE BOX", "address": {"city": "DEDHAM", "state": "MA", "street": "600 PROVIDENCE HWY", "postcode": "02026"}}},
{"geometry": {"type": "Point", "coordinates": [-71.1775605245, 42.2351877429]}, "type": "Feature", "properties": {"collection_times": [{"days": "Mon-Fri", "time": "5:00pm"}, {"days": "Sat", "time": "10:00am"}, {"days": "Sun", "time": "Closed"}], "id": "0202600042", "name": "USPS COLLECTION BOX - BLUE BOX", "address": {"city": "DEDHAM", "state": "MA", "street": "75 MCNEIL WAY", "postcode": "02026"}}},
{"geometry": {"type": "Point", "coordinates": [-71.1795937305, 42.2345625527]}, "type": "Feature", "properties": {"collection_times": [{"days": "Mon-Fri", "time": "5:00pm"}, {"days": "Sat", "time": "10:00am"}, {"days": "Sun", "time": "Closed"}], "id": "0202600048", "name": "USPS COLLECTION BOX - BLUE BOX", "address": {"city": "DEDHAM", "state": "MA", "street": "885 PROVIDENCE HWY", "postcode": "02026"}}},
{"geometry": {"type": "Point", "coordinates": [-71.1544241674, 42.2410810104]}, "type": "Feature", "properties": {"collection_times": [{"days": "Mon-Fri", "time": "4:30pm"}, {"days": "Sat", "time": "12:00pm"}, {"days": "Sun", "time": "Closed"}], "id": "0202600049", "name": "USPS COLLECTION BOX - BLUE BOX", "address": {"city": "DEDHAM", "state": "MA", "street": "244 RIVER ST", "postcode": "02026"}}},
{"geometry": {"type": "Point", "coordinates": [-71.1860799954, 42.2286024703]}, "type": "Feature", "properties": {"collection_times": [{"days": "Mon-Fri", "time": "5:00pm"}, {"days": "Sat", "time": "10:00am"}, {"days": "Sun", "time": "Closed"}], "id": "0202600059", "name": "USPS COLLECTION BOX - BLUE BOX", "address": {"city": "DEDHAM", "state": "MA", "street": "980 WASHINGTON ST", "postcode": "02026"}}},
{"geometry": {"type": "Point", "coordinates": [-71.1860799954, 42.2286024703]}, "type": "Feature", "properties": {"collection_times": [{"days": "Mon-Fri", "time": "5:00pm"}, {"days": "Sat", "time": "10:00am"}, {"days": "Sun", "time": "Closed"}], "id": "0202600062", "name": "USPS COLLECTION BOX - BLUE BOX", "address": {"city": "DEDHAM", "state": "MA", "street": "980 WASHINGTON ST", "postcode": "02026"}}},
{"geometry": {"type": "Point", "coordinates": [-71.1662379905, 42.2439416822]}, "type": "Feature", "properties": {"collection_times": [{"days": "Mon-Fri", "time": "4:30pm"}, {"days": "Sat", "time": "10:00am"}, {"days": "Sun", "time": "Closed"}], "id": "0202600064", "name": "USPS COLLECTION BOX - BLUE BOX", "address": {"city": "DEDHAM", "state": "MA", "street": "26 BRYANT ST", "postcode": "02026"}}},
{"geometry": {"type": "Point", "coordinates": [-71.174661092, 42.2460733313]}, "type": "Feature", "properties": {"collection_times": [{"days": "Mon-Fri", "time": "5:00pm"}, {"days": "Sat", "time": "10:00am"}, {"days": "Sun", "time": "Closed"}], "id": "0202600065", "name": "USPS COLLECTION BOX - BLUE BOX", "address": {"city": "DEDHAM", "state": "MA", "street": "450 WASHINGTON ST", "postcode": "02026"}}},
{"geometry": {"type": "Point", "coordinates": [-71.1774743025, 42.2627066347]}, "type": "Feature", "properties": {"collection_times": [{"days": "Mon-Fri", "time": "4:00pm"}, {"days": "Sat", "time": "10:00am"}, {"days": "Sun", "time": "Closed"}], "id": "0202600067", "name": "USPS COLLECTION BOX - BLUE BOX", "address": {"city": "DEDHAM", "state": "MA", "street": "270 BRIDGE ST", "postcode": "02026"}}},
{"geometry": {"type": "Point", "coordinates": [-71.1723579274, 42.247397757]}, "type": "Feature", "properties": {"collection_times": [{"days": "Mon-Fri", "time": "5:00pm"}, {"days": "Sat", "time": "1:30pm"}, {"days": "Sun", "time": "Closed"}], "id": "0202600069", "name": "USPS COLLECTION BOX - BLUE BOX", "address": {"city": "DEDHAM", "state": "MA", "street": "20 EASTERN AVE", "postcode": "02026"}}},
{"geometry": {"type": "Point", "coordinates": [-71.2838485999, 42.2388710151]}, "type": "Feature", "properties": {"collection_times": [{"days": "Mon-Fri", "time": "4:45pm"}, {"days": "Sat", "time": "1:45pm"}, {"days": "Sun", "time": "Closed"}], "id": "0203000003", "name": "USPS COLLECTION BOX - PO LOBBY", "address": {"city": "DOVER", "state": "MA", "street": "5 WALPOLE ST", "postcode": "02030"}}},
{"geometry": {"type": "Point", "coordinates": [-71.2838485999, 42.2388710151]}, "type": "Feature", "properties": {"collection_times": [{"days": "Mon-Fri", "time": "4:45pm"}, {"days": "Sat", "time": "1:45pm"}, {"days": "Sun", "time": "Closed"}], "id": "0203000004", "name": "USPS COLLECTION BOX - PO LOBBY", "address": {"city": "DOVER", "state": "MA", "street": "5 WALPOLE ST", "postcode": "02030"}}},
{"geometry": {"type": "Point", "coordinates": [-71.2799476173, 42.2440437541]}, "type": "Feature", "properties": {"collection_times": [{"days": "Mon-Fri", "time": "4:45pm"}, {"days": "Sat", "time": "1:45pm"}, {"days": "Sun", "time": "Closed"}], "id": "0203000006", "name": "USPS COLLECTION BOX - BLUE BOX", "address": {"city": "DOVER", "state": "MA", "street": "5 WALPOLE ST", "postcode": "02030"}}},
{"geometry": {"type": "Point", "coordinates": [-71.2799476173, 42.2440437541]}, "type": "Feature", "properties": {"collection_times": [{"days": "Mon-Fri", "time": "4:45pm"}, {"days": "Sat", "time": "1:45pm"}, {"days": "Sun", "time": "Closed"}], "id": "0203000008", "name": "USPS COLLECTION BOX - BLUE BOX", "address": {"city": "DOVER", "state": "MA", "street": "5 WALPOLE ST", "postcode": "02030"}}},
{"geometry": {"type": "Point", "coordinates": [-71.2799476173, 42.2440437541]}, "type": "Feature", "properties": {"collection_times": [{"days": "Mon-Fri", "time": "4:45pm"}, {"days": "Sat", "time": "1:45pm"}, {"days": "Sun", "time": "Closed"}], "id": "0203000009", "name": "USPS COLLECTION BOX - BLUE BOX", "address": {"city": "DOVER", "state": "MA", "street": "5 WALPOLE ST", "postcode": "02030"}}},
{"geometry": {"type": "Point", "coordinates": [-71.2131988107, 42.156411547]}, "type": "Feature", "properties": {"collection_times": [{"days": "Mon-Sat", "time": "10:00am"}, {"days": "Sun", "time": "Closed"}], "id": "0203200003", "name": "USPS COLLECTION BOX - BLUE BOX", "address": {"city": "EAST WALPOLE", "state": "MA", "street": "98 PROVIDENCE HWY", "postcode": "02032"}}},
{"geometry": {"type": "Point", "coordinates": [-71.2103438453, 42.1614960537]}, "type": "Feature", "properties": {"collection_times": [{"days": "Mon-Sat", "time": "10:00am"}, {"days": "Sun", "time": "Closed"}], "id": "0203200005", "name": "USPS COLLECTION BOX - BLUE BOX", "address": {"city": "EAST WALPOLE", "state": "MA", "street": "123 UNION ST", "postcode": "02032"}}},
{"geometry": {"type": "Point", "coordinates": [-71.2131988107, 42.156411547]}, "type": "Feature", "properties": {"collection_times": [{"days": "Mon-Fri", "time": "5:00pm"}, {"days": "Sat", "time": "12:00pm"}, {"days": "Sun", "time": "Closed"}], "id": "0203200007", "name": "USPS COLLECTION BOX - BLUE BOX", "address": {"city": "EAST WALPOLE", "state": "MA", "street": "31 UNION ST", "postcode": "02032"}}},
{"geometry": {"type": "Point", "coordinates": [-71.2131292903, 42.1563810857]}, "type": "Feature", "properties": {"collection_times": [{"days": "Mon-Fri", "time": "4:30pm"}, {"days": "Sat", "time": "12:00pm"}, {"days": "Sun", "time": "Closed"}], "id": "0203200008", "name": "USPS COLLECTION BOX - PO LOBBY", "address": {"city": "EAST WALPOLE", "state": "MA", "street": "31 UNION ST", "postcode": "02032"}}},
{"geometry": {"type": "Point", "coordinates": [-71.2131292903, 42.1563810857]}, "type": "Feature", "properties": {"collection_times": [{"days": "Mon-Fri", "time": "4:30pm"}, {"days": "Sat", "time": "12:00pm"}, {"days": "Sun", "time": "Closed"}], "id": "0203200009", "name": "USPS COLLECTION BOX - PO LOBBY", "address": {"city": "EAST WALPOLE", "state": "MA", "street": "31 UNION ST", "postcode": "02032"}}},
{"geometry": {"type": "Point", "coordinates": [-71.2149326024, 42.1612917637]}, "type": "Feature", "properties": {"collection_times": [{"days": "Mon-Fri", "time": "4:30pm"}, {"days": "Sat", "time": "12:00pm"}, {"days": "Sun", "time": "Closed"}], "id": "0203200010", "name": "USPS COLLECTION BOX - BLUE BOX", "address": {"city": "EAST WALPOLE", "state": "MA", "street": "27 UNION ST", "postcode": "02032"}}},
{"geometry": {"type": "Point", "coordinates": [-71.2149326024, 42.1612917637]}, "type": "Feature", "properties": {"collection_times": [{"days": "Mon-Fri", "time": "4:30pm"}, {"days": "Sat", "time": "12:00pm"}, {"days": "Sun", "time": "Closed"}], "id": "0203200011", "name": "USPS COLLECTION BOX - BLUE BOX", "address": {"city": "EAST WALPOLE", "state": "MA", "street": "27 UNION ST", "postcode": "02032"}}},
{"geometry": {"type": "Point", "coordinates": [-71.2484171775, 42.0658518611]}, "type": "Feature", "properties": {"collection_times": [{"days": "Mon-Sat", "time": "11:30am"}, {"days": "Sun", "time": "Closed"}], "id": "0203500001", "name": "USPS COLLECTION BOX - BLUE BOX", "address": {"city": "FOXBORO", "state": "MA", "street": "90 N CARL ANNON CT", "postcode": "02035"}}},
{"geometry": {"type": "Point", "coordinates": [-71.2619882056, 42.0749824836]}, "type": "Feature", "properties": {"collection_times": [{"days": "Mon-Fri", "time": "4:00pm"}, {"days": "Sat", "time": "11:30am"}, {"days": "Sun", "time": "Closed"}], "id": "0203500003", "name": "USPS COLLECTION BOX - BLUE BOX", "address": {"city": "FOXBORO", "state": "MA", "street": "141 MAIN ST", "postcode": "02035"}}},
{"geometry": {"type": "Point", "coordinates": [-71.2417025279, 42.0559610234]}, "type": "Feature", "properties": {"collection_times": [{"days": "Mon-Fri", "time": "4:30pm"}, {"days": "Sat", "time": "11:30am"}, {"days": "Sun", "time": "Closed"}], "id": "0203500004", "name": "USPS COLLECTION BOX - BLUE BOX", "address": {"city": "FOXBORO", "state": "MA", "street": "132 CENTRAL ST", "postcode": "02035"}}},
{"geometry": {"type": "Point", "coordinates": [-71.248375263, 42.0632504325]}, "type": "Feature", "properties": {"collection_times": [{"days": "Mon-Fri", "time": "5:00pm"}, {"days": "Sat", "time": "3:00pm"}, {"days": "Sun", "time": "Closed"}], "id": "0203500006", "name": "USPS COLLECTION BOX - BLUE BOX", "address": {"city": "FOXBORO", "state": "MA", "street": "15 WALL ST", "postcode": "02035"}}},
{"geometry": {"type": "Point", "coordinates": [-71.248375263, 42.0632504325]}, "type": "Feature", "properties": {"collection_times": [{"days": "Mon-Fri", "time": "5:00pm"}, {"days": "Sat", "time": "3:00pm"}, {"days": "Sun", "time": "Closed"}], "id": "0203500007", "name": "USPS COLLECTION BOX - BLUE BOX", "address": {"city": "FOXBORO", "state": "MA", "street": "15 WALL ST", "postcode": "02035"}}},
{"geometry": {"type": "Point", "coordinates": [-71.248375263, 42.0632504325]}, "type": "Feature", "properties": {"collection_times": [{"days": "Mon-Fri", "time": "5:00pm"}, {"days": "Sat", "time": "3:00pm"}, {"days": "Sun", "time": "Closed"}], "id": "0203500008", "name": "USPS COLLECTION BOX - BLUE BOX", "address": {"city": "FOXBORO", "state": "MA", "street": "15 WALL ST", "postcode": "02035"}}},
{"geometry": {"type": "Point", "coordinates": [-71.2362757402, 42.0402173024]}, "type": "Feature", "properties": {"collection_times": [{"days": "Mon-Fri", "time": "4:30pm"}, {"days": "Sat", "time": "11:30am"}, {"days": "Sun", "time": "Closed"}], "id": "0203500010", "name": "USPS COLLECTION BOX - BLUE BOX", "address": {"city": "FOXBORO", "state": "MA", "street": "35 FOXBORO BLVD", "postcode": "02035"}}},
{"geometry": {"type": "Point", "coordinates": [-71.2566704195, 42.0934656218]}, "type": "Feature", "properties": {"collection_times": [{"days": "Mon-Sat", "time": "9:30am"}, {"days": "Sun", "time": "Closed"}], "id": "0203500013", "name": "USPS COLLECTION BOX - BLUE BOX", "address": {"city": "FOXBORO", "state": "MA", "street": "211 NORTH ST", "postcode": "02035"}}},
{"geometry": {"type": "Point", "coordinates": [-71.2506117656, 42.0629403622]}, "type": "Feature", "properties": {"collection_times": [{"days": "Mon-Fri", "time": "4:45pm"}, {"days": "Sat", "time": "11:30am"}, {"days": "Sun", "time": "Closed"}], "id": "0203500018", "name": "USPS COLLECTION BOX - BLUE BOX", "address": {"city": "FOXBORO", "state": "MA", "street": "40 SOUTH ST", "postcode": "02035"}}},
{"geometry": {"type": "Point", "coordinates": [-71.2821561169, 42.0793020678]}, "type": "Feature", "properties": {"collection_times": [{"days": "Mon-Fri", "time": "4:00pm"}, {"days": "Sat-Sun", "time": "Closed"}], "id": "0203500020", "name": "USPS COLLECTION BOX - BLUE BOX", "address": {"city": "FOXBORO", "state": "MA", "street": "124 WASHINGTON ST", "postcode": "02035"}}},
{"geometry": {"type": "Point", "coordinates": [-71.2362757402, 42.0402173024]}, "type": "Feature", "properties": {"collection_times": [{"days": "Mon-Fri", "time": "4:30pm"}, {"days": "Sat", "time": "11:30am"}, {"days": "Sun", "time": "Closed"}], "id": "0203500022", "name": "USPS COLLECTION BOX - BLUE BOX", "address": {"city": "FOXBORO", "state": "MA", "street": "35 FOXBORO BLVD", "postcode": "02035"}}},
{"geometry": {"type": "Point", "coordinates": [-71.2424884922, 42.0646406856]}, "type": "Feature", "properties": {"collection_times": [{"days": "Mon-Fri", "time": "4:30pm"}, {"days": "Sat", "time": "11:30am"}, {"days": "Sun", "time": "Closed"}], "id": "0203500023", "name": "USPS COLLECTION BOX - BLUE BOX", "address": {"city": "FOXBORO", "state": "MA", "street": "36 MECHANIC ST", "postcode": "02035"}}},
{"geometry": {"type": "Point", "coordinates": [-71.2424971825, 42.0646406395]}, "type": "Feature", "properties": {"collection_times": [{"days": "Mon-Fri", "time": "5:00pm"}, {"days": "Sat", "time": "3:00pm"}, {"days": "Sun", "time": "Closed"}], "id": "0203500024", "name": "USPS COLLECTION BOX - PO LOBBY", "address": {"city": "FOXBORO", "state": "MA", "street": "15 WALL ST", "postcode": "02035"}}},
{"geometry": {"type": "Point", "coordinates": [-71.2424971825, 42.0646406395]}, "type": "Feature", "properties": {"collection_times": [{"days": "Mon-Fri", "time": "5:00pm"}, {"days": "Sat", "time": "3:00pm"}, {"days": "Sun", "time": "Closed"}], "id": "0203500025", "name": "USPS COLLECTION BOX - PO LOBBY", "address": {"city": "FOXBORO", "state": "MA", "street": "15 WALL ST", "postcode": "02035"}}},
{"geometry": {"type": "Point", "coordinates": [-71.2415536069, 42.0549607666]}, "type": "Feature", "properties": {"collection_times": [{"days": "Mon-Fri", "time": "4:30pm"}, {"days": "Sat", "time": "11:30am"}, {"days": "Sun", "time": "Closed"}], "id": "0203500026", "name": "USPS COLLECTION BOX - BLUE BOX", "address": {"city": "FOXBORO", "state": "MA", "street": "8 COMMERCIAL ST", "postcode": "02035"}}},
{"geometry": {"type": "Point", "coordinates": [-71.248375263, 42.0632504325]}, "type": "Feature", "properties": {"collection_times": [{"days": "Mon-Fri", "time": "5:00pm"}, {"days": "Sat", "time": "3:00pm"}, {"days": "Sun", "time": "Closed"}], "id": "0203500027", "name": "USPS COLLECTION BOX - BLUE BOX", "address": {"city": "FOXBORO", "state": "MA", "street": "15 WALL ST", "postcode": "02035"}}},
{"geometry": {"type": "Point", "coordinates": [-71.2424971825, 42.0646406395]}, "type": "Feature", "properties": {"collection_times": [{"days": "Mon-Fri", "time": "5:00pm"}, {"days": "Sat", "time": "3:00pm"}, {"days": "Sun", "time": "Closed"}], "id": "0203500028", "name": "USPS COLLECTION BOX - PO LOBBY", "address": {"city": "FOXBORO", "state": "MA", "street": "15 WALL ST", "postcode": "02035"}}},
{"geometry": {"type": "Point", "coordinates": [-71.2501213934, 42.0657486677]}, "type": "Feature", "properties": {"collection_times": [{"days": "Mon-Fri", "time": "4:30pm"}, {"days": "Sat", "time": "11:30am"}, {"days": "Sun", "time": "Closed"}], "id": "0203500029", "name": "USPS COLLECTION BOX - BLUE BOX", "address": {"city": "FOXBORO", "state": "MA", "street": "17 BIRD ST", "postcode": "02035"}}},
{"geometry": {"type": "Point", "coordinates": [-71.3947684565, 42.0735608536]}, "type": "Feature", "properties": {"collection_times": [{"days": "Mon-Sat", "time": "10:00am"}, {"days": "Sun", "time": "Closed"}], "id": "0203800003", "name": "USPS COLLECTION BOX - BLUE BOX", "address": {"city": "FRANKLIN", "state": "MA", "street": "81 CENTRAL PARK TER", "postcode": "02038"}}},
{"geometry": {"type": "Point", "coordinates": [-71.4050872878, 42.0891812768]}, "type": "Feature", "properties": {"collection_times": [{"days": "Mon-Fri", "time": "4:00pm"}, {"days": "Sat", "time": "10:00am"}, {"days": "Sun", "time": "Closed"}], "id": "0203800007", "name": "USPS COLLECTION BOX - BLUE BOX", "address": {"city": "FRANKLIN", "state": "MA", "street": "279 E CENTRAL ST", "postcode": "02038"}}},
{"geometry": {"type": "Point", "coordinates": [-71.3807976065, 42.0800083688]}, "type": "Feature", "properties": {"collection_times": [{"days": "Mon-Fri", "time": "4:00pm"}, {"days": "Sat-Sun", "time": "Closed"}], "id": "0203800009", "name": "USPS COLLECTION BOX - BLUE BOX", "address": {"city": "FRANKLIN", "state": "MA", "street": "355 E CENTRAL ST", "postcode": "02038"}}},
{"geometry": {"type": "Point", "coordinates": [-71.4225529858, 42.0912764929]}, "type": "Feature", "properties": {"collection_times": [{"days": "Mon-Fri", "time": "4:00pm"}, {"days": "Sat", "time": "10:00am"}, {"days": "Sun", "time": "Closed"}], "id": "0203800011", "name": "USPS COLLECTION BOX - BLUE BOX", "address": {"city": "FRANKLIN", "state": "MA", "street": "1000 FRANKLIN VILLAGE DR", "postcode": "02038"}}},
{"geometry": {"type": "Point", "coordinates": [-71.3810574181, 42.0800318927]}, "type": "Feature", "properties": {"collection_times": [{"days": "Mon-Sat", "time": "10:00am"}, {"days": "Sun", "time": "Closed"}], "id": "0203800014", "name": "USPS COLLECTION BOX - BLUE BOX", "address": {"city": "FRANKLIN", "state": "MA", "street": "49 GLEN MEADOW RD", "postcode": "02038"}}},
{"geometry": {"type": "Point", "coordinates": [-71.398628347, 42.0671803618]}, "type": "Feature", "properties": {"collection_times": [{"days": "Mon-Sat", "time": "10:00am"}, {"days": "Sun", "time": "Closed"}], "id": "0203800017", "name": "USPS COLLECTION BOX - BLUE BOX", "address": {"city": "FRANKLIN", "state": "MA", "street": "400 KING ST", "postcode": "02038"}}},
{"geometry": {"type": "Point", "coordinates": [-71.3981539804, 42.0838884742]}, "type": "Feature", "properties": {"collection_times": [{"days": "Mon-Fri", "time": "5:00pm"}, {"days": "Sat", "time": "3:00pm"}, {"days": "Sun", "time": "Closed"}], "id": "0203800018", "name": "USPS COLLECTION BOX - BLUE BOX", "address": {"city": "FRANKLIN", "state": "MA", "street": "43 MAIN ST", "postcode": "02038"}}},
{"geometry": {"type": "Point", "coordinates": [-71.3981539804, 42.0838884742]}, "type": "Feature", "properties": {"collection_times": [{"days": "Mon-Fri", "time": "5:00pm"}, {"days": "Sat", "time": "3:00pm"}, {"days": "Sun", "time": "Closed"}], "id": "0203800019", "name": "USPS COLLECTION BOX - BLUE BOX", "address": {"city": "FRANKLIN", "state": "MA", "street": "43 MAIN ST", "postcode": "02038"}}},
{"geometry": {"type": "Point", "coordinates": [-71.4050872883, 42.0891812306]}, "type": "Feature", "properties": {"collection_times": [{"days": "Mon-Fri", "time": "5:00pm"}, {"days": "Sat", "time": "3:00pm"}, {"days": "Sun", "time": "Closed"}], "id": "0203800021", "name": "USPS COLLECTION BOX - PO LOBBY", "address": {"city": "FRANKLIN", "state": "MA", "street": "43 MAIN ST", "postcode": "02038"}}},
{"geometry": {"type": "Point", "coordinates": [-71.4050872883, 42.0891812306]}, "type": "Feature", "properties": {"collection_times": [{"days": "Mon-Fri", "time": "5:00pm"}, {"days": "Sat", "time": "3:00pm"}, {"days": "Sun", "time": "Closed"}], "id": "0203800025", "name": "USPS COLLECTION BOX - PO LOBBY", "address": {"city": "FRANKLIN", "state": "MA", "street": "43 MAIN ST", "postcode": "02038"}}},
{"geometry": {"type": "Point", "coordinates": [-71.4050872883, 42.0891812306]}, "type": "Feature", "properties": {"collection_times": [{"days": "Mon-Fri", "time": "5:00pm"}, {"days": "Sat", "time": "3:00pm"}, {"days": "Sun", "time": "Closed"}], "id": "0203800026", "name": "USPS COLLECTION BOX - PO LOBBY", "address": {"city": "FRANKLIN", "state": "MA", "street": "43 MAIN ST", "postcode": "02038"}}},
{"geometry": {"type": "Point", "coordinates": [-71.4050872883, 42.0891812306]}, "type": "Feature", "properties": {"collection_times": [{"days": "Mon-Fri", "time": "5:00pm"}, {"days": "Sat", "time": "3:00pm"}, {"days": "Sun", "time": "Closed"}], "id": "0203800038", "name": "USPS COLLECTION BOX - PO LOBBY", "address": {"city": "FRANKLIN", "state": "MA", "street": "43 MAIN ST", "postcode": "02038"}}},
{"geometry": {"type": "Point", "coordinates": [-71.3981539804, 42.0838884742]}, "type": "Feature", "properties": {"collection_times": [{"days": "Mon-Fri", "time": "5:00pm"}, {"days": "Sat", "time": "3:00pm"}, {"days": "Sun", "time": "Closed"}], "id": "0203800039", "name": "USPS COLLECTION BOX - BLUE BOX", "address": {"city": "FRANKLIN", "state": "MA", "street": "43 MAIN ST", "postcode": "02038"}}},
{"geometry": {"type": "Point", "coordinates": [-71.3981539804, 42.0838884742]}, "type": "Feature", "properties": {"collection_times": [{"days": "Mon-Fri", "time": "5:00pm"}, {"days": "Sat", "time": "3:00pm"}, {"days": "Sun", "time": "Closed"}], "id": "0203800040", "name": "USPS COLLECTION BOX - BLUE BOX", "address": {"city": "FRANKLIN", "state": "MA", "street": "43 MAIN ST", "postcode": "02038"}}},
{"geometry": {"type": "Point", "coordinates": [-70.7473869605, 42.1778343434]}, "type": "Feature", "properties": {"collection_times": [{"days": "Mon-Sat", "time": "12:00pm"}, {"days": "Sun", "time": "Closed"}], "id": "0204000001", "name": "USPS COLLECTION BOX - BLUE BOX", "address": {"city": "SCITUATE", "state": "MA", "street": "23 FORD PL", "postcode": "02040"}}},
{"geometry": {"type": "Point", "coordinates": [-70.8847778739, 42.2166012753]}, "type": "Feature", "properties": {"collection_times": [{"days": "Mon-Sat", "time": "11:00am"}, {"days": "Sun", "time": "Closed"}], "id": "0204300006", "name": "USPS COLLECTION BOX - BLUE BOX", "address": {"city": "HINGHAM", "state": "MA", "street": "1 TUCKERS LN", "postcode": "02043"}}},
{"geometry": {"type": "Point", "coordinates": [-70.8869418126, 42.2317453323]}, "type": "Feature", "properties": {"collection_times": [{"days": "Mon-Sat", "time": "11:00am"}, {"days": "Sun", "time": "Closed"}], "id": "0204300008", "name": "USPS COLLECTION BOX - BLUE BOX", "address": {"city": "HINGHAM", "state": "MA", "street": "210 CENTRAL ST", "postcode": "02043"}}},
{"geometry": {"type": "Point", "coordinates": [-70.9043821766, 42.1804451338]}, "type": "Feature", "properties": {"collection_times": [{"days": "Mon-Fri", "time": "5:00pm"}, {"days": "Sat-Sun", "time": "Closed"}], "id": "0204300009", "name": "USPS COLLECTION BOX - BLUE BOX", "address": {"city": "HINGHAM", "state": "MA", "street": "50 DERBY ST", "postcode": "02043"}}},
{"geometry": {"type": "Point", "coordinates": [-70.9003363, 42.1806736981]}, "type": "Feature", "properties": {"collection_times": [{"days": "Mon-Fri", "time": "4:30pm"}, {"days": "Sat-Sun", "time": "Closed"}], "id": "0204300013", "name": "USPS COLLECTION BOX - BLUE BOX", "address": {"city": "HINGHAM", "state": "MA", "street": "99 DERBY ST", "postcode": "02043"}}},
{"geometry": {"type": "Point", "coordinates": [-70.9076826321, 42.1802700559]}, "type": "Feature", "properties": {"collection_times": [{"days": "Mon-Fri", "time": "4:30pm"}, {"days": "Sat-Sun", "time": "Closed"}], "id": "0204300014", "name": "USPS COLLECTION BOX - BLUE BOX", "address": {"city": "HINGHAM", "state": "MA", "street": "101 DERBY ST", "postcode": "02043"}}},
{"geometry": {"type": "Point", "coordinates": [-70.9119698584, 42.1799213192]}, "type": "Feature", "properties": {"collection_times": [{"days": "Mon-Fri", "time": "4:30pm"}, {"days": "Sat-Sun", "time": "Closed"}], "id": "0204300017", "name": "USPS COLLECTION BOX - BLUE BOX", "address": {"city": "HINGHAM", "state": "MA", "street": "175 DERBY ST", "postcode": "02043"}}},
{"geometry": {"type": "Point", "coordinates": [-70.900622733, 42.2553844013]}, "type": "Feature", "properties": {"collection_times": [{"days": "Mon-Sat", "time": "11:00am"}, {"days": "Sun", "time": "Closed"}], "id": "0204300019", "name": "USPS COLLECTION BOX - BLUE BOX", "address": {"city": "HINGHAM", "state": "MA", "street": "88 DOWNER AVE", "postcode": "02043"}}},
{"geometry": {"type": "Point", "coordinates": [-70.867182849, 42.2416466988]}, "type": "Feature", "properties": {"collection_times": [{"days": "Mon-Sat", "time": "9:30am"}, {"days": "Sun", "time": "Closed"}], "id": "0204300023", "name": "USPS COLLECTION BOX - BLUE BOX", "address": {"city": "HINGHAM", "state": "MA", "street": "4 KILBY ST", "postcode": "02043"}}},
{"geometry": {"type": "Point", "coordinates": [-70.9126099577, 42.2485763464]}, "type": "Feature", "properties": {"collection_times": [{"days": "Mon-Sat", "time": "11:00am"}, {"days": "Sun", "time": "Closed"}], "id": "0204300024", "name": "USPS COLLECTION BOX - BLUE BOX", "address": {"city": "HINGHAM", "state": "MA", "street": "2 FOTTLER RD", "postcode": "02043"}}},
{"geometry": {"type": "Point", "coordinates": [-70.8650073874, 42.2552353485]}, "type": "Feature", "properties": {"collection_times": [{"days": "Mon-Fri", "time": "4:00pm"}, {"days": "Sat-Sun", "time": "Closed"}], "id": "0204300025", "name": "USPS COLLECTION BOX - BLUE BOX", "address": {"city": "HINGHAM", "state": "MA", "street": "28 GEORGE WASHINGTON BLVD", "postcode": "02043"}}},
{"geometry": {"type": "Point", "coordinates": [-70.9030323398, 42.2133760284]}, "type": "Feature", "properties": {"collection_times": [{"days": "Mon-Sat", "time": "11:00am"}, {"days": "Sun", "time": "Closed"}], "id": "0204300026", "name": "USPS COLLECTION BOX - BLUE BOX", "address": {"city": "HINGHAM", "state": "MA", "street": "200 HIGH ST", "postcode": "02043"}}},
{"geometry": {"type": "Point", "coordinates": [-70.9176794589, 42.1763750628]}, "type": "Feature", "properties": {"collection_times": [{"days": "Mon-Fri", "time": "5:00pm"}, {"days": "Sat-Sun", "time": "Closed"}], "id": "0204300030", "name": "USPS COLLECTION BOX - BLUE BOX", "address": {"city": "HINGHAM", "state": "MA", "street": "10 INDUSTRIAL PARK RD", "postcode": "02043"}}},
{"geometry": {"type": "Point", "coordinates": [-70.9038415643, 42.2492377465]}, "type": "Feature", "properties": {"collection_times": [{"days": "Mon-Sat", "time": "11:00am"}, {"days": "Sun", "time": "Closed"}], "id": "0204300032", "name": "USPS COLLECTION BOX - BLUE BOX", "address": {"city": "HINGHAM", "state": "MA", "street": "184 LINCOLN ST", "postcode": "02043"}}},
{"geometry": {"type": "Point", "coordinates": [-70.8862308542, 42.2262280117]}, "type": "Feature", "properties": {"collection_times": [{"days": "Mon-Sat", "time": "11:00am"}, {"days": "Sun", "time": "Closed"}], "id": "0204300035", "name": "USPS COLLECTION BOX - BLUE BOX", "address": {"city": "HINGHAM", "state": "MA", "street": "451 MAIN ST", "postcode": "02043"}}},
{"geometry": {"type": "Point", "coordinates": [-70.8803219742, 42.233541064]}, "type": "Feature", "properties": {"collection_times": [{"days": "Mon-Sat", "time": "11:00am"}, {"days": "Sun", "time": "Closed"}], "id": "0204300036", "name": "USPS COLLECTION BOX - BLUE BOX", "address": {"city": "HINGHAM", "state": "MA", "street": "274 MAIN ST", "postcode": "02043"}}},
{"geometry": {"type": "Point", "coordinates": [-70.8839501093, 42.201743127]}, "type": "Feature", "properties": {"collection_times": [{"days": "Mon-Sat", "time": "9:30am"}, {"days": "Sun", "time": "Closed"}], "id": "0204300037", "name": "USPS COLLECTION BOX - BLUE BOX", "address": {"city": "HINGHAM", "state": "MA", "street": "831 MAIN ST", "postcode": "02043"}}},
{"geometry": {"type": "Point", "coordinates": [-70.8850272568, 42.1746643347]}, "type": "Feature", "properties": {"collection_times": [{"days": "Mon-Sat", "time": "11:00am"}, {"days": "Sun", "time": "Closed"}], "id": "0204300038", "name": "USPS COLLECTION BOX - BLUE BOX", "address": {"city": "HINGHAM", "state": "MA", "street": "946 MAIN ST", "postcode": "02043"}}},
{"geometry": {"type": "Point", "coordinates": [-70.8829445942, 42.1883047132]}, "type": "Feature", "properties": {"collection_times": [{"days": "Mon-Sat", "time": "11:00am"}, {"days": "Sun", "time": "Closed"}], "id": "0204300039", "name": "USPS COLLECTION BOX - BLUE BOX", "address": {"city": "HINGHAM", "state": "MA", "street": "1020 MAIN ST", "postcode": "02043"}}},
{"geometry": {"type": "Point", "coordinates": [-70.8850272568, 42.1746643347]}, "type": "Feature", "properties": {"collection_times": [{"days": "Mon-Sat", "time": "11:00am"}, {"days": "Sun", "time": "Closed"}], "id": "0204300041", "name": "USPS COLLECTION BOX - BLUE BOX", "address": {"city": "HINGHAM", "state": "MA", "street": "613 MAIN ST", "postcode": "02043"}}},
{"geometry": {"type": "Point", "coordinates": [-70.8769351627, 42.2289819401]}, "type": "Feature", "properties": {"collection_times": [{"days": "Mon-Sat", "time": "11:00am"}, {"days": "Sun", "time": "Closed"}], "id": "0204300042", "name": "USPS COLLECTION BOX - BLUE BOX", "address": {"city": "HINGHAM", "state": "MA", "street": "51 PLEASANT ST", "postcode": "02043"}}},
{"geometry": {"type": "Point", "coordinates": [-70.8891397503, 42.2426037126]}, "type": "Feature", "properties": {"collection_times": [{"days": "Mon-Fri", "time": "5:30pm"}, {"days": "Sat", "time": "3:30pm"}, {"days": "Sun", "time": "Closed"}], "id": "0204300044", "name": "USPS COLLECTION BOX - BLUE BOX", "address": {"city": "HINGHAM", "state": "MA", "street": "121 NORTH ST", "postcode": "02043"}}},
{"geometry": {"type": "Point", "coordinates": [-70.8891397503, 42.2426037126]}, "type": "Feature", "properties": {"collection_times": [{"days": "Mon-Fri", "time": "5:30pm"}, {"days": "Sat", "time": "3:30pm"}, {"days": "Sun", "time": "Closed"}], "id": "0204300045", "name": "USPS COLLECTION BOX - BLUE BOX", "address": {"city": "HINGHAM", "state": "MA", "street": "121 NORTH ST", "postcode": "02043"}}},
{"geometry": {"type": "Point", "coordinates": [-70.9037984186, 42.1788417643]}, "type": "Feature", "properties": {"collection_times": [{"days": "Mon-Fri", "time": "5:00pm"}, {"days": "Sat-Sun", "time": "Closed"}], "id": "0204300054", "name": "USPS COLLECTION BOX - BLUE BOX", "address": {"city": "HINGHAM", "state": "MA", "street": "25 RECREATION PARK DR", "postcode": "02043"}}},
{"geometry": {"type": "Point", "coordinates": [-70.8460548034, 42.2592865144]}, "type": "Feature", "properties": {"collection_times": [{"days": "Mon-Sat", "time": "11:00am"}, {"days": "Sun", "time": "Closed"}], "id": "0204300055", "name": "USPS COLLECTION BOX - BLUE BOX", "address": {"city": "HINGHAM", "state": "MA", "street": "340 ROCKLAND ST", "postcode": "02043"}}},
{"geometry": {"type": "Point", "coordinates": [-70.8950270929, 42.2253016086]}, "type": "Feature", "properties": {"collection_times": [{"days": "Mon-Sat", "time": "10:30am"}, {"days": "Sun", "time": "Closed"}], "id": "0204300057", "name": "USPS COLLECTION BOX - BLUE BOX", "address": {"city": "HINGHAM", "state": "MA", "street": "179 SOUTH ST", "postcode": "02043"}}},
{"geometry": {"type": "Point", "coordinates": [-70.8950270929, 42.2253016086]}, "type": "Feature", "properties": {"collection_times": [{"days": "Mon-Sat", "time": "11:00am"}, {"days": "Sun", "time": "Closed"}], "id": "0204300058", "name": "USPS COLLECTION BOX - BLUE BOX", "address": {"city": "HINGHAM", "state": "MA", "street": "30 THAXTER ST", "postcode": "02043"}}},
{"geometry": {"type": "Point", "coordinates": [-70.9019925995, 42.1818327447]}, "type": "Feature", "properties": {"collection_times": [{"days": "Mon-Fri", "time": "4:30pm"}, {"days": "Sat-Sun", "time": "Closed"}], "id": "0204300062", "name": "USPS COLLECTION BOX - BLUE BOX", "address": {"city": "HINGHAM", "state": "MA", "street": "210 WHITING ST", "postcode": "02043"}}},
{"geometry": {"type": "Point", "coordinates": [-70.8950270927, 42.2253102529]}, "type": "Feature", "properties": {"collection_times": [{"days": "Mon-Fri", "time": "5:30pm"}, {"days": "Sat", "time": "3:30pm"}, {"days": "Sun", "time": "Closed"}], "id": "0204300064", "name": "USPS COLLECTION BOX - PO LOBBY", "address": {"city": "HINGHAM", "state": "MA", "street": "121 NORTH ST", "postcode": "02043"}}},
{"geometry": {"type": "Point", "coordinates": [-70.8837385877, 42.2397620848]}, "type": "Feature", "properties": {"collection_times": [{"days": "Mon-Sat", "time": "11:00am"}, {"days": "Sun", "time": "Closed"}], "id": "0204300068", "name": "USPS COLLECTION BOX - BLUE BOX", "address": {"city": "HINGHAM", "state": "MA", "street": "79 WATER ST", "postcode": "02043"}}},
{"geometry": {"type": "Point", "coordinates": [-70.9241245788, 42.2484936653]}, "type": "Feature", "properties": {"collection_times": [{"days": "Mon-Sat", "time": "11:00am"}, {"days": "Sun", "time": "Closed"}], "id": "0204300072", "name": "USPS COLLECTION BOX - BLUE BOX", "address": {"city": "HINGHAM", "state": "MA", "street": "400 LINCOLN ST", "postcode": "02043"}}},
{"geometry": {"type": "Point", "coordinates": [-70.9180382762, 42.1626236347]}, "type": "Feature", "properties": {"collection_times": [{"days": "Mon-Fri", "time": "3:00pm"}, {"days": "Sat-Sun", "time": "Closed"}], "id": "0204300073", "name": "USPS COLLECTION BOX - BLUE BOX", "address": {"city": "HINGHAM", "state": "MA", "street": "72 SHARP ST", "postcode": "02043"}}},
{"geometry": {"type": "Point", "coordinates": [-70.8950270929, 42.2253016086]}, "type": "Feature", "properties": {"collection_times": [{"days": "Mon-Fri", "time": "9:30am"}, {"days": "Sat-Sun", "time": "Closed"}], "id": "0204300074", "name": "USPS COLLECTION BOX - BLUE BOX", "address": {"city": "HINGHAM", "state": "MA", "street": "66 LEAVITT ST", "postcode": "02043"}}},
{"geometry": {"type": "Point", "coordinates": [-70.9176794589, 42.1763750628]}, "type": "Feature", "properties": {"collection_times": [{"days": "Mon-Fri", "time": "5:00pm"}, {"days": "Sat-Sun", "time": "Closed"}], "id": "0204300076", "name": "USPS COLLECTION BOX - BLUE BOX", "address": {"city": "HINGHAM", "state": "MA", "street": "10 INDUSTRIAL PARK RD", "postcode": "02043"}}},
{"geometry": {"type": "Point", "coordinates": [-70.9119698584, 42.1799213192]}, "type": "Feature", "properties": {"collection_times": [{"days": "Mon-Fri", "time": "4:30pm"}, {"days": "Sat-Sun", "time": "Closed"}], "id": "0204300077", "name": "USPS COLLECTION BOX - BLUE BOX", "address": {"city": "HINGHAM", "state": "MA", "street": "175 DERBY ST", "postcode": "02043"}}},
{"geometry": {"type": "Point", "coordinates": [-70.8791562995, 42.2922177833]}, "type": "Feature", "properties": {"collection_times": [{"days": "Mon-Sat", "time": "11:00am"}, {"days": "Sun", "time": "Closed"}], "id": "0204500001", "name": "USPS COLLECTION BOX - BLUE BOX", "address": {"city": "HULL", "state": "MA", "street": "45 A ST", "postcode": "02045"}}},
{"geometry": {"type": "Point", "coordinates": [-70.8461483974, 42.2655409188]}, "type": "Feature", "properties": {"collection_times": [{"days": "Mon-Sat", "time": "11:00am"}, {"days": "Sun", "time": "Closed"}], "id": "0204500002", "name": "USPS COLLECTION BOX - BLUE BOX", "address": {"city": "HULL", "state": "MA", "street": "253 ATLANTIC AVE", "postcode": "02045"}}},
{"geometry": {"type": "Point", "coordinates": [-70.8573090148, 42.2710362145]}, "type": "Feature", "properties": {"collection_times": [{"days": "Mon-Sat", "time": "11:00am"}, {"days": "Sun", "time": "Closed"}], "id": "0204500003", "name": "USPS COLLECTION BOX - BLUE BOX", "address": {"city": "HULL", "state": "MA", "street": "257 NANTASKET AVE", "postcode": "02045"}}},
{"geometry": {"type": "Point", "coordinates": [-70.8764121635, 42.2870966326]}, "type": "Feature", "properties": {"collection_times": [{"days": "Mon-Sat", "time": "11:00am"}, {"days": "Sun", "time": "Closed"}], "id": "0204500004", "name": "USPS COLLECTION BOX - BLUE BOX", "address": {"city": "HULL", "state": "MA", "street": "600 NANTASKET AVE", "postcode": "02045"}}},
{"geometry": {"type": "Point", "coordinates": [-70.873678288, 42.2826531631]}, "type": "Feature", "properties": {"collection_times": [{"days": "Mon-Fri", "time": "5:00pm"}, {"days": "Sat", "time": "12:00pm"}, {"days": "Sun", "time": "Closed"}], "id": "0204500018", "name": "USPS COLLECTION BOX - BLUE BOX", "address": {"city": "HULL", "state": "MA", "street": "515 NANTASKET AVE", "postcode": "02045"}}},
{"geometry": {"type": "Point", "coordinates": [-70.873678288, 42.2826531631]}, "type": "Feature", "properties": {"collection_times": [{"days": "Mon-Fri", "time": "5:00pm"}, {"days": "Sat", "time": "12:00pm"}, {"days": "Sun", "time": "Closed"}], "id": "0204500019", "name": "USPS COLLECTION BOX - BLUE BOX", "address": {"city": "HULL", "state": "MA", "street": "515 NANTASKET AVE", "postcode": "02045"}}},
{"geometry": {"type": "Point", "coordinates": [-70.873678288, 42.2826531631]}, "type": "Feature", "properties": {"collection_times": [{"days": "Mon-Fri", "time": "5:00pm"}, {"days": "Sat", "time": "12:00pm"}, {"days": "Sun", "time": "Closed"}], "id": "0204500021", "name": "USPS COLLECTION BOX - BLUE BOX", "address": {"city": "HULL", "state": "MA", "street": "515 NANTASKET AVE", "postcode": "02045"}}},
{"geometry": {"type": "Point", "coordinates": [-70.8743796265, 42.2851627037]}, "type": "Feature", "properties": {"collection_times": [{"days": "Mon-Fri", "time": "5:00pm"}, {"days": "Sat", "time": "12:00pm"}, {"days": "Sun", "time": "Closed"}], "id": "0204500034", "name": "USPS COLLECTION BOX - PO LOBBY", "address": {"city": "HULL", "state": "MA", "street": "515 NANTASKET AVE", "postcode": "02045"}}},
{"geometry": {"type": "Point", "coordinates": [-70.873678288, 42.2826531631]}, "type": "Feature", "properties": {"collection_times": [{"days": "Mon-Fri", "time": "5:00pm"}, {"days": "Sat", "time": "12:00pm"}, {"days": "Sun", "time": "Closed"}], "id": "0204500035", "name": "USPS COLLECTION BOX - BLUE BOX", "address": {"city": "HULL", "state": "MA", "street": "515 NANTASKET AVEUNE", "postcode": "02045"}}},
{"geometry": {"type": "Point", "coordinates": [-70.8743796265, 42.2851627037]}, "type": "Feature", "properties": {"collection_times": [{"days": "Mon-Fri", "time": "5:00pm"}, {"days": "Sat", "time": "12:00pm"}, {"days": "Sun", "time": "Closed"}], "id": "0204500036", "name": "USPS COLLECTION BOX - PO LOBBY", "address": {"city": "HULL", "state": "MA", "street": "515 NANTASKET AVE", "postcode": "02045"}}},
{"geometry": {"type": "Point", "coordinates": [-70.6911731834, 42.1384211592]}, "type": "Feature", "properties": {"collection_times": [{"days": "Mon-Fri", "time": "5:00pm"}, {"days": "Sat", "time": "12:00pm"}, {"days": "Sun", "time": "Closed"}], "id": "0204700001", "name": "USPS COLLECTION BOX - BLUE BOX", "address": {"city": "HUMAROCK", "state": "MA", "street": "10 CENTRAL AVE", "postcode": "02047"}}},
{"geometry": {"type": "Point", "coordinates": [-70.8822658115, 42.2922320276]}, "type": "Feature", "properties": {"collection_times": [{"days": "Mon-Fri", "time": "5:00pm"}, {"days": "Sat", "time": "12:00pm"}, {"days": "Sun", "time": "Closed"}], "id": "0204700003", "name": "USPS COLLECTION BOX - PO LOBBY", "address": {"city": "HUMAROCK", "state": "MA", "street": "10 CENTRAL AVE", "postcode": "02047"}}},
{"geometry": {"type": "Point", "coordinates": [-71.2070407151, 42.0353097344]}, "type": "Feature", "properties": {"collection_times": [{"days": "Mon-Fri", "time": "3:45pm"}, {"days": "Sat", "time": "12:00pm"}, {"days": "Sun", "time": "Closed"}], "id": "0204800001", "name": "USPS COLLECTION BOX - BLUE BOX", "address": {"city": "MANSFIELD", "state": "MA", "street": "22 BICENTENNIAL CT", "postcode": "02048"}}},
{"geometry": {"type": "Point", "coordinates": [-71.1831356112, 42.0308613037]}, "type": "Feature", "properties": {"collection_times": [{"days": "Mon-Fri", "time": "3:00pm"}, {"days": "Sat", "time": "12:00pm"}, {"days": "Sun", "time": "Closed"}], "id": "0204800002", "name": "USPS COLLECTION BOX - BLUE BOX", "address": {"city": "MANSFIELD", "state": "MA", "street": "13 BONNEY LN", "postcode": "02048"}}},
{"geometry": {"type": "Point", "coordinates": [-71.2142866685, 42.0220918808]}, "type": "Feature", "properties": {"collection_times": [{"days": "Mon-Fri", "time": "4:15pm"}, {"days": "Sat", "time": "12:00pm"}, {"days": "Sun", "time": "Closed"}], "id": "0204800005", "name": "USPS COLLECTION BOX - BLUE BOX", "address": {"city": "MANSFIELD", "state": "MA", "street": "1 WILSON PL", "postcode": "02048"}}},
{"geometry": {"type": "Point", "coordinates": [-71.2152887578, 42.0229416674]}, "type": "Feature", "properties": {"collection_times": [{"days": "Mon-Fri", "time": "3:45pm"}, {"days": "Sat", "time": "12:00pm"}, {"days": "Sun", "time": "Closed"}], "id": "0204800007", "name": "USPS COLLECTION BOX - BLUE BOX", "address": {"city": "MANSFIELD", "state": "MA", "street": "660 EAST ST", "postcode": "02048"}}},
{"geometry": {"type": "Point", "coordinates": [-71.2377837824, 42.0314881239]}, "type": "Feature", "properties": {"collection_times": [{"days": "Mon-Fri", "time": "4:45pm"}, {"days": "Sat", "time": "12:00pm"}, {"days": "Sun", "time": "Closed"}], "id": "0204800008", "name": "USPS COLLECTION BOX - BLUE BOX", "address": {"city": "MANSFIELD", "state": "MA", "street": "100 FORBES BLVD", "postcode": "02048"}}},
{"geometry": {"type": "Point", "coordinates": [-71.2377837824, 42.0314881239]}, "type": "Feature", "properties": {"collection_times": [{"days": "Mon-Fri", "time": "4:45pm"}, {"days": "Sat", "time": "12:00pm"}, {"days": "Sun", "time": "Closed"}], "id": "0204800010", "name": "USPS COLLECTION BOX - BLUE BOX", "address": {"city": "MANSFIELD", "state": "MA", "street": "100 FORBES BLVD", "postcode": "02048"}}},
{"geometry": {"type": "Point", "coordinates": [-71.2152887581, 42.0229503118]}, "type": "Feature", "properties": {"collection_times": [{"days": "Mon-Fri", "time": "4:45pm"}, {"days": "Sat", "time": "12:00pm"}, {"days": "Sun", "time": "Closed"}], "id": "0204800011", "name": "USPS COLLECTION BOX - EXPRESS", "address": {"city": "MANSFIELD", "state": "MA", "street": "100 FORBES BLVD", "postcode": "02048"}}},
{"geometry": {"type": "Point", "coordinates": [-71.2099631046, 42.0403991159]}, "type": "Feature", "properties": {"collection_times": [{"days": "Mon-Fri", "time": "3:45pm"}, {"days": "Sat", "time": "12:00pm"}, {"days": "Sun", "time": "Closed"}], "id": "0204800012", "name": "USPS COLLECTION BOX - BLUE BOX", "address": {"city": "MANSFIELD", "state": "MA", "street": "501 FRANCIS AVE", "postcode": "02048"}}},
{"geometry": {"type": "Point", "coordinates": [-71.2310243549, 42.031512966]}, "type": "Feature", "properties": {"collection_times": [{"days": "Mon-Fri", "time": "5:00pm"}, {"days": "Sat", "time": "3:00pm"}, {"days": "Sun", "time": "Closed"}], "id": "0204800013", "name": "USPS COLLECTION BOX - BLUE BOX", "address": {"city": "MANSFIELD", "state": "MA", "street": "12 GILES PL", "postcode": "02048"}}},
{"geometry": {"type": "Point", "coordinates": [-71.2310243549, 42.031512966]}, "type": "Feature", "properties": {"collection_times": [{"days": "Mon-Fri", "time": "5:00pm"}, {"days": "Sat", "time": "3:00pm"}, {"days": "Sun", "time": "Closed"}], "id": "0204800014", "name": "USPS COLLECTION BOX - BLUE BOX", "address": {"city": "MANSFIELD", "state": "MA", "street": "12 GILES PL", "postcode": "02048"}}},
{"geometry": {"type": "Point", "coordinates": [-71.2310243549, 42.031512966]}, "type": "Feature", "properties": {"collection_times": [{"days": "Mon-Fri", "time": "5:00pm"}, {"days": "Sat", "time": "3:00pm"}, {"days": "Sun", "time": "Closed"}], "id": "0204800015", "name": "USPS COLLECTION BOX - BLUE BOX", "address": {"city": "MANSFIELD", "state": "MA", "street": "12 GILES PL", "postcode": "02048"}}},
{"geometry": {"type": "Point", "coordinates": [-71.2310243549, 42.031512966]}, "type": "Feature", "properties": {"collection_times": [{"days": "Mon-Fri", "time": "5:00pm"}, {"days": "Sat", "time": "3:00pm"}, {"days": "Sun", "time": "Closed"}], "id": "0204800016", "name": "USPS COLLECTION BOX - BLUE BOX", "address": {"city": "MANSFIELD", "state": "MA", "street": "12 GILES PL", "postcode": "02048"}}},
{"geometry": {"type": "Point", "coordinates": [-71.2152887581, 42.0229503118]}, "type": "Feature", "properties": {"collection_times": [{"days": "Mon-Fri", "time": "5:00pm"}, {"days": "Sat", "time": "3:00pm"}, {"days": "Sun", "time": "Closed"}], "id": "0204800017", "name": "USPS COLLECTION BOX - PO LOBBY", "address": {"city": "MANSFIELD", "state": "MA", "street": "12 GILES PL", "postcode": "02048"}}},
{"geometry": {"type": "Point", "coordinates": [-71.2152887581, 42.0229503118]}, "type": "Feature", "properties": {"collection_times": [{"days": "Mon-Fri", "time": "5:00pm"}, {"days": "Sat", "time": "3:00pm"}, {"days": "Sun", "time": "Closed"}], "id": "0204800018", "name": "USPS COLLECTION BOX - PO LOBBY", "address": {"city": "MANSFIELD", "state": "MA", "street": "12 GILES PL", "postcode": "02048"}}},
{"geometry": {"type": "Point", "coordinates": [-71.2106171298, 42.0334234448]}, "type": "Feature", "properties": {"collection_times": [{"days": "Mon-Fri", "time": "3:45pm"}, {"days": "Sat", "time": "12:00pm"}, {"days": "Sun", "time": "Closed"}], "id": "0204800020", "name": "USPS COLLECTION BOX - BLUE BOX", "address": {"city": "MANSFIELD", "state": "MA", "street": "255 HOPE ST", "postcode": "02048"}}},
{"geometry": {"type": "Point", "coordinates": [-71.2171790032, 42.0264321573]}, "type": "Feature", "properties": {"collection_times": [{"days": "Mon-Fri", "time": "4:15pm"}, {"days": "Sat", "time": "12:00pm"}, {"days": "Sun", "time": "Closed"}], "id": "0204800023", "name": "USPS COLLECTION BOX - BLUE BOX", "address": {"city": "MANSFIELD", "state": "MA", "street": "80 N MAIN ST", "postcode": "02048"}}},
{"geometry": {"type": "Point", "coordinates": [-71.2187192157, 42.0324179296]}, "type": "Feature", "properties": {"collection_times": [{"days": "Mon-Fri", "time": "3:45pm"}, {"days": "Sat", "time": "12:00pm"}, {"days": "Sun", "time": "Closed"}], "id": "0204800025", "name": "USPS COLLECTION BOX - BLUE BOX", "address": {"city": "MANSFIELD", "state": "MA", "street": "355 N MAIN ST", "postcode": "02048"}}},
{"geometry": {"type": "Point", "coordinates": [-71.2106435042, 41.9962187786]}, "type": "Feature", "properties": {"collection_times": [{"days": "Mon-Fri", "time": "4:30pm"}, {"days": "Sat", "time": "12:00pm"}, {"days": "Sun", "time": "Closed"}], "id": "0204800026", "name": "USPS COLLECTION BOX - BLUE BOX", "address": {"city": "MANSFIELD", "state": "MA", "street": "800 S MAIN ST", "postcode": "02048"}}},
{"geometry": {"type": "Point", "coordinates": [-71.2135817238, 42.037328631]}, "type": "Feature", "properties": {"collection_times": [{"days": "Mon-Fri", "time": "3:45pm"}, {"days": "Sat", "time": "12:00pm"}, {"days": "Sun", "time": "Closed"}], "id": "0204800029", "name": "USPS COLLECTION BOX - BLUE BOX", "address": {"city": "MANSFIELD", "state": "MA", "street": "10 SWETT ST", "postcode": "02048"}}},
{"geometry": {"type": "Point", "coordinates": [-71.2386920874, 42.0103516526]}, "type": "Feature", "properties": {"collection_times": [{"days": "Mon-Fri", "time": "4:30pm"}, {"days": "Sat", "time": "12:00pm"}, {"days": "Sun", "time": "Closed"}], "id": "0204800032", "name": "USPS COLLECTION BOX - BLUE BOX", "address": {"city": "MANSFIELD", "state": "MA", "street": "20 PLYMOUTH ST", "postcode": "02048"}}},
{"geometry": {"type": "Point", "coordinates": [-71.2146856962, 42.0334762963]}, "type": "Feature", "properties": {"collection_times": [{"days": "Mon-Fri", "time": "3:45pm"}, {"days": "Sat", "time": "12:00pm"}, {"days": "Sun", "time": "Closed"}], "id": "0204800034", "name": "USPS COLLECTION BOX - BLUE BOX", "address": {"city": "MANSFIELD", "state": "MA", "street": "72 PRATT ST", "postcode": "02048"}}},
{"geometry": {"type": "Point", "coordinates": [-71.2171790032, 42.0264321573]}, "type": "Feature", "properties": {"collection_times": [{"days": "Mon-Fri", "time": "4:15pm"}, {"days": "Sat", "time": "12:00pm"}, {"days": "Sun", "time": "Closed"}], "id": "0204800041", "name": "USPS COLLECTION BOX - BLUE BOX", "address": {"city": "MANSFIELD", "state": "MA", "street": "80 N MAIN ST", "postcode": "02048"}}},
{"geometry": {"type": "Point", "coordinates": [-71.2106435042, 41.9962187786]}, "type": "Feature", "properties": {"collection_times": [{"days": "Mon-Fri", "time": "4:30pm"}, {"days": "Sat", "time": "12:00pm"}, {"days": "Sun", "time": "Closed"}], "id": "0204800042", "name": "USPS COLLECTION BOX - BLUE BOX", "address": {"city": "MANSFIELD", "state": "MA", "street": "800 S MAIN ST", "postcode": "02048"}}},
{"geometry": {"type": "Point", "coordinates": [-71.2310243549, 42.031512966]}, "type": "Feature", "properties": {"collection_times": [{"days": "Mon-Fri", "time": "5:00pm"}, {"days": "Sat", "time": "3:00pm"}, {"days": "Sun", "time": "Closed"}], "id": "0204800043", "name": "USPS COLLECTION BOX - APC", "address": {"city": "MANSFIELD", "state": "MA", "street": "12 GILES PL", "postcode": "02048"}}},
{"geometry": {"type": "Point", "coordinates": [-70.7025930363, 42.0924732074]}, "type": "Feature", "properties": {"collection_times": [{"days": "Mon-Fri", "time": "2:00pm"}, {"days": "Sat", "time": "12:00pm"}, {"days": "Sun", "time": "Closed"}], "id": "0205000001", "name": "USPS COLLECTION BOX - BLUE BOX", "address": {"city": "MARSHFIELD", "state": "MA", "street": "1837 OCEAN ST # 15", "postcode": "02050"}}},
{"geometry": {"type": "Point", "coordinates": [-70.6765915637, 42.1016305652]}, "type": "Feature", "properties": {"collection_times": [{"days": "Mon-Fri", "time": "2:00pm"}, {"days": "Sat", "time": "12:00pm"}, {"days": "Sun", "time": "Closed"}], "id": "0205000005", "name": "USPS COLLECTION BOX - BLUE BOX", "address": {"city": "MARSHFIELD", "state": "MA", "street": "1185 OCEAN ST", "postcode": "02050"}}},
{"geometry": {"type": "Point", "coordinates": [-70.7595891284, 42.1071780337]}, "type": "Feature", "properties": {"collection_times": [{"days": "Mon-Fri", "time": "2:00pm"}, {"days": "Sat", "time": "12:00pm"}, {"days": "Sun", "time": "Closed"}], "id": "0205000006", "name": "USPS COLLECTION BOX - BLUE BOX", "address": {"city": "MARSHFIELD", "state": "MA", "street": "1020 PLAIN ST", "postcode": "02050"}}},
{"geometry": {"type": "Point", "coordinates": [-70.697146852, 42.1071609098]}, "type": "Feature", "properties": {"collection_times": [{"days": "Mon-Fri", "time": "2:00pm"}, {"days": "Sat", "time": "12:00pm"}, {"days": "Sun", "time": "Closed"}], "id": "0205000007", "name": "USPS COLLECTION BOX - BLUE BOX", "address": {"city": "MARSHFIELD", "state": "MA", "street": "769 PLAIN ST", "postcode": "02050"}}},
{"geometry": {"type": "Point", "coordinates": [-70.748355834, 42.1063355822]}, "type": "Feature", "properties": {"collection_times": [{"days": "Mon-Fri", "time": "2:00pm"}, {"days": "Sat", "time": "12:00pm"}, {"days": "Sun", "time": "Closed"}], "id": "0205000009", "name": "USPS COLLECTION BOX - BLUE BOX", "address": {"city": "MARSHFIELD", "state": "MA", "street": "760 PLAIN ST", "postcode": "02050"}}},
{"geometry": {"type": "Point", "coordinates": [-70.7567292241, 42.1073903218]}, "type": "Feature", "properties": {"collection_times": [{"days": "Mon-Fri", "time": "2:00pm"}, {"days": "Sat", "time": "12:00pm"}, {"days": "Sun", "time": "Closed"}], "id": "0205000011", "name": "USPS COLLECTION BOX - BLUE BOX", "address": {"city": "MARSHFIELD", "state": "MA", "street": "475 SCHOOL ST", "postcode": "02050"}}},
{"geometry": {"type": "Point", "coordinates": [-70.7084438228, 42.0907964161]}, "type": "Feature", "properties": {"collection_times": [{"days": "Mon-Fri", "time": "5:00pm"}, {"days": "Sat", "time": "2:45pm"}, {"days": "Sun", "time": "Closed"}], "id": "0205000012", "name": "USPS COLLECTION BOX - BLUE BOX", "address": {"city": "MARSHFIELD", "state": "MA", "street": "111 SNOW RD", "postcode": "02050"}}},
{"geometry": {"type": "Point", "coordinates": [-70.7084438228, 42.0907964161]}, "type": "Feature", "properties": {"collection_times": [{"days": "Mon-Fri", "time": "5:00pm"}, {"days": "Sat", "time": "2:45pm"}, {"days": "Sun", "time": "Closed"}], "id": "0205000013", "name": "USPS COLLECTION BOX - BLUE BOX", "address": {"city": "MARSHFIELD", "state": "MA", "street": "111 SNOW RD", "postcode": "02050"}}},
{"geometry": {"type": "Point", "coordinates": [-70.7084438228, 42.0907964161]}, "type": "Feature", "properties": {"collection_times": [{"days": "Mon-Fri", "time": "5:00pm"}, {"days": "Sat", "time": "2:45pm"}, {"days": "Sun", "time": "Closed"}], "id": "0205000015", "name": "USPS COLLECTION BOX - BLUE BOX", "address": {"city": "MARSHFIELD", "state": "MA", "street": "111 SNOW RD", "postcode": "02050"}}},
{"geometry": {"type": "Point", "coordinates": [-70.6971598872, 42.1071738984]}, "type": "Feature", "properties": {"collection_times": [{"days": "Mon-Fri", "time": "5:00pm"}, {"days": "Sat", "time": "2:45pm"}, {"days": "Sun", "time": "Closed"}], "id": "0205000016", "name": "USPS COLLECTION BOX - EXPRESS", "address": {"city": "MARSHFIELD", "state": "MA", "street": "111 SNOW RD", "postcode": "02050"}}},
{"geometry": {"type": "Point", "coordinates": [-70.6971598872, 42.1071738984]}, "type": "Feature", "properties": {"collection_times": [{"days": "Mon-Fri", "time": "5:00pm"}, {"days": "Sat", "time": "2:45pm"}, {"days": "Sun", "time": "Closed"}], "id": "0205000018", "name": "USPS COLLECTION BOX - PO LOBBY", "address": {"city": "MARSHFIELD", "state": "MA", "street": "111 SNOW RD", "postcode": "02050"}}},
{"geometry": {"type": "Point", "coordinates": [-70.6971598872, 42.1071738984]}, "type": "Feature", "properties": {"collection_times": [{"days": "Mon-Fri", "time": "5:00pm"}, {"days": "Sat", "time": "2:45pm"}, {"days": "Sun", "time": "Closed"}], "id": "0205000019", "name": "USPS COLLECTION BOX - PO LOBBY", "address": {"city": "MARSHFIELD", "state": "MA", "street": "111 SNOW RD", "postcode": "02050"}}},
{"geometry": {"type": "Point", "coordinates": [-70.6971598872, 42.1071738984]}, "type": "Feature", "properties": {"collection_times": [{"days": "Mon-Fri", "time": "5:00pm"}, {"days": "Sat", "time": "2:45pm"}, {"days": "Sun", "time": "Closed"}], "id": "0205000020", "name": "USPS COLLECTION BOX - PO LOBBY", "address": {"city": "MARSHFIELD", "state": "MA", "street": "111 SNOW RD", "postcode": "02050"}}},
{"geometry": {"type": "Point", "coordinates": [-70.6971598872, 42.1071738984]}, "type": "Feature", "properties": {"collection_times": [{"days": "Mon-Fri", "time": "5:00pm"}, {"days": "Sat", "time": "2:45pm"}, {"days": "Sun", "time": "Closed"}], "id": "0205000021", "name": "USPS COLLECTION BOX - PO LOBBY", "address": {"city": "MARSHFIELD", "state": "MA", "street": "111 SNOW RD", "postcode": "02050"}}},
{"geometry": {"type": "Point", "coordinates": [-71.289108823, 42.1949139049]}, "type": "Feature", "properties": {"collection_times": [{"days": "Mon-Fri", "time": "11:30am"}, {"days": "Sat", "time": "11:00am"}, {"days": "Sun", "time": "Closed"}], "id": "0205200002", "name": "USPS COLLECTION BOX - BLUE BOX", "address": {"city": "MEDFIELD", "state": "MA", "street": "230 MAIN ST", "postcode": "02052"}}},
{"geometry": {"type": "Point", "coordinates": [-71.2905331056, 42.1938776329]}, "type": "Feature", "properties": {"collection_times": [{"days": "Mon-Fri", "time": "4:30pm"}, {"days": "Sat", "time": "2:30pm"}, {"days": "Sun", "time": "Closed"}], "id": "0205200003", "name": "USPS COLLECTION BOX - BLUE BOX", "address": {"city": "MEDFIELD", "state": "MA", "street": "258 MAIN ST", "postcode": "02052"}}},
{"geometry": {"type": "Point", "coordinates": [-71.3055850755, 42.1865704953]}, "type": "Feature", "properties": {"collection_times": [{"days": "Mon-Fri", "time": "5:00pm"}, {"days": "Sat", "time": "2:30pm"}, {"days": "Sun", "time": "Closed"}], "id": "0205200008", "name": "USPS COLLECTION BOX - BLUE BOX", "address": {"city": "MEDFIELD", "state": "MA", "street": "478 MAIN ST", "postcode": "02052"}}},
{"geometry": {"type": "Point", "coordinates": [-71.3112383772, 42.1870515763]}, "type": "Feature", "properties": {"collection_times": [{"days": "Mon-Sat", "time": "12:00pm"}, {"days": "Sun", "time": "Closed"}], "id": "0205200010", "name": "USPS COLLECTION BOX - BLUE BOX", "address": {"city": "MEDFIELD", "state": "MA", "street": "12 N MEADOWS RD", "postcode": "02052"}}},
{"geometry": {"type": "Point", "coordinates": [-71.4058442401, 42.146197068]}, "type": "Feature", "properties": {"collection_times": [{"days": "Mon-Sat", "time": "9:00am"}, {"days": "Sun", "time": "Closed"}], "id": "0205300002", "name": "USPS COLLECTION BOX - BLUE BOX", "address": {"city": "MEDWAY", "state": "MA", "street": "7 KENNEY DR", "postcode": "02053"}}},
{"geometry": {"type": "Point", "coordinates": [-71.4203164868, 42.1595693457]}, "type": "Feature", "properties": {"collection_times": [{"days": "Mon-Sat", "time": "9:00am"}, {"days": "Sun", "time": "Closed"}], "id": "0205300003", "name": "USPS COLLECTION BOX - BLUE BOX", "address": {"city": "MEDWAY", "state": "MA", "street": "13 LOVERING HTS", "postcode": "02053"}}},
{"geometry": {"type": "Point", "coordinates": [-71.4173583589, 42.1497899904]}, "type": "Feature", "properties": {"collection_times": [{"days": "Mon-Fri", "time": "5:00pm"}, {"days": "Sat", "time": "2:00pm"}, {"days": "Sun", "time": "Closed"}], "id": "0205300005", "name": "USPS COLLECTION BOX - BLUE BOX", "address": {"city": "MEDWAY", "state": "MA", "street": "115 MAIN ST", "postcode": "02053"}}},
{"geometry": {"type": "Point", "coordinates": [-71.4173583589, 42.1497899904]}, "type": "Feature", "properties": {"collection_times": [{"days": "Mon-Fri", "time": "5:00pm"}, {"days": "Sat", "time": "2:00pm"}, {"days": "Sun", "time": "Closed"}], "id": "0205300006", "name": "USPS COLLECTION BOX - BLUE BOX", "address": {"city": "MEDWAY", "state": "MA", "street": "115 MAIN ST", "postcode": "02053"}}},
{"geometry": {"type": "Point", "coordinates": [-71.4173583589, 42.1497899904]}, "type": "Feature", "properties": {"collection_times": [{"days": "Mon-Fri", "time": "5:00pm"}, {"days": "Sat", "time": "2:00pm"}, {"days": "Sun", "time": "Closed"}], "id": "0205300007", "name": "USPS COLLECTION BOX - BLUE BOX", "address": {"city": "MEDWAY", "state": "MA", "street": "115 MAIN ST", "postcode": "02053"}}},
{"geometry": {"type": "Point", "coordinates": [-71.3968143603, 42.1400989541]}, "type": "Feature", "properties": {"collection_times": [{"days": "Mon-Fri", "time": "5:00pm"}, {"days": "Sat", "time": "12:00pm"}, {"days": "Sun", "time": "Closed"}], "id": "0205300010", "name": "USPS COLLECTION BOX - BLUE BOX", "address": {"city": "MEDWAY", "state": "MA", "street": "137 VILLAGE ST", "postcode": "02053"}}},
{"geometry": {"type": "Point", "coordinates": [-71.3980844328, 42.140238325]}, "type": "Feature", "properties": {"collection_times": [{"days": "Mon-Fri", "time": "4:45pm"}, {"days": "Sat", "time": "12:00pm"}, {"days": "Sun", "time": "Closed"}], "id": "0205300012", "name": "USPS COLLECTION BOX - BLUE BOX", "address": {"city": "MEDWAY", "state": "MA", "street": "155 VILLAGE ST", "postcode": "02053"}}},
{"geometry": {"type": "Point", "coordinates": [-71.4201470774, 42.1500938627]}, "type": "Feature", "properties": {"collection_times": [{"days": "Mon-Fri", "time": "5:00pm"}, {"days": "Sat", "time": "2:00pm"}, {"days": "Sun", "time": "Closed"}], "id": "0205300015", "name": "USPS COLLECTION BOX - PO LOBBY", "address": {"city": "MEDWAY", "state": "MA", "street": "115 MAIN ST", "postcode": "02053"}}},
{"geometry": {"type": "Point", "coordinates": [-71.4201470774, 42.1500938627]}, "type": "Feature", "properties": {"collection_times": [{"days": "Mon-Fri", "time": "5:00pm"}, {"days": "Sat", "time": "2:00pm"}, {"days": "Sun", "time": "Closed"}], "id": "0205300016", "name": "USPS COLLECTION BOX - PO LOBBY", "address": {"city": "MEDWAY", "state": "MA", "street": "115 MAIN ST", "postcode": "02053"}}},
{"geometry": {"type": "Point", "coordinates": [-71.3968143603, 42.1400989541]}, "type": "Feature", "properties": {"collection_times": [{"days": "Mon-Fri", "time": "12:00pm"}, {"days": "Sat-Sun", "time": "Closed"}], "id": "0205300019", "name": "USPS COLLECTION BOX - PO LOBBY", "address": {"city": "MEDWAY", "state": "MA", "street": "137 VILLAGE ST", "postcode": "02053"}}},
{"geometry": {"type": "Point", "coordinates": [-71.3968143603, 42.1400989541]}, "type": "Feature", "properties": {"collection_times": [{"days": "Mon-Fri", "time": "12:00pm"}, {"days": "Sat-Sun", "time": "Closed"}], "id": "0205300020", "name": "USPS COLLECTION BOX - PO LOBBY", "address": {"city": "MEDWAY", "state": "MA", "street": "137 VILLAGE ST", "postcode": "02053"}}},
{"geometry": {"type": "Point", "coordinates": [-71.3597630344, 42.1698063895]}, "type": "Feature", "properties": {"collection_times": [{"days": "Mon-Fri", "time": "4:00pm"}, {"days": "Sat", "time": "2:00pm"}, {"days": "Sun", "time": "Closed"}], "id": "0205400002", "name": "USPS COLLECTION BOX - BLUE BOX", "address": {"city": "MILLIS", "state": "MA", "street": "128 EXCHANGE ST", "postcode": "02054"}}},
{"geometry": {"type": "Point", "coordinates": [-71.360450895, 42.1764614347]}, "type": "Feature", "properties": {"collection_times": [{"days": "Mon-Fri", "time": "4:00pm"}, {"days": "Sat", "time": "2:00pm"}, {"days": "Sun", "time": "Closed"}], "id": "0205400003", "name": "USPS COLLECTION BOX - BLUE BOX", "address": {"city": "MILLIS", "state": "MA", "street": "310 EXCHANGE ST", "postcode": "02054"}}},
{"geometry": {"type": "Point", "coordinates": [-71.3588694651, 42.1667439695]}, "type": "Feature", "properties": {"collection_times": [{"days": "Mon-Fri", "time": "5:00pm"}, {"days": "Sat", "time": "3:15pm"}, {"days": "Sun", "time": "Closed"}], "id": "0205400010", "name": "USPS COLLECTION BOX - PO LOBBY", "address": {"city": "MILLIS", "state": "MA", "street": "1116 MAIN ST", "postcode": "02054"}}},
{"geometry": {"type": "Point", "coordinates": [-71.3588694651, 42.1667439695]}, "type": "Feature", "properties": {"collection_times": [{"days": "Mon-Fri", "time": "5:00pm"}, {"days": "Sat", "time": "3:15pm"}, {"days": "Sun", "time": "Closed"}], "id": "0205400011", "name": "USPS COLLECTION BOX - BLUE BOX", "address": {"city": "MILLIS", "state": "MA", "street": "1116 MAIN ST", "postcode": "02054"}}},
{"geometry": {"type": "Point", "coordinates": [-71.3588694651, 42.1667439695]}, "type": "Feature", "properties": {"collection_times": [{"days": "Mon-Fri", "time": "5:00pm"}, {"days": "Sat", "time": "3:15pm"}, {"days": "Sun", "time": "Closed"}], "id": "0205400012", "name": "USPS COLLECTION BOX - BLUE BOX", "address": {"city": "MILLIS", "state": "MA", "street": "1116 MAIN ST", "postcode": "02054"}}},
{"geometry": {"type": "Point", "coordinates": [-71.3588694651, 42.1667439695]}, "type": "Feature", "properties": {"collection_times": [{"days": "Mon-Fri", "time": "5:00pm"}, {"days": "Sat", "time": "3:15pm"}, {"days": "Sun", "time": "Closed"}], "id": "0205400013", "name": "USPS COLLECTION BOX - EXPRESS", "address": {"city": "MILLIS", "state": "MA", "street": "1116 MAIN ST", "postcode": "02054"}}},
{"geometry": {"type": "Point", "coordinates": [-71.3528009514, 42.1676884746]}, "type": "Feature", "properties": {"collection_times": [{"days": "Mon-Fri", "time": "4:00pm"}, {"days": "Sat", "time": "2:00pm"}, {"days": "Sun", "time": "Closed"}], "id": "0205400014", "name": "USPS COLLECTION BOX - BLUE BOX", "address": {"city": "MILLIS", "state": "MA", "street": "24 MILLISTON RD", "postcode": "02054"}}},
{"geometry": {"type": "Point", "coordinates": [-71.3588694651, 42.1667439695]}, "type": "Feature", "properties": {"collection_times": [{"days": "Mon-Fri", "time": "4:00pm"}, {"days": "Sat", "time": "2:00pm"}, {"days": "Sun", "time": "Closed"}], "id": "0205400015", "name": "USPS COLLECTION BOX - BLUE BOX", "address": {"city": "MILLIS", "state": "MA", "street": "900 MAIN ST", "postcode": "02054"}}},
{"geometry": {"type": "Point", "coordinates": [-70.7618961238, 42.2404005027]}, "type": "Feature", "properties": {"collection_times": [{"days": "Mon-Sat", "time": "12:00pm"}, {"days": "Sun", "time": "Closed"}], "id": "0205500001", "name": "USPS COLLECTION BOX - BLUE BOX", "address": {"city": "SCITUATE", "state": "MA", "street": "76 GLADES RD", "postcode": "02055"}}},
{"geometry": {"type": "Point", "coordinates": [-71.3307460869, 42.1194903974]}, "type": "Feature", "properties": {"collection_times": [{"days": "Mon-Fri", "time": "4:45pm"}, {"days": "Sat", "time": "12:45pm"}, {"days": "Sun", "time": "Closed"}], "id": "0205600001", "name": "USPS COLLECTION BOX - BLUE BOX", "address": {"city": "NORFOLK", "state": "MA", "street": "208 MAIN ST", "postcode": "02056"}}},
{"geometry": {"type": "Point", "coordinates": [-71.3326386666, 42.1148428331]}, "type": "Feature", "properties": {"collection_times": [{"days": "Mon-Fri", "time": "4:45pm"}, {"days": "Sat", "time": "12:45pm"}, {"days": "Sun", "time": "Closed"}], "id": "0205600003", "name": "USPS COLLECTION BOX - PO LOBBY", "address": {"city": "NORFOLK", "state": "MA", "street": "208 MAIN ST", "postcode": "02056"}}},
{"geometry": {"type": "Point", "coordinates": [-71.3326386666, 42.1148428331]}, "type": "Feature", "properties": {"collection_times": [{"days": "Mon-Fri", "time": "4:45pm"}, {"days": "Sat", "time": "12:45pm"}, {"days": "Sun", "time": "Closed"}], "id": "0205600004", "name": "USPS COLLECTION BOX - PO LOBBY", "address": {"city": "NORFOLK", "state": "MA", "street": "208 MAIN ST", "postcode": "02056"}}},
{"geometry": {"type": "Point", "coordinates": [-71.3326386666, 42.1148428331]}, "type": "Feature", "properties": {"collection_times": [{"days": "Mon-Fri", "time": "4:45pm"}, {"days": "Sat", "time": "12:45pm"}, {"days": "Sun", "time": "Closed"}], "id": "0205600007", "name": "USPS COLLECTION BOX - PO LOBBY", "address": {"city": "NORFOLK", "state": "MA", "street": "208 MAIN ST", "postcode": "02056"}}},
{"geometry": {"type": "Point", "coordinates": [-71.3326386664, 42.1148428792]}, "type": "Feature", "properties": {"collection_times": [{"days": "Mon-Sat", "time": "1:30pm"}, {"days": "Sun", "time": "Closed"}], "id": "0205600008", "name": "USPS COLLECTION BOX - BLUE BOX", "address": {"city": "NORFOLK", "state": "MA", "street": "206 DEDHAM ST", "postcode": "02056"}}},
{"geometry": {"type": "Point", "coordinates": [-71.3272571381, 42.1223274805]}, "type": "Feature", "properties": {"collection_times": [{"days": "Mon-Sat", "time": "1:30pm"}, {"days": "Sun", "time": "Closed"}], "id": "0205600009", "name": "USPS COLLECTION BOX - BLUE BOX", "address": {"city": "NORFOLK", "state": "MA", "street": "33 ROCKWOOD RD", "postcode": "02056"}}},
{"geometry": {"type": "Point", "coordinates": [-71.3272111692, 42.1192748189]}, "type": "Feature", "properties": {"collection_times": [{"days": "Mon-Sat", "time": "1:30pm"}, {"days": "Sun", "time": "Closed"}], "id": "0205600010", "name": "USPS COLLECTION BOX - BLUE BOX", "address": {"city": "NORFOLK", "state": "MA", "street": "148 MAIN ST", "postcode": "02056"}}},
{"geometry": {"type": "Point", "coordinates": [-71.3272111692, 42.1192748189]}, "type": "Feature", "properties": {"collection_times": [{"days": "Mon-Sat", "time": "1:30pm"}, {"days": "Sun", "time": "Closed"}], "id": "0205600012", "name": "USPS COLLECTION BOX - BLUE BOX", "address": {"city": "NORFOLK", "state": "MA", "street": "148 MAIN ST", "postcode": "02056"}}},
{"geometry": {"type": "Point", "coordinates": [-71.3250522696, 42.1181935204]}, "type": "Feature", "properties": {"collection_times": [{"days": "Mon-Sat", "time": "1:30pm"}, {"days": "Sun", "time": "Closed"}], "id": "0205600013", "name": "USPS COLLECTION BOX - BLUE BOX", "address": {"city": "NORFOLK", "state": "MA", "street": "1 LIBERTY LN", "postcode": "02056"}}},
{"geometry": {"type": "Point", "coordinates": [-71.3250522696, 42.1181935204]}, "type": "Feature", "properties": {"collection_times": [{"days": "Mon-Sat", "time": "1:30pm"}, {"days": "Sun", "time": "Closed"}], "id": "0205600014", "name": "USPS COLLECTION BOX - BLUE BOX", "address": {"city": "NORFOLK", "state": "MA", "street": "1 LIBERTY LN", "postcode": "02056"}}},
{"geometry": {"type": "Point", "coordinates": [-70.7639469, 42.145032265]}, "type": "Feature", "properties": {"collection_times": [{"days": "Mon-Fri", "time": "4:45pm"}, {"days": "Sat", "time": "11:45am"}, {"days": "Sun", "time": "Closed"}], "id": "0205900001", "name": "USPS COLLECTION BOX - BLUE BOX", "address": {"city": "N MARSHFIELD", "state": "MA", "street": "647 HIGHLAND ST", "postcode": "02059"}}},
{"geometry": {"type": "Point", "coordinates": [-70.7639469, 42.145032265]}, "type": "Feature", "properties": {"collection_times": [{"days": "Mon-Fri", "time": "4:45pm"}, {"days": "Sat", "time": "11:45am"}, {"days": "Sun", "time": "Closed"}], "id": "0205900003", "name": "USPS COLLECTION BOX - PO LOBBY", "address": {"city": "N MARSHFIELD", "state": "MA", "street": "647 HIGHLAND ST", "postcode": "02059"}}},
{"geometry": {"type": "Point", "coordinates": [-70.7639469, 42.145032265]}, "type": "Feature", "properties": {"collection_times": [{"days": "Mon-Fri", "time": "4:45pm"}, {"days": "Sat", "time": "11:45am"}, {"days": "Sun", "time": "Closed"}], "id": "0205900004", "name": "USPS COLLECTION BOX - PO LOBBY", "address": {"city": "N MARSHFIELD", "state": "MA", "street": "647 HIGHLAND ST", "postcode": "02059"}}},
{"geometry": {"type": "Point", "coordinates": [-70.7847769226, 42.2193402617]}, "type": "Feature", "properties": {"collection_times": [{"days": "Mon-Fri", "time": "5:00pm"}, {"days": "Sat", "time": "12:00pm"}, {"days": "Sun", "time": "Closed"}], "id": "0206000001", "name": "USPS COLLECTION BOX - BLUE BOX", "address": {"city": "SCITUATE", "state": "MA", "street": "367 GANNETT RD", "postcode": "02060"}}},
{"geometry": {"type": "Point", "coordinates": [-70.7847769226, 42.2193402617]}, "type": "Feature", "properties": {"collection_times": [{"days": "Mon-Fri", "time": "4:30pm"}, {"days": "Sat", "time": "1:00pm"}, {"days": "Sun", "time": "Closed"}], "id": "0206000005", "name": "USPS COLLECTION BOX - PO LOBBY", "address": {"city": "SCITUATE", "state": "MA", "street": "367 GANNETT RD", "postcode": "02060"}}},
{"geometry": {"type": "Point", "coordinates": [-70.7847769226, 42.2193402617]}, "type": "Feature", "properties": {"collection_times": [{"days": "Mon-Fri", "time": "4:30pm"}, {"days": "Sat", "time": "1:00pm"}, {"days": "Sun", "time": "Closed"}], "id": "0206000006", "name": "USPS COLLECTION BOX - PO LOBBY", "address": {"city": "SCITUATE", "state": "MA", "street": "367 GANNETT RD", "postcode": "02060"}}},
{"geometry": {"type": "Point", "coordinates": [-70.884852707, 42.1693336003]}, "type": "Feature", "properties": {"collection_times": [{"days": "Mon-Fri", "time": "5:00pm"}, {"days": "Sat", "time": "11:00am"}, {"days": "Sun", "time": "Closed"}], "id": "0206100002", "name": "USPS COLLECTION BOX - BLUE BOX", "address": {"city": "NORWELL", "state": "MA", "street": "17 ACCORD PARK DR", "postcode": "02061"}}},
{"geometry": {"type": "Point", "coordinates": [-70.7898079346, 42.1601490023]}, "type": "Feature", "properties": {"collection_times": [{"days": "Mon-Fri", "time": "5:00pm"}, {"days": "Sat", "time": "2:30pm"}, {"days": "Sun", "time": "Closed"}], "id": "0206100007", "name": "USPS COLLECTION BOX - BLUE BOX", "address": {"city": "NORWELL", "state": "MA", "street": "18 DOVER ST", "postcode": "02061"}}},
{"geometry": {"type": "Point", "coordinates": [-70.7898079346, 42.1601490023]}, "type": "Feature", "properties": {"collection_times": [{"days": "Mon-Fri", "time": "5:00pm"}, {"days": "Sat", "time": "2:30pm"}, {"days": "Sun", "time": "Closed"}], "id": "0206100008", "name": "USPS COLLECTION BOX - BLUE BOX", "address": {"city": "NORWELL", "state": "MA", "street": "18 DOVER ST", "postcode": "02061"}}},
{"geometry": {"type": "Point", "coordinates": [-70.826528081, 42.1610041715]}, "type": "Feature", "properties": {"collection_times": [{"days": "Mon-Fri", "time": "5:00pm"}, {"days": "Sat", "time": "2:30pm"}, {"days": "Sun", "time": "Closed"}], "id": "0206100009", "name": "USPS COLLECTION BOX - PO LOBBY", "address": {"city": "NORWELL", "state": "MA", "street": "18 DOVER ST", "postcode": "02061"}}},
{"geometry": {"type": "Point", "coordinates": [-70.826528081, 42.1610041715]}, "type": "Feature", "properties": {"collection_times": [{"days": "Mon-Fri", "time": "5:00pm"}, {"days": "Sat", "time": "2:30pm"}, {"days": "Sun", "time": "Closed"}], "id": "0206100010", "name": "USPS COLLECTION BOX - PO LOBBY", "address": {"city": "NORWELL", "state": "MA", "street": "18 DOVER ST", "postcode": "02061"}}},
{"geometry": {"type": "Point", "coordinates": [-70.882807371, 42.1739010048]}, "type": "Feature", "properties": {"collection_times": [{"days": "Mon-Fri", "time": "5:00pm"}, {"days": "Sat", "time": "11:00am"}, {"days": "Sun", "time": "Closed"}], "id": "0206100012", "name": "USPS COLLECTION BOX - BLUE BOX", "address": {"city": "NORWELL", "state": "MA", "street": "10 WASHINGTON ST", "postcode": "02061"}}},
{"geometry": {"type": "Point", "coordinates": [-71.1779242637, 42.1851082908]}, "type": "Feature", "properties": {"collection_times": [{"days": "Mon-Fri", "time": "3:30pm"}, {"days": "Sat", "time": "12:00pm"}, {"days": "Sun", "time": "Closed"}], "id": "0206200001", "name": "USPS COLLECTION BOX - BLUE BOX", "address": {"city": "NORWOOD", "state": "MA", "street": "101 ACCESS RD", "postcode": "02062"}}},
{"geometry": {"type": "Point", "coordinates": [-71.1779242637, 42.1851082908]}, "type": "Feature", "properties": {"collection_times": [{"days": "Mon-Fri", "time": "3:30pm"}, {"days": "Sat", "time": "12:00pm"}, {"days": "Sun", "time": "Closed"}], "id": "0206200002", "name": "USPS COLLECTION BOX - BLUE BOX", "address": {"city": "NORWOOD", "state": "MA", "street": "101 ACCESS RD", "postcode": "02062"}}},
{"geometry": {"type": "Point", "coordinates": [-71.2032183325, 42.1852015535]}, "type": "Feature", "properties": {"collection_times": [{"days": "Mon-Fri", "time": "3:30pm"}, {"days": "Sat-Sun", "time": "Closed"}], "id": "0206200009", "name": "USPS COLLECTION BOX - BLUE BOX", "address": {"city": "NORWOOD", "state": "MA", "street": "670 CANTON ST", "postcode": "02062"}}},
{"geometry": {"type": "Point", "coordinates": [-71.2024764403, 42.1903515481]}, "type": "Feature", "properties": {"collection_times": [{"days": "Mon-Fri", "time": "5:00pm"}, {"days": "Sat", "time": "4:30pm"}, {"days": "Sun", "time": "Closed"}], "id": "0206200012", "name": "USPS COLLECTION BOX - BLUE BOX", "address": {"city": "NORWOOD", "state": "MA", "street": "1 CENTRAL ST", "postcode": "02062"}}},
{"geometry": {"type": "Point", "coordinates": [-71.2024764403, 42.1903515481]}, "type": "Feature", "properties": {"collection_times": [{"days": "Mon-Fri", "time": "5:00pm"}, {"days": "Sat", "time": "4:30pm"}, {"days": "Sun", "time": "Closed"}], "id": "0206200013", "name": "USPS COLLECTION BOX - BLUE BOX", "address": {"city": "NORWOOD", "state": "MA", "street": "1 CENTRAL ST", "postcode": "02062"}}},
{"geometry": {"type": "Point", "coordinates": [-71.201827197, 42.190573482]}, "type": "Feature", "properties": {"collection_times": [{"days": "Mon-Fri", "time": "5:00pm"}, {"days": "Sat", "time": "4:30pm"}, {"days": "Sun", "time": "Closed"}], "id": "0206200014", "name": "USPS COLLECTION BOX - BLUE BOX", "address": {"city": "NORWOOD", "state": "MA", "street": "1 CENTRAL ST", "postcode": "02062"}}},
{"geometry": {"type": "Point", "coordinates": [-71.2024764403, 42.1903515481]}, "type": "Feature", "properties": {"collection_times": [{"days": "Mon-Fri", "time": "5:00pm"}, {"days": "Sat", "time": "4:30pm"}, {"days": "Sun", "time": "Closed"}], "id": "0206200015", "name": "USPS COLLECTION BOX - BLUE BOX", "address": {"city": "NORWOOD", "state": "MA", "street": "1 CENTRAL ST", "postcode": "02062"}}},
{"geometry": {"type": "Point", "coordinates": [-71.2032270228, 42.1852101972]}, "type": "Feature", "properties": {"collection_times": [{"days": "Mon-Fri", "time": "5:00pm"}, {"days": "Sat", "time": "4:30pm"}, {"days": "Sun", "time": "Closed"}], "id": "0206200016", "name": "USPS COLLECTION BOX - PO LOBBY", "address": {"city": "NORWOOD", "state": "MA", "street": "1 CENTRAL ST", "postcode": "02062"}}},
{"geometry": {"type": "Point", "coordinates": [-71.2032270228, 42.1852101972]}, "type": "Feature", "properties": {"collection_times": [{"days": "Mon-Fri", "time": "5:00pm"}, {"days": "Sat", "time": "4:30pm"}, {"days": "Sun", "time": "Closed"}], "id": "0206200017", "name": "USPS COLLECTION BOX - PO LOBBY", "address": {"city": "NORWOOD", "state": "MA", "street": "1 CENTRAL ST", "postcode": "02062"}}},
{"geometry": {"type": "Point", "coordinates": [-71.2032270228, 42.1852101972]}, "type": "Feature", "properties": {"collection_times": [{"days": "Mon-Fri", "time": "5:00pm"}, {"days": "Sat", "time": "4:30pm"}, {"days": "Sun", "time": "Closed"}], "id": "0206200018", "name": "USPS COLLECTION BOX - PO LOBBY", "address": {"city": "NORWOOD", "state": "MA", "street": "1 CENTRAL ST", "postcode": "02062"}}},
{"geometry": {"type": "Point", "coordinates": [-71.2032270228, 42.1852101972]}, "type": "Feature", "properties": {"collection_times": [{"days": "Mon-Fri", "time": "5:00pm"}, {"days": "Sat", "time": "4:30pm"}, {"days": "Sun", "time": "Closed"}], "id": "0206200019", "name": "USPS COLLECTION BOX - PO LOBBY", "address": {"city": "NORWOOD", "state": "MA", "street": "1 CENTRAL ST", "postcode": "02062"}}},
{"geometry": {"type": "Point", "coordinates": [-71.193163273, 42.1795517003]}, "type": "Feature", "properties": {"collection_times": [{"days": "Mon-Fri", "time": "9:30am"}, {"days": "Sat-Sun", "time": "Closed"}], "id": "0206200023", "name": "USPS COLLECTION BOX - BLUE BOX", "address": {"city": "NORWOOD", "state": "MA", "street": "50 KERRY PL", "postcode": "02062"}}},
{"geometry": {"type": "Point", "coordinates": [-71.2032183325, 42.1852015535]}, "type": "Feature", "properties": {"collection_times": [{"days": "Mon-Fri", "time": "10:00am"}, {"days": "Sat-Sun", "time": "Closed"}], "id": "0206200025", "name": "USPS COLLECTION BOX - BLUE BOX", "address": {"city": "NORWOOD", "state": "MA", "street": "601 LANDSDOWNE WAY", "postcode": "02062"}}},
{"geometry": {"type": "Point", "coordinates": [-71.2004802165, 42.19485252]}, "type": "Feature", "properties": {"collection_times": [{"days": "Mon-Fri", "time": "10:00am"}, {"days": "Sat", "time": "12:00pm"}, {"days": "Sun", "time": "Closed"}], "id": "0206200026", "name": "USPS COLLECTION BOX - BLUE BOX", "address": {"city": "NORWOOD", "state": "MA", "street": "134 NAHATAN ST", "postcode": "02062"}}},
{"geometry": {"type": "Point", "coordinates": [-71.1852873087, 42.1879008767]}, "type": "Feature", "properties": {"collection_times": [{"days": "Mon-Fri", "time": "10:00am"}, {"days": "Sat-Sun", "time": "Closed"}], "id": "0206200029", "name": "USPS COLLECTION BOX - BLUE BOX", "address": {"city": "NORWOOD", "state": "MA", "street": "86 NAHATAN ST", "postcode": "02062"}}},
{"geometry": {"type": "Point", "coordinates": [-71.1992289938, 42.1686162008]}, "type": "Feature", "properties": {"collection_times": [{"days": "Mon-Fri", "time": "10:00am"}, {"days": "Sat-Sun", "time": "Closed"}], "id": "0206200030", "name": "USPS COLLECTION BOX - BLUE BOX", "address": {"city": "NORWOOD", "state": "MA", "street": "315 NORWOOD PARK S", "postcode": "02062"}}},
{"geometry": {"type": "Point", "coordinates": [-71.1986502856, 42.1647929315]}, "type": "Feature", "properties": {"collection_times": [{"days": "Mon-Fri", "time": "3:30pm"}, {"days": "Sat-Sun", "time": "Closed"}], "id": "0206200032", "name": "USPS COLLECTION BOX - BLUE BOX", "address": {"city": "NORWOOD", "state": "MA", "street": "1418 PROVIDENCE HWY", "postcode": "02062"}}},
{"geometry": {"type": "Point", "coordinates": [-71.1986502856, 42.1647929315]}, "type": "Feature", "properties": {"collection_times": [{"days": "Mon-Fri", "time": "3:30pm"}, {"days": "Sat-Sun", "time": "Closed"}], "id": "0206200033", "name": "USPS COLLECTION BOX - BLUE BOX", "address": {"city": "NORWOOD", "state": "MA", "street": "1418 PROVIDENCE HWY", "postcode": "02062"}}},
{"geometry": {"type": "Point", "coordinates": [-71.1884634181, 42.1928023657]}, "type": "Feature", "properties": {"collection_times": [{"days": "Mon-Fri", "time": "10:00am"}, {"days": "Sat", "time": "12:00pm"}, {"days": "Sun", "time": "Closed"}], "id": "0206200034", "name": "USPS COLLECTION BOX - BLUE BOX", "address": {"city": "NORWOOD", "state": "MA", "street": "213 ROCK ST", "postcode": "02062"}}},
{"geometry": {"type": "Point", "coordinates": [-71.1588273293, 42.1982486761]}, "type": "Feature", "properties": {"collection_times": [{"days": "Mon-Fri", "time": "10:00am"}, {"days": "Sat-Sun", "time": "Closed"}], "id": "0206200036", "name": "USPS COLLECTION BOX - BLUE BOX", "address": {"city": "NORWOOD", "state": "MA", "street": "428 UNIVERSITY AVE", "postcode": "02062"}}},
{"geometry": {"type": "Point", "coordinates": [-71.1939571263, 42.1726549965]}, "type": "Feature", "properties": {"collection_times": [{"days": "Mon-Fri", "time": "10:00am"}, {"days": "Sat-Sun", "time": "Closed"}], "id": "0206200040", "name": "USPS COLLECTION BOX - BLUE BOX", "address": {"city": "NORWOOD", "state": "MA", "street": "40 VANDERBILT AVE", "postcode": "02062"}}},
{"geometry": {"type": "Point", "coordinates": [-71.1939571263, 42.1726549965]}, "type": "Feature", "properties": {"collection_times": [{"days": "Mon-Fri", "time": "10:00am"}, {"days": "Sat-Sun", "time": "Closed"}], "id": "0206200041", "name": "USPS COLLECTION BOX - BLUE BOX", "address": {"city": "NORWOOD", "state": "MA", "street": "40 VANDERBILT AVE", "postcode": "02062"}}},
{"geometry": {"type": "Point", "coordinates": [-71.1948585197, 42.1859407348]}, "type": "Feature", "properties": {"collection_times": [{"days": "Mon-Fri", "time": "10:00am"}, {"days": "Sat", "time": "12:00pm"}, {"days": "Sun", "time": "Closed"}], "id": "0206200043", "name": "USPS COLLECTION BOX - BLUE BOX", "address": {"city": "NORWOOD", "state": "MA", "street": "1415 PROVIDENCE HIGHWAY (STOP&SHOP)", "postcode": "02062"}}},
{"geometry": {"type": "Point", "coordinates": [-71.220907056, 42.1798433478]}, "type": "Feature", "properties": {"collection_times": [{"days": "Mon-Fri", "time": "10:00am"}, {"days": "Sat", "time": "12:00pm"}, {"days": "Sun", "time": "Closed"}], "id": "0206200046", "name": "USPS COLLECTION BOX - BLUE BOX", "address": {"city": "NORWOOD", "state": "MA", "street": "444 WALPOLE ST", "postcode": "02062"}}},
{"geometry": {"type": "Point", "coordinates": [-71.1983750667, 42.1982152483]}, "type": "Feature", "properties": {"collection_times": [{"days": "Mon-Fri", "time": "3:30pm"}, {"days": "Sat-Sun", "time": "Closed"}], "id": "0206200048", "name": "USPS COLLECTION BOX - BLUE BOX", "address": {"city": "NORWOOD", "state": "MA", "street": "470 WASHINGTON ST", "postcode": "02062"}}},
{"geometry": {"type": "Point", "coordinates": [-71.1985521857, 42.1977845862]}, "type": "Feature", "properties": {"collection_times": [{"days": "Mon-Fri", "time": "10:00am"}, {"days": "Sat", "time": "12:00pm"}, {"days": "Sun", "time": "Closed"}], "id": "0206200049", "name": "USPS COLLECTION BOX - BLUE BOX", "address": {"city": "NORWOOD", "state": "MA", "street": "500 WASHINGTON ST", "postcode": "02062"}}},
{"geometry": {"type": "Point", "coordinates": [-71.202743668, 42.1892562894]}, "type": "Feature", "properties": {"collection_times": [{"days": "Mon-Fri", "time": "3:30pm"}, {"days": "Sat-Sun", "time": "Closed"}], "id": "0206200056", "name": "USPS COLLECTION BOX - BLUE BOX", "address": {"city": "NORWOOD", "state": "MA", "street": "825 WASHINGTON ST", "postcode": "02062"}}},
{"geometry": {"type": "Point", "coordinates": [-71.2072836463, 42.1756286911]}, "type": "Feature", "properties": {"collection_times": [{"days": "Mon-Fri", "time": "10:00am"}, {"days": "Sat", "time": "12:00pm"}, {"days": "Sun", "time": "Closed"}], "id": "0206200058", "name": "USPS COLLECTION BOX - BLUE BOX", "address": {"city": "NORWOOD", "state": "MA", "street": "1237 WASHINGTON ST", "postcode": "02062"}}},
{"geometry": {"type": "Point", "coordinates": [-71.2051302219, 42.179893873]}, "type": "Feature", "properties": {"collection_times": [{"days": "Mon-Fri", "time": "10:00am"}, {"days": "Sat-Sun", "time": "Closed"}], "id": "0206200059", "name": "USPS COLLECTION BOX - BLUE BOX", "address": {"city": "NORWOOD", "state": "MA", "street": "1041 WASHINGTON ST", "postcode": "02062"}}},
{"geometry": {"type": "Point", "coordinates": [-71.2025061249, 42.1899322337]}, "type": "Feature", "properties": {"collection_times": [{"days": "Mon-Fri", "time": "10:00am"}, {"days": "Sat", "time": "12:00pm"}, {"days": "Sun", "time": "Closed"}], "id": "0206200060", "name": "USPS COLLECTION BOX - BLUE BOX", "address": {"city": "NORWOOD", "state": "MA", "street": "800 WASHINGTON ST", "postcode": "02062"}}},
{"geometry": {"type": "Point", "coordinates": [-71.2024764403, 42.1903515481]}, "type": "Feature", "properties": {"collection_times": [{"days": "Mon-Fri", "time": "5:00pm"}, {"days": "Sat", "time": "4:30pm"}, {"days": "Sun", "time": "Closed"}], "id": "0206200062", "name": "USPS COLLECTION BOX - BLUE BOX", "address": {"city": "NORWOOD", "state": "MA", "street": "1 CENTRAL ST", "postcode": "02062"}}},
{"geometry": {"type": "Point", "coordinates": [-71.2024764403, 42.1903515481]}, "type": "Feature", "properties": {"collection_times": [{"days": "Mon-Fri", "time": "5:00pm"}, {"days": "Sat", "time": "4:30pm"}, {"days": "Sun", "time": "Closed"}], "id": "0206200063", "name": "USPS COLLECTION BOX - BLUE BOX", "address": {"city": "NORWOOD", "state": "MA", "street": "1 CENTRAL ST", "postcode": "02062"}}},
{"geometry": {"type": "Point", "coordinates": [-70.6529501634, 42.0980520419]}, "type": "Feature", "properties": {"collection_times": [{"days": "Mon-Fri", "time": "5:00pm"}, {"days": "Sat", "time": "12:00pm"}, {"days": "Sun", "time": "Closed"}], "id": "0206500001", "name": "USPS COLLECTION BOX - BLUE BOX", "address": {"city": "MARSHFIELD", "state": "MA", "street": "555 OCEAN ST", "postcode": "02065"}}},
{"geometry": {"type": "Point", "coordinates": [-70.6529501634, 42.0980520419]}, "type": "Feature", "properties": {"collection_times": [{"days": "Mon-Fri", "time": "5:00pm"}, {"days": "Sat", "time": "12:00pm"}, {"days": "Sun", "time": "Closed"}], "id": "0206500002", "name": "USPS COLLECTION BOX - BLUE BOX", "address": {"city": "MARSHFIELD", "state": "MA", "street": "555 OCEAN ST", "postcode": "02065"}}},
{"geometry": {"type": "Point", "coordinates": [-70.6533969918, 42.098210152]}, "type": "Feature", "properties": {"collection_times": [{"days": "Mon-Fri", "time": "5:00pm"}, {"days": "Sat", "time": "12:00pm"}, {"days": "Sun", "time": "Closed"}], "id": "0206500003", "name": "USPS COLLECTION BOX - PO LOBBY", "address": {"city": "MARSHFIELD", "state": "MA", "street": "555 OCEAN ST", "postcode": "02065"}}},
{"geometry": {"type": "Point", "coordinates": [-70.6533969918, 42.098210152]}, "type": "Feature", "properties": {"collection_times": [{"days": "Mon-Fri", "time": "5:00pm"}, {"days": "Sat", "time": "12:00pm"}, {"days": "Sun", "time": "Closed"}], "id": "0206500004", "name": "USPS COLLECTION BOX - PO LOBBY", "address": {"city": "MARSHFIELD", "state": "MA", "street": "555 OCEAN ST", "postcode": "02065"}}},
{"geometry": {"type": "Point", "coordinates": [-70.7266295796, 42.1935546851]}, "type": "Feature", "properties": {"collection_times": [{"days": "Mon-Fri", "time": "4:00pm"}, {"days": "Sat", "time": "12:00pm"}, {"days": "Sun", "time": "Closed"}], "id": "0206600001", "name": "USPS COLLECTION BOX - BLUE BOX", "address": {"city": "SCITUATE", "state": "MA", "street": "5 BROOK ST", "postcode": "02066"}}},
{"geometry": {"type": "Point", "coordinates": [-70.762232051, 42.211758966]}, "type": "Feature", "properties": {"collection_times": [{"days": "Mon-Fri", "time": "3:30pm"}, {"days": "Sat", "time": "12:00pm"}, {"days": "Sun", "time": "Closed"}], "id": "0206600002", "name": "USPS COLLECTION BOX - BLUE BOX", "address": {"city": "SCITUATE", "state": "MA", "street": "72 CAPTAIN PIERCE RD", "postcode": "02066"}}},
{"geometry": {"type": "Point", "coordinates": [-70.754283171, 42.1997607741]}, "type": "Feature", "properties": {"collection_times": [{"days": "Mon-Sat", "time": "10:00am"}, {"days": "Sun", "time": "Closed"}], "id": "0206600003", "name": "USPS COLLECTION BOX - BLUE BOX", "address": {"city": "SCITUATE", "state": "MA", "street": "1 CENTRAL PARK DR", "postcode": "02066"}}},
{"geometry": {"type": "Point", "coordinates": [-70.7249713778, 42.1933840208]}, "type": "Feature", "properties": {"collection_times": [{"days": "Mon-Fri", "time": "4:00pm"}, {"days": "Sat", "time": "12:00pm"}, {"days": "Sun", "time": "Closed"}], "id": "0206600005", "name": "USPS COLLECTION BOX - BLUE BOX", "address": {"city": "SCITUATE", "state": "MA", "street": "50 COLE PKWY", "postcode": "02066"}}},
{"geometry": {"type": "Point", "coordinates": [-70.7590557176, 42.199590047]}, "type": "Feature", "properties": {"collection_times": [{"days": "Mon-Fri", "time": "3:30pm"}, {"days": "Sat", "time": "12:00pm"}, {"days": "Sun", "time": "Closed"}], "id": "0206600007", "name": "USPS COLLECTION BOX - BLUE BOX", "address": {"city": "SCITUATE", "state": "MA", "street": "363 COUNTRY WAY", "postcode": "02066"}}},
{"geometry": {"type": "Point", "coordinates": [-70.7253827408, 42.1938385952]}, "type": "Feature", "properties": {"collection_times": [{"days": "Mon-Fri", "time": "4:00pm"}, {"days": "Sat", "time": "12:00pm"}, {"days": "Sun", "time": "Closed"}], "id": "0206600011", "name": "USPS COLLECTION BOX - BLUE BOX", "address": {"city": "SCITUATE", "state": "MA", "street": "71 FRONT ST", "postcode": "02066"}}},
{"geometry": {"type": "Point", "coordinates": [-70.7261090356, 42.1922230131]}, "type": "Feature", "properties": {"collection_times": [{"days": "Mon-Fri", "time": "4:00pm"}, {"days": "Sat", "time": "12:00pm"}, {"days": "Sun", "time": "Closed"}], "id": "0206600013", "name": "USPS COLLECTION BOX - BLUE BOX", "address": {"city": "SCITUATE", "state": "MA", "street": "116 FRONT ST", "postcode": "02066"}}},
{"geometry": {"type": "Point", "coordinates": [-70.7248776173, 42.1958413447]}, "type": "Feature", "properties": {"collection_times": [{"days": "Mon-Fri", "time": "4:00pm"}, {"days": "Sat", "time": "12:00pm"}, {"days": "Sun", "time": "Closed"}], "id": "0206600014", "name": "USPS COLLECTION BOX - BLUE BOX", "address": {"city": "SCITUATE", "state": "MA", "street": "131 FRONT ST", "postcode": "02066"}}},
{"geometry": {"type": "Point", "coordinates": [-70.7888818489, 42.220583436]}, "type": "Feature", "properties": {"collection_times": [{"days": "Mon-Sat", "time": "10:00am"}, {"days": "Sun", "time": "Closed"}], "id": "0206600015", "name": "USPS COLLECTION BOX - BLUE BOX", "address": {"city": "SCITUATE", "state": "MA", "street": "24 LINCOLN PARK DR", "postcode": "02066"}}},
{"geometry": {"type": "Point", "coordinates": [-70.7378618079, 42.1885977218]}, "type": "Feature", "properties": {"collection_times": [{"days": "Mon-Sat", "time": "10:00am"}, {"days": "Sun", "time": "Closed"}], "id": "0206600017", "name": "USPS COLLECTION BOX - BLUE BOX", "address": {"city": "SCITUATE", "state": "MA", "street": "118 WHEELER PARK DR", "postcode": "02066"}}},
{"geometry": {"type": "Point", "coordinates": [-70.7358306344, 42.1920475953]}, "type": "Feature", "properties": {"collection_times": [{"days": "Mon-Fri", "time": "5:00pm"}, {"days": "Sat", "time": "3:00pm"}, {"days": "Sun", "time": "Closed"}], "id": "0206600018", "name": "USPS COLLECTION BOX - BLUE BOX", "address": {"city": "SCITUATE", "state": "MA", "street": "108 FIRST PARISH RD", "postcode": "02066"}}},
{"geometry": {"type": "Point", "coordinates": [-70.7487970476, 42.1789794477]}, "type": "Feature", "properties": {"collection_times": [{"days": "Mon-Fri", "time": "3:30pm"}, {"days": "Sat", "time": "12:00pm"}, {"days": "Sun", "time": "Closed"}], "id": "0206600019", "name": "USPS COLLECTION BOX - BLUE BOX", "address": {"city": "SCITUATE", "state": "MA", "street": "38 COUNTRY WAY", "postcode": "02066"}}},
{"geometry": {"type": "Point", "coordinates": [-70.749908254, 42.2022208937]}, "type": "Feature", "properties": {"collection_times": [{"days": "Mon-Fri", "time": "5:00pm"}, {"days": "Sat", "time": "3:00pm"}, {"days": "Sun", "time": "Closed"}], "id": "0206600021", "name": "USPS COLLECTION BOX - PO LOBBY", "address": {"city": "SCITUATE", "state": "MA", "street": "108 FIRST PARISH RD", "postcode": "02066"}}},
{"geometry": {"type": "Point", "coordinates": [-70.7467351501, 42.1767188131]}, "type": "Feature", "properties": {"collection_times": [{"days": "Mon-Fri", "time": "3:30pm"}, {"days": "Sat", "time": "12:00pm"}, {"days": "Sun", "time": "Closed"}], "id": "0206600024", "name": "USPS COLLECTION BOX - BLUE BOX", "address": {"city": "SCITUATE", "state": "MA", "street": "28 NEW DRIFTWAY", "postcode": "02066"}}},
{"geometry": {"type": "Point", "coordinates": [-70.7408925158, 42.2153187641]}, "type": "Feature", "properties": {"collection_times": [{"days": "Mon-Sat", "time": "10:00am"}, {"days": "Sun", "time": "Closed"}], "id": "0206600025", "name": "USPS COLLECTION BOX - BLUE BOX", "address": {"city": "SCITUATE", "state": "MA", "street": "222 HATHERLY RD", "postcode": "02066"}}},
{"geometry": {"type": "Point", "coordinates": [-71.1792710831, 42.1231213083]}, "type": "Feature", "properties": {"collection_times": [{"days": "Mon-Fri", "time": "5:00pm"}, {"days": "Sat", "time": "3:15pm"}, {"days": "Sun", "time": "Closed"}], "id": "0206700003", "name": "USPS COLLECTION BOX - BLUE BOX", "address": {"city": "SHARON", "state": "MA", "street": "15 S MAIN ST", "postcode": "02067"}}},
{"geometry": {"type": "Point", "coordinates": [-71.1792710831, 42.1231213083]}, "type": "Feature", "properties": {"collection_times": [{"days": "Mon-Fri", "time": "5:00pm"}, {"days": "Sat", "time": "3:15pm"}, {"days": "Sun", "time": "Closed"}], "id": "0206700004", "name": "USPS COLLECTION BOX - BLUE BOX", "address": {"city": "SHARON", "state": "MA", "street": "15 S MAIN ST", "postcode": "02067"}}},
{"geometry": {"type": "Point", "coordinates": [-71.1782780012, 42.1117404992]}, "type": "Feature", "properties": {"collection_times": [{"days": "Mon-Fri", "time": "5:00pm"}, {"days": "Sat", "time": "3:15pm"}, {"days": "Sun", "time": "Closed"}], "id": "0206700006", "name": "USPS COLLECTION BOX - PO LOBBY", "address": {"city": "SHARON", "state": "MA", "street": "15 S MAIN ST", "postcode": "02067"}}},
{"geometry": {"type": "Point", "coordinates": [-71.2213961018, 42.0947733878]}, "type": "Feature", "properties": {"collection_times": [{"days": "Mon-Fri", "time": "4:00pm"}, {"days": "Sat", "time": "10:00am"}, {"days": "Sun", "time": "Closed"}], "id": "0206700013", "name": "USPS COLLECTION BOX - BLUE BOX", "address": {"city": "SHARON", "state": "MA", "street": "800 S MAIN ST", "postcode": "02067"}}},
{"geometry": {"type": "Point", "coordinates": [-71.2347767007, 42.1176371105]}, "type": "Feature", "properties": {"collection_times": [{"days": "Mon-Fri", "time": "4:00pm"}, {"days": "Sat-Sun", "time": "Closed"}], "id": "0206700014", "name": "USPS COLLECTION BOX - BLUE BOX", "address": {"city": "SHARON", "state": "MA", "street": "2 MERCHANT ST", "postcode": "02067"}}},
{"geometry": {"type": "Point", "coordinates": [-71.2354421502, 42.1182031951]}, "type": "Feature", "properties": {"collection_times": [{"days": "Mon-Fri", "time": "4:00pm"}, {"days": "Sat-Sun", "time": "Closed"}], "id": "0206700018", "name": "USPS COLLECTION BOX - BLUE BOX", "address": {"city": "SHARON", "state": "MA", "street": "1200 PROVIDENCE HWY", "postcode": "02067"}}},
{"geometry": {"type": "Point", "coordinates": [-71.2371284231, 42.116383174]}, "type": "Feature", "properties": {"collection_times": [{"days": "Mon-Fri", "time": "4:00pm"}, {"days": "Sat-Sun", "time": "Closed"}], "id": "0206700021", "name": "USPS COLLECTION BOX - BLUE BOX", "address": {"city": "SHARON", "state": "MA", "street": "2 COMMERCIAL ST", "postcode": "02067"}}},
{"geometry": {"type": "Point", "coordinates": [-71.2695578768, 42.1012342759]}, "type": "Feature", "properties": {"collection_times": [{"days": "Mon-Fri", "time": "5:00pm"}, {"days": "Sat", "time": "12:00pm"}, {"days": "Sun", "time": "Closed"}], "id": "0207100001", "name": "USPS COLLECTION BOX - BLUE BOX", "address": {"city": "SOUTH WALPOLE", "state": "MA", "street": "44 SUMMER ST", "postcode": "02071"}}},
{"geometry": {"type": "Point", "coordinates": [-71.2695578768, 42.1012342759]}, "type": "Feature", "properties": {"collection_times": [{"days": "Mon-Fri", "time": "4:00pm"}, {"days": "Sat", "time": "12:00pm"}, {"days": "Sun", "time": "Closed"}], "id": "0207100003", "name": "USPS COLLECTION BOX - PO LOBBY", "address": {"city": "SOUTH WALPOLE", "state": "MA", "street": "44 SUMMER ST", "postcode": "02071"}}},
{"geometry": {"type": "Point", "coordinates": [-71.0750665938, 42.1534890479]}, "type": "Feature", "properties": {"collection_times": [{"days": "Mon-Fri", "time": "4:45pm"}, {"days": "Sat", "time": "12:00pm"}, {"days": "Sun", "time": "Closed"}], "id": "0207200002", "name": "USPS COLLECTION BOX - BLUE BOX", "address": {"city": "STOUGHTON", "state": "MA", "street": "2 CABOT PL", "postcode": "02072"}}},
{"geometry": {"type": "Point", "coordinates": [-71.1065289254, 42.1269002234]}, "type": "Feature", "properties": {"collection_times": [{"days": "Mon-Fri", "time": "4:45pm"}, {"days": "Sat", "time": "12:00pm"}, {"days": "Sun", "time": "Closed"}], "id": "0207200003", "name": "USPS COLLECTION BOX - EXPRESS", "address": {"city": "STOUGHTON", "state": "MA", "street": "2 CABOT PL", "postcode": "02072"}}},
{"geometry": {"type": "Point", "coordinates": [-71.0708746991, 42.1118265027]}, "type": "Feature", "properties": {"collection_times": [{"days": "Mon-Fri", "time": "4:30pm"}, {"days": "Sat", "time": "12:00pm"}, {"days": "Sun", "time": "Closed"}], "id": "0207200004", "name": "USPS COLLECTION BOX - BLUE BOX", "address": {"city": "STOUGHTON", "state": "MA", "street": "12 CAMPANELLI PKWY", "postcode": "02072"}}},
{"geometry": {"type": "Point", "coordinates": [-71.0711000427, 42.1118593618]}, "type": "Feature", "properties": {"collection_times": [{"days": "Mon-Fri", "time": "4:30pm"}, {"days": "Sat", "time": "12:00pm"}, {"days": "Sun", "time": "Closed"}], "id": "0207200005", "name": "USPS COLLECTION BOX - BLUE BOX", "address": {"city": "STOUGHTON", "state": "MA", "street": "12 CAMPANELLI PKWY", "postcode": "02072"}}},
{"geometry": {"type": "Point", "coordinates": [-71.1065289254, 42.1269002234]}, "type": "Feature", "properties": {"collection_times": [{"days": "Mon-Fri", "time": "4:30pm"}, {"days": "Sat", "time": "12:00pm"}, {"days": "Sun", "time": "Closed"}], "id": "0207200006", "name": "USPS COLLECTION BOX - EXPRESS", "address": {"city": "STOUGHTON", "state": "MA", "street": "12 CAMPANELLI PKWY", "postcode": "02072"}}},
{"geometry": {"type": "Point", "coordinates": [-71.1001346772, 42.1247372302]}, "type": "Feature", "properties": {"collection_times": [{"days": "Mon-Fri", "time": "11:30am"}, {"days": "Sat", "time": "12:00pm"}, {"days": "Sun", "time": "Closed"}], "id": "0207200008", "name": "USPS COLLECTION BOX - BLUE BOX", "address": {"city": "STOUGHTON", "state": "MA", "street": "4 CAPEN ST", "postcode": "02072"}}},
{"geometry": {"type": "Point", "coordinates": [-71.0840913878, 42.1297174875]}, "type": "Feature", "properties": {"collection_times": [{"days": "Mon-Fri", "time": "4:15pm"}, {"days": "Sat", "time": "12:00pm"}, {"days": "Sun", "time": "Closed"}], "id": "0207200009", "name": "USPS COLLECTION BOX - BLUE BOX", "address": {"city": "STOUGHTON", "state": "MA", "street": "445 CENTRAL ST", "postcode": "02072"}}},
{"geometry": {"type": "Point", "coordinates": [-71.1116377702, 42.1335715678]}, "type": "Feature", "properties": {"collection_times": [{"days": "Mon-Fri", "time": "4:45pm"}, {"days": "Sat", "time": "12:00pm"}, {"days": "Sun", "time": "Closed"}], "id": "0207200010", "name": "USPS COLLECTION BOX - BLUE BOX", "address": {"city": "STOUGHTON", "state": "MA", "street": "1288 CENTRAL ST", "postcode": "02072"}}},
{"geometry": {"type": "Point", "coordinates": [-71.1142249015, 42.1345368623]}, "type": "Feature", "properties": {"collection_times": [{"days": "Mon-Fri", "time": "4:45pm"}, {"days": "Sat", "time": "12:00pm"}, {"days": "Sun", "time": "Closed"}], "id": "0207200015", "name": "USPS COLLECTION BOX - BLUE BOX", "address": {"city": "STOUGHTON", "state": "MA", "street": "34 LACIVITA CT", "postcode": "02072"}}},
{"geometry": {"type": "Point", "coordinates": [-71.106050655, 42.1143887052]}, "type": "Feature", "properties": {"collection_times": [{"days": "Mon-Fri", "time": "4:15pm"}, {"days": "Sat", "time": "12:00pm"}, {"days": "Sun", "time": "Closed"}], "id": "0207200016", "name": "USPS COLLECTION BOX - BLUE BOX", "address": {"city": "STOUGHTON", "state": "MA", "street": "330 MORTON ST", "postcode": "02072"}}},
{"geometry": {"type": "Point", "coordinates": [-71.0724857275, 42.149482705]}, "type": "Feature", "properties": {"collection_times": [{"days": "Mon-Fri", "time": "4:30pm"}, {"days": "Sat", "time": "12:00pm"}, {"days": "Sun", "time": "Closed"}], "id": "0207200017", "name": "USPS COLLECTION BOX - BLUE BOX", "address": {"city": "STOUGHTON", "state": "MA", "street": "421 PAGE ST", "postcode": "02072"}}},
{"geometry": {"type": "Point", "coordinates": [-71.1065158903, 42.1268915796]}, "type": "Feature", "properties": {"collection_times": [{"days": "Mon-Fri", "time": "4:15pm"}, {"days": "Sat", "time": "12:00pm"}, {"days": "Sun", "time": "Closed"}], "id": "0207200019", "name": "USPS COLLECTION BOX - BLUE BOX", "address": {"city": "STOUGHTON", "state": "MA", "street": "289 PARK ST", "postcode": "02072"}}},
{"geometry": {"type": "Point", "coordinates": [-71.1065158903, 42.1268915796]}, "type": "Feature", "properties": {"collection_times": [{"days": "Mon-Fri", "time": "4:30pm"}, {"days": "Sat", "time": "12:00pm"}, {"days": "Sun", "time": "Closed"}], "id": "0207200020", "name": "USPS COLLECTION BOX - BLUE BOX", "address": {"city": "STOUGHTON", "state": "MA", "street": "966 PARK ST", "postcode": "02072"}}},
{"geometry": {"type": "Point", "coordinates": [-71.0673665357, 42.1018168605]}, "type": "Feature", "properties": {"collection_times": [{"days": "Mon-Fri", "time": "4:15pm"}, {"days": "Sat", "time": "12:00pm"}, {"days": "Sun", "time": "Closed"}], "id": "0207200021", "name": "USPS COLLECTION BOX - BLUE BOX", "address": {"city": "STOUGHTON", "state": "MA", "street": "1334 PARK ST", "postcode": "02072"}}},
{"geometry": {"type": "Point", "coordinates": [-71.1122001344, 42.1365360342]}, "type": "Feature", "properties": {"collection_times": [{"days": "Mon-Fri", "time": "4:45pm"}, {"days": "Sat", "time": "12:00pm"}, {"days": "Sun", "time": "Closed"}], "id": "0207200023", "name": "USPS COLLECTION BOX - BLUE BOX", "address": {"city": "STOUGHTON", "state": "MA", "street": "450 PEARL ST", "postcode": "02072"}}},
{"geometry": {"type": "Point", "coordinates": [-71.1031358441, 42.1250211404]}, "type": "Feature", "properties": {"collection_times": [{"days": "Mon-Fri", "time": "5:00pm"}, {"days": "Sat", "time": "3:00pm"}, {"days": "Sun", "time": "Closed"}], "id": "0207200024", "name": "USPS COLLECTION BOX - BLUE BOX", "address": {"city": "STOUGHTON", "state": "MA", "street": "31 PORTER ST", "postcode": "02072"}}},
{"geometry": {"type": "Point", "coordinates": [-71.1031358441, 42.1250211404]}, "type": "Feature", "properties": {"collection_times": [{"days": "Mon-Fri", "time": "5:00pm"}, {"days": "Sat", "time": "3:00pm"}, {"days": "Sun", "time": "Closed"}], "id": "0207200025", "name": "USPS COLLECTION BOX - BLUE BOX", "address": {"city": "STOUGHTON", "state": "MA", "street": "31 PORTER ST", "postcode": "02072"}}},
{"geometry": {"type": "Point", "coordinates": [-71.1031358441, 42.1250211404]}, "type": "Feature", "properties": {"collection_times": [{"days": "Mon-Fri", "time": "5:00pm"}, {"days": "Sat", "time": "3:00pm"}, {"days": "Sun", "time": "Closed"}], "id": "0207200026", "name": "USPS COLLECTION BOX - BLUE BOX", "address": {"city": "STOUGHTON", "state": "MA", "street": "31 PORTER ST", "postcode": "02072"}}},
{"geometry": {"type": "Point", "coordinates": [-71.1065289254, 42.1269002234]}, "type": "Feature", "properties": {"collection_times": [{"days": "Mon-Fri", "time": "5:30pm"}, {"days": "Sat", "time": "3:00pm"}, {"days": "Sun", "time": "Closed"}], "id": "0207200027", "name": "USPS COLLECTION BOX - PO LOBBY", "address": {"city": "STOUGHTON", "state": "MA", "street": "31 PORTER ST", "postcode": "02072"}}},
{"geometry": {"type": "Point", "coordinates": [-71.1065289254, 42.1269002234]}, "type": "Feature", "properties": {"collection_times": [{"days": "Mon-Fri", "time": "5:30pm"}, {"days": "Sat", "time": "3:00pm"}, {"days": "Sun", "time": "Closed"}], "id": "0207200028", "name": "USPS COLLECTION BOX - PO LOBBY", "address": {"city": "STOUGHTON", "state": "MA", "street": "31 PORTER ST", "postcode": "02072"}}},
{"geometry": {"type": "Point", "coordinates": [-71.1065289254, 42.1269002234]}, "type": "Feature", "properties": {"collection_times": [{"days": "Mon-Fri", "time": "5:30pm"}, {"days": "Sat", "time": "3:00pm"}, {"days": "Sun", "time": "Closed"}], "id": "0207200029", "name": "USPS COLLECTION BOX - PO LOBBY", "address": {"city": "STOUGHTON", "state": "MA", "street": "31 PORTER ST", "postcode": "02072"}}},
{"geometry": {"type": "Point", "coordinates": [-71.1065289254, 42.1269002234]}, "type": "Feature", "properties": {"collection_times": [{"days": "Mon-Fri", "time": "5:30pm"}, {"days": "Sat", "time": "3:00pm"}, {"days": "Sun", "time": "Closed"}], "id": "0207200030", "name": "USPS COLLECTION BOX - PO LOBBY", "address": {"city": "STOUGHTON", "state": "MA", "street": "31 PORTER ST", "postcode": "02072"}}},
{"geometry": {"type": "Point", "coordinates": [-71.1112999062, 42.1229872354]}, "type": "Feature", "properties": {"collection_times": [{"days": "Mon-Fri", "time": "4:15pm"}, {"days": "Sat", "time": "12:00pm"}, {"days": "Sun", "time": "Closed"}], "id": "0207200032", "name": "USPS COLLECTION BOX - BLUE BOX", "address": {"city": "STOUGHTON", "state": "MA", "street": "310 SCHOOL ST", "postcode": "02072"}}},
{"geometry": {"type": "Point", "coordinates": [-71.0793772549, 42.0959713399]}, "type": "Feature", "properties": {"collection_times": [{"days": "Mon-Fri", "time": "4:15pm"}, {"days": "Sat", "time": "12:00pm"}, {"days": "Sun", "time": "Closed"}], "id": "0207200034", "name": "USPS COLLECTION BOX - BLUE BOX", "address": {"city": "STOUGHTON", "state": "MA", "street": "907 SUMNER ST", "postcode": "02072"}}},
{"geometry": {"type": "Point", "coordinates": [-71.126017357, 42.1307919933]}, "type": "Feature", "properties": {"collection_times": [{"days": "Mon-Fri", "time": "4:45pm"}, {"days": "Sat", "time": "12:00pm"}, {"days": "Sun", "time": "Closed"}], "id": "0207200036", "name": "USPS COLLECTION BOX - BLUE BOX", "address": {"city": "STOUGHTON", "state": "MA", "street": "16 TOSCA DR", "postcode": "02072"}}},
{"geometry": {"type": "Point", "coordinates": [-71.126017357, 42.1307919933]}, "type": "Feature", "properties": {"collection_times": [{"days": "Mon-Fri", "time": "4:45pm"}, {"days": "Sat", "time": "12:00pm"}, {"days": "Sun", "time": "Closed"}], "id": "0207200037", "name": "USPS COLLECTION BOX - EXPRESS", "address": {"city": "STOUGHTON", "state": "MA", "street": "16 TOSCA DR", "postcode": "02072"}}},
{"geometry": {"type": "Point", "coordinates": [-71.0736446771, 42.134516752]}, "type": "Feature", "properties": {"collection_times": [{"days": "Mon-Fri", "time": "4:30pm"}, {"days": "Sat", "time": "12:00pm"}, {"days": "Sun", "time": "Closed"}], "id": "0207200038", "name": "USPS COLLECTION BOX - BLUE BOX", "address": {"city": "STOUGHTON", "state": "MA", "street": "1033 TURNPIKE ST", "postcode": "02072"}}},
{"geometry": {"type": "Point", "coordinates": [-71.1022379783, 42.137918942]}, "type": "Feature", "properties": {"collection_times": [{"days": "Mon-Fri", "time": "4:45pm"}, {"days": "Sat", "time": "12:00pm"}, {"days": "Sun", "time": "Closed"}], "id": "0207200041", "name": "USPS COLLECTION BOX - BLUE BOX", "address": {"city": "STOUGHTON", "state": "MA", "street": "278 WASHINGTON ST", "postcode": "02072"}}},
{"geometry": {"type": "Point", "coordinates": [-71.1019083874, 42.1276781797]}, "type": "Feature", "properties": {"collection_times": [{"days": "Mon-Fri", "time": "5:00pm"}, {"days": "Sat", "time": "12:00pm"}, {"days": "Sun", "time": "Closed"}], "id": "0207200042", "name": "USPS COLLECTION BOX - BLUE BOX", "address": {"city": "STOUGHTON", "state": "MA", "street": "670 WASHINGTON ST", "postcode": "02072"}}},
{"geometry": {"type": "Point", "coordinates": [-71.1017544736, 42.1337528549]}, "type": "Feature", "properties": {"collection_times": [{"days": "Mon-Fri", "time": "5:00pm"}, {"days": "Sat", "time": "12:00pm"}, {"days": "Sun", "time": "Closed"}], "id": "0207200046", "name": "USPS COLLECTION BOX - BLUE BOX", "address": {"city": "STOUGHTON", "state": "MA", "street": "423 WASHINGTON ST", "postcode": "02072"}}},
{"geometry": {"type": "Point", "coordinates": [-71.0980571015, 42.1434466862]}, "type": "Feature", "properties": {"collection_times": [{"days": "Mon-Fri", "time": "4:45pm"}, {"days": "Sat", "time": "12:00pm"}, {"days": "Sun", "time": "Closed"}], "id": "0207200049", "name": "USPS COLLECTION BOX - BLUE BOX", "address": {"city": "STOUGHTON", "state": "MA", "street": "150 YORK ST", "postcode": "02072"}}},
{"geometry": {"type": "Point", "coordinates": [-71.126017357, 42.1307919933]}, "type": "Feature", "properties": {"collection_times": [{"days": "Mon-Fri", "time": "4:45pm"}, {"days": "Sat", "time": "12:00pm"}, {"days": "Sun", "time": "Closed"}], "id": "0207200050", "name": "USPS COLLECTION BOX - BLUE BOX", "address": {"city": "STOUGHTON", "state": "MA", "street": "16 TOSCA DR", "postcode": "02072"}}},
{"geometry": {"type": "Point", "coordinates": [-71.0987707256, 42.1233638149]}, "type": "Feature", "properties": {"collection_times": [{"days": "Mon-Fri", "time": "11:30am"}, {"days": "Sat", "time": "12:00pm"}, {"days": "Sun", "time": "Closed"}], "id": "0207200052", "name": "USPS COLLECTION BOX - BLUE BOX", "address": {"city": "STOUGHTON", "state": "MA", "street": "101 WALNUT ST", "postcode": "02072"}}},
{"geometry": {"type": "Point", "coordinates": [-71.1009426382, 42.1236796649]}, "type": "Feature", "properties": {"collection_times": [{"days": "Mon-Fri", "time": "4:30pm"}, {"days": "Sat", "time": "12:00pm"}, {"days": "Sun", "time": "Closed"}], "id": "0207200053", "name": "USPS COLLECTION BOX - BLUE BOX", "address": {"city": "STOUGHTON", "state": "MA", "street": "20 PARK ST", "postcode": "02072"}}},
{"geometry": {"type": "Point", "coordinates": [-71.0757193811, 42.1532706449]}, "type": "Feature", "properties": {"collection_times": [{"days": "Mon-Fri", "time": "4:45pm"}, {"days": "Sat", "time": "12:00pm"}, {"days": "Sun", "time": "Closed"}], "id": "0207200054", "name": "USPS COLLECTION BOX - BLUE BOX", "address": {"city": "STOUGHTON", "state": "MA", "street": "2 CABOT PL", "postcode": "02072"}}},
{"geometry": {"type": "Point", "coordinates": [-71.2534770473, 42.1444677906]}, "type": "Feature", "properties": {"collection_times": [{"days": "Mon-Fri", "time": "5:15pm"}, {"days": "Sat", "time": "3:00pm"}, {"days": "Sun", "time": "Closed"}], "id": "0208100004", "name": "USPS COLLECTION BOX - BLUE BOX", "address": {"city": "WALPOLE", "state": "MA", "street": "10 COMMON ST", "postcode": "02081"}}},
{"geometry": {"type": "Point", "coordinates": [-71.2534770473, 42.1444677906]}, "type": "Feature", "properties": {"collection_times": [{"days": "Mon-Fri", "time": "5:15pm"}, {"days": "Sat", "time": "3:00pm"}, {"days": "Sun", "time": "Closed"}], "id": "0208100005", "name": "USPS COLLECTION BOX - BLUE BOX", "address": {"city": "WALPOLE", "state": "MA", "street": "10 COMMON ST", "postcode": "02081"}}},
{"geometry": {"type": "Point", "coordinates": [-71.2502877774, 42.1470132538]}, "type": "Feature", "properties": {"collection_times": [{"days": "Mon-Fri", "time": "5:15pm"}, {"days": "Sat", "time": "3:00pm"}, {"days": "Sun", "time": "Closed"}], "id": "0208100007", "name": "USPS COLLECTION BOX - PO LOBBY", "address": {"city": "WALPOLE", "state": "MA", "street": "10 COMMON ST", "postcode": "02081"}}},
{"geometry": {"type": "Point", "coordinates": [-71.2381115193, 42.1475568243]}, "type": "Feature", "properties": {"collection_times": [{"days": "Mon-Sat", "time": "10:00am"}, {"days": "Sun", "time": "Closed"}], "id": "0208100010", "name": "USPS COLLECTION BOX - BLUE BOX", "address": {"city": "WALPOLE", "state": "MA", "street": "835 EAST ST", "postcode": "02081"}}},
{"geometry": {"type": "Point", "coordinates": [-71.2207857015, 42.1414744299]}, "type": "Feature", "properties": {"collection_times": [{"days": "Mon-Sat", "time": "12:00pm"}, {"days": "Sun", "time": "Closed"}], "id": "0208100011", "name": "USPS COLLECTION BOX - BLUE BOX", "address": {"city": "WALPOLE", "state": "MA", "street": "411 HIGH PLAIN ST", "postcode": "02081"}}},
{"geometry": {"type": "Point", "coordinates": [-71.2882568923, 42.1029018142]}, "type": "Feature", "properties": {"collection_times": [{"days": "Mon-Sat", "time": "12:00pm"}, {"days": "Sun", "time": "Closed"}], "id": "0208100015", "name": "USPS COLLECTION BOX - BLUE BOX", "address": {"city": "WALPOLE", "state": "MA", "street": "262 MAIN ST", "postcode": "02081"}}},
{"geometry": {"type": "Point", "coordinates": [-71.2380332047, 42.1618801997]}, "type": "Feature", "properties": {"collection_times": [{"days": "Mon-Sat", "time": "10:00am"}, {"days": "Sun", "time": "Closed"}], "id": "0208100016", "name": "USPS COLLECTION BOX - BLUE BOX", "address": {"city": "WALPOLE", "state": "MA", "street": "420 MAIN ST", "postcode": "02081"}}},
{"geometry": {"type": "Point", "coordinates": [-71.2471849345, 42.153445495]}, "type": "Feature", "properties": {"collection_times": [{"days": "Mon-Sat", "time": "12:00pm"}, {"days": "Sun", "time": "Closed"}], "id": "0208100018", "name": "USPS COLLECTION BOX - BLUE BOX", "address": {"city": "WALPOLE", "state": "MA", "street": "745 MAIN ST", "postcode": "02081"}}},
{"geometry": {"type": "Point", "coordinates": [-71.2494037392, 42.145571575]}, "type": "Feature", "properties": {"collection_times": [{"days": "Mon-Fri", "time": "4:00pm"}, {"days": "Sat-Sun", "time": "Closed"}], "id": "0208100020", "name": "USPS COLLECTION BOX - BLUE BOX", "address": {"city": "WALPOLE", "state": "MA", "street": "135 SCHOOL ST", "postcode": "02081"}}},
{"geometry": {"type": "Point", "coordinates": [-71.2882568923, 42.1029018142]}, "type": "Feature", "properties": {"collection_times": [{"days": "Mon-Fri", "time": "4:00pm"}, {"days": "Sat", "time": "12:00pm"}, {"days": "Sun", "time": "Closed"}], "id": "0208100022", "name": "USPS COLLECTION BOX - BLUE BOX", "address": {"city": "WALPOLE", "state": "MA", "street": "975 MAIN ST", "postcode": "02081"}}},
{"geometry": {"type": "Point", "coordinates": [-71.2612929618, 42.1340175554]}, "type": "Feature", "properties": {"collection_times": [{"days": "Mon-Sat", "time": "12:00pm"}, {"days": "Sun", "time": "Closed"}], "id": "0208100023", "name": "USPS COLLECTION BOX - BLUE BOX", "address": {"city": "WALPOLE", "state": "MA", "street": "1428 MAIN ST", "postcode": "02081"}}},
{"geometry": {"type": "Point", "coordinates": [-71.2502877774, 42.1470132538]}, "type": "Feature", "properties": {"collection_times": [{"days": "Mon-Sat", "time": "12:00pm"}, {"days": "Sun", "time": "Closed"}], "id": "0208100032", "name": "USPS COLLECTION BOX - BLUE BOX", "address": {"city": "WALPOLE", "state": "MA", "street": "55 WEST ST", "postcode": "02081"}}},
{"geometry": {"type": "Point", "coordinates": [-71.2731806065, 42.1220742282]}, "type": "Feature", "properties": {"collection_times": [{"days": "Mon-Fri", "time": "10:00am"}, {"days": "Sat-Sun", "time": "Closed"}], "id": "0208100033", "name": "USPS COLLECTION BOX - BLUE BOX", "address": {"city": "WALPOLE", "state": "MA", "street": "2 INDUSTRIAL RD", "postcode": "02081"}}},
{"geometry": {"type": "Point", "coordinates": [-71.2601284857, 42.135625682]}, "type": "Feature", "properties": {"collection_times": [{"days": "Mon-Sat", "time": "12:00pm"}, {"days": "Sun", "time": "Closed"}], "id": "0208100034", "name": "USPS COLLECTION BOX - BLUE BOX", "address": {"city": "WALPOLE", "state": "MA", "street": "1350 MAIN ST", "postcode": "02081"}}},
{"geometry": {"type": "Point", "coordinates": [-71.2502877774, 42.1470132538]}, "type": "Feature", "properties": {"collection_times": [{"days": "Mon-Fri", "time": "5:15pm"}, {"days": "Sat", "time": "3:00pm"}, {"days": "Sun", "time": "Closed"}], "id": "0208100035", "name": "USPS COLLECTION BOX - PO LOBBY", "address": {"city": "WALPOLE", "state": "MA", "street": "10 COMMON ST", "postcode": "02081"}}},
{"geometry": {"type": "Point", "coordinates": [-71.2534661147, 42.1436646212]}, "type": "Feature", "properties": {"collection_times": [{"days": "Mon-Fri", "time": "4:00pm"}, {"days": "Sat", "time": "12:00pm"}, {"days": "Sun", "time": "Closed"}], "id": "0208100036", "name": "USPS COLLECTION BOX - BLUE BOX", "address": {"city": "WALPOLE", "state": "MA", "street": "20 FRONT ST", "postcode": "02081"}}},
{"geometry": {"type": "Point", "coordinates": [-71.2534661147, 42.1436646212]}, "type": "Feature", "properties": {"collection_times": [{"days": "Mon-Fri", "time": "4:00pm"}, {"days": "Sat", "time": "12:00pm"}, {"days": "Sun", "time": "Closed"}], "id": "0208100037", "name": "USPS COLLECTION BOX - BLUE BOX", "address": {"city": "WALPOLE", "state": "MA", "street": "20 FRONT ST", "postcode": "02081"}}},
{"geometry": {"type": "Point", "coordinates": [-71.2534661147, 42.1436646212]}, "type": "Feature", "properties": {"collection_times": [{"days": "Mon-Fri", "time": "4:00pm"}, {"days": "Sat", "time": "12:00pm"}, {"days": "Sun", "time": "Closed"}], "id": "0208100038", "name": "USPS COLLECTION BOX - BLUE BOX", "address": {"city": "WALPOLE", "state": "MA", "street": "20 FRONT ST", "postcode": "02081"}}},
{"geometry": {"type": "Point", "coordinates": [-71.2500964327, 42.1500396855]}, "type": "Feature", "properties": {"collection_times": [{"days": "Mon-Fri", "time": "4:00pm"}, {"days": "Sat", "time": "12:00pm"}, {"days": "Sun", "time": "Closed"}], "id": "0208100039", "name": "USPS COLLECTION BOX - BLUE BOX", "address": {"city": "WALPOLE", "state": "MA", "street": "841 MAIN ST", "postcode": "02081"}}},
{"geometry": {"type": "Point", "coordinates": [-71.2502877774, 42.1470132538]}, "type": "Feature", "properties": {"collection_times": [{"days": "Mon-Fri", "time": "5:15pm"}, {"days": "Sat", "time": "3:00pm"}, {"days": "Sun", "time": "Closed"}], "id": "0208100040", "name": "USPS COLLECTION BOX - EXPRESS", "address": {"city": "WALPOLE", "state": "MA", "street": "10 COMMON ST", "postcode": "02081"}}},
{"geometry": {"type": "Point", "coordinates": [-71.242961532, 42.1139302788]}, "type": "Feature", "properties": {"collection_times": [{"days": "Mon-Fri", "time": "4:00pm"}, {"days": "Sat-Sun", "time": "Closed"}], "id": "0208100042", "name": "USPS COLLECTION BOX - BLUE BOX", "address": {"city": "WALPOLE", "state": "MA", "street": "25 WALPOLE PARK S", "postcode": "02081"}}},
{"geometry": {"type": "Point", "coordinates": [-71.2502877774, 42.1470132538]}, "type": "Feature", "properties": {"collection_times": [{"days": "Mon-Fri", "time": "4:00pm"}, {"days": "Sat-Sun", "time": "Closed"}], "id": "0208100043", "name": "USPS COLLECTION BOX - EXPRESS", "address": {"city": "WALPOLE", "state": "MA", "street": "25 WALPOLE PARK S", "postcode": "02081"}}},
{"geometry": {"type": "Point", "coordinates": [-71.1548862161, 42.1969924201]}, "type": "Feature", "properties": {"collection_times": [{"days": "Mon-Fri", "time": "3:30pm"}, {"days": "Sat-Sun", "time": "Closed"}], "id": "0209000002", "name": "USPS COLLECTION BOX - BLUE BOX", "address": {"city": "WESTWOOD", "state": "MA", "street": "690 CANTON ST", "postcode": "02090"}}},
{"geometry": {"type": "Point", "coordinates": [-71.2514567358, 42.2025633703]}, "type": "Feature", "properties": {"collection_times": [{"days": "Mon-Fri", "time": "5:00pm"}, {"days": "Sat", "time": "12:00pm"}, {"days": "Sun", "time": "Closed"}], "id": "0209000005", "name": "USPS COLLECTION BOX - BLUE BOX", "address": {"city": "WESTWOOD", "state": "MA", "street": "697 HIGH ST", "postcode": "02090"}}},
{"geometry": {"type": "Point", "coordinates": [-71.2514567358, 42.2025633703]}, "type": "Feature", "properties": {"collection_times": [{"days": "Mon-Fri", "time": "5:00pm"}, {"days": "Sat", "time": "12:00pm"}, {"days": "Sun", "time": "Closed"}], "id": "0209000006", "name": "USPS COLLECTION BOX - BLUE BOX", "address": {"city": "WESTWOOD", "state": "MA", "street": "697 HIGH ST", "postcode": "02090"}}},
{"geometry": {"type": "Point", "coordinates": [-71.2514567358, 42.2025633703]}, "type": "Feature", "properties": {"collection_times": [{"days": "Mon-Fri", "time": "5:00pm"}, {"days": "Sat", "time": "12:00pm"}, {"days": "Sun", "time": "Closed"}], "id": "0209000007", "name": "USPS COLLECTION BOX - BLUE BOX", "address": {"city": "WESTWOOD", "state": "MA", "street": "697 HIGH ST", "postcode": "02090"}}},
{"geometry": {"type": "Point", "coordinates": [-71.1523295362, 42.2061356843]}, "type": "Feature", "properties": {"collection_times": [{"days": "Mon-Sat", "time": "10:00am"}, {"days": "Sun", "time": "Closed"}], "id": "0209000019", "name": "USPS COLLECTION BOX - BLUE BOX", "address": {"city": "WESTWOOD", "state": "MA", "street": "169 UNIVERSITY AVE", "postcode": "02090"}}},
{"geometry": {"type": "Point", "coordinates": [-71.1883118077, 42.2186252638]}, "type": "Feature", "properties": {"collection_times": [{"days": "Mon-Fri", "time": "5:00pm"}, {"days": "Sat", "time": "1:00pm"}, {"days": "Sun", "time": "Closed"}], "id": "0209000025", "name": "USPS COLLECTION BOX - BLUE BOX", "address": {"city": "WESTWOOD", "state": "MA", "street": "307 WASHINGTON ST", "postcode": "02090"}}},
{"geometry": {"type": "Point", "coordinates": [-71.1883118077, 42.2186252638]}, "type": "Feature", "properties": {"collection_times": [{"days": "Mon-Fri", "time": "5:00pm"}, {"days": "Sat", "time": "1:00pm"}, {"days": "Sun", "time": "Closed"}], "id": "0209000026", "name": "USPS COLLECTION BOX - BLUE BOX", "address": {"city": "WESTWOOD", "state": "MA", "street": "307 WASHINGTON ST", "postcode": "02090"}}},
{"geometry": {"type": "Point", "coordinates": [-71.1819708719, 42.2242891033]}, "type": "Feature", "properties": {"collection_times": [{"days": "Mon-Fri", "time": "10:00am"}, {"days": "Sat-Sun", "time": "Closed"}], "id": "0209000028", "name": "USPS COLLECTION BOX - BLUE BOX", "address": {"city": "WESTWOOD", "state": "MA", "street": "10 S WEST PARK", "postcode": "02090"}}},
{"geometry": {"type": "Point", "coordinates": [-71.2514567358, 42.2025633703]}, "type": "Feature", "properties": {"collection_times": [{"days": "Mon-Fri", "time": "5:00pm"}, {"days": "Sat", "time": "12:00pm"}, {"days": "Sun", "time": "Closed"}], "id": "0209000034", "name": "USPS COLLECTION BOX - PO LOBBY", "address": {"city": "WESTWOOD", "state": "MA", "street": "697 HIGH ST", "postcode": "02090"}}},
{"geometry": {"type": "Point", "coordinates": [-71.2514567358, 42.2025633703]}, "type": "Feature", "properties": {"collection_times": [{"days": "Mon-Fri", "time": "5:00pm"}, {"days": "Sat", "time": "12:00pm"}, {"days": "Sun", "time": "Closed"}], "id": "0209000037", "name": "USPS COLLECTION BOX - PO LOBBY", "address": {"city": "WESTWOOD", "state": "MA", "street": "697 HIGH ST", "postcode": "02090"}}},
{"geometry": {"type": "Point", "coordinates": [-71.2068985524, 42.2168114222]}, "type": "Feature", "properties": {"collection_times": [{"days": "Mon-Fri", "time": "5:00pm"}, {"days": "Sat", "time": "12:00pm"}, {"days": "Sun", "time": "Closed"}], "id": "0209000038", "name": "USPS COLLECTION BOX - PO LOBBY", "address": {"city": "WESTWOOD", "state": "MA", "street": "307 WASHINGTON ST", "postcode": "02090"}}},
{"geometry": {"type": "Point", "coordinates": [-71.2068985524, 42.2168114222]}, "type": "Feature", "properties": {"collection_times": [{"days": "Mon-Fri", "time": "5:00pm"}, {"days": "Sat", "time": "12:00pm"}, {"days": "Sun", "time": "Closed"}], "id": "0209000039", "name": "USPS COLLECTION BOX - PO LOBBY", "address": {"city": "WESTWOOD", "state": "MA", "street": "307 WASHINGTON ST", "postcode": "02090"}}},
{"geometry": {"type": "Point", "coordinates": [-71.1877569701, 42.2204188435]}, "type": "Feature", "properties": {"collection_times": [{"days": "Mon-Fri", "time": "10:00am"}, {"days": "Sat", "time": "12:00pm"}, {"days": "Sun", "time": "Closed"}], "id": "0209000040", "name": "USPS COLLECTION BOX - BLUE BOX", "address": {"city": "WESTWOOD", "state": "MA", "street": "258 WASHINGTON ST", "postcode": "02090"}}},
{"geometry": {"type": "Point", "coordinates": [-71.1547054375, 42.2146174791]}, "type": "Feature", "properties": {"collection_times": [{"days": "Mon-Fri", "time": "3:30pm"}, {"days": "Sat-Sun", "time": "Closed"}], "id": "0209000041", "name": "USPS COLLECTION BOX - BLUE BOX", "address": {"city": "WESTWOOD", "state": "MA", "street": "1 UNIVERSITY AVE", "postcode": "02090"}}},
{"geometry": {"type": "Point", "coordinates": [-71.1547054375, 42.2146174791]}, "type": "Feature", "properties": {"collection_times": [{"days": "Mon-Fri", "time": "10:00am"}, {"days": "Sat-Sun", "time": "Closed"}], "id": "0209000042", "name": "USPS COLLECTION BOX - BLUE BOX", "address": {"city": "WESTWOOD", "state": "MA", "street": "1 UNIVERSITY AVE", "postcode": "02090"}}},
{"geometry": {"type": "Point", "coordinates": [-71.2267586049, 42.232618356]}, "type": "Feature", "properties": {"collection_times": [{"days": "Mon-Fri", "time": "10:00am"}, {"days": "Sat-Sun", "time": "Closed"}], "id": "0209000043", "name": "USPS COLLECTION BOX - BLUE BOX", "address": {"city": "WESTWOOD", "state": "MA", "street": "50 CARBY ST", "postcode": "02090"}}},
{"geometry": {"type": "Point", "coordinates": [-71.3588123141, 42.073804932]}, "type": "Feature", "properties": {"collection_times": [{"days": "Mon-Sat", "time": "10:00am"}, {"days": "Sun", "time": "Closed"}], "id": "0209300001", "name": "USPS COLLECTION BOX - BLUE BOX", "address": {"city": "WRENTHAM", "state": "MA", "street": "844 FRANKLIN ST", "postcode": "02093"}}},
{"geometry": {"type": "Point", "coordinates": [-71.331055223, 42.0635323446]}, "type": "Feature", "properties": {"collection_times": [{"days": "Mon-Fri", "time": "5:00pm"}, {"days": "Sat", "time": "2:45pm"}, {"days": "Sun", "time": "Closed"}], "id": "0209300002", "name": "USPS COLLECTION BOX - BLUE BOX", "address": {"city": "WRENTHAM", "state": "MA", "street": "100 RANDALL RD", "postcode": "02093"}}},
{"geometry": {"type": "Point", "coordinates": [-71.331055223, 42.0635323446]}, "type": "Feature", "properties": {"collection_times": [{"days": "Mon-Fri", "time": "5:00pm"}, {"days": "Sat", "time": "2:45pm"}, {"days": "Sun", "time": "Closed"}], "id": "0209300003", "name": "USPS COLLECTION BOX - BLUE BOX", "address": {"city": "WRENTHAM", "state": "MA", "street": "100 RANDALL RD", "postcode": "02093"}}},
{"geometry": {"type": "Point", "coordinates": [-71.331055223, 42.0635323446]}, "type": "Feature", "properties": {"collection_times": [{"days": "Mon-Fri", "time": "5:00pm"}, {"days": "Sat", "time": "2:45pm"}, {"days": "Sun", "time": "Closed"}], "id": "0209300004", "name": "USPS COLLECTION BOX - BLUE BOX", "address": {"city": "WRENTHAM", "state": "MA", "street": "100 RANDALL RD", "postcode": "02093"}}},
{"geometry": {"type": "Point", "coordinates": [-71.3457475482, 42.057853741]}, "type": "Feature", "properties": {"collection_times": [{"days": "Mon-Fri", "time": "5:00pm"}, {"days": "Sat", "time": "2:45pm"}, {"days": "Sun", "time": "Closed"}], "id": "0209300005", "name": "USPS COLLECTION BOX - PO LOBBY", "address": {"city": "WRENTHAM", "state": "MA", "street": "100 RANDALL RD", "postcode": "02093"}}},
{"geometry": {"type": "Point", "coordinates": [-71.3457475482, 42.057853741]}, "type": "Feature", "properties": {"collection_times": [{"days": "Mon-Fri", "time": "5:00pm"}, {"days": "Sat", "time": "2:45pm"}, {"days": "Sun", "time": "Closed"}], "id": "0209300006", "name": "USPS COLLECTION BOX - PO LOBBY", "address": {"city": "WRENTHAM", "state": "MA", "street": "100 RANDALL RD", "postcode": "02093"}}},
{"geometry": {"type": "Point", "coordinates": [-71.3474382752, 42.0286018115]}, "type": "Feature", "properties": {"collection_times": [{"days": "Mon-Sat", "time": "10:00am"}, {"days": "Sun", "time": "Closed"}], "id": "0209300008", "name": "USPS COLLECTION BOX - BLUE BOX", "address": {"city": "WRENTHAM", "state": "MA", "street": "79 SOUTH ST", "postcode": "02093"}}},
{"geometry": {"type": "Point", "coordinates": [-71.3458600046, 42.049943763]}, "type": "Feature", "properties": {"collection_times": [{"days": "Mon-Sat", "time": "10:00am"}, {"days": "Sun", "time": "Closed"}], "id": "0209300010", "name": "USPS COLLECTION BOX - BLUE BOX", "address": {"city": "WRENTHAM", "state": "MA", "street": "1 PREMIUM OUTLET BLVD", "postcode": "02093"}}},
{"geometry": {"type": "Point", "coordinates": [-71.3022999984, 42.0468535779]}, "type": "Feature", "properties": {"collection_times": [{"days": "Mon-Sat", "time": "10:00am"}, {"days": "Sun", "time": "Closed"}], "id": "0209300011", "name": "USPS COLLECTION BOX - BLUE BOX", "address": {"city": "WRENTHAM", "state": "MA", "street": "580 WASHINGTON ST", "postcode": "02093"}}},
{"geometry": {"type": "Point", "coordinates": [-71.3580065505, 42.0759295595]}, "type": "Feature", "properties": {"collection_times": [{"days": "Mon-Sat", "time": "10:00am"}, {"days": "Sun", "time": "Closed"}], "id": "0209300013", "name": "USPS COLLECTION BOX - BLUE BOX", "address": {"city": "WRENTHAM", "state": "MA", "street": "100 STONEWALL BOUEVARD", "postcode": "02093"}}},
{"geometry": {"type": "Point", "coordinates": [-71.3595824204, 42.0740320601]}, "type": "Feature", "properties": {"collection_times": [{"days": "Mon-Sat", "time": "9:00am"}, {"days": "Sun", "time": "Closed"}], "id": "0209300014", "name": "USPS COLLECTION BOX - BLUE BOX", "address": {"city": "WRENTHAM", "state": "MA", "street": "850 FRANKLIN ST", "postcode": "02093"}}},
{"geometry": {"type": "Point", "coordinates": [-71.3457475482, 42.057853741]}, "type": "Feature", "properties": {"collection_times": [{"days": "Mon-Fri", "time": "5:00pm"}, {"days": "Sat", "time": "2:45pm"}, {"days": "Sun", "time": "Closed"}], "id": "0209300016", "name": "USPS COLLECTION BOX - EXPRESS", "address": {"city": "WRENTHAM", "state": "MA", "street": "100 RANDALL RD", "postcode": "02093"}}}
]}
