{"type": "FeatureCollection", "features": [
{"geometry": {"type": "Point", "coordinates": [-71.0536349262, 42.3502009283]}, "type": "Feature", "properties": {"collection_times": [{"days": "Mon-Sat", "time": "8:00pm"}, {"days": "Sun", "time": "Closed"}], "id": "0220500001", "name": "USPS COLLECTION BOX - BLUE BOX", "address": {"city": "BOSTON", "state": "MA", "street": "25 DORCHESTER AVE", "postcode": "02205"}}},
{"geometry": {"type": "Point", "coordinates": [-71.0536349262, 42.3502009283]}, "type": "Feature", "properties": {"collection_times": [{"days": "Mon-Sat", "time": "8:00pm"}, {"days": "Sun", "time": "Closed"}], "id": "0220500002", "name": "USPS COLLECTION BOX - BLUE BOX", "address": {"city": "BOSTON", "state": "MA", "street": "25 DORCHESTER AVE", "postcode": "02205"}}},
{"geometry": {"type": "Point", "coordinates": [-71.0569393776, 42.3298337052]}, "type": "Feature", "properties": {"collection_times": [{"days": "Mon-Sat", "time": "8:00pm"}, {"days": "Sun", "time": "Closed"}], "id": "0220500003", "name": "USPS COLLECTION BOX - EXPRESS", "address": {"city": "BOSTON", "state": "MA", "street": "25 DORCHESTER AVE", "postcode": "02205"}}},
{"geometry": {"type": "Point", "coordinates": [-71.0536349262, 42.3502009283]}, "type": "Feature", "properties": {"collection_times": [{"days": "Mon-Sat", "time": "8:00pm"}, {"days": "Sun", "time": "Closed"}], "id": "0220500006", "name": "USPS COLLECTION BOX - BLUE BOX", "address": {"city": "BOSTON", "state": "MA", "street": "25 DORCHESTER AVE", "postcode": "02205"}}},
{"geometry": {"type": "Point", "coordinates": [-71.0536349262, 42.3502009283]}, "type": "Feature", "properties": {"collection_times": [{"days": "Mon-Sat", "time": "8:00pm"}, {"days": "Sun", "time": "Closed"}], "id": "0220500010", "name": "USPS COLLECTION BOX - BLUE BOX", "address": {"city": "BOSTON", "state": "MA", "street": "25 DORCHESTER AVE", "postcode": "02205"}}},
{"geometry": {"type": "Point", "coordinates": [-71.0536349262, 42.3502009283]}, "type": "Feature", "properties": {"collection_times": [{"days": "Mon-Sat", "time": "5:00pm"}, {"days": "Sun", "time": "Closed"}], "id": "0220500013", "name": "USPS COLLECTION BOX - BLUE BOX", "address": {"city": "BOSTON", "state": "MA", "street": "25 DORCHESTER AVE REAR", "postcode": "02205"}}},
{"geometry": {"type": "Point", "coordinates": [-71.0536349262, 42.3502009283]}, "type": "Feature", "properties": {"collection_times": [{"days": "Mon-Sat", "time": "8:00pm"}, {"days": "Sun", "time": "Closed"}], "id": "0220500014", "name": "USPS COLLECTION BOX - APC", "address": {"city": "BOSTON", "state": "MA", "street": "25 DORCHESTER AVE", "postcode": "02205"}}},
{"geometry": {"type": "Point", "coordinates": [-71.0536349262, 42.3502009283]}, "type": "Feature", "properties": {"collection_times": [{"days": "Mon-Sat", "time": "8:00pm"}, {"days": "Sun", "time": "Closed"}], "id": "0220500016", "name": "USPS COLLECTION BOX - APC", "address": {"city": "BOSTON", "state": "MA", "street": "25 DORCHESTER AVE", "postcode": "02205"}}},
{"geometry": {"type": "Point", "coordinates": [-71.0429648825, 42.3465582479]}, "type": "Feature", "properties": {"collection_times": [{"days": "Mon-Fri", "time": "5:00pm"}, {"days": "Sat-Sun", "time": "Closed"}], "id": "0221000003", "name": "USPS COLLECTION BOX - BLUE BOX", "address": {"city": "BOSTON", "state": "MA", "street": "425 SUMMER ST", "postcode": "02210"}}},
{"geometry": {"type": "Point", "coordinates": [-71.0427963845, 42.3485042404]}, "type": "Feature", "properties": {"collection_times": [{"days": "Mon-Fri", "time": "5:00pm"}, {"days": "Sat-Sun", "time": "Closed"}], "id": "0221000006", "name": "USPS COLLECTION BOX - BLUE BOX", "address": {"city": "BOSTON", "state": "MA", "street": "268 SUMMER ST", "postcode": "02210"}}},
{"geometry": {"type": "Point", "coordinates": [-71.0427963845, 42.3485042404]}, "type": "Feature", "properties": {"collection_times": [{"days": "Mon-Fri", "time": "5:00pm"}, {"days": "Sat-Sun", "time": "Closed"}], "id": "0221000008", "name": "USPS COLLECTION BOX - BLUE BOX", "address": {"city": "BOSTON", "state": "MA", "street": "268 SUMMER ST", "postcode": "02210"}}},
{"geometry": {"type": "Point", "coordinates": [-71.0428181098, 42.3485041939]}, "type": "Feature", "properties": {"collection_times": [{"days": "Mon-Fri", "time": "5:00pm"}, {"days": "Sat", "time": "1:00pm"}, {"days": "Sun", "time": "Closed"}], "id": "0221000012", "name": "USPS COLLECTION BOX - BLUE BOX", "address": {"city": "BOSTON", "state": "MA", "street": "200 SEAPORT BLVD", "postcode": "02210"}}},
{"geometry": {"type": "Point", "coordinates": [-71.0366034737, 42.3445869676]}, "type": "Feature", "properties": {"collection_times": [{"days": "Mon-Fri", "time": "5:00pm"}, {"days": "Sat", "time": "1:00pm"}, {"days": "Sun", "time": "Closed"}], "id": "0221000013", "name": "USPS COLLECTION BOX - BLUE BOX", "address": {"city": "BOSTON", "state": "MA", "street": "23 DRYDOCK AVE", "postcode": "02210"}}},
{"geometry": {"type": "Point", "coordinates": [-71.0320325387, 42.3446820967]}, "type": "Feature", "properties": {"collection_times": [{"days": "Mon-Fri", "time": "5:00pm"}, {"days": "Sat", "time": "1:00pm"}, {"days": "Sun", "time": "Closed"}], "id": "0221000014", "name": "USPS COLLECTION BOX - BLUE BOX", "address": {"city": "BOSTON", "state": "MA", "street": "1 DESIGN CENTER PL", "postcode": "02210"}}},
{"geometry": {"type": "Point", "coordinates": [-71.0320325387, 42.3446820967]}, "type": "Feature", "properties": {"collection_times": [{"days": "Mon-Fri", "time": "5:00pm"}, {"days": "Sat", "time": "1:00pm"}, {"days": "Sun", "time": "Closed"}], "id": "0221000015", "name": "USPS COLLECTION BOX - BLUE BOX", "address": {"city": "BOSTON", "state": "MA", "street": "1 DESIGN CENTER PL", "postcode": "02210"}}},
{"geometry": {"type": "Point", "coordinates": [-71.155794902, 42.3402713125]}, "type": "Feature", "properties": {"collection_times": [{"days": "Mon-Fri", "time": "5:00pm"}, {"days": "Sat", "time": "1:00pm"}, {"days": "Sun", "time": "Closed"}], "id": "0221000017", "name": "USPS COLLECTION BOX - BLUE BOX", "address": {"city": "BOSTON", "state": "MA", "street": "1 SOUTH STA", "postcode": "02210"}}},
{"geometry": {"type": "Point", "coordinates": [-71.0427963845, 42.3485042404]}, "type": "Feature", "properties": {"collection_times": [{"days": "Mon-Fri", "time": "4:45pm"}, {"days": "Sat-Sun", "time": "Closed"}], "id": "0221000018", "name": "USPS COLLECTION BOX - BLUE BOX", "address": {"city": "BOSTON", "state": "MA", "street": "249 A ST", "postcode": "02210"}}},
{"geometry": {"type": "Point", "coordinates": [-71.0486144484, 42.3493752229]}, "type": "Feature", "properties": {"collection_times": [{"days": "Mon-Fri", "time": "4:45pm"}, {"days": "Sat-Sun", "time": "Closed"}], "id": "0221000020", "name": "USPS COLLECTION BOX - BLUE BOX", "address": {"city": "BOSTON", "state": "MA", "street": "321 SUMMER ST", "postcode": "02210"}}},
{"geometry": {"type": "Point", "coordinates": [-71.0427963845, 42.3485042404]}, "type": "Feature", "properties": {"collection_times": [{"days": "Mon-Fri", "time": "4:45pm"}, {"days": "Sat", "time": "1:00pm"}, {"days": "Sun", "time": "Closed"}], "id": "0221000021", "name": "USPS COLLECTION BOX - BLUE BOX", "address": {"city": "BOSTON", "state": "MA", "street": "263 SUMMER ST", "postcode": "02210"}}},
{"geometry": {"type": "Point", "coordinates": [-71.049422519, 42.3510478994]}, "type": "Feature", "properties": {"collection_times": [{"days": "Mon-Fri", "time": "5:00pm"}, {"days": "Sat", "time": "1:00pm"}, {"days": "Sun", "time": "Closed"}], "id": "0221000023", "name": "USPS COLLECTION BOX - BLUE BOX", "address": {"city": "BOSTON", "state": "MA", "street": "330 CONGRESS ST", "postcode": "02210"}}},
{"geometry": {"type": "Point", "coordinates": [-71.0427963845, 42.3485042404]}, "type": "Feature", "properties": {"collection_times": [{"days": "Mon-Fri", "time": "5:00pm"}, {"days": "Sat-Sun", "time": "Closed"}], "id": "0221000024", "name": "USPS COLLECTION BOX - BLUE BOX", "address": {"city": "BOSTON", "state": "MA", "street": "368 CONGRESS ST", "postcode": "02210"}}},
{"geometry": {"type": "Point", "coordinates": [-71.049422519, 42.3510478994]}, "type": "Feature", "properties": {"collection_times": [{"days": "Mon-Fri", "time": "5:00pm"}, {"days": "Sat", "time": "1:00pm"}, {"days": "Sun", "time": "Closed"}], "id": "0221000025", "name": "USPS COLLECTION BOX - BLUE BOX", "address": {"city": "BOSTON", "state": "MA", "street": "330 CONGRESS ST", "postcode": "02210"}}},
{"geometry": {"type": "Point", "coordinates": [-71.0398703134, 42.349166532]}, "type": "Feature", "properties": {"collection_times": [{"days": "Mon-Fri", "time": "5:00pm"}, {"days": "Sat", "time": "1:00pm"}, {"days": "Sun", "time": "Closed"}], "id": "0221000027", "name": "USPS COLLECTION BOX - BLUE BOX", "address": {"city": "BOSTON", "state": "MA", "street": "233 NORTHERN AVE", "postcode": "02210"}}},
{"geometry": {"type": "Point", "coordinates": [-71.0427963845, 42.3485042404]}, "type": "Feature", "properties": {"collection_times": [{"days": "Mon-Fri", "time": "4:45pm"}, {"days": "Sat-Sun", "time": "Closed"}], "id": "0221000028", "name": "USPS COLLECTION BOX - BLUE BOX", "address": {"city": "BOSTON", "state": "MA", "street": "319 A ST", "postcode": "02210"}}},
{"geometry": {"type": "Point", "coordinates": [-71.0428181098, 42.3485041939]}, "type": "Feature", "properties": {"collection_times": [{"days": "Mon-Fri", "time": "5:00pm"}, {"days": "Sat", "time": "1:00pm"}, {"days": "Sun", "time": "Closed"}], "id": "0221000035", "name": "USPS COLLECTION BOX - EXPRESS", "address": {"city": "BOSTON", "state": "MA", "street": "1 DESIGN CENTER PL", "postcode": "02210"}}},
{"geometry": {"type": "Point", "coordinates": [-71.0428181098, 42.3485041939]}, "type": "Feature", "properties": {"collection_times": [{"days": "Mon-Fri", "time": "5:00pm"}, {"days": "Sat", "time": "1:00pm"}, {"days": "Sun", "time": "Closed"}], "id": "0221000040", "name": "USPS COLLECTION BOX - BLUE BOX", "address": {"city": "BOSTON", "state": "MA", "street": "200 SEAPORT BLVD", "postcode": "02210"}}},
{"geometry": {"type": "Point", "coordinates": [-71.0428181098, 42.3485041939]}, "type": "Feature", "properties": {"collection_times": [{"days": "Mon-Fri", "time": "5:00pm"}, {"days": "Sat", "time": "1:00pm"}, {"days": "Sun", "time": "Closed"}], "id": "0221000041", "name": "USPS COLLECTION BOX - EXPRESS", "address": {"city": "BOSTON", "state": "MA", "street": "200 SEAPORT BLVD", "postcode": "02210"}}},
{"geometry": {"type": "Point", "coordinates": [-71.0427963845, 42.3485042404]}, "type": "Feature", "properties": {"collection_times": [{"days": "Mon-Fri", "time": "4:45pm"}, {"days": "Sat", "time": "1:00pm"}, {"days": "Sun", "time": "Closed"}], "id": "0221000042", "name": "USPS COLLECTION BOX - EXPRESS", "address": {"city": "BOSTON", "state": "MA", "street": "263 SUMMER ST", "postcode": "02210"}}},
{"geometry": {"type": "Point", "coordinates": [-71.0427963845, 42.3485042404]}, "type": "Feature", "properties": {"collection_times": [{"days": "Mon-Sat", "time": "10:00am"}, {"days": "Sun", "time": "Closed"}], "id": "0221000043", "name": "USPS COLLECTION BOX - BLUE BOX", "address": {"city": "BOSTON", "state": "MA", "street": "263 SUMMER ST", "postcode": "02210"}}},
{"geometry": {"type": "Point", "coordinates": [-71.049422519, 42.3510478994]}, "type": "Feature", "properties": {"collection_times": [{"days": "Mon-Fri", "time": "5:00pm"}, {"days": "Sat", "time": "1:00pm"}, {"days": "Sun", "time": "Closed"}], "id": "0221000044", "name": "USPS COLLECTION BOX - BLUE BOX", "address": {"city": "BOSTON", "state": "MA", "street": "330 CONGRESS ST", "postcode": "02210"}}},
{"geometry": {"type": "Point", "coordinates": [-71.0428181098, 42.3485041939]}, "type": "Feature", "properties": {"collection_times": [{"days": "Mon-Fri", "time": "5:00pm"}, {"days": "Sat", "time": "1:00pm"}, {"days": "Sun", "time": "Closed"}], "id": "0221000049", "name": "USPS COLLECTION BOX - EXPRESS", "address": {"city": "BOSTON", "state": "MA", "street": "1 SOUTH STA", "postcode": "02210"}}},
{"geometry": {"type": "Point", "coordinates": [-71.0428181098, 42.3485041939]}, "type": "Feature", "properties": {"collection_times": [{"days": "Mon-Fri", "time": "5:00pm"}, {"days": "Sat", "time": "1:00pm"}, {"days": "Sun", "time": "Closed"}], "id": "0221000050", "name": "USPS COLLECTION BOX - EXPRESS", "address": {"city": "BOSTON", "state": "MA", "street": "330 CONGRESS ST", "postcode": "02210"}}},
{"geometry": {"type": "Point", "coordinates": [-71.0499902297, 42.3500731687]}, "type": "Feature", "properties": {"collection_times": [{"days": "Mon-Fri", "time": "5:00pm"}, {"days": "Sat-Sun", "time": "Closed"}], "id": "0221000051", "name": "USPS COLLECTION BOX - BLUE BOX", "address": {"city": "BOSTON", "state": "MA", "street": "280 SUMMER ST", "postcode": "02210"}}},
{"geometry": {"type": "Point", "coordinates": [-71.155794902, 42.3402713125]}, "type": "Feature", "properties": {"collection_times": [{"days": "Mon-Fri", "time": "5:00pm"}, {"days": "Sat", "time": "1:00pm"}, {"days": "Sun", "time": "Closed"}], "id": "0221000052", "name": "USPS COLLECTION BOX - BLUE BOX", "address": {"city": "BOSTON", "state": "MA", "street": "1 SOUTH STA", "postcode": "02210"}}},
{"geometry": {"type": "Point", "coordinates": [-71.0374524908, 42.3451045829]}, "type": "Feature", "properties": {"collection_times": [{"days": "Mon-Fri", "time": "5:00pm"}, {"days": "Sat-Sun", "time": "Closed"}], "id": "0221000053", "name": "USPS COLLECTION BOX - BLUE BOX", "address": {"city": "BOSTON", "state": "MA", "street": "12 CHANNEL ST", "postcode": "02210"}}},
{"geometry": {"type": "Point", "coordinates": [-71.0366034737, 42.3445869676]}, "type": "Feature", "properties": {"collection_times": [{"days": "Mon-Fri", "time": "5:00pm"}, {"days": "Sat", "time": "1:00pm"}, {"days": "Sun", "time": "Closed"}], "id": "0221000056", "name": "USPS COLLECTION BOX - BLUE BOX", "address": {"city": "BOSTON", "state": "MA", "street": "23 DRYDOCK AVE", "postcode": "02210"}}},
{"geometry": {"type": "Point", "coordinates": [-71.0395909596, 42.349215073]}, "type": "Feature", "properties": {"collection_times": [{"days": "Mon-Fri", "time": "5:00pm"}, {"days": "Sat-Sun", "time": "Closed"}], "id": "0221000058", "name": "USPS COLLECTION BOX - BLUE BOX", "address": {"city": "BOSTON", "state": "MA", "street": "2 FISH PIER", "postcode": "02210"}}},
{"geometry": {"type": "Point", "coordinates": [-71.0428181098, 42.3485041939]}, "type": "Feature", "properties": {"collection_times": [{"days": "Mon-Fri", "time": "5:00pm"}, {"days": "Sat-Sun", "time": "Closed"}], "id": "0221000059", "name": "USPS COLLECTION BOX - EXPRESS", "address": {"city": "BOSTON", "state": "MA", "street": "2 FISH PIER", "postcode": "02210"}}},
{"geometry": {"type": "Point", "coordinates": [-71.0273483951, 42.3440057722]}, "type": "Feature", "properties": {"collection_times": [{"days": "Mon-Fri", "time": "5:00pm"}, {"days": "Sat-Sun", "time": "Closed"}], "id": "0221000086", "name": "USPS COLLECTION BOX - BLUE BOX", "address": {"city": "BOSTON", "state": "MA", "street": "88 BLACK FALCON AVE", "postcode": "02210"}}},
{"geometry": {"type": "Point", "coordinates": [-71.0434744585, 42.3506705302]}, "type": "Feature", "properties": {"collection_times": [{"days": "Mon-Fri", "time": "5:00pm"}, {"days": "Sat", "time": "1:00pm"}, {"days": "Sun", "time": "Closed"}], "id": "0221000087", "name": "USPS COLLECTION BOX - BLUE BOX", "address": {"city": "BOSTON", "state": "MA", "street": "155 SEAPORT BLVD", "postcode": "02210"}}},
{"geometry": {"type": "Point", "coordinates": [-71.0411570751, 42.3490593728]}, "type": "Feature", "properties": {"collection_times": [{"days": "Mon-Fri", "time": "5:00pm"}, {"days": "Sat", "time": "1:00pm"}, {"days": "Sun", "time": "Closed"}], "id": "0221000088", "name": "USPS COLLECTION BOX - BLUE BOX", "address": {"city": "BOSTON", "state": "MA", "street": "2 SEAPORT LN", "postcode": "02210"}}},
{"geometry": {"type": "Point", "coordinates": [-71.0427963845, 42.3485042404]}, "type": "Feature", "properties": {"collection_times": [{"days": "Mon-Fri", "time": "5:00pm"}, {"days": "Sat-Sun", "time": "Closed"}], "id": "0221000099", "name": "USPS COLLECTION BOX - EXPRESS", "address": {"city": "BOSTON", "state": "MA", "street": "2 HARBOR ST", "postcode": "02210"}}},
{"geometry": {"type": "Point", "coordinates": [-71.1084757209, 42.3378023353]}, "type": "Feature", "properties": {"collection_times": [{"days": "Mon-Fri", "time": "4:00pm"}, {"days": "Sat", "time": "1:00pm"}, {"days": "Sun", "time": "Closed"}], "id": "0221500004", "name": "USPS COLLECTION BOX - BLUE BOX", "address": {"city": "BOSTON", "state": "MA", "street": "454 BROOKLINE AVE", "postcode": "02215"}}},
{"geometry": {"type": "Point", "coordinates": [-71.1072992257, 42.3387646317]}, "type": "Feature", "properties": {"collection_times": [{"days": "Mon-Fri", "time": "4:00pm"}, {"days": "Sat-Sun", "time": "Closed"}], "id": "0221500009", "name": "USPS COLLECTION BOX - BLUE BOX", "address": {"city": "BOSTON", "state": "MA", "street": "400 BROOKLINE AVE", "postcode": "02215"}}},
{"geometry": {"type": "Point", "coordinates": [-71.10567684, 42.340407211]}, "type": "Feature", "properties": {"collection_times": [{"days": "Mon-Fri", "time": "4:00pm"}, {"days": "Sat-Sun", "time": "Closed"}], "id": "0221500010", "name": "USPS COLLECTION BOX - BLUE BOX", "address": {"city": "BOSTON", "state": "MA", "street": "330 BROOKLINE AVE", "postcode": "02215"}}},
{"geometry": {"type": "Point", "coordinates": [-71.0905089401, 42.3455069471]}, "type": "Feature", "properties": {"collection_times": [{"days": "Mon-Fri", "time": "1:00pm"}, {"days": "Sat-Sun", "time": "Closed"}], "id": "0221500011", "name": "USPS COLLECTION BOX - BLUE BOX", "address": {"city": "BOSTON", "state": "MA", "street": "38 FENWAY", "postcode": "02215"}}},
{"geometry": {"type": "Point", "coordinates": [-71.1003372924, 42.3463404275]}, "type": "Feature", "properties": {"collection_times": [{"days": "Mon-Fri", "time": "4:00pm"}, {"days": "Sat", "time": "1:00pm"}, {"days": "Sun", "time": "Closed"}], "id": "0221500013", "name": "USPS COLLECTION BOX - BLUE BOX", "address": {"city": "BOSTON", "state": "MA", "street": "1126 BOYLSTON ST", "postcode": "02215"}}},
{"geometry": {"type": "Point", "coordinates": [-71.1003372924, 42.3463404275]}, "type": "Feature", "properties": {"collection_times": [{"days": "Mon-Fri", "time": "4:00pm"}, {"days": "Sat", "time": "1:00pm"}, {"days": "Sun", "time": "Closed"}], "id": "0221500014", "name": "USPS COLLECTION BOX - BLUE BOX", "address": {"city": "BOSTON", "state": "MA", "street": "609 COMMONWEALTH AVE", "postcode": "02215"}}},
{"geometry": {"type": "Point", "coordinates": [-71.1003372924, 42.3463404275]}, "type": "Feature", "properties": {"collection_times": [{"days": "Mon-Fri", "time": "1:00pm"}, {"days": "Sat-Sun", "time": "Closed"}], "id": "0221500015", "name": "USPS COLLECTION BOX - BLUE BOX", "address": {"city": "BOSTON", "state": "MA", "street": "409 COMMONWEALTH AVE", "postcode": "02215"}}},
{"geometry": {"type": "Point", "coordinates": [-71.1154114093, 42.3511532102]}, "type": "Feature", "properties": {"collection_times": [{"days": "Mon-Fri", "time": "4:00pm"}, {"days": "Sat", "time": "1:00pm"}, {"days": "Sun", "time": "Closed"}], "id": "0221500017", "name": "USPS COLLECTION BOX - BLUE BOX", "address": {"city": "BOSTON", "state": "MA", "street": "881 COMMONWEALTH AVE", "postcode": "02215"}}},
{"geometry": {"type": "Point", "coordinates": [-71.1243133507, 42.352272846]}, "type": "Feature", "properties": {"collection_times": [{"days": "Mon-Fri", "time": "4:00pm"}, {"days": "Sat", "time": "1:00pm"}, {"days": "Sun", "time": "Closed"}], "id": "0221500021", "name": "USPS COLLECTION BOX - BLUE BOX", "address": {"city": "BOSTON", "state": "MA", "street": "1101 COMMONWEALTH AVE", "postcode": "02215"}}},
{"geometry": {"type": "Point", "coordinates": [-71.1210624043, 42.3518345946]}, "type": "Feature", "properties": {"collection_times": [{"days": "Mon-Fri", "time": "4:00pm"}, {"days": "Sat", "time": "1:00pm"}, {"days": "Sun", "time": "Closed"}], "id": "0221500022", "name": "USPS COLLECTION BOX - BLUE BOX", "address": {"city": "BOSTON", "state": "MA", "street": "1001 COMMONWEALTH AVE", "postcode": "02215"}}},
{"geometry": {"type": "Point", "coordinates": [-71.0994355485, 42.3482253868]}, "type": "Feature", "properties": {"collection_times": [{"days": "Mon-Sat", "time": "1:00pm"}, {"days": "Sun", "time": "Closed"}], "id": "0221500025", "name": "USPS COLLECTION BOX - BLUE BOX", "address": {"city": "BOSTON", "state": "MA", "street": "700 BEACON ST", "postcode": "02215"}}},
{"geometry": {"type": "Point", "coordinates": [-71.1039556347, 42.3495976192]}, "type": "Feature", "properties": {"collection_times": [{"days": "Mon-Fri", "time": "4:00pm"}, {"days": "Sat", "time": "1:00pm"}, {"days": "Sun", "time": "Closed"}], "id": "0221500026", "name": "USPS COLLECTION BOX - BLUE BOX", "address": {"city": "BOSTON", "state": "MA", "street": "700 COMMONWEALTH AVE", "postcode": "02215"}}},
{"geometry": {"type": "Point", "coordinates": [-71.1003372924, 42.3463404275]}, "type": "Feature", "properties": {"collection_times": [{"days": "Mon-Fri", "time": "4:00pm"}, {"days": "Sat", "time": "1:00pm"}, {"days": "Sun", "time": "Closed"}], "id": "0221500028", "name": "USPS COLLECTION BOX - BLUE BOX", "address": {"city": "BOSTON", "state": "MA", "street": "829 BEACON ST", "postcode": "02215"}}},
{"geometry": {"type": "Point", "coordinates": [-71.1003372924, 42.3463404275]}, "type": "Feature", "properties": {"collection_times": [{"days": "Mon-Fri", "time": "1:00pm"}, {"days": "Sat-Sun", "time": "Closed"}], "id": "0221500029", "name": "USPS COLLECTION BOX - BLUE BOX", "address": {"city": "BOSTON", "state": "MA", "street": "506 PARK DR", "postcode": "02215"}}},
{"geometry": {"type": "Point", "coordinates": [-71.1045755052, 42.3454844709]}, "type": "Feature", "properties": {"collection_times": [{"days": "Mon-Fri", "time": "1:00pm"}, {"days": "Sat-Sun", "time": "Closed"}], "id": "0221500030", "name": "USPS COLLECTION BOX - BLUE BOX", "address": {"city": "BOSTON", "state": "MA", "street": "452 PARK DR", "postcode": "02215"}}},
{"geometry": {"type": "Point", "coordinates": [-71.1226544478, 42.3520874093]}, "type": "Feature", "properties": {"collection_times": [{"days": "Mon-Fri", "time": "4:00pm"}, {"days": "Sat", "time": "1:00pm"}, {"days": "Sun", "time": "Closed"}], "id": "0221500031", "name": "USPS COLLECTION BOX - BLUE BOX", "address": {"city": "BOSTON", "state": "MA", "street": "1041 COMMONWEALTH AVE", "postcode": "02215"}}},
{"geometry": {"type": "Point", "coordinates": [-71.1003372924, 42.3463404275]}, "type": "Feature", "properties": {"collection_times": [{"days": "Mon-Fri", "time": "4:00pm"}, {"days": "Sat", "time": "1:00pm"}, {"days": "Sun", "time": "Closed"}], "id": "0221500037", "name": "USPS COLLECTION BOX - BLUE BOX", "address": {"city": "BOSTON", "state": "MA", "street": "395 LONGWOOD AVE", "postcode": "02215"}}},
{"geometry": {"type": "Point", "coordinates": [-71.1050276829, 42.342510899]}, "type": "Feature", "properties": {"collection_times": [{"days": "Mon-Fri", "time": "4:00pm"}, {"days": "Sat-Sun", "time": "Closed"}], "id": "0221500038", "name": "USPS COLLECTION BOX - BLUE BOX", "address": {"city": "BOSTON", "state": "MA", "street": "37 PILGRIM RD", "postcode": "02215"}}},
{"geometry": {"type": "Point", "coordinates": [-71.1079225811, 42.3398089761]}, "type": "Feature", "properties": {"collection_times": [{"days": "Mon-Fri", "time": "4:00pm"}, {"days": "Sat-Sun", "time": "Closed"}], "id": "0221500039", "name": "USPS COLLECTION BOX - BLUE BOX", "address": {"city": "BOSTON", "state": "MA", "street": "102 PILGRIM RD", "postcode": "02215"}}},
{"geometry": {"type": "Point", "coordinates": [-71.1003372924, 42.3463404275]}, "type": "Feature", "properties": {"collection_times": [{"days": "Mon-Fri", "time": "4:00pm"}, {"days": "Sat", "time": "1:00pm"}, {"days": "Sun", "time": "Closed"}], "id": "0221500040", "name": "USPS COLLECTION BOX - BLUE BOX", "address": {"city": "BOSTON", "state": "MA", "street": "109 BROOKLINE AVE", "postcode": "02215"}}},
{"geometry": {"type": "Point", "coordinates": [-71.0910826752, 42.3488606357]}, "type": "Feature", "properties": {"collection_times": [{"days": "Mon-Fri", "time": "4:00pm"}, {"days": "Sat", "time": "1:00pm"}, {"days": "Sun", "time": "Closed"}], "id": "0221500042", "name": "USPS COLLECTION BOX - BLUE BOX", "address": {"city": "BOSTON", "state": "MA", "street": "400 COMMONWEALTH AVE", "postcode": "02215"}}},
{"geometry": {"type": "Point", "coordinates": [-71.0973227838, 42.3494391027]}, "type": "Feature", "properties": {"collection_times": [{"days": "Mon-Fri", "time": "5:00pm"}, {"days": "Sat", "time": "3:00pm"}, {"days": "Sun", "time": "Closed"}], "id": "0221500046", "name": "USPS COLLECTION BOX - BLUE BOX", "address": {"city": "BOSTON", "state": "MA", "street": "11 DEERFIELD ST", "postcode": "02215"}}},
{"geometry": {"type": "Point", "coordinates": [-71.1003372924, 42.3463404275]}, "type": "Feature", "properties": {"collection_times": [{"days": "Mon-Fri", "time": "4:00pm"}, {"days": "Sat", "time": "1:00pm"}, {"days": "Sun", "time": "Closed"}], "id": "0221500047", "name": "USPS COLLECTION BOX - BLUE BOX", "address": {"city": "BOSTON", "state": "MA", "street": "126 BROOKLINE AVE", "postcode": "02215"}}},
{"geometry": {"type": "Point", "coordinates": [-71.0973227838, 42.3494391027]}, "type": "Feature", "properties": {"collection_times": [{"days": "Mon-Fri", "time": "5:00pm"}, {"days": "Sat", "time": "3:00pm"}, {"days": "Sun", "time": "Closed"}], "id": "0221500050", "name": "USPS COLLECTION BOX - BLUE BOX", "address": {"city": "BOSTON", "state": "MA", "street": "11 DEERFIELD ST", "postcode": "02215"}}},
{"geometry": {"type": "Point", "coordinates": [-71.1003372924, 42.3463404275]}, "type": "Feature", "properties": {"collection_times": [{"days": "Mon-Fri", "time": "4:00pm"}, {"days": "Sat", "time": "1:00pm"}, {"days": "Sun", "time": "Closed"}], "id": "0221500051", "name": "USPS COLLECTION BOX - BLUE BOX", "address": {"city": "BOSTON", "state": "MA", "street": "1066 COMMONWEALTH AVE", "postcode": "02215"}}},
{"geometry": {"type": "Point", "coordinates": [-71.1003372924, 42.3463404275]}, "type": "Feature", "properties": {"collection_times": [{"days": "Mon-Sat", "time": "1:00pm"}, {"days": "Sun", "time": "Closed"}], "id": "0221500052", "name": "USPS COLLECTION BOX - BLUE BOX", "address": {"city": "BOSTON", "state": "MA", "street": "526 BEACON ST", "postcode": "02215"}}},
{"geometry": {"type": "Point", "coordinates": [-71.1003372924, 42.3463404275]}, "type": "Feature", "properties": {"collection_times": [{"days": "Mon-Fri", "time": "1:00pm"}, {"days": "Sat-Sun", "time": "Closed"}], "id": "0221500053", "name": "USPS COLLECTION BOX - BLUE BOX", "address": {"city": "BOSTON", "state": "MA", "street": "1179 BOYLSTON ST", "postcode": "02215"}}},
{"geometry": {"type": "Point", "coordinates": [-71.097519155, 42.341702551]}, "type": "Feature", "properties": {"collection_times": [{"days": "Mon-Fri", "time": "4:00pm"}, {"days": "Sat", "time": "1:00pm"}, {"days": "Sun", "time": "Closed"}], "id": "0221500055", "name": "USPS COLLECTION BOX - BLUE BOX", "address": {"city": "BOSTON", "state": "MA", "street": "125 PARK DR", "postcode": "02215"}}},
{"geometry": {"type": "Point", "coordinates": [-71.1019377591, 42.3475649754]}, "type": "Feature", "properties": {"collection_times": [{"days": "Mon-Sat", "time": "1:00pm"}, {"days": "Sun", "time": "Closed"}], "id": "0221500056", "name": "USPS COLLECTION BOX - BLUE BOX", "address": {"city": "BOSTON", "state": "MA", "street": "133 PETERBORO ST", "postcode": "02215"}}},
{"geometry": {"type": "Point", "coordinates": [-71.0968844697, 42.3427579717]}, "type": "Feature", "properties": {"collection_times": [{"days": "Mon-Sat", "time": "1:00pm"}, {"days": "Sun", "time": "Closed"}], "id": "0221500057", "name": "USPS COLLECTION BOX - BLUE BOX", "address": {"city": "BOSTON", "state": "MA", "street": "124 JERSEY ST", "postcode": "02215"}}},
{"geometry": {"type": "Point", "coordinates": [-71.099276315, 42.3423044255]}, "type": "Feature", "properties": {"collection_times": [{"days": "Mon-Fri", "time": "4:00pm"}, {"days": "Sat", "time": "1:00pm"}, {"days": "Sun", "time": "Closed"}], "id": "0221500058", "name": "USPS COLLECTION BOX - BLUE BOX", "address": {"city": "BOSTON", "state": "MA", "street": "81 KILMARNOCK ST", "postcode": "02215"}}},
{"geometry": {"type": "Point", "coordinates": [-71.1032056387, 42.3437538019]}, "type": "Feature", "properties": {"collection_times": [{"days": "Mon-Fri", "time": "4:00pm"}, {"days": "Sat", "time": "1:00pm"}, {"days": "Sun", "time": "Closed"}], "id": "0221500059", "name": "USPS COLLECTION BOX - BLUE BOX", "address": {"city": "BOSTON", "state": "MA", "street": "401 PARK DR", "postcode": "02215"}}},
{"geometry": {"type": "Point", "coordinates": [-71.0952140341, 42.3453252844]}, "type": "Feature", "properties": {"collection_times": [{"days": "Mon-Sat", "time": "1:00pm"}, {"days": "Sun", "time": "Closed"}], "id": "0221500060", "name": "USPS COLLECTION BOX - BLUE BOX", "address": {"city": "BOSTON", "state": "MA", "street": "1247 BOYLSTON ST", "postcode": "02215"}}},
{"geometry": {"type": "Point", "coordinates": [-71.0945235977, 42.3472099549]}, "type": "Feature", "properties": {"collection_times": [{"days": "Mon-Sat", "time": "1:00pm"}, {"days": "Sun", "time": "Closed"}], "id": "0221500061", "name": "USPS COLLECTION BOX - BLUE BOX", "address": {"city": "BOSTON", "state": "MA", "street": "1 LANSDOWNE ST", "postcode": "02215"}}},
{"geometry": {"type": "Point", "coordinates": [-71.1003372924, 42.3463404275]}, "type": "Feature", "properties": {"collection_times": [{"days": "Mon-Sat", "time": "1:00pm"}, {"days": "Sun", "time": "Closed"}], "id": "0221500062", "name": "USPS COLLECTION BOX - BLUE BOX", "address": {"city": "BOSTON", "state": "MA", "street": "16 PETERBORO ST", "postcode": "02215"}}},
{"geometry": {"type": "Point", "coordinates": [-71.1003372924, 42.3463404275]}, "type": "Feature", "properties": {"collection_times": [{"days": "Mon-Fri", "time": "4:00pm"}, {"days": "Sat", "time": "1:00pm"}, {"days": "Sun", "time": "Closed"}], "id": "0221500063", "name": "USPS COLLECTION BOX - EXPRESS", "address": {"city": "BOSTON", "state": "MA", "street": "126 BROOKLINE AVE", "postcode": "02215"}}},
{"geometry": {"type": "Point", "coordinates": [-71.0990196591, 42.3466582172]}, "type": "Feature", "properties": {"collection_times": [{"days": "Mon-Fri", "time": "4:00pm"}, {"days": "Sat", "time": "1:00pm"}, {"days": "Sun", "time": "Closed"}], "id": "0221500064", "name": "USPS COLLECTION BOX - BLUE BOX", "address": {"city": "BOSTON", "state": "MA", "street": "82 BROOKLINE AVE", "postcode": "02215"}}},
{"geometry": {"type": "Point", "coordinates": [-71.1003372924, 42.3463404275]}, "type": "Feature", "properties": {"collection_times": [{"days": "Mon-Sat", "time": "1:00pm"}, {"days": "Sun", "time": "Closed"}], "id": "0221500065", "name": "USPS COLLECTION BOX - BLUE BOX", "address": {"city": "BOSTON", "state": "MA", "street": "1295 BOYLSTON ST", "postcode": "02215"}}},
{"geometry": {"type": "Point", "coordinates": [-71.1037900204, 42.3431398462]}, "type": "Feature", "properties": {"collection_times": [{"days": "Mon-Fri", "time": "1:00pm"}, {"days": "Sat-Sun", "time": "Closed"}], "id": "0221500066", "name": "USPS COLLECTION BOX - BLUE BOX", "address": {"city": "BOSTON", "state": "MA", "street": "100 RIVERWAY", "postcode": "02215"}}},
{"geometry": {"type": "Point", "coordinates": [-71.1003372924, 42.3463404275]}, "type": "Feature", "properties": {"collection_times": [{"days": "Mon-Sat", "time": "9:30am"}, {"days": "Sun", "time": "Closed"}], "id": "0221500067", "name": "USPS COLLECTION BOX - BLUE BOX", "address": {"city": "BOSTON", "state": "MA", "street": "199 BAY STATE RD", "postcode": "02215"}}},
{"geometry": {"type": "Point", "coordinates": [-71.1003372924, 42.3463404275]}, "type": "Feature", "properties": {"collection_times": [{"days": "Mon-Sat", "time": "11:00am"}, {"days": "Sun", "time": "Closed"}], "id": "0221500068", "name": "USPS COLLECTION BOX - BLUE BOX", "address": {"city": "BOSTON", "state": "MA", "street": "59 BAY STATE RD", "postcode": "02215"}}},
{"geometry": {"type": "Point", "coordinates": [-71.1003372924, 42.3463404275]}, "type": "Feature", "properties": {"collection_times": [{"days": "Mon-Fri", "time": "4:00pm"}, {"days": "Sat", "time": "1:00pm"}, {"days": "Sun", "time": "Closed"}], "id": "0221500069", "name": "USPS COLLECTION BOX - BLUE BOX", "address": {"city": "BOSTON", "state": "MA", "street": "677 BEACON ST", "postcode": "02215"}}},
{"geometry": {"type": "Point", "coordinates": [-71.1032056387, 42.3437538019]}, "type": "Feature", "properties": {"collection_times": [{"days": "Mon-Fri", "time": "4:00pm"}, {"days": "Sat", "time": "1:00pm"}, {"days": "Sun", "time": "Closed"}], "id": "0221500072", "name": "USPS COLLECTION BOX - BLUE BOX", "address": {"city": "BOSTON", "state": "MA", "street": "401 PARK DR", "postcode": "02215"}}},
{"geometry": {"type": "Point", "coordinates": [-71.0990196591, 42.3466582172]}, "type": "Feature", "properties": {"collection_times": [{"days": "Mon-Fri", "time": "4:00pm"}, {"days": "Sat", "time": "1:00pm"}, {"days": "Sun", "time": "Closed"}], "id": "0221500076", "name": "USPS COLLECTION BOX - BLUE BOX", "address": {"city": "BOSTON", "state": "MA", "street": "82 BROOKLINE AVE", "postcode": "02215"}}},
{"geometry": {"type": "Point", "coordinates": [-71.1003372924, 42.3463404275]}, "type": "Feature", "properties": {"collection_times": [{"days": "Mon-Fri", "time": "4:00pm"}, {"days": "Sat", "time": "1:00pm"}, {"days": "Sun", "time": "Closed"}], "id": "0221500078", "name": "USPS COLLECTION BOX - BLUE BOX", "address": {"city": "BOSTON", "state": "MA", "street": "652 BEACON ST", "postcode": "02215"}}},
{"geometry": {"type": "Point", "coordinates": [-71.1209587391, 42.3529090782]}, "type": "Feature", "properties": {"collection_times": [{"days": "Mon-Fri", "time": "4:00pm"}, {"days": "Sat", "time": "1:00pm"}, {"days": "Sun", "time": "Closed"}], "id": "0221500079", "name": "USPS COLLECTION BOX - BLUE BOX", "address": {"city": "BOSTON", "state": "MA", "street": "275 BABCOCK ST", "postcode": "02215"}}},
{"geometry": {"type": "Point", "coordinates": [-71.1003459826, 42.3463403811]}, "type": "Feature", "properties": {"collection_times": [{"days": "Mon-Fri", "time": "5:00pm"}, {"days": "Sat", "time": "3:00pm"}, {"days": "Sun", "time": "Closed"}], "id": "0221500080", "name": "USPS COLLECTION BOX - EXPRESS", "address": {"city": "BOSTON", "state": "MA", "street": "11 DEERFIELD ST", "postcode": "02215"}}},
{"geometry": {"type": "Point", "coordinates": [-71.1003459826, 42.3463403811]}, "type": "Feature", "properties": {"collection_times": [{"days": "Mon-Fri", "time": "4:00pm"}, {"days": "Sat", "time": "1:00pm"}, {"days": "Sun", "time": "Closed"}], "id": "0221500081", "name": "USPS COLLECTION BOX - EXPRESS", "address": {"city": "BOSTON", "state": "MA", "street": "1101 COMMONWEALTH AVE", "postcode": "02215"}}},
{"geometry": {"type": "Point", "coordinates": [-71.1003372924, 42.3463404275]}, "type": "Feature", "properties": {"collection_times": [{"days": "Mon-Sat", "time": "1:00pm"}, {"days": "Sun", "time": "Closed"}], "id": "0221500082", "name": "USPS COLLECTION BOX - BLUE BOX", "address": {"city": "BOSTON", "state": "MA", "street": "466 COMMONWEALTH AVE", "postcode": "02215"}}},
{"geometry": {"type": "Point", "coordinates": [-71.1003459826, 42.3463403811]}, "type": "Feature", "properties": {"collection_times": [{"days": "Mon-Fri", "time": "4:00pm"}, {"days": "Sat", "time": "1:00pm"}, {"days": "Sun", "time": "Closed"}], "id": "0221500086", "name": "USPS COLLECTION BOX - EXPRESS", "address": {"city": "BOSTON", "state": "MA", "street": "775 COMMONWEALTH AVE", "postcode": "02215"}}},
{"geometry": {"type": "Point", "coordinates": [-71.1003459826, 42.3463403811]}, "type": "Feature", "properties": {"collection_times": [{"days": "Mon-Fri", "time": "4:00pm"}, {"days": "Sat-Sun", "time": "Closed"}], "id": "0221500087", "name": "USPS COLLECTION BOX - EXPRESS", "address": {"city": "BOSTON", "state": "MA", "street": "400 BROOKLINE AVE", "postcode": "02215"}}},
{"geometry": {"type": "Point", "coordinates": [-71.0968531238, 42.3447635538]}, "type": "Feature", "properties": {"collection_times": [{"days": "Mon-Sat", "time": "1:00pm"}, {"days": "Sun", "time": "Closed"}], "id": "0221500092", "name": "USPS COLLECTION BOX - BLUE BOX", "address": {"city": "BOSTON", "state": "MA", "street": "1280 BOYLSTON ST", "postcode": "02215"}}},
{"geometry": {"type": "Point", "coordinates": [-71.1046903121, 42.3468511848]}, "type": "Feature", "properties": {"collection_times": [{"days": "Mon-Fri", "time": "4:00pm"}, {"days": "Sat", "time": "1:00pm"}, {"days": "Sun", "time": "Closed"}], "id": "0221500164", "name": "USPS COLLECTION BOX - BLUE BOX", "address": {"city": "BOSTON", "state": "MA", "street": "880 BEACON ST", "postcode": "02215"}}},
{"geometry": {"type": "Point", "coordinates": [-71.0825308613, 42.3486347384]}, "type": "Feature", "properties": {"collection_times": [{"days": "Mon-Fri", "time": "4:00pm"}, {"days": "Sat", "time": "1:00pm"}, {"days": "Sun", "time": "Closed"}], "id": "0221500175", "name": "USPS COLLECTION BOX - BLUE BOX", "address": {"city": "BOSTON", "state": "MA", "street": "800 BOYLSTON ST", "postcode": "02215"}}},
{"geometry": {"type": "Point", "coordinates": [-71.1003459826, 42.3463403811]}, "type": "Feature", "properties": {"collection_times": [{"days": "Mon-Fri", "time": "4:00pm"}, {"days": "Sat", "time": "1:00pm"}, {"days": "Sun", "time": "Closed"}], "id": "0221500181", "name": "USPS COLLECTION BOX - EXPRESS", "address": {"city": "BOSTON", "state": "MA", "street": "800 BOYLSTON ST", "postcode": "02215"}}},
{"geometry": {"type": "Point", "coordinates": [-71.0825308613, 42.3486347384]}, "type": "Feature", "properties": {"collection_times": [{"days": "Mon-Fri", "time": "5:00pm"}, {"days": "Sat", "time": "1:00pm"}, {"days": "Sun", "time": "Closed"}], "id": "0221500182", "name": "USPS COLLECTION BOX - APC", "address": {"city": "BOSTON", "state": "MA", "street": "800 BOYLSTON ST", "postcode": "02215"}}},
{"geometry": {"type": "Point", "coordinates": [-71.0993936187, 42.344073528]}, "type": "Feature", "properties": {"collection_times": [{"days": "Mon-Fri", "time": "4:30pm"}, {"days": "Sat", "time": "1:00pm"}, {"days": "Sun", "time": "Closed"}], "id": "0221500185", "name": "USPS COLLECTION BOX - BLUE BOX", "address": {"city": "BOSTON", "state": "MA", "street": "1340 BOYLSTON ST", "postcode": "02215"}}}
]}
