{"type": "FeatureCollection", "features": [
{"geometry": {"type": "Point", "coordinates": [-71.0328834985, 42.0979687935]}, "type": "Feature", "properties": {"collection_times": [{"days": "Mon-Fri", "time": "11:00am"}, {"days": "Sat", "time": "12:00pm"}, {"days": "Sun", "time": "Closed"}], "id": "0230100000", "name": "USPS COLLECTION BOX - BLUE BOX", "address": {"city": "BROCKTON", "state": "MA", "street": "300 BATTLES ST", "postcode": "02301"}}},
{"geometry": {"type": "Point", "coordinates": [-71.0377780496, 42.0923945178]}, "type": "Feature", "properties": {"collection_times": [{"days": "Mon-Fri", "time": "11:00am"}, {"days": "Sat", "time": "12:00pm"}, {"days": "Sun", "time": "Closed"}], "id": "0230100001", "name": "USPS COLLECTION BOX - BLUE BOX", "address": {"city": "BROCKTON", "state": "MA", "street": "117 BELAIR ST", "postcode": "02301"}}},
{"geometry": {"type": "Point", "coordinates": [-71.0402405851, 42.0770043885]}, "type": "Feature", "properties": {"collection_times": [{"days": "Mon-Sat", "time": "10:00am"}, {"days": "Sun", "time": "Closed"}], "id": "0230100002", "name": "USPS COLLECTION BOX - BLUE BOX", "address": {"city": "BROCKTON", "state": "MA", "street": "88 BELCHER AVE", "postcode": "02301"}}},
{"geometry": {"type": "Point", "coordinates": [-71.0568549623, 42.06756903]}, "type": "Feature", "properties": {"collection_times": [{"days": "Mon-Fri", "time": "3:00pm"}, {"days": "Sat", "time": "12:00pm"}, {"days": "Sun", "time": "Closed"}], "id": "0230100003", "name": "USPS COLLECTION BOX - BLUE BOX", "address": {"city": "BROCKTON", "state": "MA", "street": "11 BELMONT CT", "postcode": "02301"}}},
{"geometry": {"type": "Point", "coordinates": [-71.0227889146, 42.0800289772]}, "type": "Feature", "properties": {"collection_times": [{"days": "Mon-Fri", "time": "3:00pm"}, {"days": "Sat", "time": "12:00pm"}, {"days": "Sun", "time": "Closed"}], "id": "0230100004", "name": "USPS COLLECTION BOX - BLUE BOX", "address": {"city": "BROCKTON", "state": "MA", "street": "72 BELMONT ST", "postcode": "02301"}}},
{"geometry": {"type": "Point", "coordinates": [-71.0227889146, 42.0800289772]}, "type": "Feature", "properties": {"collection_times": [{"days": "Mon-Fri", "time": "3:00pm"}, {"days": "Sat", "time": "12:00pm"}, {"days": "Sun", "time": "Closed"}], "id": "0230100005", "name": "USPS COLLECTION BOX - BLUE BOX", "address": {"city": "BROCKTON", "state": "MA", "street": "72 BELMONT ST", "postcode": "02301"}}},
{"geometry": {"type": "Point", "coordinates": [-71.071109397, 42.0565229893]}, "type": "Feature", "properties": {"collection_times": [{"days": "Mon-Sat", "time": "12:00pm"}, {"days": "Sun", "time": "Closed"}], "id": "0230100006", "name": "USPS COLLECTION BOX - BLUE BOX", "address": {"city": "BROCKTON", "state": "MA", "street": "199 BELMONT ST", "postcode": "02301"}}},
{"geometry": {"type": "Point", "coordinates": [-71.0376222622, 42.0763573811]}, "type": "Feature", "properties": {"collection_times": [{"days": "Mon-Sat", "time": "12:00pm"}, {"days": "Sun", "time": "Closed"}], "id": "0230100009", "name": "USPS COLLECTION BOX - BLUE BOX", "address": {"city": "BROCKTON", "state": "MA", "street": "443 BELMONT ST", "postcode": "02301"}}},
{"geometry": {"type": "Point", "coordinates": [-71.0478855215, 42.069276426]}, "type": "Feature", "properties": {"collection_times": [{"days": "Mon-Sat", "time": "12:00pm"}, {"days": "Sun", "time": "Closed"}], "id": "0230100011", "name": "USPS COLLECTION BOX - BLUE BOX", "address": {"city": "BROCKTON", "state": "MA", "street": "735 BELMONT ST", "postcode": "02301"}}},
{"geometry": {"type": "Point", "coordinates": [-71.0477394054, 42.0692225849]}, "type": "Feature", "properties": {"collection_times": [{"days": "Mon-Sat", "time": "12:00pm"}, {"days": "Sun", "time": "Closed"}], "id": "0230100012", "name": "USPS COLLECTION BOX - BLUE BOX", "address": {"city": "BROCKTON", "state": "MA", "street": "740 BELMONT ST", "postcode": "02301"}}},
{"geometry": {"type": "Point", "coordinates": [-71.0511433691, 42.0672911916]}, "type": "Feature", "properties": {"collection_times": [{"days": "Mon-Fri", "time": "3:00pm"}, {"days": "Sat", "time": "12:00pm"}, {"days": "Sun", "time": "Closed"}], "id": "0230100013", "name": "USPS COLLECTION BOX - BLUE BOX", "address": {"city": "BROCKTON", "state": "MA", "street": "828 BELMONT ST", "postcode": "02301"}}},
{"geometry": {"type": "Point", "coordinates": [-71.0695399561, 42.0574549292]}, "type": "Feature", "properties": {"collection_times": [{"days": "Mon-Fri", "time": "3:00pm"}, {"days": "Sat", "time": "12:00pm"}, {"days": "Sun", "time": "Closed"}], "id": "0230100016", "name": "USPS COLLECTION BOX - BLUE BOX", "address": {"city": "BROCKTON", "state": "MA", "street": "1342 BELMONT ST", "postcode": "02301"}}},
{"geometry": {"type": "Point", "coordinates": [-71.0226592277, 42.0628262773]}, "type": "Feature", "properties": {"collection_times": [{"days": "Mon-Sat", "time": "2:00pm"}, {"days": "Sun", "time": "Closed"}], "id": "0230100019", "name": "USPS COLLECTION BOX - BLUE BOX", "address": {"city": "BROCKTON", "state": "MA", "street": "153 W CHESTNUT ST", "postcode": "02301"}}},
{"geometry": {"type": "Point", "coordinates": [-71.0639382552, 42.0536057059]}, "type": "Feature", "properties": {"collection_times": [{"days": "Mon-Sat", "time": "10:00am"}, {"days": "Sun", "time": "Closed"}], "id": "0230100020", "name": "USPS COLLECTION BOX - BLUE BOX", "address": {"city": "BROCKTON", "state": "MA", "street": "1115 W CHESTNUT ST", "postcode": "02301"}}},
{"geometry": {"type": "Point", "coordinates": [-71.0652240342, 42.0534443829]}, "type": "Feature", "properties": {"collection_times": [{"days": "Mon-Fri", "time": "4:00pm"}, {"days": "Sat", "time": "12:00pm"}, {"days": "Sun", "time": "Closed"}], "id": "0230100021", "name": "USPS COLLECTION BOX - BLUE BOX", "address": {"city": "BROCKTON", "state": "MA", "street": "1201 W CHESTNUT ST", "postcode": "02301"}}},
{"geometry": {"type": "Point", "coordinates": [-71.0394457693, 42.0944107983]}, "type": "Feature", "properties": {"collection_times": [{"days": "Mon-Fri", "time": "11:00am"}, {"days": "Sat", "time": "12:00pm"}, {"days": "Sun", "time": "Closed"}], "id": "0230100024", "name": "USPS COLLECTION BOX - BLUE BOX", "address": {"city": "BROCKTON", "state": "MA", "street": "140 COLONEL BELL DR", "postcode": "02301"}}},
{"geometry": {"type": "Point", "coordinates": [-71.0348059199, 42.0808041063]}, "type": "Feature", "properties": {"collection_times": [{"days": "Mon-Sat", "time": "11:00am"}, {"days": "Sun", "time": "Closed"}], "id": "0230100025", "name": "USPS COLLECTION BOX - BLUE BOX", "address": {"city": "BROCKTON", "state": "MA", "street": "65 CRESCENT ST", "postcode": "02301"}}},
{"geometry": {"type": "Point", "coordinates": [-71.0344562282, 42.080957174]}, "type": "Feature", "properties": {"collection_times": [{"days": "Mon-Sat", "time": "10:00am"}, {"days": "Sun", "time": "Closed"}], "id": "0230100028", "name": "USPS COLLECTION BOX - BLUE BOX", "address": {"city": "BROCKTON", "state": "MA", "street": "351 W ELM ST", "postcode": "02301"}}},
{"geometry": {"type": "Point", "coordinates": [-71.0644483432, 42.0892417448]}, "type": "Feature", "properties": {"collection_times": [{"days": "Mon-Fri", "time": "2:00pm"}, {"days": "Sat", "time": "12:00pm"}, {"days": "Sun", "time": "Closed"}], "id": "0230100029", "name": "USPS COLLECTION BOX - BLUE BOX", "address": {"city": "BROCKTON", "state": "MA", "street": "1 PEARL ST", "postcode": "02301"}}},
{"geometry": {"type": "Point", "coordinates": [-71.0295738985, 42.0713331601]}, "type": "Feature", "properties": {"collection_times": [{"days": "Mon-Sat", "time": "12:00pm"}, {"days": "Sun", "time": "Closed"}], "id": "0230100030", "name": "USPS COLLECTION BOX - BLUE BOX", "address": {"city": "BROCKTON", "state": "MA", "street": "233 FOREST AVE", "postcode": "02301"}}},
{"geometry": {"type": "Point", "coordinates": [-71.0348059199, 42.0808041063]}, "type": "Feature", "properties": {"collection_times": [{"days": "Mon-Sat", "time": "12:00pm"}, {"days": "Sun", "time": "Closed"}], "id": "0230100031", "name": "USPS COLLECTION BOX - BLUE BOX", "address": {"city": "BROCKTON", "state": "MA", "street": "490 FOREST AVE", "postcode": "02301"}}},
{"geometry": {"type": "Point", "coordinates": [-71.0242530841, 42.0828359301]}, "type": "Feature", "properties": {"collection_times": [{"days": "Mon-Fri", "time": "11:00am"}, {"days": "Sat", "time": "12:00pm"}, {"days": "Sun", "time": "Closed"}], "id": "0230100032", "name": "USPS COLLECTION BOX - BLUE BOX", "address": {"city": "BROCKTON", "state": "MA", "street": "45 GODDARD RD", "postcode": "02301"}}},
{"geometry": {"type": "Point", "coordinates": [-71.0416536495, 42.086316717]}, "type": "Feature", "properties": {"collection_times": [{"days": "Mon-Fri", "time": "2:00pm"}, {"days": "Sat", "time": "12:00pm"}, {"days": "Sun", "time": "Closed"}], "id": "0230100033", "name": "USPS COLLECTION BOX - BLUE BOX", "address": {"city": "BROCKTON", "state": "MA", "street": "80 HAWLEY ST", "postcode": "02301"}}},
{"geometry": {"type": "Point", "coordinates": [-71.0214622822, 42.0832050273]}, "type": "Feature", "properties": {"collection_times": [{"days": "Mon-Sat", "time": "10:00am"}, {"days": "Sun", "time": "Closed"}], "id": "0230100034", "name": "USPS COLLECTION BOX - BLUE BOX", "address": {"city": "BROCKTON", "state": "MA", "street": "47 FREDRICK DOUGLASS AVE", "postcode": "02301"}}},
{"geometry": {"type": "Point", "coordinates": [-71.0644483432, 42.0892417448]}, "type": "Feature", "properties": {"collection_times": [{"days": "Mon-Fri", "time": "2:00pm"}, {"days": "Sat", "time": "12:00pm"}, {"days": "Sun", "time": "Closed"}], "id": "0230100035", "name": "USPS COLLECTION BOX - BLUE BOX", "address": {"city": "BROCKTON", "state": "MA", "street": "1 PEARL ST", "postcode": "02301"}}},
{"geometry": {"type": "Point", "coordinates": [-71.021004374, 42.0839073336]}, "type": "Feature", "properties": {"collection_times": [{"days": "Mon-Sat", "time": "12:00pm"}, {"days": "Sun", "time": "Closed"}], "id": "0230100038", "name": "USPS COLLECTION BOX - BLUE BOX", "address": {"city": "BROCKTON", "state": "MA", "street": "71 LEGION PKWY", "postcode": "02301"}}},
{"geometry": {"type": "Point", "coordinates": [-71.0203056393, 42.0809939749]}, "type": "Feature", "properties": {"collection_times": [{"days": "Mon-Fri", "time": "4:00pm"}, {"days": "Sat", "time": "12:00pm"}, {"days": "Sun", "time": "Closed"}], "id": "0230100040", "name": "USPS COLLECTION BOX - BLUE BOX", "address": {"city": "BROCKTON", "state": "MA", "street": "215 MAIN ST", "postcode": "02301"}}},
{"geometry": {"type": "Point", "coordinates": [-71.0203056393, 42.0809939749]}, "type": "Feature", "properties": {"collection_times": [{"days": "Mon-Fri", "time": "4:00pm"}, {"days": "Sat", "time": "12:00pm"}, {"days": "Sun", "time": "Closed"}], "id": "0230100043", "name": "USPS COLLECTION BOX - BLUE BOX", "address": {"city": "BROCKTON", "state": "MA", "street": "215 MAIN ST", "postcode": "02301"}}},
{"geometry": {"type": "Point", "coordinates": [-71.0203056393, 42.0809939749]}, "type": "Feature", "properties": {"collection_times": [{"days": "Mon-Fri", "time": "4:00pm"}, {"days": "Sat", "time": "12:00pm"}, {"days": "Sun", "time": "Closed"}], "id": "0230100044", "name": "USPS COLLECTION BOX - BLUE BOX", "address": {"city": "BROCKTON", "state": "MA", "street": "215 MAIN ST", "postcode": "02301"}}},
{"geometry": {"type": "Point", "coordinates": [-71.019864109, 42.078713836]}, "type": "Feature", "properties": {"collection_times": [{"days": "Mon-Sat", "time": "12:00pm"}, {"days": "Sun", "time": "Closed"}], "id": "0230100045", "name": "USPS COLLECTION BOX - BLUE BOX", "address": {"city": "BROCKTON", "state": "MA", "street": "320 MAIN ST", "postcode": "02301"}}},
{"geometry": {"type": "Point", "coordinates": [-71.0193797997, 42.0751487069]}, "type": "Feature", "properties": {"collection_times": [{"days": "Mon-Sat", "time": "12:00pm"}, {"days": "Sun", "time": "Closed"}], "id": "0230100046", "name": "USPS COLLECTION BOX - BLUE BOX", "address": {"city": "BROCKTON", "state": "MA", "street": "501 MAIN ST", "postcode": "02301"}}},
{"geometry": {"type": "Point", "coordinates": [-71.0154513556, 42.0636425263]}, "type": "Feature", "properties": {"collection_times": [{"days": "Mon-Fri", "time": "4:00pm"}, {"days": "Sat", "time": "12:00pm"}, {"days": "Sun", "time": "Closed"}], "id": "0230100049", "name": "USPS COLLECTION BOX - BLUE BOX", "address": {"city": "BROCKTON", "state": "MA", "street": "1106 MAIN ST", "postcode": "02301"}}},
{"geometry": {"type": "Point", "coordinates": [-71.0133963517, 42.0576622002]}, "type": "Feature", "properties": {"collection_times": [{"days": "Mon-Sat", "time": "12:00pm"}, {"days": "Sun", "time": "Closed"}], "id": "0230100051", "name": "USPS COLLECTION BOX - BLUE BOX", "address": {"city": "BROCKTON", "state": "MA", "street": "1380 MAIN ST", "postcode": "02301"}}},
{"geometry": {"type": "Point", "coordinates": [-71.019382779, 42.0912970097]}, "type": "Feature", "properties": {"collection_times": [{"days": "Mon-Fri", "time": "11:00am"}, {"days": "Sat", "time": "12:00pm"}, {"days": "Sun", "time": "Closed"}], "id": "0230100055", "name": "USPS COLLECTION BOX - BLUE BOX", "address": {"city": "BROCKTON", "state": "MA", "street": "288 N MAIN ST", "postcode": "02301"}}},
{"geometry": {"type": "Point", "coordinates": [-71.0194346013, 42.0967968152]}, "type": "Feature", "properties": {"collection_times": [{"days": "Mon-Fri", "time": "11:00am"}, {"days": "Sat", "time": "12:00pm"}, {"days": "Sun", "time": "Closed"}], "id": "0230100057", "name": "USPS COLLECTION BOX - BLUE BOX", "address": {"city": "BROCKTON", "state": "MA", "street": "553 N MAIN ST", "postcode": "02301"}}},
{"geometry": {"type": "Point", "coordinates": [-71.024476901, 42.1044069781]}, "type": "Feature", "properties": {"collection_times": [{"days": "Mon-Fri", "time": "10:00am"}, {"days": "Sat", "time": "12:00pm"}, {"days": "Sun", "time": "Closed"}], "id": "0230100059", "name": "USPS COLLECTION BOX - BLUE BOX", "address": {"city": "BROCKTON", "state": "MA", "street": "805 N MAIN ST", "postcode": "02301"}}},
{"geometry": {"type": "Point", "coordinates": [-71.027532712, 42.1065215175]}, "type": "Feature", "properties": {"collection_times": [{"days": "Mon-Fri", "time": "10:00am"}, {"days": "Sat", "time": "12:00pm"}, {"days": "Sun", "time": "Closed"}], "id": "0230100060", "name": "USPS COLLECTION BOX - BLUE BOX", "address": {"city": "BROCKTON", "state": "MA", "street": "888 N MAIN ST", "postcode": "02301"}}},
{"geometry": {"type": "Point", "coordinates": [-71.0348059199, 42.0808041063]}, "type": "Feature", "properties": {"collection_times": [{"days": "Mon-Fri", "time": "10:00am"}, {"days": "Sat", "time": "12:00pm"}, {"days": "Sun", "time": "Closed"}], "id": "0230100061", "name": "USPS COLLECTION BOX - BLUE BOX", "address": {"city": "BROCKTON", "state": "MA", "street": "932 N MONTELLO ST", "postcode": "02301"}}},
{"geometry": {"type": "Point", "coordinates": [-71.0198593116, 42.0855202725]}, "type": "Feature", "properties": {"collection_times": [{"days": "Mon-Fri", "time": "10:00am"}, {"days": "Sat", "time": "12:00pm"}, {"days": "Sun", "time": "Closed"}], "id": "0230100062", "name": "USPS COLLECTION BOX - BLUE BOX", "address": {"city": "BROCKTON", "state": "MA", "street": "1116 N MAIN ST", "postcode": "02301"}}},
{"geometry": {"type": "Point", "coordinates": [-71.0300189812, 42.0785033808]}, "type": "Feature", "properties": {"collection_times": [{"days": "Mon-Sat", "time": "12:00pm"}, {"days": "Sun", "time": "Closed"}], "id": "0230100063", "name": "USPS COLLECTION BOX - BLUE BOX", "address": {"city": "BROCKTON", "state": "MA", "street": "251 BELMONT ST", "postcode": "02301"}}},
{"geometry": {"type": "Point", "coordinates": [-71.0479816764, 42.100304998]}, "type": "Feature", "properties": {"collection_times": [{"days": "Mon-Fri", "time": "11:00am"}, {"days": "Sat", "time": "12:00pm"}, {"days": "Sun", "time": "Closed"}], "id": "0230100065", "name": "USPS COLLECTION BOX - BLUE BOX", "address": {"city": "BROCKTON", "state": "MA", "street": "113 OAK LN", "postcode": "02301"}}},
{"geometry": {"type": "Point", "coordinates": [-71.0172357643, 42.0831805298]}, "type": "Feature", "properties": {"collection_times": [{"days": "Mon-Fri", "time": "11:00am"}, {"days": "Sat", "time": "12:00pm"}, {"days": "Sun", "time": "Closed"}], "id": "0230100068", "name": "USPS COLLECTION BOX - BLUE BOX", "address": {"city": "BROCKTON", "state": "MA", "street": "356 OAK ST", "postcode": "02301"}}},
{"geometry": {"type": "Point", "coordinates": [-71.0172357643, 42.0831805298]}, "type": "Feature", "properties": {"collection_times": [{"days": "Mon-Fri", "time": "2:00pm"}, {"days": "Sat", "time": "12:00pm"}, {"days": "Sun", "time": "Closed"}], "id": "0230100070", "name": "USPS COLLECTION BOX - BLUE BOX", "address": {"city": "BROCKTON", "state": "MA", "street": "685 OAK ST", "postcode": "02301"}}},
{"geometry": {"type": "Point", "coordinates": [-71.0647121757, 42.0999939634]}, "type": "Feature", "properties": {"collection_times": [{"days": "Mon-Fri", "time": "2:00pm"}, {"days": "Sat", "time": "12:00pm"}, {"days": "Sun", "time": "Closed"}], "id": "0230100071", "name": "USPS COLLECTION BOX - BLUE BOX", "address": {"city": "BROCKTON", "state": "MA", "street": "50 OAK ST EXT", "postcode": "02301"}}},
{"geometry": {"type": "Point", "coordinates": [-71.0644910397, 42.0877684364]}, "type": "Feature", "properties": {"collection_times": [{"days": "Mon-Fri", "time": "2:00pm"}, {"days": "Sat", "time": "12:00pm"}, {"days": "Sun", "time": "Closed"}], "id": "0230100072", "name": "USPS COLLECTION BOX - BLUE BOX", "address": {"city": "BROCKTON", "state": "MA", "street": "35 PEARL ST", "postcode": "02301"}}},
{"geometry": {"type": "Point", "coordinates": [-71.0657016857, 42.0968569388]}, "type": "Feature", "properties": {"collection_times": [{"days": "Mon-Fri", "time": "2:00pm"}, {"days": "Sat", "time": "12:00pm"}, {"days": "Sun", "time": "Closed"}], "id": "0230100073", "name": "USPS COLLECTION BOX - BLUE BOX", "address": {"city": "BROCKTON", "state": "MA", "street": "235 N PEARL ST", "postcode": "02301"}}},
{"geometry": {"type": "Point", "coordinates": [-71.0348059199, 42.0808041063]}, "type": "Feature", "properties": {"collection_times": [{"days": "Mon-Fri", "time": "2:00pm"}, {"days": "Sat", "time": "12:00pm"}, {"days": "Sun", "time": "Closed"}], "id": "0230100075", "name": "USPS COLLECTION BOX - BLUE BOX", "address": {"city": "BROCKTON", "state": "MA", "street": "390 PLEASANT ST", "postcode": "02301"}}},
{"geometry": {"type": "Point", "coordinates": [-71.0327876748, 42.0878101802]}, "type": "Feature", "properties": {"collection_times": [{"days": "Mon-Fri", "time": "2:00pm"}, {"days": "Sat", "time": "12:00pm"}, {"days": "Sun", "time": "Closed"}], "id": "0230100076", "name": "USPS COLLECTION BOX - BLUE BOX", "address": {"city": "BROCKTON", "state": "MA", "street": "340 PLEASANT ST", "postcode": "02301"}}},
{"geometry": {"type": "Point", "coordinates": [-71.0436231872, 42.0893635214]}, "type": "Feature", "properties": {"collection_times": [{"days": "Mon-Fri", "time": "2:00pm"}, {"days": "Sat", "time": "12:00pm"}, {"days": "Sun", "time": "Closed"}], "id": "0230100077", "name": "USPS COLLECTION BOX - BLUE BOX", "address": {"city": "BROCKTON", "state": "MA", "street": "572 PLEASANT ST", "postcode": "02301"}}},
{"geometry": {"type": "Point", "coordinates": [-71.0471538966, 42.0736273478]}, "type": "Feature", "properties": {"collection_times": [{"days": "Mon-Fri", "time": "3:00pm"}, {"days": "Sat", "time": "12:00pm"}, {"days": "Sun", "time": "Closed"}], "id": "0230100082", "name": "USPS COLLECTION BOX - BLUE BOX", "address": {"city": "BROCKTON", "state": "MA", "street": "120 TORREY ST", "postcode": "02301"}}},
{"geometry": {"type": "Point", "coordinates": [-71.0620491245, 42.0711130087]}, "type": "Feature", "properties": {"collection_times": [{"days": "Mon-Sat", "time": "3:00pm"}, {"days": "Sun", "time": "Closed"}], "id": "0230100083", "name": "USPS COLLECTION BOX - BLUE BOX", "address": {"city": "BROCKTON", "state": "MA", "street": "478 TORREY ST", "postcode": "02301"}}},
{"geometry": {"type": "Point", "coordinates": [-71.0509448776, 42.0942310844]}, "type": "Feature", "properties": {"collection_times": [{"days": "Mon-Fri", "time": "2:00pm"}, {"days": "Sat", "time": "12:00pm"}, {"days": "Sun", "time": "Closed"}], "id": "0230100086", "name": "USPS COLLECTION BOX - BLUE BOX", "address": {"city": "BROCKTON", "state": "MA", "street": "200 WESTGATE DR", "postcode": "02301"}}},
{"geometry": {"type": "Point", "coordinates": [-71.0509448776, 42.0942310844]}, "type": "Feature", "properties": {"collection_times": [{"days": "Mon-Fri", "time": "2:00pm"}, {"days": "Sat", "time": "12:00pm"}, {"days": "Sun", "time": "Closed"}], "id": "0230100090", "name": "USPS COLLECTION BOX - BLUE BOX", "address": {"city": "BROCKTON", "state": "MA", "street": "200 WESTGATE DR", "postcode": "02301"}}},
{"geometry": {"type": "Point", "coordinates": [-71.0172357643, 42.0831805298]}, "type": "Feature", "properties": {"collection_times": [{"days": "Mon-Fri", "time": "2:00pm"}, {"days": "Sat", "time": "12:00pm"}, {"days": "Sun", "time": "Closed"}], "id": "0230100092", "name": "USPS COLLECTION BOX - BLUE BOX", "address": {"city": "BROCKTON", "state": "MA", "street": "495 WESTGATE DR", "postcode": "02301"}}},
{"geometry": {"type": "Point", "coordinates": [-71.0348059199, 42.0808041063]}, "type": "Feature", "properties": {"collection_times": [{"days": "Mon-Fri", "time": "2:00pm"}, {"days": "Sat", "time": "12:00pm"}, {"days": "Sun", "time": "Closed"}], "id": "0230100093", "name": "USPS COLLECTION BOX - BLUE BOX", "address": {"city": "BROCKTON", "state": "MA", "street": "641 BELMONT ST", "postcode": "02301"}}},
{"geometry": {"type": "Point", "coordinates": [-71.0348059199, 42.0808041063]}, "type": "Feature", "properties": {"collection_times": [{"days": "Mon-Fri", "time": "2:00pm"}, {"days": "Sat", "time": "12:00pm"}, {"days": "Sun", "time": "Closed"}], "id": "0230100094", "name": "USPS COLLECTION BOX - BLUE BOX", "address": {"city": "BROCKTON", "state": "MA", "street": "641 BELMONT ST", "postcode": "02301"}}},
{"geometry": {"type": "Point", "coordinates": [-71.067265858, 42.0590852851]}, "type": "Feature", "properties": {"collection_times": [{"days": "Mon-Fri", "time": "3:00pm"}, {"days": "Sat", "time": "12:00pm"}, {"days": "Sun", "time": "Closed"}], "id": "0230100095", "name": "USPS COLLECTION BOX - BLUE BOX", "address": {"city": "BROCKTON", "state": "MA", "street": "1285 BELMONT ST", "postcode": "02301"}}},
{"geometry": {"type": "Point", "coordinates": [-71.0098186175, 42.0441737878]}, "type": "Feature", "properties": {"collection_times": [{"days": "Mon-Sat", "time": "1:00pm"}, {"days": "Sun", "time": "Closed"}], "id": "0230100101", "name": "USPS COLLECTION BOX - BLUE BOX", "address": {"city": "BROCKTON", "state": "MA", "street": "2077 MAIN ST", "postcode": "02301"}}},
{"geometry": {"type": "Point", "coordinates": [-71.0639382552, 42.0536057059]}, "type": "Feature", "properties": {"collection_times": [{"days": "Mon-Fri", "time": "4:00pm"}, {"days": "Sat", "time": "12:00pm"}, {"days": "Sun", "time": "Closed"}], "id": "0230100106", "name": "USPS COLLECTION BOX - BLUE BOX", "address": {"city": "BROCKTON", "state": "MA", "street": "1115 W CHESTNUT ST", "postcode": "02301"}}},
{"geometry": {"type": "Point", "coordinates": [-71.0348059199, 42.0808041063]}, "type": "Feature", "properties": {"collection_times": [{"days": "Mon-Fri", "time": "2:00pm"}, {"days": "Sat", "time": "12:00pm"}, {"days": "Sun", "time": "Closed"}], "id": "0230100108", "name": "USPS COLLECTION BOX - BLUE BOX", "address": {"city": "BROCKTON", "state": "MA", "street": "693 BELMONT ST", "postcode": "02301"}}},
{"geometry": {"type": "Point", "coordinates": [-71.0467332872, 42.0738132397]}, "type": "Feature", "properties": {"collection_times": [{"days": "Mon-Fri", "time": "3:00pm"}, {"days": "Sat", "time": "12:00pm"}, {"days": "Sun", "time": "Closed"}], "id": "0230100109", "name": "USPS COLLECTION BOX - BLUE BOX", "address": {"city": "BROCKTON", "state": "MA", "street": "111 TORREY ST", "postcode": "02301"}}},
{"geometry": {"type": "Point", "coordinates": [-71.0679846353, 42.058464727]}, "type": "Feature", "properties": {"collection_times": [{"days": "Mon-Sat", "time": "12:00pm"}, {"days": "Sun", "time": "Closed"}], "id": "0230100110", "name": "USPS COLLECTION BOX - BLUE BOX", "address": {"city": "BROCKTON", "state": "MA", "street": "1300 BELMONT ST", "postcode": "02301"}}},
{"geometry": {"type": "Point", "coordinates": [-71.0695399561, 42.0574549292]}, "type": "Feature", "properties": {"collection_times": [{"days": "Mon-Fri", "time": "3:00pm"}, {"days": "Sat", "time": "12:00pm"}, {"days": "Sun", "time": "Closed"}], "id": "0230100111", "name": "USPS COLLECTION BOX - BLUE BOX", "address": {"city": "BROCKTON", "state": "MA", "street": "1342 BELMONT ST", "postcode": "02301"}}},
{"geometry": {"type": "Point", "coordinates": [-71.0679846353, 42.058464727]}, "type": "Feature", "properties": {"collection_times": [{"days": "Mon-Sat", "time": "12:00pm"}, {"days": "Sun", "time": "Closed"}], "id": "0230100112", "name": "USPS COLLECTION BOX - BLUE BOX", "address": {"city": "BROCKTON", "state": "MA", "street": "1300 BELMONT ST", "postcode": "02301"}}},
{"geometry": {"type": "Point", "coordinates": [-71.0533772382, 42.0894651763]}, "type": "Feature", "properties": {"collection_times": [{"days": "Mon-Fri", "time": "2:00pm"}, {"days": "Sat", "time": "12:00pm"}, {"days": "Sun", "time": "Closed"}], "id": "0230100113", "name": "USPS COLLECTION BOX - BLUE BOX", "address": {"city": "BROCKTON", "state": "MA", "street": "55 CHRISTY DR", "postcode": "02301"}}},
{"geometry": {"type": "Point", "coordinates": [-71.0617438624, 42.0555951213]}, "type": "Feature", "properties": {"collection_times": [{"days": "Mon-Fri", "time": "4:00pm"}, {"days": "Sat", "time": "12:00pm"}, {"days": "Sun", "time": "Closed"}], "id": "0230100114", "name": "USPS COLLECTION BOX - BLUE BOX", "address": {"city": "BROCKTON", "state": "MA", "street": "110 LIBERTY ST", "postcode": "02301"}}},
{"geometry": {"type": "Point", "coordinates": [-71.0193101233, 42.0831937368]}, "type": "Feature", "properties": {"collection_times": [{"days": "Mon-Sat", "time": "2:00pm"}, {"days": "Sun", "time": "Closed"}], "id": "0230100115", "name": "USPS COLLECTION BOX - BLUE BOX", "address": {"city": "BROCKTON", "state": "MA", "street": "34 SCHOOL ST", "postcode": "02301"}}},
{"geometry": {"type": "Point", "coordinates": [-71.0415025096, 42.0748036812]}, "type": "Feature", "properties": {"collection_times": [{"days": "Mon-Fri", "time": "3:00pm"}, {"days": "Sat", "time": "12:00pm"}, {"days": "Sun", "time": "Closed"}], "id": "0230100116", "name": "USPS COLLECTION BOX - BLUE BOX", "address": {"city": "BROCKTON", "state": "MA", "street": "25 TORREY ST", "postcode": "02301"}}},
{"geometry": {"type": "Point", "coordinates": [-71.0172357643, 42.0831805298]}, "type": "Feature", "properties": {"collection_times": [{"days": "Mon-Sat", "time": "3:00pm"}, {"days": "Sun", "time": "Closed"}], "id": "0230100118", "name": "USPS COLLECTION BOX - BLUE BOX", "address": {"city": "BROCKTON", "state": "MA", "street": "46 W ELM ST", "postcode": "02301"}}},
{"geometry": {"type": "Point", "coordinates": [-71.0509448776, 42.0942310844]}, "type": "Feature", "properties": {"collection_times": [{"days": "Mon-Fri", "time": "2:00pm"}, {"days": "Sat", "time": "12:00pm"}, {"days": "Sun", "time": "Closed"}], "id": "0230100119", "name": "USPS COLLECTION BOX - BLUE BOX", "address": {"city": "BROCKTON", "state": "MA", "street": "200 WESTGATE DR", "postcode": "02301"}}},
{"geometry": {"type": "Point", "coordinates": [-71.0603501226, 42.0528823181]}, "type": "Feature", "properties": {"collection_times": [{"days": "Mon-Sat", "time": "7:00pm"}, {"days": "Sun", "time": "Closed"}], "id": "0230100120", "name": "USPS COLLECTION BOX - BLUE BOX", "address": {"city": "BROCKTON", "state": "MA", "street": "225 LIBERTY ST", "postcode": "02301"}}},
{"geometry": {"type": "Point", "coordinates": [-71.0603501226, 42.0528823181]}, "type": "Feature", "properties": {"collection_times": [{"days": "Mon-Sat", "time": "7:00pm"}, {"days": "Sun", "time": "Closed"}], "id": "0230100122", "name": "USPS COLLECTION BOX - BLUE BOX", "address": {"city": "BROCKTON", "state": "MA", "street": "225 LIBERTY ST", "postcode": "02301"}}},
{"geometry": {"type": "Point", "coordinates": [-71.009885296, 42.0959392111]}, "type": "Feature", "properties": {"collection_times": [{"days": "Mon-Fri", "time": "10:00am"}, {"days": "Sat", "time": "12:00pm"}, {"days": "Sun", "time": "Closed"}], "id": "0230200000", "name": "USPS COLLECTION BOX - BLUE BOX", "address": {"city": "BROCKTON", "state": "MA", "street": "240 E ASHLAND ST", "postcode": "02302"}}},
{"geometry": {"type": "Point", "coordinates": [-70.9984287126, 42.0981254481]}, "type": "Feature", "properties": {"collection_times": [{"days": "Mon-Fri", "time": "10:00am"}, {"days": "Sat", "time": "12:00pm"}, {"days": "Sun", "time": "Closed"}], "id": "0230200001", "name": "USPS COLLECTION BOX - BLUE BOX", "address": {"city": "BROCKTON", "state": "MA", "street": "472 E ASHLAND ST", "postcode": "02302"}}},
{"geometry": {"type": "Point", "coordinates": [-71.0027571587, 42.0882514452]}, "type": "Feature", "properties": {"collection_times": [{"days": "Mon-Sat", "time": "10:00am"}, {"days": "Sun", "time": "Closed"}], "id": "0230200002", "name": "USPS COLLECTION BOX - BLUE BOX", "address": {"city": "BROCKTON", "state": "MA", "street": "607 CENTRE ST", "postcode": "02302"}}},
{"geometry": {"type": "Point", "coordinates": [-71.0027571587, 42.0882514452]}, "type": "Feature", "properties": {"collection_times": [{"days": "Mon-Fri", "time": "11:00am"}, {"days": "Sat", "time": "12:00pm"}, {"days": "Sun", "time": "Closed"}], "id": "0230200003", "name": "USPS COLLECTION BOX - BLUE BOX", "address": {"city": "BROCKTON", "state": "MA", "street": "680 CENTRE ST", "postcode": "02302"}}},
{"geometry": {"type": "Point", "coordinates": [-70.9895553712, 42.0864663183]}, "type": "Feature", "properties": {"collection_times": [{"days": "Mon-Fri", "time": "11:00am"}, {"days": "Sat", "time": "12:00pm"}, {"days": "Sun", "time": "Closed"}], "id": "0230200004", "name": "USPS COLLECTION BOX - BLUE BOX", "address": {"city": "BROCKTON", "state": "MA", "street": "720 CENTRE ST", "postcode": "02302"}}},
{"geometry": {"type": "Point", "coordinates": [-71.002757159, 42.0882600894]}, "type": "Feature", "properties": {"collection_times": [{"days": "Mon-Fri", "time": "5:30pm"}, {"days": "Sat", "time": "5:00pm"}, {"days": "Sun", "time": "Closed"}], "id": "0230200006", "name": "USPS COLLECTION BOX - PO LOBBY", "address": {"city": "BROCKTON", "state": "MA", "street": "120 COMMERCIAL ST", "postcode": "02302"}}},
{"geometry": {"type": "Point", "coordinates": [-71.002757159, 42.0882600894]}, "type": "Feature", "properties": {"collection_times": [{"days": "Mon-Fri", "time": "5:30pm"}, {"days": "Sat", "time": "5:00pm"}, {"days": "Sun", "time": "Closed"}], "id": "0230200007", "name": "USPS COLLECTION BOX - PO LOBBY", "address": {"city": "BROCKTON", "state": "MA", "street": "120 COMMERCIAL ST", "postcode": "02302"}}},
{"geometry": {"type": "Point", "coordinates": [-71.002757159, 42.0882600894]}, "type": "Feature", "properties": {"collection_times": [{"days": "Mon-Fri", "time": "5:30pm"}, {"days": "Sat", "time": "5:00pm"}, {"days": "Sun", "time": "Closed"}], "id": "0230200008", "name": "USPS COLLECTION BOX - PO LOBBY", "address": {"city": "BROCKTON", "state": "MA", "street": "120 COMMERCIAL ST", "postcode": "02302"}}},
{"geometry": {"type": "Point", "coordinates": [-71.002757159, 42.0882600894]}, "type": "Feature", "properties": {"collection_times": [{"days": "Mon-Fri", "time": "5:30pm"}, {"days": "Sat", "time": "5:00pm"}, {"days": "Sun", "time": "Closed"}], "id": "0230200009", "name": "USPS COLLECTION BOX - PO LOBBY", "address": {"city": "BROCKTON", "state": "MA", "street": "120 COMMERCIAL ST", "postcode": "02302"}}},
{"geometry": {"type": "Point", "coordinates": [-71.0137708908, 42.0861377389]}, "type": "Feature", "properties": {"collection_times": [{"days": "Mon-Fri", "time": "10:00am"}, {"days": "Sat", "time": "12:00pm"}, {"days": "Sun", "time": "Closed"}], "id": "0230200010", "name": "USPS COLLECTION BOX - BLUE BOX", "address": {"city": "BROCKTON", "state": "MA", "street": "180 COURT ST", "postcode": "02302"}}},
{"geometry": {"type": "Point", "coordinates": [-71.0027571587, 42.0882514452]}, "type": "Feature", "properties": {"collection_times": [{"days": "Mon-Fri", "time": "10:00am"}, {"days": "Sat", "time": "12:00pm"}, {"days": "Sun", "time": "Closed"}], "id": "0230200011", "name": "USPS COLLECTION BOX - BLUE BOX", "address": {"city": "BROCKTON", "state": "MA", "street": "366 COURT ST", "postcode": "02302"}}},
{"geometry": {"type": "Point", "coordinates": [-70.9902954776, 42.0811590598]}, "type": "Feature", "properties": {"collection_times": [{"days": "Mon-Fri", "time": "11:00am"}, {"days": "Sat", "time": "12:00pm"}, {"days": "Sun", "time": "Closed"}], "id": "0230200012", "name": "USPS COLLECTION BOX - BLUE BOX", "address": {"city": "BROCKTON", "state": "MA", "street": "715 CRESENT ST", "postcode": "02302"}}},
{"geometry": {"type": "Point", "coordinates": [-70.990323008, 42.0812667846]}, "type": "Feature", "properties": {"collection_times": [{"days": "Mon-Fri", "time": "11:00am"}, {"days": "Sat", "time": "12:00pm"}, {"days": "Sun", "time": "Closed"}], "id": "0230200013", "name": "USPS COLLECTION BOX - BLUE BOX", "address": {"city": "BROCKTON", "state": "MA", "street": "718 CRESENT ST", "postcode": "02302"}}},
{"geometry": {"type": "Point", "coordinates": [-70.988493034, 42.0813979859]}, "type": "Feature", "properties": {"collection_times": [{"days": "Mon-Fri", "time": "11:00am"}, {"days": "Sat", "time": "12:00pm"}, {"days": "Sun", "time": "Closed"}], "id": "0230200014", "name": "USPS COLLECTION BOX - BLUE BOX", "address": {"city": "BROCKTON", "state": "MA", "street": "755 CRESENT ST", "postcode": "02302"}}},
{"geometry": {"type": "Point", "coordinates": [-71.0172357643, 42.0831805298]}, "type": "Feature", "properties": {"collection_times": [{"days": "Mon-Fri", "time": "11:00am"}, {"days": "Sat", "time": "12:00pm"}, {"days": "Sun", "time": "Closed"}], "id": "0230200015", "name": "USPS COLLECTION BOX - BLUE BOX", "address": {"city": "BROCKTON", "state": "MA", "street": "930 CRESENT ST", "postcode": "02302"}}},
{"geometry": {"type": "Point", "coordinates": [-71.0189049718, 42.1099318255]}, "type": "Feature", "properties": {"collection_times": [{"days": "Mon-Fri", "time": "10:00am"}, {"days": "Sat", "time": "12:00pm"}, {"days": "Sun", "time": "Closed"}], "id": "0230200016", "name": "USPS COLLECTION BOX - BLUE BOX", "address": {"city": "BROCKTON", "state": "MA", "street": "4 HOVENDON AVE", "postcode": "02302"}}},
{"geometry": {"type": "Point", "coordinates": [-70.9876266748, 42.0778599829]}, "type": "Feature", "properties": {"collection_times": [{"days": "Mon-Fri", "time": "11:00am"}, {"days": "Sat", "time": "12:00pm"}, {"days": "Sun", "time": "Closed"}], "id": "0230200017", "name": "USPS COLLECTION BOX - BLUE BOX", "address": {"city": "BROCKTON", "state": "MA", "street": "1 MASSASOIT BLVD", "postcode": "02302"}}},
{"geometry": {"type": "Point", "coordinates": [-70.9876266748, 42.0778599829]}, "type": "Feature", "properties": {"collection_times": [{"days": "Mon-Fri", "time": "11:00am"}, {"days": "Sat", "time": "12:00pm"}, {"days": "Sun", "time": "Closed"}], "id": "0230200018", "name": "USPS COLLECTION BOX - BLUE BOX", "address": {"city": "BROCKTON", "state": "MA", "street": "1 MASSASOIT BLVD", "postcode": "02302"}}},
{"geometry": {"type": "Point", "coordinates": [-71.016304948, 42.1059923959]}, "type": "Feature", "properties": {"collection_times": [{"days": "Mon-Fri", "time": "10:00am"}, {"days": "Sat", "time": "12:00pm"}, {"days": "Sun", "time": "Closed"}], "id": "0230200019", "name": "USPS COLLECTION BOX - BLUE BOX", "address": {"city": "BROCKTON", "state": "MA", "street": "25 NORTH AVE", "postcode": "02302"}}},
{"geometry": {"type": "Point", "coordinates": [-71.0027571587, 42.0882514452]}, "type": "Feature", "properties": {"collection_times": [{"days": "Mon-Fri", "time": "2:00pm"}, {"days": "Sat", "time": "12:00pm"}, {"days": "Sun", "time": "Closed"}], "id": "0230200021", "name": "USPS COLLECTION BOX - BLUE BOX", "address": {"city": "BROCKTON", "state": "MA", "street": "426 PLAIN ST", "postcode": "02302"}}},
{"geometry": {"type": "Point", "coordinates": [-71.0126636525, 42.1019612591]}, "type": "Feature", "properties": {"collection_times": [{"days": "Mon-Fri", "time": "10:00am"}, {"days": "Sat", "time": "12:00pm"}, {"days": "Sun", "time": "Closed"}], "id": "0230200023", "name": "USPS COLLECTION BOX - BLUE BOX", "address": {"city": "BROCKTON", "state": "MA", "street": "21 SAWTELL AVE", "postcode": "02302"}}},
{"geometry": {"type": "Point", "coordinates": [-71.002757159, 42.0882600894]}, "type": "Feature", "properties": {"collection_times": [{"days": "Mon-Fri", "time": "5:30pm"}, {"days": "Sat", "time": "5:00pm"}, {"days": "Sun", "time": "Closed"}], "id": "0230200026", "name": "USPS COLLECTION BOX - BLUE BOX", "address": {"city": "BROCKTON", "state": "MA", "street": "120 COMMERCIAL ST", "postcode": "02302"}}},
{"geometry": {"type": "Point", "coordinates": [-71.002757159, 42.0882600894]}, "type": "Feature", "properties": {"collection_times": [{"days": "Mon-Fri", "time": "5:30pm"}, {"days": "Sat", "time": "5:00pm"}, {"days": "Sun", "time": "Closed"}], "id": "0230200028", "name": "USPS COLLECTION BOX - BLUE BOX", "address": {"city": "BROCKTON", "state": "MA", "street": "120 COMMERCIAL ST", "postcode": "02302"}}},
{"geometry": {"type": "Point", "coordinates": [-71.002757159, 42.0882600894]}, "type": "Feature", "properties": {"collection_times": [{"days": "Mon-Fri", "time": "5:30pm"}, {"days": "Sat", "time": "5:00pm"}, {"days": "Sun", "time": "Closed"}], "id": "0230200029", "name": "USPS COLLECTION BOX - BLUE BOX", "address": {"city": "BROCKTON", "state": "MA", "street": "120 COMMERCIAL ST", "postcode": "02302"}}},
{"geometry": {"type": "Point", "coordinates": [-71.002757159, 42.0882600894]}, "type": "Feature", "properties": {"collection_times": [{"days": "Mon-Fri", "time": "5:30pm"}, {"days": "Sat", "time": "5:00pm"}, {"days": "Sun", "time": "Closed"}], "id": "0230200030", "name": "USPS COLLECTION BOX - EXPRESS", "address": {"city": "BROCKTON", "state": "MA", "street": "120 COMMERCIAL ST", "postcode": "02302"}}},
{"geometry": {"type": "Point", "coordinates": [-71.0519564877, 42.1238703755]}, "type": "Feature", "properties": {"collection_times": [{"days": "Mon-Fri", "time": "4:00pm"}, {"days": "Sat", "time": "12:30pm"}, {"days": "Sun", "time": "Closed"}], "id": "0232200001", "name": "USPS COLLECTION BOX - BLUE BOX", "address": {"city": "AVON", "state": "MA", "street": "60 BODWELL ST", "postcode": "02322"}}},
{"geometry": {"type": "Point", "coordinates": [-71.0519564877, 42.1238703755]}, "type": "Feature", "properties": {"collection_times": [{"days": "Mon-Fri", "time": "4:00pm"}, {"days": "Sat", "time": "12:30pm"}, {"days": "Sun", "time": "Closed"}], "id": "0232200003", "name": "USPS COLLECTION BOX - BLUE BOX", "address": {"city": "AVON", "state": "MA", "street": "60 BODWELL ST", "postcode": "02322"}}},
{"geometry": {"type": "Point", "coordinates": [-71.0519564877, 42.1238703755]}, "type": "Feature", "properties": {"collection_times": [{"days": "Mon-Fri", "time": "4:00pm"}, {"days": "Sat", "time": "12:30pm"}, {"days": "Sun", "time": "Closed"}], "id": "0232200005", "name": "USPS COLLECTION BOX - BLUE BOX", "address": {"city": "AVON", "state": "MA", "street": "360 BODWELL ST", "postcode": "02322"}}},
{"geometry": {"type": "Point", "coordinates": [-71.0340966767, 42.1137824382]}, "type": "Feature", "properties": {"collection_times": [{"days": "Mon-Sat", "time": "9:15am"}, {"days": "Sun", "time": "Closed"}], "id": "0232200006", "name": "USPS COLLECTION BOX - BLUE BOX", "address": {"city": "AVON", "state": "MA", "street": "65 E MAIN ST", "postcode": "02322"}}},
{"geometry": {"type": "Point", "coordinates": [-71.0418569597, 42.1288551853]}, "type": "Feature", "properties": {"collection_times": [{"days": "Mon-Sat", "time": "10:00am"}, {"days": "Sun", "time": "Closed"}], "id": "0232200008", "name": "USPS COLLECTION BOX - BLUE BOX", "address": {"city": "AVON", "state": "MA", "street": "280 W MAIN ST", "postcode": "02322"}}},
{"geometry": {"type": "Point", "coordinates": [-71.0399942264, 42.1312967377]}, "type": "Feature", "properties": {"collection_times": [{"days": "Mon-Fri", "time": "5:30pm"}, {"days": "Sat", "time": "3:30pm"}, {"days": "Sun", "time": "Closed"}], "id": "0232200010", "name": "USPS COLLECTION BOX - BLUE BOX", "address": {"city": "AVON", "state": "MA", "street": "8 E MAIN ST", "postcode": "02322"}}},
{"geometry": {"type": "Point", "coordinates": [-71.0306439279, 42.132069432]}, "type": "Feature", "properties": {"collection_times": [{"days": "Mon-Sat", "time": "12:30pm"}, {"days": "Sun", "time": "Closed"}], "id": "0232200013", "name": "USPS COLLECTION BOX - BLUE BOX", "address": {"city": "AVON", "state": "MA", "street": "1 FELLOWSHIP CIR", "postcode": "02322"}}},
{"geometry": {"type": "Point", "coordinates": [-71.032971419, 42.121520551]}, "type": "Feature", "properties": {"collection_times": [{"days": "Mon-Sat", "time": "11:00am"}, {"days": "Sun", "time": "Closed"}], "id": "0232200014", "name": "USPS COLLECTION BOX - BLUE BOX", "address": {"city": "AVON", "state": "MA", "street": "30 MEMORIAL DR", "postcode": "02322"}}},
{"geometry": {"type": "Point", "coordinates": [-71.0450992376, 42.1268524283]}, "type": "Feature", "properties": {"collection_times": [{"days": "Mon-Fri", "time": "5:30pm"}, {"days": "Sat", "time": "3:30pm"}, {"days": "Sun", "time": "Closed"}], "id": "0232200017", "name": "USPS COLLECTION BOX - PO LOBBY", "address": {"city": "AVON", "state": "MA", "street": "8 E MAIN ST", "postcode": "02322"}}},
{"geometry": {"type": "Point", "coordinates": [-70.9732209247, 41.9676958788]}, "type": "Feature", "properties": {"collection_times": [{"days": "Mon-Sat", "time": "9:30am"}, {"days": "Sun", "time": "Closed"}], "id": "0232400001", "name": "USPS COLLECTION BOX - BLUE BOX", "address": {"city": "BRIDGEWATER", "state": "MA", "street": "755 BEDFORD ST", "postcode": "02324"}}},
{"geometry": {"type": "Point", "coordinates": [-70.9727406399, 41.9965035273]}, "type": "Feature", "properties": {"collection_times": [{"days": "Mon-Fri", "time": "4:30pm"}, {"days": "Sat", "time": "10:00am"}, {"days": "Sun", "time": "Closed"}], "id": "0232400007", "name": "USPS COLLECTION BOX - BLUE BOX", "address": {"city": "BRIDGEWATER", "state": "MA", "street": "233 BROAD ST", "postcode": "02324"}}},
{"geometry": {"type": "Point", "coordinates": [-70.9754865595, 41.9897424396]}, "type": "Feature", "properties": {"collection_times": [{"days": "Mon-Fri", "time": "4:30pm"}, {"days": "Sat", "time": "9:00am"}, {"days": "Sun", "time": "Closed"}], "id": "0232400008", "name": "USPS COLLECTION BOX - BLUE BOX", "address": {"city": "BRIDGEWATER", "state": "MA", "street": "64 CENTRAL SQ", "postcode": "02324"}}},
{"geometry": {"type": "Point", "coordinates": [-70.9774452711, 41.991731239]}, "type": "Feature", "properties": {"collection_times": [{"days": "Mon-Fri", "time": "4:30pm"}, {"days": "Sat", "time": "2:30pm"}, {"days": "Sun", "time": "Closed"}], "id": "0232400009", "name": "USPS COLLECTION BOX - BLUE BOX", "address": {"city": "BRIDGEWATER", "state": "MA", "street": "75 MAIN ST", "postcode": "02324"}}},
{"geometry": {"type": "Point", "coordinates": [-70.9755189067, 41.9900633343]}, "type": "Feature", "properties": {"collection_times": [{"days": "Mon-Fri", "time": "4:30pm"}, {"days": "Sat", "time": "9:00am"}, {"days": "Sun", "time": "Closed"}], "id": "0232400014", "name": "USPS COLLECTION BOX - BLUE BOX", "address": {"city": "BRIDGEWATER", "state": "MA", "street": "11 CENTRAL SQ", "postcode": "02324"}}},
{"geometry": {"type": "Point", "coordinates": [-70.9774452711, 41.991731239]}, "type": "Feature", "properties": {"collection_times": [{"days": "Mon-Fri", "time": "4:30pm"}, {"days": "Sat", "time": "2:30pm"}, {"days": "Sun", "time": "Closed"}], "id": "0232400015", "name": "USPS COLLECTION BOX - BLUE BOX", "address": {"city": "BRIDGEWATER", "state": "MA", "street": "75 MAIN ST", "postcode": "02324"}}},
{"geometry": {"type": "Point", "coordinates": [-70.9794468377, 41.9940865103]}, "type": "Feature", "properties": {"collection_times": [{"days": "Mon-Sat", "time": "11:30am"}, {"days": "Sun", "time": "Closed"}], "id": "0232400016", "name": "USPS COLLECTION BOX - BLUE BOX", "address": {"city": "BRIDGEWATER", "state": "MA", "street": "180 MAIN ST", "postcode": "02324"}}},
{"geometry": {"type": "Point", "coordinates": [-70.9610170029, 41.9966199005]}, "type": "Feature", "properties": {"collection_times": [{"days": "Mon-Sat", "time": "1:30pm"}, {"days": "Sun", "time": "Closed"}], "id": "0232400020", "name": "USPS COLLECTION BOX - BLUE BOX", "address": {"city": "BRIDGEWATER", "state": "MA", "street": "48 MEADOW LN", "postcode": "02324"}}},
{"geometry": {"type": "Point", "coordinates": [-70.9673692688, 41.9911506772]}, "type": "Feature", "properties": {"collection_times": [{"days": "Mon-Sat", "time": "9:30am"}, {"days": "Sun", "time": "Closed"}], "id": "0232400025", "name": "USPS COLLECTION BOX - BLUE BOX", "address": {"city": "BRIDGEWATER", "state": "MA", "street": "169 SPRING ST", "postcode": "02324"}}},
{"geometry": {"type": "Point", "coordinates": [-70.9678219, 41.9833050223]}, "type": "Feature", "properties": {"collection_times": [{"days": "Mon-Sat", "time": "12:00pm"}, {"days": "Sun", "time": "Closed"}], "id": "0232400027", "name": "USPS COLLECTION BOX - BLUE BOX", "address": {"city": "BRIDGEWATER", "state": "MA", "street": "331 SUMMER ST", "postcode": "02324"}}},
{"geometry": {"type": "Point", "coordinates": [-70.9744338875, 41.9896618999]}, "type": "Feature", "properties": {"collection_times": [{"days": "Mon-Fri", "time": "4:00pm"}, {"days": "Sat", "time": "9:00am"}, {"days": "Sun", "time": "Closed"}], "id": "0232400029", "name": "USPS COLLECTION BOX - BLUE BOX", "address": {"city": "BRIDGEWATER", "state": "MA", "street": "20 SUMMER ST", "postcode": "02324"}}},
{"geometry": {"type": "Point", "coordinates": [-70.9728722621, 41.9881923105]}, "type": "Feature", "properties": {"collection_times": [{"days": "Mon-Fri", "time": "4:00pm"}, {"days": "Sat-Sun", "time": "Closed"}], "id": "0232400033", "name": "USPS COLLECTION BOX - BLUE BOX", "address": {"city": "BRIDGEWATER", "state": "MA", "street": "85 SUMMER ST", "postcode": "02324"}}},
{"geometry": {"type": "Point", "coordinates": [-70.8410461112, 42.0433791666]}, "type": "Feature", "properties": {"collection_times": [{"days": "Mon-Fri", "time": "5:00pm"}, {"days": "Sat", "time": "12:00pm"}, {"days": "Sun", "time": "Closed"}], "id": "0232700002", "name": "USPS COLLECTION BOX - BLUE BOX", "address": {"city": "BRYANTVILLE", "state": "MA", "street": "13 SCHOOL STREET - ROUTE 27", "postcode": "02327"}}},
{"geometry": {"type": "Point", "coordinates": [-70.8429999968, 42.0438019932]}, "type": "Feature", "properties": {"collection_times": [{"days": "Mon-Fri", "time": "5:00pm"}, {"days": "Sat", "time": "12:00pm"}, {"days": "Sun", "time": "Closed"}], "id": "0232700003", "name": "USPS COLLECTION BOX - PO LOBBY", "address": {"city": "BRYANTVILLE", "state": "MA", "street": "13 SCHOOL ST", "postcode": "02327"}}},
{"geometry": {"type": "Point", "coordinates": [-70.8429999968, 42.0438019932]}, "type": "Feature", "properties": {"collection_times": [{"days": "Mon-Fri", "time": "5:00pm"}, {"days": "Sat", "time": "12:00pm"}, {"days": "Sun", "time": "Closed"}], "id": "0232700004", "name": "USPS COLLECTION BOX - PO LOBBY", "address": {"city": "BRYANTVILLE", "state": "MA", "street": "13 SCHOOL ST", "postcode": "02327"}}},
{"geometry": {"type": "Point", "coordinates": [-70.7658673456, 41.8845528965]}, "type": "Feature", "properties": {"collection_times": [{"days": "Mon-Fri", "time": "4:30pm"}, {"days": "Sat", "time": "3:15pm"}, {"days": "Sun", "time": "Closed"}], "id": "0233000001", "name": "USPS COLLECTION BOX - BLUE BOX", "address": {"city": "CARVER", "state": "MA", "street": "126 MAIN ST", "postcode": "02330"}}},
{"geometry": {"type": "Point", "coordinates": [-70.7658673456, 41.8845528965]}, "type": "Feature", "properties": {"collection_times": [{"days": "Mon-Fri", "time": "5:00pm"}, {"days": "Sat", "time": "3:15pm"}, {"days": "Sun", "time": "Closed"}], "id": "0233000008", "name": "USPS COLLECTION BOX - PO LOBBY", "address": {"city": "CARVER", "state": "MA", "street": "126 MAIN ST", "postcode": "02330"}}},
{"geometry": {"type": "Point", "coordinates": [-70.7658673456, 41.8845528965]}, "type": "Feature", "properties": {"collection_times": [{"days": "Mon-Fri", "time": "5:00pm"}, {"days": "Sat", "time": "3:15pm"}, {"days": "Sun", "time": "Closed"}], "id": "0233000009", "name": "USPS COLLECTION BOX - PO LOBBY", "address": {"city": "CARVER", "state": "MA", "street": "126 MAIN ST", "postcode": "02330"}}},
{"geometry": {"type": "Point", "coordinates": [-70.7108162396, 42.0348730531]}, "type": "Feature", "properties": {"collection_times": [{"days": "Mon-Sat", "time": "9:00am"}, {"days": "Sun", "time": "Closed"}], "id": "0233200001", "name": "USPS COLLECTION BOX - BLUE BOX", "address": {"city": "DUXBURY", "state": "MA", "street": "59 CHESTNUT ST", "postcode": "02332"}}},
{"geometry": {"type": "Point", "coordinates": [-70.7108162396, 42.0348730531]}, "type": "Feature", "properties": {"collection_times": [{"days": "Mon-Fri", "time": "5:00pm"}, {"days": "Sat", "time": "3:00pm"}, {"days": "Sun", "time": "Closed"}], "id": "0233200003", "name": "USPS COLLECTION BOX - BLUE BOX", "address": {"city": "DUXBURY", "state": "MA", "street": "56 DEPOT ST", "postcode": "02332"}}},
{"geometry": {"type": "Point", "coordinates": [-70.7108162396, 42.0348730531]}, "type": "Feature", "properties": {"collection_times": [{"days": "Mon-Fri", "time": "5:00pm"}, {"days": "Sat", "time": "3:00pm"}, {"days": "Sun", "time": "Closed"}], "id": "0233200004", "name": "USPS COLLECTION BOX - PO LOBBY", "address": {"city": "DUXBURY", "state": "MA", "street": "56 DEPOT ST", "postcode": "02332"}}},
{"geometry": {"type": "Point", "coordinates": [-70.7108162396, 42.0348730531]}, "type": "Feature", "properties": {"collection_times": [{"days": "Mon-Fri", "time": "5:00pm"}, {"days": "Sat", "time": "2:00pm"}, {"days": "Sun", "time": "Closed"}], "id": "0233200005", "name": "USPS COLLECTION BOX - BLUE BOX", "address": {"city": "DUXBURY", "state": "MA", "street": "56 DEPOT ST", "postcode": "02332"}}},
{"geometry": {"type": "Point", "coordinates": [-70.7253784417, 42.0140831073]}, "type": "Feature", "properties": {"collection_times": [{"days": "Mon-Sat", "time": "11:00am"}, {"days": "Sun", "time": "Closed"}], "id": "0233200007", "name": "USPS COLLECTION BOX - BLUE BOX", "address": {"city": "DUXBURY", "state": "MA", "street": "20 TREMONT ST", "postcode": "02332"}}},
{"geometry": {"type": "Point", "coordinates": [-70.6716900201, 42.0379095636]}, "type": "Feature", "properties": {"collection_times": [{"days": "Mon-Fri", "time": "3:45pm"}, {"days": "Sat", "time": "11:30am"}, {"days": "Sun", "time": "Closed"}], "id": "0233200008", "name": "USPS COLLECTION BOX - BLUE BOX", "address": {"city": "DUXBURY", "state": "MA", "street": "455 WASHINGTON ST", "postcode": "02332"}}},
{"geometry": {"type": "Point", "coordinates": [-70.6908947333, 42.0597242318]}, "type": "Feature", "properties": {"collection_times": [{"days": "Mon-Sat", "time": "9:00am"}, {"days": "Sun", "time": "Closed"}], "id": "0233200010", "name": "USPS COLLECTION BOX - BLUE BOX", "address": {"city": "DUXBURY", "state": "MA", "street": "1514 TREMONT ST", "postcode": "02332"}}},
{"geometry": {"type": "Point", "coordinates": [-70.6841109608, 42.0468717994]}, "type": "Feature", "properties": {"collection_times": [{"days": "Mon-Sat", "time": "10:00am"}, {"days": "Sun", "time": "Closed"}], "id": "0233200011", "name": "USPS COLLECTION BOX - BLUE BOX", "address": {"city": "DUXBURY", "state": "MA", "street": "77 ALDEN ST", "postcode": "02332"}}},
{"geometry": {"type": "Point", "coordinates": [-70.7108162396, 42.0348730531]}, "type": "Feature", "properties": {"collection_times": [{"days": "Mon-Fri", "time": "12:00pm"}, {"days": "Sat", "time": "11:00am"}, {"days": "Sun", "time": "Closed"}], "id": "0233200013", "name": "USPS COLLECTION BOX - BLUE BOX", "address": {"city": "DUXBURY", "state": "MA", "street": "632 SUMMER ST", "postcode": "02332"}}},
{"geometry": {"type": "Point", "coordinates": [-70.6839179273, 42.0258619379]}, "type": "Feature", "properties": {"collection_times": [{"days": "Mon-Fri", "time": "11:00am"}, {"days": "Sat", "time": "10:00am"}, {"days": "Sun", "time": "Closed"}], "id": "0233200014", "name": "USPS COLLECTION BOX - BLUE BOX", "address": {"city": "DUXBURY", "state": "MA", "street": "95 TREMONT ST", "postcode": "02332"}}},
{"geometry": {"type": "Point", "coordinates": [-70.9585179277, 42.0269562081]}, "type": "Feature", "properties": {"collection_times": [{"days": "Mon-Fri", "time": "4:00pm"}, {"days": "Sat", "time": "10:00am"}, {"days": "Sun", "time": "Closed"}], "id": "0233300001", "name": "USPS COLLECTION BOX - BLUE BOX", "address": {"city": "E BRIDGEWTR", "state": "MA", "street": "225 BEDFORD ST", "postcode": "02333"}}},
{"geometry": {"type": "Point", "coordinates": [-70.9431480287, 42.0311841428]}, "type": "Feature", "properties": {"collection_times": [{"days": "Mon-Fri", "time": "5:00pm"}, {"days": "Sat", "time": "2:30pm"}, {"days": "Sun", "time": "Closed"}], "id": "0233300002", "name": "USPS COLLECTION BOX - BLUE BOX", "address": {"city": "E BRIDGEWTR", "state": "MA", "street": "63 W UNION ST", "postcode": "02333"}}},
{"geometry": {"type": "Point", "coordinates": [-70.9591041879, 42.0323576981]}, "type": "Feature", "properties": {"collection_times": [{"days": "Mon-Fri", "time": "4:00pm"}, {"days": "Sat", "time": "9:00am"}, {"days": "Sun", "time": "Closed"}], "id": "0233300005", "name": "USPS COLLECTION BOX - BLUE BOX", "address": {"city": "E BRIDGEWTR", "state": "MA", "street": "25 CENTRAL ST", "postcode": "02333"}}},
{"geometry": {"type": "Point", "coordinates": [-70.9547661399, 42.0294297094]}, "type": "Feature", "properties": {"collection_times": [{"days": "Mon-Fri", "time": "4:00pm"}, {"days": "Sat", "time": "9:00am"}, {"days": "Sun", "time": "Closed"}], "id": "0233300007", "name": "USPS COLLECTION BOX - BLUE BOX", "address": {"city": "E BRIDGEWTR", "state": "MA", "street": "175 CENTRAL ST", "postcode": "02333"}}},
{"geometry": {"type": "Point", "coordinates": [-70.9431480287, 42.0311841428]}, "type": "Feature", "properties": {"collection_times": [{"days": "Mon-Fri", "time": "5:00pm"}, {"days": "Sat", "time": "2:30pm"}, {"days": "Sun", "time": "Closed"}], "id": "0233300012", "name": "USPS COLLECTION BOX - PO LOBBY", "address": {"city": "E BRIDGEWTR", "state": "MA", "street": "63 W UNION ST", "postcode": "02333"}}},
{"geometry": {"type": "Point", "coordinates": [-70.9431480287, 42.0311841428]}, "type": "Feature", "properties": {"collection_times": [{"days": "Mon-Fri", "time": "5:00pm"}, {"days": "Sat", "time": "2:30pm"}, {"days": "Sun", "time": "Closed"}], "id": "0233300013", "name": "USPS COLLECTION BOX - PO LOBBY", "address": {"city": "E BRIDGEWTR", "state": "MA", "street": "63 W UNION ST", "postcode": "02333"}}},
{"geometry": {"type": "Point", "coordinates": [-70.9431480287, 42.0311841428]}, "type": "Feature", "properties": {"collection_times": [{"days": "Mon-Fri", "time": "5:00pm"}, {"days": "Sat", "time": "2:30pm"}, {"days": "Sun", "time": "Closed"}], "id": "0233300014", "name": "USPS COLLECTION BOX - PO LOBBY", "address": {"city": "E BRIDGEWTR", "state": "MA", "street": "63 W UNION ST", "postcode": "02333"}}},
{"geometry": {"type": "Point", "coordinates": [-70.9408232272, 42.0156848607]}, "type": "Feature", "properties": {"collection_times": [{"days": "Mon-Sat", "time": "10:00am"}, {"days": "Sun", "time": "Closed"}], "id": "0233300015", "name": "USPS COLLECTION BOX - BLUE BOX", "address": {"city": "E BRIDGEWTR", "state": "MA", "street": "650 PLYMOUTH ST", "postcode": "02333"}}},
{"geometry": {"type": "Point", "coordinates": [-70.9617233278, 42.0138311007]}, "type": "Feature", "properties": {"collection_times": [{"days": "Mon-Fri", "time": "4:45pm"}, {"days": "Sat", "time": "11:30am"}, {"days": "Sun", "time": "Closed"}], "id": "0233700001", "name": "USPS COLLECTION BOX - BLUE BOX", "address": {"city": "ELMWOOD", "state": "MA", "street": "734 BEDFORD ST", "postcode": "02337"}}},
{"geometry": {"type": "Point", "coordinates": [-70.9620357675, 42.013621585]}, "type": "Feature", "properties": {"collection_times": [{"days": "Mon-Sat", "time": "11:45am"}, {"days": "Sun", "time": "Closed"}], "id": "0233700002", "name": "USPS COLLECTION BOX - PO LOBBY", "address": {"city": "ELMWOOD", "state": "MA", "street": "734 BEDFORD ST", "postcode": "02337"}}},
{"geometry": {"type": "Point", "coordinates": [-70.8433405233, 41.9963137075]}, "type": "Feature", "properties": {"collection_times": [{"days": "Mon-Sat", "time": "12:00pm"}, {"days": "Sun", "time": "Closed"}], "id": "0233800001", "name": "USPS COLLECTION BOX - BLUE BOX", "address": {"city": "HALIFAX", "state": "MA", "street": "292 PLYMOUTH ST", "postcode": "02338"}}},
{"geometry": {"type": "Point", "coordinates": [-70.8536887103, 41.997831835]}, "type": "Feature", "properties": {"collection_times": [{"days": "Mon-Fri", "time": "5:00pm"}, {"days": "Sat", "time": "2:00pm"}, {"days": "Sun", "time": "Closed"}], "id": "0233800003", "name": "USPS COLLECTION BOX - PO LOBBY", "address": {"city": "HALIFAX", "state": "MA", "street": "551 PLYMOUTH ST", "postcode": "02338"}}},
{"geometry": {"type": "Point", "coordinates": [-70.8654308867, 41.9918128632]}, "type": "Feature", "properties": {"collection_times": [{"days": "Mon-Fri", "time": "5:00pm"}, {"days": "Sat", "time": "2:00pm"}, {"days": "Sun", "time": "Closed"}], "id": "0233800006", "name": "USPS COLLECTION BOX - BLUE BOX", "address": {"city": "HALIFAX", "state": "MA", "street": "551 PLYMOUTH ST", "postcode": "02338"}}},
{"geometry": {"type": "Point", "coordinates": [-70.8654308867, 41.9918128632]}, "type": "Feature", "properties": {"collection_times": [{"days": "Mon-Fri", "time": "5:00pm"}, {"days": "Sat", "time": "2:00pm"}, {"days": "Sun", "time": "Closed"}], "id": "0233800007", "name": "USPS COLLECTION BOX - BLUE BOX", "address": {"city": "HALIFAX", "state": "MA", "street": "551 PLYMOUTH ST", "postcode": "02338"}}},
{"geometry": {"type": "Point", "coordinates": [-70.8545818628, 41.9914978259]}, "type": "Feature", "properties": {"collection_times": [{"days": "Mon-Sat", "time": "12:00pm"}, {"days": "Sun", "time": "Closed"}], "id": "0233800008", "name": "USPS COLLECTION BOX - BLUE BOX", "address": {"city": "HALIFAX", "state": "MA", "street": "430 PLYMOUTH ST", "postcode": "02338"}}},
{"geometry": {"type": "Point", "coordinates": [-70.8472665518, 41.9933022085]}, "type": "Feature", "properties": {"collection_times": [{"days": "Mon-Sat", "time": "9:00am"}, {"days": "Sun", "time": "Closed"}], "id": "0233800009", "name": "USPS COLLECTION BOX - BLUE BOX", "address": {"city": "HALIFAX", "state": "MA", "street": "341 PLYMOUTH ST", "postcode": "02338"}}},
{"geometry": {"type": "Point", "coordinates": [-70.8160193844, 42.1122139617]}, "type": "Feature", "properties": {"collection_times": [{"days": "Mon-Fri", "time": "4:15pm"}, {"days": "Sat", "time": "10:30am"}, {"days": "Sun", "time": "Closed"}], "id": "0233900002", "name": "USPS COLLECTION BOX - BLUE BOX", "address": {"city": "HANOVER", "state": "MA", "street": "272 COLUMBIA RD", "postcode": "02339"}}},
{"geometry": {"type": "Point", "coordinates": [-70.8442963376, 42.1164358588]}, "type": "Feature", "properties": {"collection_times": [{"days": "Mon-Fri", "time": "4:15pm"}, {"days": "Sat", "time": "10:30am"}, {"days": "Sun", "time": "Closed"}], "id": "0233900004", "name": "USPS COLLECTION BOX - BLUE BOX", "address": {"city": "HANOVER", "state": "MA", "street": "550 HANOVER ST", "postcode": "02339"}}},
{"geometry": {"type": "Point", "coordinates": [-70.8815420012, 42.1188618276]}, "type": "Feature", "properties": {"collection_times": [{"days": "Mon-Fri", "time": "5:00pm"}, {"days": "Sat", "time": "12:00pm"}, {"days": "Sun", "time": "Closed"}], "id": "0233900005", "name": "USPS COLLECTION BOX - BLUE BOX", "address": {"city": "HANOVER", "state": "MA", "street": "1405 HANOVER ST", "postcode": "02339"}}},
{"geometry": {"type": "Point", "coordinates": [-70.8547358564, 42.1245235513]}, "type": "Feature", "properties": {"collection_times": [{"days": "Mon-Fri", "time": "5:00pm"}, {"days": "Sat", "time": "3:30pm"}, {"days": "Sun", "time": "Closed"}], "id": "0233900007", "name": "USPS COLLECTION BOX - BLUE BOX", "address": {"city": "HANOVER", "state": "MA", "street": "196 ROCKLAND ST", "postcode": "02339"}}},
{"geometry": {"type": "Point", "coordinates": [-70.8547358564, 42.1245235513]}, "type": "Feature", "properties": {"collection_times": [{"days": "Mon-Fri", "time": "5:00pm"}, {"days": "Sat", "time": "3:30pm"}, {"days": "Sun", "time": "Closed"}], "id": "0233900008", "name": "USPS COLLECTION BOX - BLUE BOX", "address": {"city": "HANOVER", "state": "MA", "street": "196 ROCKLAND ST", "postcode": "02339"}}},
{"geometry": {"type": "Point", "coordinates": [-70.8499638065, 42.156569589]}, "type": "Feature", "properties": {"collection_times": [{"days": "Mon-Fri", "time": "4:15pm"}, {"days": "Sat", "time": "10:30am"}, {"days": "Sun", "time": "Closed"}], "id": "0233900011", "name": "USPS COLLECTION BOX - BLUE BOX", "address": {"city": "HANOVER", "state": "MA", "street": "2103 WASHINGTON ST", "postcode": "02339"}}},
{"geometry": {"type": "Point", "coordinates": [-70.8439850237, 42.1427371338]}, "type": "Feature", "properties": {"collection_times": [{"days": "Mon-Fri", "time": "4:15pm"}, {"days": "Sat", "time": "10:30am"}, {"days": "Sun", "time": "Closed"}], "id": "0233900014", "name": "USPS COLLECTION BOX - BLUE BOX", "address": {"city": "HANOVER", "state": "MA", "street": "1775 WASHINGTON ST", "postcode": "02339"}}},
{"geometry": {"type": "Point", "coordinates": [-70.8565539796, 42.1223748133]}, "type": "Feature", "properties": {"collection_times": [{"days": "Mon-Fri", "time": "4:15pm"}, {"days": "Sat", "time": "9:00am"}, {"days": "Sun", "time": "Closed"}], "id": "0233900017", "name": "USPS COLLECTION BOX - BLUE BOX", "address": {"city": "HANOVER", "state": "MA", "street": "35 COLUMBIA RD", "postcode": "02339"}}},
{"geometry": {"type": "Point", "coordinates": [-70.827860776, 42.1264766256]}, "type": "Feature", "properties": {"collection_times": [{"days": "Mon-Fri", "time": "4:15pm"}, {"days": "Sat", "time": "10:00am"}, {"days": "Sun", "time": "Closed"}], "id": "0233900018", "name": "USPS COLLECTION BOX - BLUE BOX", "address": {"city": "HANOVER", "state": "MA", "street": "20 EAST ST", "postcode": "02339"}}},
{"geometry": {"type": "Point", "coordinates": [-70.8547358564, 42.1245235513]}, "type": "Feature", "properties": {"collection_times": [{"days": "Mon-Fri", "time": "5:00pm"}, {"days": "Sat", "time": "3:00pm"}, {"days": "Sun", "time": "Closed"}], "id": "0233900019", "name": "USPS COLLECTION BOX - PO LOBBY", "address": {"city": "HANOVER", "state": "MA", "street": "196 ROCKLAND ST", "postcode": "02339"}}},
{"geometry": {"type": "Point", "coordinates": [-70.8723452819, 42.0674772845]}, "type": "Feature", "properties": {"collection_times": [{"days": "Mon-Sat", "time": "11:00am"}, {"days": "Sun", "time": "Closed"}], "id": "0234100003", "name": "USPS COLLECTION BOX - BLUE BOX", "address": {"city": "HANSON", "state": "MA", "street": "430 LIBERTY ST STE 1", "postcode": "02341"}}},
{"geometry": {"type": "Point", "coordinates": [-70.8522562728, 42.0426292314]}, "type": "Feature", "properties": {"collection_times": [{"days": "Mon-Fri", "time": "5:00pm"}, {"days": "Sat", "time": "3:30pm"}, {"days": "Sun", "time": "Closed"}], "id": "0234100004", "name": "USPS COLLECTION BOX - BLUE BOX", "address": {"city": "HANSON", "state": "MA", "street": "270 MAIN ST", "postcode": "02341"}}},
{"geometry": {"type": "Point", "coordinates": [-70.866836697, 42.0655226757]}, "type": "Feature", "properties": {"collection_times": [{"days": "Mon-Fri", "time": "5:00pm"}, {"days": "Sat", "time": "3:30pm"}, {"days": "Sun", "time": "Closed"}], "id": "0234100006", "name": "USPS COLLECTION BOX - PO LOBBY", "address": {"city": "HANSON", "state": "MA", "street": "270 MAIN ST", "postcode": "02341"}}},
{"geometry": {"type": "Point", "coordinates": [-70.8867430755, 42.0425322288]}, "type": "Feature", "properties": {"collection_times": [{"days": "Mon-Sat", "time": "9:00am"}, {"days": "Sun", "time": "Closed"}], "id": "0234100008", "name": "USPS COLLECTION BOX - BLUE BOX", "address": {"city": "HANSON", "state": "MA", "street": "1282 MAIN ST", "postcode": "02341"}}},
{"geometry": {"type": "Point", "coordinates": [-70.866836697, 42.0655226757]}, "type": "Feature", "properties": {"collection_times": [{"days": "Mon-Fri", "time": "5:00pm"}, {"days": "Sat", "time": "3:30pm"}, {"days": "Sun", "time": "Closed"}], "id": "0234100012", "name": "USPS COLLECTION BOX - PO LOBBY", "address": {"city": "HANSON", "state": "MA", "street": "270 MAIN ST", "postcode": "02341"}}},
{"geometry": {"type": "Point", "coordinates": [-71.0085634487, 42.1539138848]}, "type": "Feature", "properties": {"collection_times": [{"days": "Mon-Fri", "time": "4:15pm"}, {"days": "Sat", "time": "3:30pm"}, {"days": "Sun", "time": "Closed"}], "id": "0234300004", "name": "USPS COLLECTION BOX - BLUE BOX", "address": {"city": "HOLBROOK", "state": "MA", "street": "40 S FRANKLIN ST", "postcode": "02343"}}},
{"geometry": {"type": "Point", "coordinates": [-71.0087397018, 42.1560756247]}, "type": "Feature", "properties": {"collection_times": [{"days": "Mon-Fri", "time": "4:15pm"}, {"days": "Sat", "time": "3:30pm"}, {"days": "Sun", "time": "Closed"}], "id": "0234300006", "name": "USPS COLLECTION BOX - BLUE BOX", "address": {"city": "HOLBROOK", "state": "MA", "street": "70 N FRANKLIN ST", "postcode": "02343"}}},
{"geometry": {"type": "Point", "coordinates": [-71.0085358461, 42.1547940209]}, "type": "Feature", "properties": {"collection_times": [{"days": "Mon-Fri", "time": "4:00pm"}, {"days": "Sat", "time": "3:30pm"}, {"days": "Sun", "time": "Closed"}], "id": "0234300009", "name": "USPS COLLECTION BOX - BLUE BOX", "address": {"city": "HOLBROOK", "state": "MA", "street": "456 N FRANKLIN ST", "postcode": "02343"}}},
{"geometry": {"type": "Point", "coordinates": [-71.0167461329, 42.1206730572]}, "type": "Feature", "properties": {"collection_times": [{"days": "Mon-Fri", "time": "4:45pm"}, {"days": "Sat", "time": "3:30pm"}, {"days": "Sun", "time": "Closed"}], "id": "0234300010", "name": "USPS COLLECTION BOX - BLUE BOX", "address": {"city": "HOLBROOK", "state": "MA", "street": "790 S FRANKLIN ST", "postcode": "02343"}}},
{"geometry": {"type": "Point", "coordinates": [-71.0080701488, 42.1258872876]}, "type": "Feature", "properties": {"collection_times": [{"days": "Mon-Sat", "time": "12:00pm"}, {"days": "Sun", "time": "Closed"}], "id": "0234300012", "name": "USPS COLLECTION BOX - BLUE BOX", "address": {"city": "HOLBROOK", "state": "MA", "street": "1 HOLBROOK CT", "postcode": "02343"}}},
{"geometry": {"type": "Point", "coordinates": [-70.9997627436, 42.1533068051]}, "type": "Feature", "properties": {"collection_times": [{"days": "Mon-Sat", "time": "10:00am"}, {"days": "Sun", "time": "Closed"}], "id": "0234300014", "name": "USPS COLLECTION BOX - BLUE BOX", "address": {"city": "HOLBROOK", "state": "MA", "street": "224 PLYMOUTH ST", "postcode": "02343"}}},
{"geometry": {"type": "Point", "coordinates": [-70.9981422075, 42.1507149862]}, "type": "Feature", "properties": {"collection_times": [{"days": "Mon-Fri", "time": "5:00pm"}, {"days": "Sat", "time": "3:30pm"}, {"days": "Sun", "time": "Closed"}], "id": "0234300015", "name": "USPS COLLECTION BOX - BLUE BOX", "address": {"city": "HOLBROOK", "state": "MA", "street": "333 PLYMOUTH ST", "postcode": "02343"}}},
{"geometry": {"type": "Point", "coordinates": [-70.9981422075, 42.1507149862]}, "type": "Feature", "properties": {"collection_times": [{"days": "Mon-Fri", "time": "5:00pm"}, {"days": "Sat", "time": "3:30pm"}, {"days": "Sun", "time": "Closed"}], "id": "0234300016", "name": "USPS COLLECTION BOX - BLUE BOX", "address": {"city": "HOLBROOK", "state": "MA", "street": "333 PLYMOUTH ST", "postcode": "02343"}}},
{"geometry": {"type": "Point", "coordinates": [-71.0085881564, 42.1468829036]}, "type": "Feature", "properties": {"collection_times": [{"days": "Mon-Fri", "time": "5:00pm"}, {"days": "Sat", "time": "3:30pm"}, {"days": "Sun", "time": "Closed"}], "id": "0234300017", "name": "USPS COLLECTION BOX - PO LOBBY", "address": {"city": "HOLBROOK", "state": "MA", "street": "333 PLYMOUTH ST", "postcode": "02343"}}},
{"geometry": {"type": "Point", "coordinates": [-71.0085881564, 42.1468829036]}, "type": "Feature", "properties": {"collection_times": [{"days": "Mon-Fri", "time": "5:00pm"}, {"days": "Sat", "time": "3:30pm"}, {"days": "Sun", "time": "Closed"}], "id": "0234300018", "name": "USPS COLLECTION BOX - PO LOBBY", "address": {"city": "HOLBROOK", "state": "MA", "street": "333 PLYMOUTH ST", "postcode": "02343"}}},
{"geometry": {"type": "Point", "coordinates": [-71.0085881564, 42.1468829036]}, "type": "Feature", "properties": {"collection_times": [{"days": "Mon-Fri", "time": "5:00pm"}, {"days": "Sat", "time": "3:30pm"}, {"days": "Sun", "time": "Closed"}], "id": "0234300019", "name": "USPS COLLECTION BOX - PO LOBBY", "address": {"city": "HOLBROOK", "state": "MA", "street": "333 PLYMOUTH ST", "postcode": "02343"}}},
{"geometry": {"type": "Point", "coordinates": [-71.0224009752, 42.165030487]}, "type": "Feature", "properties": {"collection_times": [{"days": "Mon-Fri", "time": "4:30pm"}, {"days": "Sat", "time": "3:30pm"}, {"days": "Sun", "time": "Closed"}], "id": "0234300022", "name": "USPS COLLECTION BOX - BLUE BOX", "address": {"city": "HOLBROOK", "state": "MA", "street": "275 CENTRE ST", "postcode": "02343"}}},
{"geometry": {"type": "Point", "coordinates": [-71.0269615294, 42.1537413977]}, "type": "Feature", "properties": {"collection_times": [{"days": "Mon-Fri", "time": "4:30pm"}, {"days": "Sat", "time": "3:30pm"}, {"days": "Sun", "time": "Closed"}], "id": "0234300024", "name": "USPS COLLECTION BOX - BLUE BOX", "address": {"city": "HOLBROOK", "state": "MA", "street": "2 PHILLIPS RD", "postcode": "02343"}}},
{"geometry": {"type": "Point", "coordinates": [-70.5548431783, 41.9157173709]}, "type": "Feature", "properties": {"collection_times": [{"days": "Mon-Fri", "time": "4:15pm"}, {"days": "Sat", "time": "12:00pm"}, {"days": "Sun", "time": "Closed"}], "id": "0234500002", "name": "USPS COLLECTION BOX - BLUE BOX", "address": {"city": "MANOMET", "state": "MA", "street": "12 MANOMET POINT RD", "postcode": "02345"}}},
{"geometry": {"type": "Point", "coordinates": [-70.5545177016, 41.9163325668]}, "type": "Feature", "properties": {"collection_times": [{"days": "Mon-Fri", "time": "4:15pm"}, {"days": "Sat", "time": "12:00pm"}, {"days": "Sun", "time": "Closed"}], "id": "0234500004", "name": "USPS COLLECTION BOX - PO LOBBY", "address": {"city": "MANOMET", "state": "MA", "street": "12 MANOMET POINT RD", "postcode": "02345"}}},
{"geometry": {"type": "Point", "coordinates": [-70.9090868546, 41.8924235175]}, "type": "Feature", "properties": {"collection_times": [{"days": "Mon-Fri", "time": "5:00pm"}, {"days": "Sat", "time": "12:00pm"}, {"days": "Sun", "time": "Closed"}], "id": "0234600002", "name": "USPS COLLECTION BOX - BLUE BOX", "address": {"city": "MIDDLEBORO", "state": "MA", "street": "90 CENTER ST", "postcode": "02346"}}},
{"geometry": {"type": "Point", "coordinates": [-70.9090868546, 41.8924235175]}, "type": "Feature", "properties": {"collection_times": [{"days": "Mon-Fri", "time": "5:00pm"}, {"days": "Sat", "time": "12:00pm"}, {"days": "Sun", "time": "Closed"}], "id": "0234600003", "name": "USPS COLLECTION BOX - BLUE BOX", "address": {"city": "MIDDLEBORO", "state": "MA", "street": "90 CENTER ST", "postcode": "02346"}}},
{"geometry": {"type": "Point", "coordinates": [-70.9090868546, 41.8924235175]}, "type": "Feature", "properties": {"collection_times": [{"days": "Mon-Fri", "time": "5:00pm"}, {"days": "Sat", "time": "12:00pm"}, {"days": "Sun", "time": "Closed"}], "id": "0234600004", "name": "USPS COLLECTION BOX - EXPRESS", "address": {"city": "MIDDLEBORO", "state": "MA", "street": "90 CENTER ST", "postcode": "02346"}}},
{"geometry": {"type": "Point", "coordinates": [-70.9111243985, 41.8837072518]}, "type": "Feature", "properties": {"collection_times": [{"days": "Mon-Fri", "time": "2:30pm"}, {"days": "Sat", "time": "9:00am"}, {"days": "Sun", "time": "Closed"}], "id": "0234600010", "name": "USPS COLLECTION BOX - BLUE BOX", "address": {"city": "MIDDLEBORO", "state": "MA", "street": "33 E GROVE ST", "postcode": "02346"}}},
{"geometry": {"type": "Point", "coordinates": [-70.9499670272, 41.8975632444]}, "type": "Feature", "properties": {"collection_times": [{"days": "Mon-Fri", "time": "2:30pm"}, {"days": "Sat", "time": "9:00am"}, {"days": "Sun", "time": "Closed"}], "id": "0234600012", "name": "USPS COLLECTION BOX - BLUE BOX", "address": {"city": "MIDDLEBORO", "state": "MA", "street": "438 W GROVE ST", "postcode": "02346"}}},
{"geometry": {"type": "Point", "coordinates": [-70.9543267041, 41.9001027865]}, "type": "Feature", "properties": {"collection_times": [{"days": "Mon-Fri", "time": "2:30pm"}, {"days": "Sat", "time": "9:00am"}, {"days": "Sun", "time": "Closed"}], "id": "0234600013", "name": "USPS COLLECTION BOX - BLUE BOX", "address": {"city": "MIDDLEBORO", "state": "MA", "street": "511 W GROVE ST", "postcode": "02346"}}},
{"geometry": {"type": "Point", "coordinates": [-70.9167911678, 41.8928041102]}, "type": "Feature", "properties": {"collection_times": [{"days": "Mon-Fri", "time": "2:30pm"}, {"days": "Sat", "time": "9:00am"}, {"days": "Sun", "time": "Closed"}], "id": "0234600015", "name": "USPS COLLECTION BOX - BLUE BOX", "address": {"city": "MIDDLEBORO", "state": "MA", "street": "8A STATION ST", "postcode": "02346"}}},
{"geometry": {"type": "Point", "coordinates": [-70.9145101257, 41.8886159596]}, "type": "Feature", "properties": {"collection_times": [{"days": "Mon-Fri", "time": "2:30pm"}, {"days": "Sat", "time": "9:00am"}, {"days": "Sun", "time": "Closed"}], "id": "0234600017", "name": "USPS COLLECTION BOX - BLUE BOX", "address": {"city": "MIDDLEBORO", "state": "MA", "street": "87 S MAIN ST", "postcode": "02346"}}},
{"geometry": {"type": "Point", "coordinates": [-70.9105170689, 41.892922465]}, "type": "Feature", "properties": {"collection_times": [{"days": "Mon-Fri", "time": "2:30pm"}, {"days": "Sat", "time": "9:00am"}, {"days": "Sun", "time": "Closed"}], "id": "0234600018", "name": "USPS COLLECTION BOX - BLUE BOX", "address": {"city": "MIDDLEBORO", "state": "MA", "street": "59 N MAIN ST", "postcode": "02346"}}},
{"geometry": {"type": "Point", "coordinates": [-70.9108009119, 41.8920882395]}, "type": "Feature", "properties": {"collection_times": [{"days": "Mon-Fri", "time": "2:30pm"}, {"days": "Sat", "time": "9:00am"}, {"days": "Sun", "time": "Closed"}], "id": "0234600021", "name": "USPS COLLECTION BOX - BLUE BOX", "address": {"city": "MIDDLEBORO", "state": "MA", "street": "10 NICKERSON AVE", "postcode": "02346"}}},
{"geometry": {"type": "Point", "coordinates": [-70.9165265969, 41.8931542068]}, "type": "Feature", "properties": {"collection_times": [{"days": "Mon-Fri", "time": "5:00pm"}, {"days": "Sat", "time": "12:00pm"}, {"days": "Sun", "time": "Closed"}], "id": "0234600033", "name": "USPS COLLECTION BOX - PO LOBBY", "address": {"city": "MIDDLEBORO", "state": "MA", "street": "90 CENTER AVE", "postcode": "02346"}}},
{"geometry": {"type": "Point", "coordinates": [-70.9165265969, 41.8931542068]}, "type": "Feature", "properties": {"collection_times": [{"days": "Mon-Fri", "time": "5:00pm"}, {"days": "Sat", "time": "12:00pm"}, {"days": "Sun", "time": "Closed"}], "id": "0234600034", "name": "USPS COLLECTION BOX - PO LOBBY", "address": {"city": "MIDDLEBORO", "state": "MA", "street": "90 CENTER AVE", "postcode": "02346"}}},
{"geometry": {"type": "Point", "coordinates": [-70.917977465, 41.8853295959]}, "type": "Feature", "properties": {"collection_times": [{"days": "Mon-Fri", "time": "2:30pm"}, {"days": "Sat", "time": "9:00am"}, {"days": "Sun", "time": "Closed"}], "id": "0234600035", "name": "USPS COLLECTION BOX - BLUE BOX", "address": {"city": "MIDDLEBORO", "state": "MA", "street": "131 S MAIN ST", "postcode": "02346"}}},
{"geometry": {"type": "Point", "coordinates": [-70.8990155068, 41.9488064492]}, "type": "Feature", "properties": {"collection_times": [{"days": "Mon-Sat", "time": "9:00am"}, {"days": "Sun", "time": "Closed"}], "id": "0234600036", "name": "USPS COLLECTION BOX - BLUE BOX", "address": {"city": "MIDDLEBORO", "state": "MA", "street": "200 OAK POINT DR", "postcode": "02346"}}},
{"geometry": {"type": "Point", "coordinates": [-70.8990155068, 41.9488064492]}, "type": "Feature", "properties": {"collection_times": [{"days": "Mon-Sat", "time": "9:00am"}, {"days": "Sun", "time": "Closed"}], "id": "0234600037", "name": "USPS COLLECTION BOX - BLUE BOX", "address": {"city": "MIDDLEBORO", "state": "MA", "street": "200 OAK POINT DR", "postcode": "02346"}}},
{"geometry": {"type": "Point", "coordinates": [-70.947382735, 41.8439429925]}, "type": "Feature", "properties": {"collection_times": [{"days": "Mon-Fri", "time": "5:00pm"}, {"days": "Sat", "time": "12:00pm"}, {"days": "Sun", "time": "Closed"}], "id": "0234700001", "name": "USPS COLLECTION BOX - BLUE BOX", "address": {"city": "LAKEVILLE", "state": "MA", "street": "330 BEDFORD ST", "postcode": "02347"}}},
{"geometry": {"type": "Point", "coordinates": [-70.9551880388, 41.8368624162]}, "type": "Feature", "properties": {"collection_times": [{"days": "Mon-Fri", "time": "4:00pm"}, {"days": "Sat", "time": "12:00pm"}, {"days": "Sun", "time": "Closed"}], "id": "0234700002", "name": "USPS COLLECTION BOX - EXPRESS", "address": {"city": "LAKEVILLE", "state": "MA", "street": "330 BEDFORD ST", "postcode": "02347"}}},
{"geometry": {"type": "Point", "coordinates": [-70.9551793487, 41.8368624626]}, "type": "Feature", "properties": {"collection_times": [{"days": "Mon-Fri", "time": "2:30pm"}, {"days": "Sat", "time": "9:00am"}, {"days": "Sun", "time": "Closed"}], "id": "0234700003", "name": "USPS COLLECTION BOX - BLUE BOX", "address": {"city": "LAKEVILLE", "state": "MA", "street": "346 BEDFORD ST", "postcode": "02347"}}},
{"geometry": {"type": "Point", "coordinates": [-70.9321249302, 41.8697102047]}, "type": "Feature", "properties": {"collection_times": [{"days": "Mon-Fri", "time": "2:30pm"}, {"days": "Sat", "time": "9:00am"}, {"days": "Sun", "time": "Closed"}], "id": "0234700005", "name": "USPS COLLECTION BOX - BLUE BOX", "address": {"city": "LAKEVILLE", "state": "MA", "street": "78 MAIN ST", "postcode": "02347"}}},
{"geometry": {"type": "Point", "coordinates": [-70.9214853973, 41.8766967604]}, "type": "Feature", "properties": {"collection_times": [{"days": "Mon-Fri", "time": "4:00pm"}, {"days": "Sat", "time": "3:00pm"}, {"days": "Sun", "time": "Closed"}], "id": "0234700007", "name": "USPS COLLECTION BOX - BLUE BOX", "address": {"city": "LAKEVILLE", "state": "MA", "street": "15 RIVERSIDE DR", "postcode": "02347"}}},
{"geometry": {"type": "Point", "coordinates": [-70.9551880388, 41.8368624162]}, "type": "Feature", "properties": {"collection_times": [{"days": "Mon-Fri", "time": "4:00pm"}, {"days": "Sat", "time": "12:00pm"}, {"days": "Sun", "time": "Closed"}], "id": "0234700008", "name": "USPS COLLECTION BOX - PO LOBBY", "address": {"city": "LAKEVILLE", "state": "MA", "street": "330 BEDFORD ST", "postcode": "02347"}}},
{"geometry": {"type": "Point", "coordinates": [-70.9551880388, 41.8368624162]}, "type": "Feature", "properties": {"collection_times": [{"days": "Mon-Fri", "time": "4:00pm"}, {"days": "Sat", "time": "12:00pm"}, {"days": "Sun", "time": "Closed"}], "id": "0234700009", "name": "USPS COLLECTION BOX - PO LOBBY", "address": {"city": "LAKEVILLE", "state": "MA", "street": "330 BEDFORD ST", "postcode": "02347"}}},
{"geometry": {"type": "Point", "coordinates": [-70.9551880388, 41.8368624162]}, "type": "Feature", "properties": {"collection_times": [{"days": "Mon-Fri", "time": "4:00pm"}, {"days": "Sat", "time": "3:00pm"}, {"days": "Sun", "time": "Closed"}], "id": "0234700010", "name": "USPS COLLECTION BOX - EXPRESS", "address": {"city": "LAKEVILLE", "state": "MA", "street": "15 RIVERSIDE DR", "postcode": "02347"}}},
{"geometry": {"type": "Point", "coordinates": [-70.9498704977, 42.1271386369]}, "type": "Feature", "properties": {"collection_times": [{"days": "Mon-Fri", "time": "1:30pm"}, {"days": "Sat", "time": "12:15pm"}, {"days": "Sun", "time": "Closed"}], "id": "0235100001", "name": "USPS COLLECTION BOX - BLUE BOX", "address": {"city": "ABINGTON", "state": "MA", "street": "858 BEDFORD ST", "postcode": "02351"}}},
{"geometry": {"type": "Point", "coordinates": [-70.9538442348, 42.144357876]}, "type": "Feature", "properties": {"collection_times": [{"days": "Mon-Sat", "time": "9:30am"}, {"days": "Sun", "time": "Closed"}], "id": "0235100003", "name": "USPS COLLECTION BOX - BLUE BOX", "address": {"city": "ABINGTON", "state": "MA", "street": "1501 BEDFORD ST", "postcode": "02351"}}},
{"geometry": {"type": "Point", "coordinates": [-70.9545058725, 42.1176714782]}, "type": "Feature", "properties": {"collection_times": [{"days": "Mon-Fri", "time": "4:00pm"}, {"days": "Sat", "time": "12:45pm"}, {"days": "Sun", "time": "Closed"}], "id": "0235100004", "name": "USPS COLLECTION BOX - BLUE BOX", "address": {"city": "ABINGTON", "state": "MA", "street": "6 BRIGHTON ST", "postcode": "02351"}}},
{"geometry": {"type": "Point", "coordinates": [-70.9475494734, 42.1058157991]}, "type": "Feature", "properties": {"collection_times": [{"days": "Mon-Fri", "time": "5:00pm"}, {"days": "Sat", "time": "12:00pm"}, {"days": "Sun", "time": "Closed"}], "id": "0235100005", "name": "USPS COLLECTION BOX - BLUE BOX", "address": {"city": "ABINGTON", "state": "MA", "street": "24 BROCKTON AVE", "postcode": "02351"}}},
{"geometry": {"type": "Point", "coordinates": [-70.9475494734, 42.1058157991]}, "type": "Feature", "properties": {"collection_times": [{"days": "Mon-Fri", "time": "5:00pm"}, {"days": "Sat", "time": "12:00pm"}, {"days": "Sun", "time": "Closed"}], "id": "0235100006", "name": "USPS COLLECTION BOX - BLUE BOX", "address": {"city": "ABINGTON", "state": "MA", "street": "24 BROCKTON AVE", "postcode": "02351"}}},
{"geometry": {"type": "Point", "coordinates": [-70.9635386866, 42.1093407352]}, "type": "Feature", "properties": {"collection_times": [{"days": "Mon-Sat", "time": "12:00pm"}, {"days": "Sun", "time": "Closed"}], "id": "0235100008", "name": "USPS COLLECTION BOX - BLUE BOX", "address": {"city": "ABINGTON", "state": "MA", "street": "860 HANCOCK ST", "postcode": "02351"}}},
{"geometry": {"type": "Point", "coordinates": [-70.9545058725, 42.1176714782]}, "type": "Feature", "properties": {"collection_times": [{"days": "Mon-Fri", "time": "5:00pm"}, {"days": "Sat", "time": "2:00pm"}, {"days": "Sun", "time": "Closed"}], "id": "0235100009", "name": "USPS COLLECTION BOX - BLUE BOX", "address": {"city": "ABINGTON", "state": "MA", "street": "16 HARRISON AVE", "postcode": "02351"}}},
{"geometry": {"type": "Point", "coordinates": [-70.9545058725, 42.1176714782]}, "type": "Feature", "properties": {"collection_times": [{"days": "Mon-Fri", "time": "5:00pm"}, {"days": "Sat", "time": "2:00pm"}, {"days": "Sun", "time": "Closed"}], "id": "0235100010", "name": "USPS COLLECTION BOX - BLUE BOX", "address": {"city": "ABINGTON", "state": "MA", "street": "16 HARRISON AVE", "postcode": "02351"}}},
{"geometry": {"type": "Point", "coordinates": [-70.9490577589, 42.1182507126]}, "type": "Feature", "properties": {"collection_times": [{"days": "Mon-Sat", "time": "11:00am"}, {"days": "Sun", "time": "Closed"}], "id": "0235100012", "name": "USPS COLLECTION BOX - BLUE BOX", "address": {"city": "ABINGTON", "state": "MA", "street": "49 LINCOLN BLVD", "postcode": "02351"}}},
{"geometry": {"type": "Point", "coordinates": [-70.9528646514, 42.117744928]}, "type": "Feature", "properties": {"collection_times": [{"days": "Mon-Sat", "time": "9:00am"}, {"days": "Sun", "time": "Closed"}], "id": "0235100016", "name": "USPS COLLECTION BOX - BLUE BOX", "address": {"city": "ABINGTON", "state": "MA", "street": "500 GLINIEWICZ WAY", "postcode": "02351"}}},
{"geometry": {"type": "Point", "coordinates": [-70.9522127564, 42.1243823425]}, "type": "Feature", "properties": {"collection_times": [{"days": "Mon-Fri", "time": "1:00pm"}, {"days": "Sat", "time": "12:15pm"}, {"days": "Sun", "time": "Closed"}], "id": "0235100017", "name": "USPS COLLECTION BOX - BLUE BOX", "address": {"city": "ABINGTON", "state": "MA", "street": "71 SHAW AVE", "postcode": "02351"}}},
{"geometry": {"type": "Point", "coordinates": [-70.9449422906, 42.1070590915]}, "type": "Feature", "properties": {"collection_times": [{"days": "Mon-Fri", "time": "4:15pm"}, {"days": "Sat", "time": "12:00pm"}, {"days": "Sun", "time": "Closed"}], "id": "0235100020", "name": "USPS COLLECTION BOX - BLUE BOX", "address": {"city": "ABINGTON", "state": "MA", "street": "533 WASHINGTON ST", "postcode": "02351"}}},
{"geometry": {"type": "Point", "coordinates": [-70.9308260413, 42.1108220839]}, "type": "Feature", "properties": {"collection_times": [{"days": "Mon-Fri", "time": "4:15pm"}, {"days": "Sat", "time": "1:00pm"}, {"days": "Sun", "time": "Closed"}], "id": "0235100022", "name": "USPS COLLECTION BOX - BLUE BOX", "address": {"city": "ABINGTON", "state": "MA", "street": "375 CENTRE AVE", "postcode": "02351"}}},
{"geometry": {"type": "Point", "coordinates": [-70.9665928056, 42.0953063941]}, "type": "Feature", "properties": {"collection_times": [{"days": "Mon-Fri", "time": "4:15pm"}, {"days": "Sat", "time": "1:00pm"}, {"days": "Sun", "time": "Closed"}], "id": "0235100023", "name": "USPS COLLECTION BOX - BLUE BOX", "address": {"city": "ABINGTON", "state": "MA", "street": "777 BROCKTON AVE", "postcode": "02351"}}},
{"geometry": {"type": "Point", "coordinates": [-70.954518908, 42.1176714317]}, "type": "Feature", "properties": {"collection_times": [{"days": "Mon-Fri", "time": "5:00pm"}, {"days": "Sat", "time": "12:00pm"}, {"days": "Sun", "time": "Closed"}], "id": "0235100024", "name": "USPS COLLECTION BOX - PO LOBBY", "address": {"city": "ABINGTON", "state": "MA", "street": "24 BROCKTON AVE", "postcode": "02351"}}},
{"geometry": {"type": "Point", "coordinates": [-70.954518908, 42.1176714317]}, "type": "Feature", "properties": {"collection_times": [{"days": "Mon-Fri", "time": "5:00pm"}, {"days": "Sat", "time": "12:00pm"}, {"days": "Sun", "time": "Closed"}], "id": "0235100025", "name": "USPS COLLECTION BOX - PO LOBBY", "address": {"city": "ABINGTON", "state": "MA", "street": "24 BROCKTON AVE", "postcode": "02351"}}},
{"geometry": {"type": "Point", "coordinates": [-70.9545058725, 42.1176714782]}, "type": "Feature", "properties": {"collection_times": [{"days": "Mon-Fri", "time": "5:00pm"}, {"days": "Sat", "time": "2:00pm"}, {"days": "Sun", "time": "Closed"}], "id": "0235100026", "name": "USPS COLLECTION BOX - PO LOBBY", "address": {"city": "ABINGTON", "state": "MA", "street": "16 HARRISON AVE", "postcode": "02351"}}},
{"geometry": {"type": "Point", "coordinates": [-70.9545058725, 42.1176714782]}, "type": "Feature", "properties": {"collection_times": [{"days": "Mon-Fri", "time": "5:00pm"}, {"days": "Sat", "time": "2:00pm"}, {"days": "Sun", "time": "Closed"}], "id": "0235100027", "name": "USPS COLLECTION BOX - PO LOBBY", "address": {"city": "ABINGTON", "state": "MA", "street": "16 HARRISON AVE", "postcode": "02351"}}},
{"geometry": {"type": "Point", "coordinates": [-70.9361067701, 42.1279844526]}, "type": "Feature", "properties": {"collection_times": [{"days": "Mon-Fri", "time": "3:00pm"}, {"days": "Sat", "time": "12:45pm"}, {"days": "Sun", "time": "Closed"}], "id": "0235100028", "name": "USPS COLLECTION BOX - BLUE BOX", "address": {"city": "ABINGTON", "state": "MA", "street": "380 NORTH AVE", "postcode": "02351"}}},
{"geometry": {"type": "Point", "coordinates": [-70.7790032713, 41.922186205]}, "type": "Feature", "properties": {"collection_times": [{"days": "Mon-Fri", "time": "4:30pm"}, {"days": "Sat", "time": "11:45am"}, {"days": "Sun", "time": "Closed"}], "id": "0235500001", "name": "USPS COLLECTION BOX - BLUE BOX", "address": {"city": "NORTH CARVER", "state": "MA", "street": "171 PLYMOUTH ST", "postcode": "02355"}}},
{"geometry": {"type": "Point", "coordinates": [-70.8002799027, 41.9199215414]}, "type": "Feature", "properties": {"collection_times": [{"days": "Mon-Fri", "time": "4:30pm"}, {"days": "Sat", "time": "11:45am"}, {"days": "Sun", "time": "Closed"}], "id": "0235500002", "name": "USPS COLLECTION BOX - PO LOBBY", "address": {"city": "NORTH CARVER", "state": "MA", "street": "171 PLYMOUTH ST", "postcode": "02355"}}},
{"geometry": {"type": "Point", "coordinates": [-71.144306989, 42.0470859947]}, "type": "Feature", "properties": {"collection_times": [{"days": "Mon-Fri", "time": "3:45pm"}, {"days": "Sat", "time": "10:00am"}, {"days": "Sun", "time": "Closed"}], "id": "0235600001", "name": "USPS COLLECTION BOX - BLUE BOX", "address": {"city": "NORTH EASTON", "state": "MA", "street": "105 BELMONT ST", "postcode": "02356"}}},
{"geometry": {"type": "Point", "coordinates": [-71.144306989, 42.0470859947]}, "type": "Feature", "properties": {"collection_times": [{"days": "Mon-Fri", "time": "3:45pm"}, {"days": "Sat", "time": "10:00am"}, {"days": "Sun", "time": "Closed"}], "id": "0235600003", "name": "USPS COLLECTION BOX - BLUE BOX", "address": {"city": "NORTH EASTON", "state": "MA", "street": "45 BRISTOL DR", "postcode": "02356"}}},
{"geometry": {"type": "Point", "coordinates": [-71.1017664389, 42.0581915048]}, "type": "Feature", "properties": {"collection_times": [{"days": "Mon-Fri", "time": "4:15pm"}, {"days": "Sat", "time": "10:00am"}, {"days": "Sun", "time": "Closed"}], "id": "0235600004", "name": "USPS COLLECTION BOX - BLUE BOX", "address": {"city": "NORTH EASTON", "state": "MA", "street": "130 CENTER ST", "postcode": "02356"}}},
{"geometry": {"type": "Point", "coordinates": [-71.1015656422, 42.0660305069]}, "type": "Feature", "properties": {"collection_times": [{"days": "Mon-Sat", "time": "10:00am"}, {"days": "Sun", "time": "Closed"}], "id": "0235600006", "name": "USPS COLLECTION BOX - BLUE BOX", "address": {"city": "NORTH EASTON", "state": "MA", "street": "61 DAY ST", "postcode": "02356"}}},
{"geometry": {"type": "Point", "coordinates": [-71.1015656422, 42.0660305069]}, "type": "Feature", "properties": {"collection_times": [{"days": "Mon-Sat", "time": "10:00am"}, {"days": "Sun", "time": "Closed"}], "id": "0235600007", "name": "USPS COLLECTION BOX - BLUE BOX", "address": {"city": "NORTH EASTON", "state": "MA", "street": "690 DEPOT ST", "postcode": "02356"}}},
{"geometry": {"type": "Point", "coordinates": [-71.0996320261, 42.0592118489]}, "type": "Feature", "properties": {"collection_times": [{"days": "Mon-Sat", "time": "10:30am"}, {"days": "Sun", "time": "Closed"}], "id": "0235600008", "name": "USPS COLLECTION BOX - BLUE BOX", "address": {"city": "NORTH EASTON", "state": "MA", "street": "11 ELISE CIR", "postcode": "02356"}}},
{"geometry": {"type": "Point", "coordinates": [-71.1100657599, 42.0594614387]}, "type": "Feature", "properties": {"collection_times": [{"days": "Mon-Fri", "time": "3:30pm"}, {"days": "Sat-Sun", "time": "Closed"}], "id": "0235600009", "name": "USPS COLLECTION BOX - BLUE BOX", "address": {"city": "NORTH EASTON", "state": "MA", "street": "136 ELM ST", "postcode": "02356"}}},
{"geometry": {"type": "Point", "coordinates": [-71.0898855208, 42.0666705065]}, "type": "Feature", "properties": {"collection_times": [{"days": "Mon-Fri", "time": "5:00pm"}, {"days": "Sat", "time": "3:00pm"}, {"days": "Sun", "time": "Closed"}], "id": "0235600017", "name": "USPS COLLECTION BOX - BLUE BOX", "address": {"city": "NORTH EASTON", "state": "MA", "street": "300 MAIN ST", "postcode": "02356"}}},
{"geometry": {"type": "Point", "coordinates": [-71.0898855208, 42.0666705065]}, "type": "Feature", "properties": {"collection_times": [{"days": "Mon-Fri", "time": "5:00pm"}, {"days": "Sat", "time": "3:00pm"}, {"days": "Sun", "time": "Closed"}], "id": "0235600018", "name": "USPS COLLECTION BOX - BLUE BOX", "address": {"city": "NORTH EASTON", "state": "MA", "street": "300 MAIN ST", "postcode": "02356"}}},
{"geometry": {"type": "Point", "coordinates": [-71.11017873, 42.0593527679]}, "type": "Feature", "properties": {"collection_times": [{"days": "Mon-Fri", "time": "4:30pm"}, {"days": "Sat", "time": "3:00pm"}, {"days": "Sun", "time": "Closed"}], "id": "0235600019", "name": "USPS COLLECTION BOX - PO LOBBY", "address": {"city": "NORTH EASTON", "state": "MA", "street": "300 MAIN ST", "postcode": "02356"}}},
{"geometry": {"type": "Point", "coordinates": [-71.11017873, 42.0593527679]}, "type": "Feature", "properties": {"collection_times": [{"days": "Mon-Fri", "time": "4:30pm"}, {"days": "Sat", "time": "3:00pm"}, {"days": "Sun", "time": "Closed"}], "id": "0235600020", "name": "USPS COLLECTION BOX - PO LOBBY", "address": {"city": "NORTH EASTON", "state": "MA", "street": "300 MAIN ST", "postcode": "02356"}}},
{"geometry": {"type": "Point", "coordinates": [-71.0988893648, 42.0576569891]}, "type": "Feature", "properties": {"collection_times": [{"days": "Mon-Sat", "time": "10:00am"}, {"days": "Sun", "time": "Closed"}], "id": "0235600023", "name": "USPS COLLECTION BOX - BLUE BOX", "address": {"city": "NORTH EASTON", "state": "MA", "street": "108 PARKER TER", "postcode": "02356"}}},
{"geometry": {"type": "Point", "coordinates": [-71.0874538185, 42.0680440578]}, "type": "Feature", "properties": {"collection_times": [{"days": "Mon-Fri", "time": "4:15pm"}, {"days": "Sat", "time": "10:00am"}, {"days": "Sun", "time": "Closed"}], "id": "0235600030", "name": "USPS COLLECTION BOX - BLUE BOX", "address": {"city": "NORTH EASTON", "state": "MA", "street": "285 WASHINGTON ST", "postcode": "02356"}}},
{"geometry": {"type": "Point", "coordinates": [-71.1039331578, 42.0697541019]}, "type": "Feature", "properties": {"collection_times": [{"days": "Mon-Sat", "time": "11:30am"}, {"days": "Sun", "time": "Closed"}], "id": "0235600031", "name": "USPS COLLECTION BOX - BLUE BOX", "address": {"city": "NORTH EASTON", "state": "MA", "street": "28 OLIVER ST", "postcode": "02356"}}},
{"geometry": {"type": "Point", "coordinates": [-71.144306989, 42.0470859947]}, "type": "Feature", "properties": {"collection_times": [{"days": "Mon-Sat", "time": "12:00pm"}, {"days": "Sun", "time": "Closed"}], "id": "0235600034", "name": "USPS COLLECTION BOX - BLUE BOX", "address": {"city": "NORTH EASTON", "state": "MA", "street": "15 ROCHE BROS WAY", "postcode": "02356"}}},
{"geometry": {"type": "Point", "coordinates": [-70.793366339, 42.0935991518]}, "type": "Feature", "properties": {"collection_times": [{"days": "Mon-Fri", "time": "4:30pm"}, {"days": "Sat", "time": "12:00pm"}, {"days": "Sun", "time": "Closed"}], "id": "0235800001", "name": "USPS COLLECTION BOX - BLUE BOX", "address": {"city": "NORTH PEMBROKE", "state": "MA", "street": "288 WASHINGTON ST", "postcode": "02358"}}},
{"geometry": {"type": "Point", "coordinates": [-70.793336584, 42.0933915409]}, "type": "Feature", "properties": {"collection_times": [{"days": "Mon-Fri", "time": "4:30pm"}, {"days": "Sat", "time": "12:00pm"}, {"days": "Sun", "time": "Closed"}], "id": "0235800003", "name": "USPS COLLECTION BOX - PO LOBBY", "address": {"city": "NORTH PEMBROKE", "state": "MA", "street": "288 WASHINGTON ST", "postcode": "02358"}}},
{"geometry": {"type": "Point", "coordinates": [-70.7718458201, 42.1075937889]}, "type": "Feature", "properties": {"collection_times": [{"days": "Mon-Sat", "time": "10:30am"}, {"days": "Sun", "time": "Closed"}], "id": "0235900001", "name": "USPS COLLECTION BOX - BLUE BOX", "address": {"city": "PEMBROKE", "state": "MA", "street": "125 CHURCH ST", "postcode": "02359"}}},
{"geometry": {"type": "Point", "coordinates": [-70.809846547, 42.0651601281]}, "type": "Feature", "properties": {"collection_times": [{"days": "Mon-Sat", "time": "10:00am"}, {"days": "Sun", "time": "Closed"}], "id": "0235900005", "name": "USPS COLLECTION BOX - BLUE BOX", "address": {"city": "PEMBROKE", "state": "MA", "street": "1 KILCOMMONS DR", "postcode": "02359"}}},
{"geometry": {"type": "Point", "coordinates": [-70.8054765293, 42.0656617158]}, "type": "Feature", "properties": {"collection_times": [{"days": "Mon-Fri", "time": "5:00pm"}, {"days": "Sat", "time": "3:00pm"}, {"days": "Sun", "time": "Closed"}], "id": "0235900008", "name": "USPS COLLECTION BOX - PO LOBBY", "address": {"city": "PEMBROKE", "state": "MA", "street": "3 ELLIOT AVE", "postcode": "02359"}}},
{"geometry": {"type": "Point", "coordinates": [-70.8054765293, 42.0656617158]}, "type": "Feature", "properties": {"collection_times": [{"days": "Mon-Fri", "time": "5:00pm"}, {"days": "Sat", "time": "3:00pm"}, {"days": "Sun", "time": "Closed"}], "id": "0235900009", "name": "USPS COLLECTION BOX - PO LOBBY", "address": {"city": "PEMBROKE", "state": "MA", "street": "3 ELLIOT AVE", "postcode": "02359"}}},
{"geometry": {"type": "Point", "coordinates": [-70.8054765293, 42.0656617158]}, "type": "Feature", "properties": {"collection_times": [{"days": "Mon-Fri", "time": "5:00pm"}, {"days": "Sat", "time": "12:00pm"}, {"days": "Sun", "time": "Closed"}], "id": "0235900010", "name": "USPS COLLECTION BOX - PO LOBBY", "address": {"city": "PEMBROKE", "state": "MA", "street": "3 ELLIOT AVE", "postcode": "02359"}}},
{"geometry": {"type": "Point", "coordinates": [-70.8054765293, 42.0656617158]}, "type": "Feature", "properties": {"collection_times": [{"days": "Mon-Fri", "time": "5:00pm"}, {"days": "Sat", "time": "12:00pm"}, {"days": "Sun", "time": "Closed"}], "id": "0235900011", "name": "USPS COLLECTION BOX - PO LOBBY", "address": {"city": "PEMBROKE", "state": "MA", "street": "3 ELLIOT AVE", "postcode": "02359"}}},
{"geometry": {"type": "Point", "coordinates": [-70.8099822009, 42.0672104396]}, "type": "Feature", "properties": {"collection_times": [{"days": "Mon-Fri", "time": "5:00pm"}, {"days": "Sat", "time": "3:00pm"}, {"days": "Sun", "time": "Closed"}], "id": "0235900012", "name": "USPS COLLECTION BOX - BLUE BOX", "address": {"city": "PEMBROKE", "state": "MA", "street": "3 ELLIOT AVE", "postcode": "02359"}}},
{"geometry": {"type": "Point", "coordinates": [-70.8099822009, 42.0672104396]}, "type": "Feature", "properties": {"collection_times": [{"days": "Mon-Fri", "time": "5:00pm"}, {"days": "Sat", "time": "3:00pm"}, {"days": "Sun", "time": "Closed"}], "id": "0235900013", "name": "USPS COLLECTION BOX - BLUE BOX", "address": {"city": "PEMBROKE", "state": "MA", "street": "3 ELLIOT AVE", "postcode": "02359"}}},
{"geometry": {"type": "Point", "coordinates": [-70.6682221636, 41.9588733708]}, "type": "Feature", "properties": {"collection_times": [{"days": "Mon-Fri", "time": "12:30pm"}, {"days": "Sat", "time": "12:00pm"}, {"days": "Sun", "time": "Closed"}], "id": "0236000005", "name": "USPS COLLECTION BOX - BLUE BOX", "address": {"city": "PLYMOUTH", "state": "MA", "street": "75 COURT ST", "postcode": "02360"}}},
{"geometry": {"type": "Point", "coordinates": [-70.6292387611, 41.9096543391]}, "type": "Feature", "properties": {"collection_times": [{"days": "Mon-Sat", "time": "12:00pm"}, {"days": "Sun", "time": "Closed"}], "id": "0236000007", "name": "USPS COLLECTION BOX - BLUE BOX", "address": {"city": "PLYMOUTH", "state": "MA", "street": "179 COURT ST", "postcode": "02360"}}},
{"geometry": {"type": "Point", "coordinates": [-70.6846274385, 41.9741004186]}, "type": "Feature", "properties": {"collection_times": [{"days": "Mon-Fri", "time": "1:30pm"}, {"days": "Sat", "time": "12:00pm"}, {"days": "Sun", "time": "Closed"}], "id": "0236000010", "name": "USPS COLLECTION BOX - BLUE BOX", "address": {"city": "PLYMOUTH", "state": "MA", "street": "320 COURT ST", "postcode": "02360"}}},
{"geometry": {"type": "Point", "coordinates": [-70.6984290992, 41.9631538696]}, "type": "Feature", "properties": {"collection_times": [{"days": "Mon-Fri", "time": "3:30pm"}, {"days": "Sat", "time": "12:00pm"}, {"days": "Sun", "time": "Closed"}], "id": "0236000015", "name": "USPS COLLECTION BOX - BLUE BOX", "address": {"city": "PLYMOUTH", "state": "MA", "street": "17 INDUSTRIAL PARK RD", "postcode": "02360"}}},
{"geometry": {"type": "Point", "coordinates": [-70.6562715732, 41.9266839514]}, "type": "Feature", "properties": {"collection_times": [{"days": "Mon-Fri", "time": "5:00pm"}, {"days": "Sat", "time": "3:45pm"}, {"days": "Sun", "time": "Closed"}], "id": "0236000017", "name": "USPS COLLECTION BOX - BLUE BOX", "address": {"city": "PLYMOUTH", "state": "MA", "street": "100 LONG POND RD", "postcode": "02360"}}},
{"geometry": {"type": "Point", "coordinates": [-70.7262311008, 41.9187036415]}, "type": "Feature", "properties": {"collection_times": [{"days": "Mon-Sat", "time": "10:30am"}, {"days": "Sun", "time": "Closed"}], "id": "0236000022", "name": "USPS COLLECTION BOX - BLUE BOX", "address": {"city": "PLYMOUTH", "state": "MA", "street": "13 NARRAGANSETT DR", "postcode": "02360"}}},
{"geometry": {"type": "Point", "coordinates": [-70.6697777547, 41.960568551]}, "type": "Feature", "properties": {"collection_times": [{"days": "Mon-Sat", "time": "10:00am"}, {"days": "Sun", "time": "Closed"}], "id": "0236000025", "name": "USPS COLLECTION BOX - BLUE BOX", "address": {"city": "PLYMOUTH", "state": "MA", "street": "8 N PARK AVE", "postcode": "02360"}}},
{"geometry": {"type": "Point", "coordinates": [-70.6304900347, 41.878278265]}, "type": "Feature", "properties": {"collection_times": [{"days": "Mon-Fri", "time": "3:30pm"}, {"days": "Sat", "time": "12:00pm"}, {"days": "Sun", "time": "Closed"}], "id": "0236000028", "name": "USPS COLLECTION BOX - BLUE BOX", "address": {"city": "PLYMOUTH", "state": "MA", "street": "45 RESNICK RD", "postcode": "02360"}}},
{"geometry": {"type": "Point", "coordinates": [-70.6665305665, 41.9577764605]}, "type": "Feature", "properties": {"collection_times": [{"days": "Mon-Fri", "time": "12:30pm"}, {"days": "Sat", "time": "12:00pm"}, {"days": "Sun", "time": "Closed"}], "id": "0236000033", "name": "USPS COLLECTION BOX - BLUE BOX", "address": {"city": "PLYMOUTH", "state": "MA", "street": "30 COURT ST", "postcode": "02360"}}},
{"geometry": {"type": "Point", "coordinates": [-70.684021015, 41.9537637662]}, "type": "Feature", "properties": {"collection_times": [{"days": "Mon-Sat", "time": "9:30am"}, {"days": "Sun", "time": "Closed"}], "id": "0236000035", "name": "USPS COLLECTION BOX - BLUE BOX", "address": {"city": "PLYMOUTH", "state": "MA", "street": "125 SAMOSET ST", "postcode": "02360"}}},
{"geometry": {"type": "Point", "coordinates": [-70.6469993317, 41.9480957634]}, "type": "Feature", "properties": {"collection_times": [{"days": "Mon-Fri", "time": "3:15pm"}, {"days": "Sat", "time": "12:00pm"}, {"days": "Sun", "time": "Closed"}], "id": "0236000038", "name": "USPS COLLECTION BOX - BLUE BOX", "address": {"city": "PLYMOUTH", "state": "MA", "street": "235 SANDWICH ST", "postcode": "02360"}}},
{"geometry": {"type": "Point", "coordinates": [-70.6434592836, 41.9435753455]}, "type": "Feature", "properties": {"collection_times": [{"days": "Mon-Fri", "time": "3:45pm"}, {"days": "Sat", "time": "1:00pm"}, {"days": "Sun", "time": "Closed"}], "id": "0236000039", "name": "USPS COLLECTION BOX - BLUE BOX", "address": {"city": "PLYMOUTH", "state": "MA", "street": "275 SANDWICH ST", "postcode": "02360"}}},
{"geometry": {"type": "Point", "coordinates": [-70.5568891636, 41.916748202]}, "type": "Feature", "properties": {"collection_times": [{"days": "Mon-Sat", "time": "9:45am"}, {"days": "Sun", "time": "Closed"}], "id": "0236000042", "name": "USPS COLLECTION BOX - BLUE BOX", "address": {"city": "PLYMOUTH", "state": "MA", "street": "701 STATE RD", "postcode": "02360"}}},
{"geometry": {"type": "Point", "coordinates": [-70.5522046461, 41.8181473894]}, "type": "Feature", "properties": {"collection_times": [{"days": "Mon-Sat", "time": "10:00am"}, {"days": "Sun", "time": "Closed"}], "id": "0236000043", "name": "USPS COLLECTION BOX - BLUE BOX", "address": {"city": "PLYMOUTH", "state": "MA", "street": "2253 STATE RD", "postcode": "02360"}}},
{"geometry": {"type": "Point", "coordinates": [-70.6690064654, 41.9625440925]}, "type": "Feature", "properties": {"collection_times": [{"days": "Mon-Sat", "time": "10:00am"}, {"days": "Sun", "time": "Closed"}], "id": "0236000048", "name": "USPS COLLECTION BOX - BLUE BOX", "address": {"city": "PLYMOUTH", "state": "MA", "street": "170 WATER ST", "postcode": "02360"}}},
{"geometry": {"type": "Point", "coordinates": [-70.671008032, 41.9649679754]}, "type": "Feature", "properties": {"collection_times": [{"days": "Mon-Fri", "time": "1:30pm"}, {"days": "Sat", "time": "12:00pm"}, {"days": "Sun", "time": "Closed"}], "id": "0236000049", "name": "USPS COLLECTION BOX - BLUE BOX", "address": {"city": "PLYMOUTH", "state": "MA", "street": "225 WATER ST", "postcode": "02360"}}},
{"geometry": {"type": "Point", "coordinates": [-70.6866017971, 41.949440456]}, "type": "Feature", "properties": {"collection_times": [{"days": "Mon-Sat", "time": "9:00am"}, {"days": "Sun", "time": "Closed"}], "id": "0236000051", "name": "USPS COLLECTION BOX - BLUE BOX", "address": {"city": "PLYMOUTH", "state": "MA", "street": "10 PILGRIM HILL RD", "postcode": "02360"}}},
{"geometry": {"type": "Point", "coordinates": [-70.6564689583, 41.9274726149]}, "type": "Feature", "properties": {"collection_times": [{"days": "Mon-Sat", "time": "10:00am"}, {"days": "Sun", "time": "Closed"}], "id": "0236000060", "name": "USPS COLLECTION BOX - BLUE BOX", "address": {"city": "PLYMOUTH", "state": "MA", "street": "2260 STATE RD", "postcode": "02360"}}},
{"geometry": {"type": "Point", "coordinates": [-70.6292387612, 41.9096629834]}, "type": "Feature", "properties": {"collection_times": [{"days": "Mon-Fri", "time": "5:00pm"}, {"days": "Sat", "time": "12:00pm"}, {"days": "Sun", "time": "Closed"}], "id": "0236000063", "name": "USPS COLLECTION BOX - PO LOBBY", "address": {"city": "PLYMOUTH", "state": "MA", "street": "100 LONG POND RD", "postcode": "02360"}}},
{"geometry": {"type": "Point", "coordinates": [-70.7115393097, 41.9506004919]}, "type": "Feature", "properties": {"collection_times": [{"days": "Mon-Fri", "time": "3:30pm"}, {"days": "Sat", "time": "12:00pm"}, {"days": "Sun", "time": "Closed"}], "id": "0236000065", "name": "USPS COLLECTION BOX - BLUE BOX", "address": {"city": "PLYMOUTH", "state": "MA", "street": "138 INDUSTRIAL PARK RD", "postcode": "02360"}}},
{"geometry": {"type": "Point", "coordinates": [-70.6304900347, 41.878278265]}, "type": "Feature", "properties": {"collection_times": [{"days": "Mon-Sat", "time": "9:30am"}, {"days": "Sun", "time": "Closed"}], "id": "0236000066", "name": "USPS COLLECTION BOX - BLUE BOX", "address": {"city": "PLYMOUTH", "state": "MA", "street": "311 VILLAGE GRN N", "postcode": "02360"}}},
{"geometry": {"type": "Point", "coordinates": [-70.5841064009, 41.8874480658]}, "type": "Feature", "properties": {"collection_times": [{"days": "Mon-Sat", "time": "9:30am"}, {"days": "Sun", "time": "Closed"}], "id": "0236000067", "name": "USPS COLLECTION BOX - BLUE BOX", "address": {"city": "PLYMOUTH", "state": "MA", "street": "1 MINT SPRIG", "postcode": "02360"}}},
{"geometry": {"type": "Point", "coordinates": [-70.6522793514, 41.9403319119]}, "type": "Feature", "properties": {"collection_times": [{"days": "Mon-Fri", "time": "3:45pm"}, {"days": "Sat-Sun", "time": "Closed"}], "id": "0236000068", "name": "USPS COLLECTION BOX - BLUE BOX", "address": {"city": "PLYMOUTH", "state": "MA", "street": "50 OBERY ST", "postcode": "02360"}}},
{"geometry": {"type": "Point", "coordinates": [-70.6523316834, 41.9402663312]}, "type": "Feature", "properties": {"collection_times": [{"days": "Mon-Fri", "time": "3:45pm"}, {"days": "Sat-Sun", "time": "Closed"}], "id": "0236000070", "name": "USPS COLLECTION BOX - BLUE BOX", "address": {"city": "PLYMOUTH", "state": "MA", "street": "52 OBERY ST", "postcode": "02360"}}},
{"geometry": {"type": "Point", "coordinates": [-70.6562715732, 41.9266839514]}, "type": "Feature", "properties": {"collection_times": [{"days": "Mon-Fri", "time": "5:00pm"}, {"days": "Sat", "time": "3:45pm"}, {"days": "Sun", "time": "Closed"}], "id": "0236000071", "name": "USPS COLLECTION BOX - BLUE BOX", "address": {"city": "PLYMOUTH", "state": "MA", "street": "100 LONG POND RD", "postcode": "02360"}}},
{"geometry": {"type": "Point", "coordinates": [-70.6523316834, 41.9402663312]}, "type": "Feature", "properties": {"collection_times": [{"days": "Mon-Fri", "time": "3:45pm"}, {"days": "Sat-Sun", "time": "Closed"}], "id": "0236000072", "name": "USPS COLLECTION BOX - BLUE BOX", "address": {"city": "PLYMOUTH", "state": "MA", "street": "52 OBERY ST", "postcode": "02360"}}},
{"geometry": {"type": "Point", "coordinates": [-70.6564689583, 41.9274726149]}, "type": "Feature", "properties": {"collection_times": [{"days": "Mon-Fri", "time": "4:30pm"}, {"days": "Sat", "time": "12:00pm"}, {"days": "Sun", "time": "Closed"}], "id": "0236100001", "name": "USPS COLLECTION BOX - BLUE BOX", "address": {"city": "PLYMOUTH", "state": "MA", "street": "6 MAIN ST", "postcode": "02361"}}},
{"geometry": {"type": "Point", "coordinates": [-70.6564689583, 41.9274726149]}, "type": "Feature", "properties": {"collection_times": [{"days": "Mon-Fri", "time": "4:30pm"}, {"days": "Sat", "time": "12:00pm"}, {"days": "Sun", "time": "Closed"}], "id": "0236100003", "name": "USPS COLLECTION BOX - PO LOBBY", "address": {"city": "PLYMOUTH", "state": "MA", "street": "6 MAIN ST", "postcode": "02361"}}},
{"geometry": {"type": "Point", "coordinates": [-70.6824781136, 41.9719703622]}, "type": "Feature", "properties": {"collection_times": [{"days": "Mon-Fri", "time": "4:45pm"}, {"days": "Sat", "time": "12:00pm"}, {"days": "Sun", "time": "Closed"}], "id": "0236200000", "name": "USPS COLLECTION BOX - BLUE BOX", "address": {"city": "NORTH PLYMOUTH", "state": "MA", "street": "283 COURT ST", "postcode": "02362"}}},
{"geometry": {"type": "Point", "coordinates": [-70.6824673208, 41.9719697288]}, "type": "Feature", "properties": {"collection_times": [{"days": "Mon-Fri", "time": "4:45pm"}, {"days": "Sat", "time": "12:00pm"}, {"days": "Sun", "time": "Closed"}], "id": "0236200001", "name": "USPS COLLECTION BOX - PO LOBBY", "address": {"city": "NORTH PLYMOUTH", "state": "MA", "street": "283 COURT ST", "postcode": "02362"}}},
{"geometry": {"type": "Point", "coordinates": [-70.741546502, 41.9951141117]}, "type": "Feature", "properties": {"collection_times": [{"days": "Mon-Sat", "time": "12:00pm"}, {"days": "Sun", "time": "Closed"}], "id": "0236400003", "name": "USPS COLLECTION BOX - BLUE BOX", "address": {"city": "KINGSTON", "state": "MA", "street": "26 EVERGREEN ST", "postcode": "02364"}}},
{"geometry": {"type": "Point", "coordinates": [-70.7139376128, 41.9699233905]}, "type": "Feature", "properties": {"collection_times": [{"days": "Mon-Sat", "time": "11:15am"}, {"days": "Sun", "time": "Closed"}], "id": "0236400011", "name": "USPS COLLECTION BOX - BLUE BOX", "address": {"city": "KINGSTON", "state": "MA", "street": "101 INDEPENDENCE MALL WAY", "postcode": "02364"}}},
{"geometry": {"type": "Point", "coordinates": [-70.7305186544, 41.9992204247]}, "type": "Feature", "properties": {"collection_times": [{"days": "Mon-Fri", "time": "5:00pm"}, {"days": "Sat", "time": "3:30pm"}, {"days": "Sun", "time": "Closed"}], "id": "0236400013", "name": "USPS COLLECTION BOX - BLUE BOX", "address": {"city": "KINGSTON", "state": "MA", "street": "72 SUMMER ST", "postcode": "02364"}}},
{"geometry": {"type": "Point", "coordinates": [-70.7304596949, 41.99913202]}, "type": "Feature", "properties": {"collection_times": [{"days": "Mon-Sat", "time": "11:45am"}, {"days": "Sun", "time": "Closed"}], "id": "0236400018", "name": "USPS COLLECTION BOX - BLUE BOX", "address": {"city": "KINGSTON", "state": "MA", "street": "160 SUMMER HILL PLZ", "postcode": "02364"}}},
{"geometry": {"type": "Point", "coordinates": [-70.7377292036, 41.993091434]}, "type": "Feature", "properties": {"collection_times": [{"days": "Mon-Fri", "time": "5:00pm"}, {"days": "Sat", "time": "3:30pm"}, {"days": "Sun", "time": "Closed"}], "id": "0236400019", "name": "USPS COLLECTION BOX - PO LOBBY", "address": {"city": "KINGSTON", "state": "MA", "street": "72 SUMMER ST", "postcode": "02364"}}},
{"geometry": {"type": "Point", "coordinates": [-70.7160716708, 41.9877186422]}, "type": "Feature", "properties": {"collection_times": [{"days": "Mon-Sat", "time": "11:30am"}, {"days": "Sun", "time": "Closed"}], "id": "0236400020", "name": "USPS COLLECTION BOX - BLUE BOX", "address": {"city": "KINGSTON", "state": "MA", "street": "133 MAIN ST", "postcode": "02364"}}},
{"geometry": {"type": "Point", "coordinates": [-70.7432373551, 41.8435000304]}, "type": "Feature", "properties": {"collection_times": [{"days": "Mon-Fri", "time": "4:45pm"}, {"days": "Sat", "time": "11:45am"}, {"days": "Sun", "time": "Closed"}], "id": "0236600001", "name": "USPS COLLECTION BOX - BLUE BOX", "address": {"city": "SOUTH CARVER", "state": "MA", "street": "239 TREMONT ST", "postcode": "02366"}}},
{"geometry": {"type": "Point", "coordinates": [-70.7432373551, 41.8435000304]}, "type": "Feature", "properties": {"collection_times": [{"days": "Mon-Fri", "time": "4:45pm"}, {"days": "Sat", "time": "11:45am"}, {"days": "Sun", "time": "Closed"}], "id": "0236600003", "name": "USPS COLLECTION BOX - PO LOBBY", "address": {"city": "SOUTH CARVER", "state": "MA", "street": "239 TREMONT ST", "postcode": "02366"}}},
{"geometry": {"type": "Point", "coordinates": [-70.7432373551, 41.8435000304]}, "type": "Feature", "properties": {"collection_times": [{"days": "Mon-Fri", "time": "4:45pm"}, {"days": "Sat", "time": "11:45am"}, {"days": "Sun", "time": "Closed"}], "id": "0236600004", "name": "USPS COLLECTION BOX - EXPRESS", "address": {"city": "SOUTH CARVER", "state": "MA", "street": "239 TREMONT ST", "postcode": "02366"}}},
{"geometry": {"type": "Point", "coordinates": [-70.8137216195, 41.9515826105]}, "type": "Feature", "properties": {"collection_times": [{"days": "Mon-Fri", "time": "4:30pm"}, {"days": "Sat", "time": "11:30am"}, {"days": "Sun", "time": "Closed"}], "id": "0236700001", "name": "USPS COLLECTION BOX - BLUE BOX", "address": {"city": "PLYMPTON", "state": "MA", "street": "284 MAIN ST", "postcode": "02367"}}},
{"geometry": {"type": "Point", "coordinates": [-70.8094261393, 41.9555810015]}, "type": "Feature", "properties": {"collection_times": [{"days": "Mon-Fri", "time": "4:30pm"}, {"days": "Sat", "time": "11:30am"}, {"days": "Sun", "time": "Closed"}], "id": "0236700002", "name": "USPS COLLECTION BOX - PO LOBBY", "address": {"city": "PLYMPTON", "state": "MA", "street": "284 MAIN ST", "postcode": "02367"}}},
{"geometry": {"type": "Point", "coordinates": [-71.0374367357, 42.1655279354]}, "type": "Feature", "properties": {"collection_times": [{"days": "Mon-Fri", "time": "12:00pm"}, {"days": "Sat", "time": "10:00am"}, {"days": "Sun", "time": "Closed"}], "id": "0236800006", "name": "USPS COLLECTION BOX - BLUE BOX", "address": {"city": "RANDOLPH", "state": "MA", "street": "1 ELDERLY DR", "postcode": "02368"}}},
{"geometry": {"type": "Point", "coordinates": [-71.0428136792, 42.1647019239]}, "type": "Feature", "properties": {"collection_times": [{"days": "Mon-Fri", "time": "4:30pm"}, {"days": "Sat", "time": "12:00pm"}, {"days": "Sun", "time": "Closed"}], "id": "0236800008", "name": "USPS COLLECTION BOX - BLUE BOX", "address": {"city": "RANDOLPH", "state": "MA", "street": "84 N MAIN ST", "postcode": "02368"}}},
{"geometry": {"type": "Point", "coordinates": [-71.0413061414, 42.162592466]}, "type": "Feature", "properties": {"collection_times": [{"days": "Mon-Fri", "time": "4:30pm"}, {"days": "Sat", "time": "12:00pm"}, {"days": "Sun", "time": "Closed"}], "id": "0236800009", "name": "USPS COLLECTION BOX - BLUE BOX", "address": {"city": "RANDOLPH", "state": "MA", "street": "129 N MAIN ST", "postcode": "02368"}}},
{"geometry": {"type": "Point", "coordinates": [-71.0413061414, 42.162592466]}, "type": "Feature", "properties": {"collection_times": [{"days": "Mon-Fri", "time": "4:30pm"}, {"days": "Sat", "time": "12:00pm"}, {"days": "Sun", "time": "Closed"}], "id": "0236800010", "name": "USPS COLLECTION BOX - BLUE BOX", "address": {"city": "RANDOLPH", "state": "MA", "street": "326 N MAIN ST", "postcode": "02368"}}},
{"geometry": {"type": "Point", "coordinates": [-71.0400661849, 42.1373106257]}, "type": "Feature", "properties": {"collection_times": [{"days": "Mon-Sat", "time": "12:00pm"}, {"days": "Sun", "time": "Closed"}], "id": "0236800017", "name": "USPS COLLECTION BOX - BLUE BOX", "address": {"city": "RANDOLPH", "state": "MA", "street": "398 S MAIN ST", "postcode": "02368"}}},
{"geometry": {"type": "Point", "coordinates": [-71.0450082392, 42.1630322963]}, "type": "Feature", "properties": {"collection_times": [{"days": "Mon-Fri", "time": "4:30pm"}, {"days": "Sat", "time": "12:00pm"}, {"days": "Sun", "time": "Closed"}], "id": "0236800020", "name": "USPS COLLECTION BOX - BLUE BOX", "address": {"city": "RANDOLPH", "state": "MA", "street": "121 MEMORIAL PKWY", "postcode": "02368"}}},
{"geometry": {"type": "Point", "coordinates": [-71.0523354725, 42.1846856724]}, "type": "Feature", "properties": {"collection_times": [{"days": "Mon-Fri", "time": "3:00pm"}, {"days": "Sat", "time": "12:00pm"}, {"days": "Sun", "time": "Closed"}], "id": "0236800021", "name": "USPS COLLECTION BOX - BLUE BOX", "address": {"city": "RANDOLPH", "state": "MA", "street": "32 OAK ST", "postcode": "02368"}}},
{"geometry": {"type": "Point", "coordinates": [-71.0513600503, 42.1981498443]}, "type": "Feature", "properties": {"collection_times": [{"days": "Mon-Fri", "time": "3:00pm"}, {"days": "Sat", "time": "12:00pm"}, {"days": "Sun", "time": "Closed"}], "id": "0236800024", "name": "USPS COLLECTION BOX - BLUE BOX", "address": {"city": "RANDOLPH", "state": "MA", "street": "280 POND ST", "postcode": "02368"}}},
{"geometry": {"type": "Point", "coordinates": [-71.0620004579, 42.2012452262]}, "type": "Feature", "properties": {"collection_times": [{"days": "Mon-Fri", "time": "12:00pm"}, {"days": "Sat", "time": "10:00am"}, {"days": "Sun", "time": "Closed"}], "id": "0236800026", "name": "USPS COLLECTION BOX - BLUE BOX", "address": {"city": "RANDOLPH", "state": "MA", "street": "15 RUSS ST", "postcode": "02368"}}},
{"geometry": {"type": "Point", "coordinates": [-71.0520692107, 42.1866335538]}, "type": "Feature", "properties": {"collection_times": [{"days": "Mon-Fri", "time": "12:30pm"}, {"days": "Sat", "time": "10:00am"}, {"days": "Sun", "time": "Closed"}], "id": "0236800027", "name": "USPS COLLECTION BOX - BLUE BOX", "address": {"city": "RANDOLPH", "state": "MA", "street": "15 SUNSHINE AVE", "postcode": "02368"}}},
{"geometry": {"type": "Point", "coordinates": [-71.0285623517, 42.1767609408]}, "type": "Feature", "properties": {"collection_times": [{"days": "Mon-Fri", "time": "3:00pm"}, {"days": "Sat", "time": "12:00pm"}, {"days": "Sun", "time": "Closed"}], "id": "0236800028", "name": "USPS COLLECTION BOX - BLUE BOX", "address": {"city": "RANDOLPH", "state": "MA", "street": "55 TEED DR", "postcode": "02368"}}},
{"geometry": {"type": "Point", "coordinates": [-71.0611498847, 42.1585936044]}, "type": "Feature", "properties": {"collection_times": [{"days": "Mon-Fri", "time": "5:00pm"}, {"days": "Sat", "time": "3:30pm"}, {"days": "Sun", "time": "Closed"}], "id": "0236800032", "name": "USPS COLLECTION BOX - BLUE BOX", "address": {"city": "RANDOLPH", "state": "MA", "street": "16 THOMAS PATTEN DR", "postcode": "02368"}}},
{"geometry": {"type": "Point", "coordinates": [-71.0611498847, 42.1585936044]}, "type": "Feature", "properties": {"collection_times": [{"days": "Mon-Fri", "time": "5:00pm"}, {"days": "Sat", "time": "3:30pm"}, {"days": "Sun", "time": "Closed"}], "id": "0236800034", "name": "USPS COLLECTION BOX - BLUE BOX", "address": {"city": "RANDOLPH", "state": "MA", "street": "16 THOMAS PATTEN DR", "postcode": "02368"}}},
{"geometry": {"type": "Point", "coordinates": [-71.0611498847, 42.1585936044]}, "type": "Feature", "properties": {"collection_times": [{"days": "Mon-Fri", "time": "5:30pm"}, {"days": "Sat", "time": "4:00pm"}, {"days": "Sun", "time": "Closed"}], "id": "0236800035", "name": "USPS COLLECTION BOX - PO LOBBY", "address": {"city": "RANDOLPH", "state": "MA", "street": "16 THOMAS PATTEN DR", "postcode": "02368"}}},
{"geometry": {"type": "Point", "coordinates": [-71.0611498847, 42.1585936044]}, "type": "Feature", "properties": {"collection_times": [{"days": "Mon-Fri", "time": "5:30pm"}, {"days": "Sat", "time": "4:00pm"}, {"days": "Sun", "time": "Closed"}], "id": "0236800036", "name": "USPS COLLECTION BOX - PO LOBBY", "address": {"city": "RANDOLPH", "state": "MA", "street": "16 THOMAS PATTEN DR", "postcode": "02368"}}},
{"geometry": {"type": "Point", "coordinates": [-71.0611498847, 42.1585936044]}, "type": "Feature", "properties": {"collection_times": [{"days": "Mon-Fri", "time": "5:30pm"}, {"days": "Sat", "time": "4:00pm"}, {"days": "Sun", "time": "Closed"}], "id": "0236800037", "name": "USPS COLLECTION BOX - PO LOBBY", "address": {"city": "RANDOLPH", "state": "MA", "street": "16 THOMAS PATTEN DR", "postcode": "02368"}}},
{"geometry": {"type": "Point", "coordinates": [-71.075028548, 42.1811829662]}, "type": "Feature", "properties": {"collection_times": [{"days": "Mon-Fri", "time": "4:30pm"}, {"days": "Sat", "time": "12:00pm"}, {"days": "Sun", "time": "Closed"}], "id": "0236800040", "name": "USPS COLLECTION BOX - BLUE BOX", "address": {"city": "RANDOLPH", "state": "MA", "street": "9 YORK AVE", "postcode": "02368"}}},
{"geometry": {"type": "Point", "coordinates": [-71.0552556596, 42.1855936705]}, "type": "Feature", "properties": {"collection_times": [{"days": "Mon-Sat", "time": "12:00pm"}, {"days": "Sun", "time": "Closed"}], "id": "0236800044", "name": "USPS COLLECTION BOX - BLUE BOX", "address": {"city": "RANDOLPH", "state": "MA", "street": "126 CANTON ST", "postcode": "02368"}}},
{"geometry": {"type": "Point", "coordinates": [-71.0613162634, 42.1797931519]}, "type": "Feature", "properties": {"collection_times": [{"days": "Mon-Fri", "time": "3:00pm"}, {"days": "Sat", "time": "12:00pm"}, {"days": "Sun", "time": "Closed"}], "id": "0236800045", "name": "USPS COLLECTION BOX - BLUE BOX", "address": {"city": "RANDOLPH", "state": "MA", "street": "208 CHESTNUT ST", "postcode": "02368"}}},
{"geometry": {"type": "Point", "coordinates": [-71.0373007808, 42.1686250269]}, "type": "Feature", "properties": {"collection_times": [{"days": "Mon-Fri", "time": "12:00pm"}, {"days": "Sat", "time": "10:00am"}, {"days": "Sun", "time": "Closed"}], "id": "0236800048", "name": "USPS COLLECTION BOX - BLUE BOX", "address": {"city": "RANDOLPH", "state": "MA", "street": "1 DECELLE DR", "postcode": "02368"}}},
{"geometry": {"type": "Point", "coordinates": [-71.0611498847, 42.1585936044]}, "type": "Feature", "properties": {"collection_times": [{"days": "Mon-Fri", "time": "5:30pm"}, {"days": "Sat", "time": "4:00pm"}, {"days": "Sun", "time": "Closed"}], "id": "0236800049", "name": "USPS COLLECTION BOX - PO LOBBY", "address": {"city": "RANDOLPH", "state": "MA", "street": "16 THOMAS PATTEN DR", "postcode": "02368"}}},
{"geometry": {"type": "Point", "coordinates": [-71.0441223405, 42.1669973629]}, "type": "Feature", "properties": {"collection_times": [{"days": "Mon-Fri", "time": "4:30pm"}, {"days": "Sat", "time": "12:00pm"}, {"days": "Sun", "time": "Closed"}], "id": "0236800051", "name": "USPS COLLECTION BOX - BLUE BOX", "address": {"city": "RANDOLPH", "state": "MA", "street": "1 CREDIT UNION WAY", "postcode": "02368"}}},
{"geometry": {"type": "Point", "coordinates": [-71.0611498847, 42.1585936044]}, "type": "Feature", "properties": {"collection_times": [{"days": "Mon-Fri", "time": "5:00pm"}, {"days": "Sat", "time": "3:30pm"}, {"days": "Sun", "time": "Closed"}], "id": "0236800052", "name": "USPS COLLECTION BOX - APC", "address": {"city": "RANDOLPH", "state": "MA", "street": "16 THOMAS PATTEN DR", "postcode": "02368"}}},
{"geometry": {"type": "Point", "coordinates": [-70.9018211292, 42.1640628944]}, "type": "Feature", "properties": {"collection_times": [{"days": "Mon-Fri", "time": "3:00pm"}, {"days": "Sat-Sun", "time": "Closed"}], "id": "0237000001", "name": "USPS COLLECTION BOX - BLUE BOX", "address": {"city": "ROCKLAND", "state": "MA", "street": "10 COMMERCE RD", "postcode": "02370"}}},
{"geometry": {"type": "Point", "coordinates": [-70.9039525201, 42.1582981109]}, "type": "Feature", "properties": {"collection_times": [{"days": "Mon-Fri", "time": "3:00pm"}, {"days": "Sat-Sun", "time": "Closed"}], "id": "0237000006", "name": "USPS COLLECTION BOX - BLUE BOX", "address": {"city": "ROCKLAND", "state": "MA", "street": "800 HINGHAM ST", "postcode": "02370"}}},
{"geometry": {"type": "Point", "coordinates": [-70.9167568746, 42.1190212571]}, "type": "Feature", "properties": {"collection_times": [{"days": "Mon-Fri", "time": "3:00pm"}, {"days": "Sat", "time": "1:30pm"}, {"days": "Sun", "time": "Closed"}], "id": "0237000011", "name": "USPS COLLECTION BOX - BLUE BOX", "address": {"city": "ROCKLAND", "state": "MA", "street": "360 MARKET ST", "postcode": "02370"}}},
{"geometry": {"type": "Point", "coordinates": [-70.9152583013, 42.1289734063]}, "type": "Feature", "properties": {"collection_times": [{"days": "Mon-Fri", "time": "3:00pm"}, {"days": "Sat", "time": "1:30pm"}, {"days": "Sun", "time": "Closed"}], "id": "0237000018", "name": "USPS COLLECTION BOX - BLUE BOX", "address": {"city": "ROCKLAND", "state": "MA", "street": "242 UNION ST", "postcode": "02370"}}},
{"geometry": {"type": "Point", "coordinates": [-70.9155883469, 42.1300309716]}, "type": "Feature", "properties": {"collection_times": [{"days": "Mon-Fri", "time": "3:00pm"}, {"days": "Sat", "time": "1:30pm"}, {"days": "Sun", "time": "Closed"}], "id": "0237000019", "name": "USPS COLLECTION BOX - BLUE BOX", "address": {"city": "ROCKLAND", "state": "MA", "street": "288 UNION ST", "postcode": "02370"}}},
{"geometry": {"type": "Point", "coordinates": [-70.9163963078, 42.1326157369]}, "type": "Feature", "properties": {"collection_times": [{"days": "Mon-Fri", "time": "3:00pm"}, {"days": "Sat", "time": "1:30pm"}, {"days": "Sun", "time": "Closed"}], "id": "0237000020", "name": "USPS COLLECTION BOX - BLUE BOX", "address": {"city": "ROCKLAND", "state": "MA", "street": "384 UNION ST", "postcode": "02370"}}},
{"geometry": {"type": "Point", "coordinates": [-70.9115076982, 42.1302633034]}, "type": "Feature", "properties": {"collection_times": [{"days": "Mon-Fri", "time": "3:00pm"}, {"days": "Sat", "time": "1:30pm"}, {"days": "Sun", "time": "Closed"}], "id": "0237000025", "name": "USPS COLLECTION BOX - BLUE BOX", "address": {"city": "ROCKLAND", "state": "MA", "street": "60 RESEVOIR PARK AVE", "postcode": "02370"}}},
{"geometry": {"type": "Point", "coordinates": [-70.9266951441, 42.1132285089]}, "type": "Feature", "properties": {"collection_times": [{"days": "Mon-Fri", "time": "3:00pm"}, {"days": "Sat", "time": "1:30pm"}, {"days": "Sun", "time": "Closed"}], "id": "0237000026", "name": "USPS COLLECTION BOX - BLUE BOX", "address": {"city": "ROCKLAND", "state": "MA", "street": "347 CENTRE AVE", "postcode": "02370"}}},
{"geometry": {"type": "Point", "coordinates": [-70.8999212383, 42.1631242486]}, "type": "Feature", "properties": {"collection_times": [{"days": "Mon-Fri", "time": "3:00pm"}, {"days": "Sat-Sun", "time": "Closed"}], "id": "0237000027", "name": "USPS COLLECTION BOX - BLUE BOX", "address": {"city": "ROCKLAND", "state": "MA", "street": "1001 HINGHAM ST", "postcode": "02370"}}},
{"geometry": {"type": "Point", "coordinates": [-70.916392759, 42.1212451354]}, "type": "Feature", "properties": {"collection_times": [{"days": "Mon-Fri", "time": "3:00pm"}, {"days": "Sat", "time": "1:30pm"}, {"days": "Sun", "time": "Closed"}], "id": "0237000028", "name": "USPS COLLECTION BOX - BLUE BOX", "address": {"city": "ROCKLAND", "state": "MA", "street": "75 MARKET ST", "postcode": "02370"}}},
{"geometry": {"type": "Point", "coordinates": [-70.9158284875, 42.1307774187]}, "type": "Feature", "properties": {"collection_times": [{"days": "Mon-Fri", "time": "3:00pm"}, {"days": "Sat", "time": "1:30pm"}, {"days": "Sun", "time": "Closed"}], "id": "0237000036", "name": "USPS COLLECTION BOX - BLUE BOX", "address": {"city": "ROCKLAND", "state": "MA", "street": "307 UNION ST", "postcode": "02370"}}},
{"geometry": {"type": "Point", "coordinates": [-70.8979220377, 42.1645284209]}, "type": "Feature", "properties": {"collection_times": [{"days": "Mon-Fri", "time": "3:00pm"}, {"days": "Sat-Sun", "time": "Closed"}], "id": "0237000037", "name": "USPS COLLECTION BOX - BLUE BOX", "address": {"city": "ROCKLAND", "state": "MA", "street": "1050 HINGHAM ST", "postcode": "02370"}}},
{"geometry": {"type": "Point", "coordinates": [-71.0668240555, 42.0123766711]}, "type": "Feature", "properties": {"collection_times": [{"days": "Mon-Sat", "time": "12:00pm"}, {"days": "Sun", "time": "Closed"}], "id": "0237500001", "name": "USPS COLLECTION BOX - BLUE BOX", "address": {"city": "SOUTH EASTON", "state": "MA", "street": "447 TURNPIKE ST", "postcode": "02375"}}},
{"geometry": {"type": "Point", "coordinates": [-71.0764889711, 42.0405622054]}, "type": "Feature", "properties": {"collection_times": [{"days": "Mon-Fri", "time": "4:45pm"}, {"days": "Sat", "time": "2:00pm"}, {"days": "Sun", "time": "Closed"}], "id": "0237500002", "name": "USPS COLLECTION BOX - BLUE BOX", "address": {"city": "SOUTH EASTON", "state": "MA", "street": "704 WASHINGTON ST", "postcode": "02375"}}},
{"geometry": {"type": "Point", "coordinates": [-71.0764889711, 42.0405622054]}, "type": "Feature", "properties": {"collection_times": [{"days": "Mon-Fri", "time": "4:45pm"}, {"days": "Sat", "time": "2:00pm"}, {"days": "Sun", "time": "Closed"}], "id": "0237500003", "name": "USPS COLLECTION BOX - BLUE BOX", "address": {"city": "SOUTH EASTON", "state": "MA", "street": "704 WASHINGTON ST", "postcode": "02375"}}},
{"geometry": {"type": "Point", "coordinates": [-71.095118941, 42.0317141879]}, "type": "Feature", "properties": {"collection_times": [{"days": "Mon-Fri", "time": "4:45pm"}, {"days": "Sat", "time": "2:00pm"}, {"days": "Sun", "time": "Closed"}], "id": "0237500004", "name": "USPS COLLECTION BOX - PO LOBBY", "address": {"city": "SOUTH EASTON", "state": "MA", "street": "704 WASHINGTON ST", "postcode": "02375"}}},
{"geometry": {"type": "Point", "coordinates": [-71.095118941, 42.0317141879]}, "type": "Feature", "properties": {"collection_times": [{"days": "Mon-Fri", "time": "4:45pm"}, {"days": "Sat", "time": "2:00pm"}, {"days": "Sun", "time": "Closed"}], "id": "0237500005", "name": "USPS COLLECTION BOX - PO LOBBY", "address": {"city": "SOUTH EASTON", "state": "MA", "street": "704 WASHINGTON ST", "postcode": "02375"}}},
{"geometry": {"type": "Point", "coordinates": [-71.066269136, 42.0227740122]}, "type": "Feature", "properties": {"collection_times": [{"days": "Mon-Sat", "time": "12:00pm"}, {"days": "Sun", "time": "Closed"}], "id": "0237500007", "name": "USPS COLLECTION BOX - BLUE BOX", "address": {"city": "SOUTH EASTON", "state": "MA", "street": "669 WASHINGTON ST", "postcode": "02375"}}},
{"geometry": {"type": "Point", "coordinates": [-71.0492466693, 42.0124354885]}, "type": "Feature", "properties": {"collection_times": [{"days": "Mon-Fri", "time": "4:15pm"}, {"days": "Sat", "time": "10:00am"}, {"days": "Sun", "time": "Closed"}], "id": "0237900001", "name": "USPS COLLECTION BOX - BLUE BOX", "address": {"city": "W BRIDGEWATER", "state": "MA", "street": "700 W CENTER ST", "postcode": "02379"}}},
{"geometry": {"type": "Point", "coordinates": [-71.0224663234, 42.0189605885]}, "type": "Feature", "properties": {"collection_times": [{"days": "Mon-Fri", "time": "4:30pm"}, {"days": "Sat", "time": "11:00am"}, {"days": "Sun", "time": "Closed"}], "id": "0237900003", "name": "USPS COLLECTION BOX - BLUE BOX", "address": {"city": "W BRIDGEWATER", "state": "MA", "street": "55 N ELM ST", "postcode": "02379"}}},
{"geometry": {"type": "Point", "coordinates": [-71.0192594899, 42.0256224902]}, "type": "Feature", "properties": {"collection_times": [{"days": "Mon-Fri", "time": "5:00pm"}, {"days": "Sat", "time": "12:00pm"}, {"days": "Sun", "time": "Closed"}], "id": "0237900006", "name": "USPS COLLECTION BOX - PO LOBBY", "address": {"city": "W BRIDGEWATER", "state": "MA", "street": "78 N MAIN ST", "postcode": "02379"}}},
{"geometry": {"type": "Point", "coordinates": [-71.0091450225, 42.0215926722]}, "type": "Feature", "properties": {"collection_times": [{"days": "Mon-Fri", "time": "5:00pm"}, {"days": "Sat", "time": "12:00pm"}, {"days": "Sun", "time": "Closed"}], "id": "0237900007", "name": "USPS COLLECTION BOX - BLUE BOX", "address": {"city": "W BRIDGEWATER", "state": "MA", "street": "78 N MAIN ST", "postcode": "02379"}}},
{"geometry": {"type": "Point", "coordinates": [-71.0091450225, 42.0215926722]}, "type": "Feature", "properties": {"collection_times": [{"days": "Mon-Fri", "time": "5:00pm"}, {"days": "Sat", "time": "12:00pm"}, {"days": "Sun", "time": "Closed"}], "id": "0237900008", "name": "USPS COLLECTION BOX - BLUE BOX", "address": {"city": "W BRIDGEWATER", "state": "MA", "street": "78 N MAIN ST", "postcode": "02379"}}},
{"geometry": {"type": "Point", "coordinates": [-71.0192594899, 42.0256224902]}, "type": "Feature", "properties": {"collection_times": [{"days": "Mon-Fri", "time": "5:00pm"}, {"days": "Sat", "time": "12:00pm"}, {"days": "Sun", "time": "Closed"}], "id": "0237900009", "name": "USPS COLLECTION BOX - PO LOBBY", "address": {"city": "W BRIDGEWATER", "state": "MA", "street": "78 N MAIN ST", "postcode": "02379"}}},
{"geometry": {"type": "Point", "coordinates": [-71.0192594899, 42.0256224902]}, "type": "Feature", "properties": {"collection_times": [{"days": "Mon-Fri", "time": "5:00pm"}, {"days": "Sat", "time": "12:00pm"}, {"days": "Sun", "time": "Closed"}], "id": "0237900010", "name": "USPS COLLECTION BOX - EXPRESS", "address": {"city": "W BRIDGEWATER", "state": "MA", "street": "78 N MAIN ST", "postcode": "02379"}}},
{"geometry": {"type": "Point", "coordinates": [-71.0087796559, 42.0398449797]}, "type": "Feature", "properties": {"collection_times": [{"days": "Mon-Sat", "time": "10:30am"}, {"days": "Sun", "time": "Closed"}], "id": "0237900011", "name": "USPS COLLECTION BOX - BLUE BOX", "address": {"city": "W BRIDGEWATER", "state": "MA", "street": "775 N MAIN ST", "postcode": "02379"}}},
{"geometry": {"type": "Point", "coordinates": [-70.9475195641, 42.0728298108]}, "type": "Feature", "properties": {"collection_times": [{"days": "Mon-Fri", "time": "2:45pm"}, {"days": "Sat-Sun", "time": "Closed"}], "id": "0238200024", "name": "USPS COLLECTION BOX - BLUE BOX", "address": {"city": "WHITMAN", "state": "MA", "street": "475 BEDFORD ST", "postcode": "02382"}}},
{"geometry": {"type": "Point", "coordinates": [-70.9373438568, 42.0803825713]}, "type": "Feature", "properties": {"collection_times": [{"days": "Mon-Fri", "time": "2:45pm"}, {"days": "Sat-Sun", "time": "Closed"}], "id": "0238200025", "name": "USPS COLLECTION BOX - BLUE BOX", "address": {"city": "WHITMAN", "state": "MA", "street": "570 WASHINGTON ST", "postcode": "02382"}}},
{"geometry": {"type": "Point", "coordinates": [-70.9394947284, 42.0752490033]}, "type": "Feature", "properties": {"collection_times": [{"days": "Mon-Sat", "time": "9:30am"}, {"days": "Sun", "time": "Closed"}], "id": "0238200035", "name": "USPS COLLECTION BOX - BLUE BOX", "address": {"city": "WHITMAN", "state": "MA", "street": "100 HARVARD ST", "postcode": "02382"}}},
{"geometry": {"type": "Point", "coordinates": [-70.9216309636, 42.0919339507]}, "type": "Feature", "properties": {"collection_times": [{"days": "Mon-Sat", "time": "11:00am"}, {"days": "Sun", "time": "Closed"}], "id": "0238200038", "name": "USPS COLLECTION BOX - BLUE BOX", "address": {"city": "WHITMAN", "state": "MA", "street": "535 PLYMOUTH ST", "postcode": "02382"}}},
{"geometry": {"type": "Point", "coordinates": [-70.9280316708, 42.0767902195]}, "type": "Feature", "properties": {"collection_times": [{"days": "Mon-Sat", "time": "10:30am"}, {"days": "Sun", "time": "Closed"}], "id": "0238200039", "name": "USPS COLLECTION BOX - BLUE BOX", "address": {"city": "WHITMAN", "state": "MA", "street": "12 STETSON TER", "postcode": "02382"}}},
{"geometry": {"type": "Point", "coordinates": [-70.947942856, 42.0703183558]}, "type": "Feature", "properties": {"collection_times": [{"days": "Mon-Fri", "time": "2:45pm"}, {"days": "Sat-Sun", "time": "Closed"}], "id": "0238200047", "name": "USPS COLLECTION BOX - BLUE BOX", "address": {"city": "WHITMAN", "state": "MA", "street": "351 BEDFORD ST", "postcode": "02382"}}}
]}
