{"type": "FeatureCollection", "features": [
{"geometry": {"type": "Point", "coordinates": [-70.6073046908, 41.7481513803]}, "type": "Feature", "properties": {"collection_times": [{"days": "Mon-Fri", "time": "5:00pm"}, {"days": "Sat", "time": "3:00pm"}, {"days": "Sun", "time": "Closed"}], "id": "0253200008", "name": "USPS COLLECTION BOX - BLUE BOX", "address": {"city": "BUZZARDS BAY", "state": "MA", "street": "220 MAIN ST", "postcode": "02532"}}},
{"geometry": {"type": "Point", "coordinates": [-70.602489958, 41.7478302329]}, "type": "Feature", "properties": {"collection_times": [{"days": "Mon-Fri", "time": "4:00pm"}, {"days": "Sat", "time": "9:00am"}, {"days": "Sun", "time": "Closed"}], "id": "0253200020", "name": "USPS COLLECTION BOX - BLUE BOX", "address": {"city": "BUZZARDS BAY", "state": "MA", "street": "24 PERRY AVE", "postcode": "02532"}}},
{"geometry": {"type": "Point", "coordinates": [-70.5987388663, 41.7406527635]}, "type": "Feature", "properties": {"collection_times": [{"days": "Mon-Fri", "time": "5:00pm"}, {"days": "Sat", "time": "12:15pm"}, {"days": "Sun", "time": "Closed"}], "id": "0253200022", "name": "USPS COLLECTION BOX - BLUE BOX", "address": {"city": "BUZZARDS BAY", "state": "MA", "street": "49 SANDWICH RD", "postcode": "02532"}}},
{"geometry": {"type": "Point", "coordinates": [-70.6096915671, 41.7468508182]}, "type": "Feature", "properties": {"collection_times": [{"days": "Mon-Sat", "time": "9:00am"}, {"days": "Sun", "time": "Closed"}], "id": "0253200027", "name": "USPS COLLECTION BOX - BLUE BOX", "address": {"city": "BUZZARDS BAY", "state": "MA", "street": "175 MAIN ST", "postcode": "02532"}}},
{"geometry": {"type": "Point", "coordinates": [-70.6073046908, 41.7481513803]}, "type": "Feature", "properties": {"collection_times": [{"days": "Mon-Fri", "time": "5:00pm"}, {"days": "Sat", "time": "3:00pm"}, {"days": "Sun", "time": "Closed"}], "id": "0253200028", "name": "USPS COLLECTION BOX - BLUE BOX", "address": {"city": "BUZZARDS BAY", "state": "MA", "street": "220 MAIN ST", "postcode": "02532"}}},
{"geometry": {"type": "Point", "coordinates": [-70.6098687267, 41.7467122421]}, "type": "Feature", "properties": {"collection_times": [{"days": "Mon-Fri", "time": "5:15pm"}, {"days": "Sat", "time": "3:00pm"}, {"days": "Sun", "time": "Closed"}], "id": "0253200029", "name": "USPS COLLECTION BOX - PO LOBBY", "address": {"city": "BUZZARDS BAY", "state": "MA", "street": "220 MAIN ST", "postcode": "02532"}}},
{"geometry": {"type": "Point", "coordinates": [-70.6098687267, 41.7467122421]}, "type": "Feature", "properties": {"collection_times": [{"days": "Mon-Fri", "time": "5:15pm"}, {"days": "Sat", "time": "3:00pm"}, {"days": "Sun", "time": "Closed"}], "id": "0253200030", "name": "USPS COLLECTION BOX - PO LOBBY", "address": {"city": "BUZZARDS BAY", "state": "MA", "street": "220 MAIN ST", "postcode": "02532"}}},
{"geometry": {"type": "Point", "coordinates": [-70.5987388663, 41.7406527635]}, "type": "Feature", "properties": {"collection_times": [{"days": "Mon-Fri", "time": "5:00pm"}, {"days": "Sat", "time": "12:15pm"}, {"days": "Sun", "time": "Closed"}], "id": "0253200031", "name": "USPS COLLECTION BOX - PO LOBBY", "address": {"city": "BUZZARDS BAY", "state": "MA", "street": "49 SANDWICH RD", "postcode": "02532"}}},
{"geometry": {"type": "Point", "coordinates": [-70.60852612, 41.6624408604]}, "type": "Feature", "properties": {"collection_times": [{"days": "Mon-Fri", "time": "5:00pm"}, {"days": "Sat", "time": "12:00pm"}, {"days": "Sun", "time": "Closed"}], "id": "0253400001", "name": "USPS COLLECTION BOX - PO LOBBY", "address": {"city": "CATAUMET", "state": "MA", "street": "1 POST OFFICE SQ", "postcode": "02534"}}},
{"geometry": {"type": "Point", "coordinates": [-70.60852612, 41.6624408604]}, "type": "Feature", "properties": {"collection_times": [{"days": "Mon-Fri", "time": "5:00pm"}, {"days": "Sat", "time": "12:00pm"}, {"days": "Sun", "time": "Closed"}], "id": "0253400002", "name": "USPS COLLECTION BOX - PO LOBBY", "address": {"city": "CATAUMET", "state": "MA", "street": "1 POST OFFICE SQ", "postcode": "02534"}}},
{"geometry": {"type": "Point", "coordinates": [-70.6139094736, 41.6660811818]}, "type": "Feature", "properties": {"collection_times": [{"days": "Mon-Fri", "time": "5:00pm"}, {"days": "Sat", "time": "12:00pm"}, {"days": "Sun", "time": "Closed"}], "id": "0253400003", "name": "USPS COLLECTION BOX - BLUE BOX", "address": {"city": "CATAUMET", "state": "MA", "street": "1 POST OFFICE SQ", "postcode": "02534"}}},
{"geometry": {"type": "Point", "coordinates": [-70.7444674178, 41.3425127124]}, "type": "Feature", "properties": {"collection_times": [{"days": "Mon-Sat", "time": "2:30pm"}, {"days": "Sun", "time": "Closed"}], "id": "0253500001", "name": "USPS COLLECTION BOX - BLUE BOX", "address": {"city": "CHILMARK", "state": "MA", "street": "4 STATE RD", "postcode": "02535"}}},
{"geometry": {"type": "Point", "coordinates": [-70.7465973598, 41.3568609686]}, "type": "Feature", "properties": {"collection_times": [{"days": "Mon-Sat", "time": "2:30pm"}, {"days": "Sun", "time": "Closed"}], "id": "0253500003", "name": "USPS COLLECTION BOX - PO LOBBY", "address": {"city": "CHILMARK", "state": "MA", "street": "4 STATE RD", "postcode": "02535"}}},
{"geometry": {"type": "Point", "coordinates": [-70.7465973598, 41.3568609686]}, "type": "Feature", "properties": {"collection_times": [{"days": "Mon-Sat", "time": "2:30pm"}, {"days": "Sun", "time": "Closed"}], "id": "0253500004", "name": "USPS COLLECTION BOX - PO LOBBY", "address": {"city": "CHILMARK", "state": "MA", "street": "4 STATE RD", "postcode": "02535"}}},
{"geometry": {"type": "Point", "coordinates": [-70.5573150288, 41.5784077426]}, "type": "Feature", "properties": {"collection_times": [{"days": "Mon-Fri", "time": "5:00pm"}, {"days": "Sat", "time": "2:30pm"}, {"days": "Sun", "time": "Closed"}], "id": "0253600001", "name": "USPS COLLECTION BOX - BLUE BOX", "address": {"city": "TEATICKET", "state": "MA", "street": "451 E FALMOUTH HWY", "postcode": "02536"}}},
{"geometry": {"type": "Point", "coordinates": [-70.5573150288, 41.5784077426]}, "type": "Feature", "properties": {"collection_times": [{"days": "Mon-Fri", "time": "5:00pm"}, {"days": "Sat", "time": "2:30pm"}, {"days": "Sun", "time": "Closed"}], "id": "0253600002", "name": "USPS COLLECTION BOX - BLUE BOX", "address": {"city": "TEATICKET", "state": "MA", "street": "451 E FALMOUTH HWY", "postcode": "02536"}}},
{"geometry": {"type": "Point", "coordinates": [-70.5618564159, 41.5809937323]}, "type": "Feature", "properties": {"collection_times": [{"days": "Mon-Fri", "time": "5:00pm"}, {"days": "Sat", "time": "2:30pm"}, {"days": "Sun", "time": "Closed"}], "id": "0253600003", "name": "USPS COLLECTION BOX - EXPRESS", "address": {"city": "TEATICKET", "state": "MA", "street": "451 E FALMOUTH HWY", "postcode": "02536"}}},
{"geometry": {"type": "Point", "coordinates": [-70.5618564159, 41.5809937323]}, "type": "Feature", "properties": {"collection_times": [{"days": "Mon-Fri", "time": "5:00pm"}, {"days": "Sat", "time": "3:00pm"}, {"days": "Sun", "time": "Closed"}], "id": "0253600004", "name": "USPS COLLECTION BOX - PO LOBBY", "address": {"city": "TEATICKET", "state": "MA", "street": "451 E FALMOUTH HWY", "postcode": "02536"}}},
{"geometry": {"type": "Point", "coordinates": [-70.5618564159, 41.5809937323]}, "type": "Feature", "properties": {"collection_times": [{"days": "Mon-Fri", "time": "5:00pm"}, {"days": "Sat", "time": "3:00pm"}, {"days": "Sun", "time": "Closed"}], "id": "0253600005", "name": "USPS COLLECTION BOX - PO LOBBY", "address": {"city": "TEATICKET", "state": "MA", "street": "451 E FALMOUTH HWY", "postcode": "02536"}}},
{"geometry": {"type": "Point", "coordinates": [-70.5991374234, 41.560982973]}, "type": "Feature", "properties": {"collection_times": [{"days": "Mon-Fri", "time": "5:00pm"}, {"days": "Sat", "time": "12:00pm"}, {"days": "Sun", "time": "Closed"}], "id": "0253600006", "name": "USPS COLLECTION BOX - BLUE BOX", "address": {"city": "TEATICKET", "state": "MA", "street": "160 TEATICKET HWY", "postcode": "02536"}}},
{"geometry": {"type": "Point", "coordinates": [-70.5991374234, 41.560982973]}, "type": "Feature", "properties": {"collection_times": [{"days": "Mon-Fri", "time": "5:00pm"}, {"days": "Sat", "time": "12:00pm"}, {"days": "Sun", "time": "Closed"}], "id": "0253600007", "name": "USPS COLLECTION BOX - BLUE BOX", "address": {"city": "TEATICKET", "state": "MA", "street": "160 TEATICKET HWY", "postcode": "02536"}}},
{"geometry": {"type": "Point", "coordinates": [-70.5991374234, 41.560982973]}, "type": "Feature", "properties": {"collection_times": [{"days": "Mon-Fri", "time": "4:45pm"}, {"days": "Sat", "time": "12:00pm"}, {"days": "Sun", "time": "Closed"}], "id": "0253600008", "name": "USPS COLLECTION BOX - PO LOBBY", "address": {"city": "TEATICKET", "state": "MA", "street": "160 TEATICKET HWY", "postcode": "02536"}}},
{"geometry": {"type": "Point", "coordinates": [-70.5991374234, 41.560982973]}, "type": "Feature", "properties": {"collection_times": [{"days": "Mon-Fri", "time": "4:45pm"}, {"days": "Sat", "time": "12:00pm"}, {"days": "Sun", "time": "Closed"}], "id": "0253600009", "name": "USPS COLLECTION BOX - PO LOBBY", "address": {"city": "TEATICKET", "state": "MA", "street": "160 TEATICKET HWY", "postcode": "02536"}}},
{"geometry": {"type": "Point", "coordinates": [-70.5152056105, 41.5880228952]}, "type": "Feature", "properties": {"collection_times": [{"days": "Mon-Fri", "time": "5:00pm"}, {"days": "Sat", "time": "12:00pm"}, {"days": "Sun", "time": "Closed"}], "id": "0253600010", "name": "USPS COLLECTION BOX - BLUE BOX", "address": {"city": "TEATICKET", "state": "MA", "street": "36 CARRIAGE SHOP RD", "postcode": "02536"}}},
{"geometry": {"type": "Point", "coordinates": [-70.5152056105, 41.5880228952]}, "type": "Feature", "properties": {"collection_times": [{"days": "Mon-Fri", "time": "5:00pm"}, {"days": "Sat", "time": "12:00pm"}, {"days": "Sun", "time": "Closed"}], "id": "0253600011", "name": "USPS COLLECTION BOX - BLUE BOX", "address": {"city": "TEATICKET", "state": "MA", "street": "36 CARRIAGE SHOP RD", "postcode": "02536"}}},
{"geometry": {"type": "Point", "coordinates": [-70.5152056105, 41.5880228952]}, "type": "Feature", "properties": {"collection_times": [{"days": "Mon-Fri", "time": "4:45pm"}, {"days": "Sat", "time": "12:00pm"}, {"days": "Sun", "time": "Closed"}], "id": "0253600012", "name": "USPS COLLECTION BOX - PO LOBBY", "address": {"city": "TEATICKET", "state": "MA", "street": "36 CARRIAGE SHOP RD", "postcode": "02536"}}},
{"geometry": {"type": "Point", "coordinates": [-70.5152056105, 41.5880228952]}, "type": "Feature", "properties": {"collection_times": [{"days": "Mon-Fri", "time": "4:45pm"}, {"days": "Sat", "time": "12:00pm"}, {"days": "Sun", "time": "Closed"}], "id": "0253600013", "name": "USPS COLLECTION BOX - PO LOBBY", "address": {"city": "TEATICKET", "state": "MA", "street": "36 CARRIAGE SHOP RD", "postcode": "02536"}}},
{"geometry": {"type": "Point", "coordinates": [-70.561432909, 41.578712946]}, "type": "Feature", "properties": {"collection_times": [{"days": "Mon-Sat", "time": "9:00am"}, {"days": "Sun", "time": "Closed"}], "id": "0253600015", "name": "USPS COLLECTION BOX - BLUE BOX", "address": {"city": "TEATICKET", "state": "MA", "street": "340 E FALMOUTH HWY", "postcode": "02536"}}},
{"geometry": {"type": "Point", "coordinates": [-70.5619563509, 41.5809807432]}, "type": "Feature", "properties": {"collection_times": [{"days": "Mon-Fri", "time": "4:00pm"}, {"days": "Sat", "time": "2:00pm"}, {"days": "Sun", "time": "Closed"}], "id": "0253600016", "name": "USPS COLLECTION BOX - BLUE BOX", "address": {"city": "TEATICKET", "state": "MA", "street": "769 E FALMOUTH HWY", "postcode": "02536"}}},
{"geometry": {"type": "Point", "coordinates": [-70.5983724873, 41.5619513371]}, "type": "Feature", "properties": {"collection_times": [{"days": "Mon-Fri", "time": "4:00pm"}, {"days": "Sat", "time": "2:00pm"}, {"days": "Sun", "time": "Closed"}], "id": "0253600017", "name": "USPS COLLECTION BOX - BLUE BOX", "address": {"city": "TEATICKET", "state": "MA", "street": "40 TEATICKET HWY", "postcode": "02536"}}},
{"geometry": {"type": "Point", "coordinates": [-70.5962462083, 41.5641270619]}, "type": "Feature", "properties": {"collection_times": [{"days": "Mon-Fri", "time": "4:00pm"}, {"days": "Sat", "time": "2:00pm"}, {"days": "Sun", "time": "Closed"}], "id": "0253600019", "name": "USPS COLLECTION BOX - BLUE BOX", "address": {"city": "TEATICKET", "state": "MA", "street": "137 TEATICKET HWY", "postcode": "02536"}}},
{"geometry": {"type": "Point", "coordinates": [-70.5734968813, 41.5782139483]}, "type": "Feature", "properties": {"collection_times": [{"days": "Mon-Sat", "time": "11:30am"}, {"days": "Sun", "time": "Closed"}], "id": "0253600020", "name": "USPS COLLECTION BOX - BLUE BOX", "address": {"city": "TEATICKET", "state": "MA", "street": "167 E FALMOUTH HWY", "postcode": "02536"}}},
{"geometry": {"type": "Point", "coordinates": [-70.3966789929, 41.7262604038]}, "type": "Feature", "properties": {"collection_times": [{"days": "Mon-Fri", "time": "4:30pm"}, {"days": "Sat", "time": "12:00pm"}, {"days": "Sun", "time": "Closed"}], "id": "0253700002", "name": "USPS COLLECTION BOX - BLUE BOX", "address": {"city": "EAST SANDWICH", "state": "MA", "street": "443 ROUTE 6A", "postcode": "02537"}}},
{"geometry": {"type": "Point", "coordinates": [-70.3966789929, 41.7262604038]}, "type": "Feature", "properties": {"collection_times": [{"days": "Mon-Fri", "time": "4:30pm"}, {"days": "Sat", "time": "12:00pm"}, {"days": "Sun", "time": "Closed"}], "id": "0253700004", "name": "USPS COLLECTION BOX - PO LOBBY", "address": {"city": "EAST SANDWICH", "state": "MA", "street": "443 ROUTE 6A", "postcode": "02537"}}},
{"geometry": {"type": "Point", "coordinates": [-70.3966789929, 41.7262604038]}, "type": "Feature", "properties": {"collection_times": [{"days": "Mon-Fri", "time": "4:30pm"}, {"days": "Sat", "time": "12:00pm"}, {"days": "Sun", "time": "Closed"}], "id": "0253700005", "name": "USPS COLLECTION BOX - PO LOBBY", "address": {"city": "EAST SANDWICH", "state": "MA", "street": "443 ROUTE 6A", "postcode": "02537"}}},
{"geometry": {"type": "Point", "coordinates": [-70.6266069032, 41.7493324632]}, "type": "Feature", "properties": {"collection_times": [{"days": "Mon-Fri", "time": "5:00pm"}, {"days": "Sat", "time": "12:00pm"}, {"days": "Sun", "time": "Closed"}], "id": "0253800001", "name": "USPS COLLECTION BOX - BLUE BOX", "address": {"city": "EAST WAREHAM", "state": "MA", "street": "2991 CRANBERRY HWY", "postcode": "02538"}}},
{"geometry": {"type": "Point", "coordinates": [-70.6266069032, 41.7493324632]}, "type": "Feature", "properties": {"collection_times": [{"days": "Mon-Fri", "time": "5:00pm"}, {"days": "Sat", "time": "12:00pm"}, {"days": "Sun", "time": "Closed"}], "id": "0253800002", "name": "USPS COLLECTION BOX - BLUE BOX", "address": {"city": "EAST WAREHAM", "state": "MA", "street": "2991 CRANBERRY HWY", "postcode": "02538"}}},
{"geometry": {"type": "Point", "coordinates": [-70.6266069032, 41.7493324632]}, "type": "Feature", "properties": {"collection_times": [{"days": "Mon-Fri", "time": "5:00pm"}, {"days": "Sat", "time": "12:00pm"}, {"days": "Sun", "time": "Closed"}], "id": "0253800003", "name": "USPS COLLECTION BOX - PO LOBBY", "address": {"city": "EAST WAREHAM", "state": "MA", "street": "2991 CRANBERRY HWY", "postcode": "02538"}}},
{"geometry": {"type": "Point", "coordinates": [-70.6266069032, 41.7493324632]}, "type": "Feature", "properties": {"collection_times": [{"days": "Mon-Fri", "time": "5:00pm"}, {"days": "Sat", "time": "12:00pm"}, {"days": "Sun", "time": "Closed"}], "id": "0253800004", "name": "USPS COLLECTION BOX - PO LOBBY", "address": {"city": "EAST WAREHAM", "state": "MA", "street": "2991 CRANBERRY HWY", "postcode": "02538"}}},
{"geometry": {"type": "Point", "coordinates": [-70.6266069032, 41.7493324632]}, "type": "Feature", "properties": {"collection_times": [{"days": "Mon-Sat", "time": "12:00pm"}, {"days": "Sun", "time": "Closed"}], "id": "0253800007", "name": "USPS COLLECTION BOX - BLUE BOX", "address": {"city": "EAST WAREHAM", "state": "MA", "street": "2991 CRANBERRY HWY", "postcode": "02538"}}},
{"geometry": {"type": "Point", "coordinates": [-70.5151790401, 41.3903028722]}, "type": "Feature", "properties": {"collection_times": [{"days": "Mon-Sat", "time": "1:30pm"}, {"days": "Sun", "time": "Closed"}], "id": "0253900007", "name": "USPS COLLECTION BOX - BLUE BOX", "address": {"city": "EDGARTOWN", "state": "MA", "street": "29 CHURCH ST", "postcode": "02539"}}},
{"geometry": {"type": "Point", "coordinates": [-70.51223857, 41.3891337697]}, "type": "Feature", "properties": {"collection_times": [{"days": "Mon-Sat", "time": "1:30pm"}, {"days": "Sun", "time": "Closed"}], "id": "0253900009", "name": "USPS COLLECTION BOX - BLUE BOX", "address": {"city": "EDGARTOWN", "state": "MA", "street": "65 MAIN ST", "postcode": "02539"}}},
{"geometry": {"type": "Point", "coordinates": [-70.5225992914, 41.3838130837]}, "type": "Feature", "properties": {"collection_times": [{"days": "Mon-Sat", "time": "1:30pm"}, {"days": "Sun", "time": "Closed"}], "id": "0253900011", "name": "USPS COLLECTION BOX - BLUE BOX", "address": {"city": "EDGARTOWN", "state": "MA", "street": "259 UPPER MAIN ST", "postcode": "02539"}}},
{"geometry": {"type": "Point", "coordinates": [-70.5082543049, 41.3886476426]}, "type": "Feature", "properties": {"collection_times": [{"days": "Mon-Sat", "time": "1:00pm"}, {"days": "Sun", "time": "Closed"}], "id": "0253900016", "name": "USPS COLLECTION BOX - BLUE BOX", "address": {"city": "EDGARTOWN", "state": "MA", "street": "1 CHAPPAQUIDDICK RD", "postcode": "02539"}}},
{"geometry": {"type": "Point", "coordinates": [-70.6180623376, 41.5532793282]}, "type": "Feature", "properties": {"collection_times": [{"days": "Mon-Fri", "time": "5:15pm"}, {"days": "Sat", "time": "4:15pm"}, {"days": "Sun", "time": "Closed"}], "id": "0254000001", "name": "USPS COLLECTION BOX - BLUE BOX", "address": {"city": "FALMOUTH", "state": "MA", "street": "120 MAIN ST", "postcode": "02540"}}},
{"geometry": {"type": "Point", "coordinates": [-70.6180623376, 41.5532793282]}, "type": "Feature", "properties": {"collection_times": [{"days": "Mon-Fri", "time": "5:15pm"}, {"days": "Sat", "time": "4:15pm"}, {"days": "Sun", "time": "Closed"}], "id": "0254000002", "name": "USPS COLLECTION BOX - BLUE BOX", "address": {"city": "FALMOUTH", "state": "MA", "street": "120 MAIN ST", "postcode": "02540"}}},
{"geometry": {"type": "Point", "coordinates": [-70.618806403, 41.5629011294]}, "type": "Feature", "properties": {"collection_times": [{"days": "Mon-Fri", "time": "5:15pm"}, {"days": "Sat", "time": "4:15pm"}, {"days": "Sun", "time": "Closed"}], "id": "0254000004", "name": "USPS COLLECTION BOX - PO LOBBY", "address": {"city": "FALMOUTH", "state": "MA", "street": "120 MAIN ST", "postcode": "02540"}}},
{"geometry": {"type": "Point", "coordinates": [-70.618806403, 41.5629011294]}, "type": "Feature", "properties": {"collection_times": [{"days": "Mon-Fri", "time": "5:15pm"}, {"days": "Sat", "time": "4:15pm"}, {"days": "Sun", "time": "Closed"}], "id": "0254000005", "name": "USPS COLLECTION BOX - PO LOBBY", "address": {"city": "FALMOUTH", "state": "MA", "street": "120 MAIN ST", "postcode": "02540"}}},
{"geometry": {"type": "Point", "coordinates": [-70.5989889353, 41.5544829389]}, "type": "Feature", "properties": {"collection_times": [{"days": "Mon-Fri", "time": "4:00pm"}, {"days": "Sat", "time": "2:30pm"}, {"days": "Sun", "time": "Closed"}], "id": "0254000006", "name": "USPS COLLECTION BOX - BLUE BOX", "address": {"city": "FALMOUTH", "state": "MA", "street": "13 ALMA RD", "postcode": "02540"}}},
{"geometry": {"type": "Point", "coordinates": [-70.5996864911, 41.5564378127]}, "type": "Feature", "properties": {"collection_times": [{"days": "Mon-Fri", "time": "4:00pm"}, {"days": "Sat", "time": "2:30pm"}, {"days": "Sun", "time": "Closed"}], "id": "0254000008", "name": "USPS COLLECTION BOX - BLUE BOX", "address": {"city": "FALMOUTH", "state": "MA", "street": "27 DAVIS STRAITS", "postcode": "02540"}}},
{"geometry": {"type": "Point", "coordinates": [-70.6097402213, 41.5623313302]}, "type": "Feature", "properties": {"collection_times": [{"days": "Mon-Fri", "time": "4:00pm"}, {"days": "Sat", "time": "2:30pm"}, {"days": "Sun", "time": "Closed"}], "id": "0254000011", "name": "USPS COLLECTION BOX - BLUE BOX", "address": {"city": "FALMOUTH", "state": "MA", "street": "340 GIFFORD ST", "postcode": "02540"}}},
{"geometry": {"type": "Point", "coordinates": [-70.6218286397, 41.5547123322]}, "type": "Feature", "properties": {"collection_times": [{"days": "Mon-Fri", "time": "1:30pm"}, {"days": "Sat", "time": "12:00pm"}, {"days": "Sun", "time": "Closed"}], "id": "0254000014", "name": "USPS COLLECTION BOX - BLUE BOX", "address": {"city": "FALMOUTH", "state": "MA", "street": "556 MAIN ST", "postcode": "02540"}}},
{"geometry": {"type": "Point", "coordinates": [-70.6211013592, 41.5649539502]}, "type": "Feature", "properties": {"collection_times": [{"days": "Mon-Fri", "time": "3:45pm"}, {"days": "Sat", "time": "10:00am"}, {"days": "Sun", "time": "Closed"}], "id": "0254000024", "name": "USPS COLLECTION BOX - BLUE BOX", "address": {"city": "FALMOUTH", "state": "MA", "street": "100 TER HEUN DR", "postcode": "02540"}}},
{"geometry": {"type": "Point", "coordinates": [-70.6178076359, 41.5521128508]}, "type": "Feature", "properties": {"collection_times": [{"days": "Mon-Fri", "time": "3:45pm"}, {"days": "Sat", "time": "10:00am"}, {"days": "Sun", "time": "Closed"}], "id": "0254000025", "name": "USPS COLLECTION BOX - BLUE BOX", "address": {"city": "FALMOUTH", "state": "MA", "street": "59 TOWN HALL SQ", "postcode": "02540"}}},
{"geometry": {"type": "Point", "coordinates": [-70.5975415484, 41.5592615517]}, "type": "Feature", "properties": {"collection_times": [{"days": "Mon-Fri", "time": "4:00pm"}, {"days": "Sat", "time": "10:00am"}, {"days": "Sun", "time": "Closed"}], "id": "0254000027", "name": "USPS COLLECTION BOX - BLUE BOX", "address": {"city": "FALMOUTH", "state": "MA", "street": "205 WORCESTER CT", "postcode": "02540"}}},
{"geometry": {"type": "Point", "coordinates": [-70.6035356015, 41.5500498502]}, "type": "Feature", "properties": {"collection_times": [{"days": "Mon-Sat", "time": "12:15pm"}, {"days": "Sun", "time": "Closed"}], "id": "0254000029", "name": "USPS COLLECTION BOX - BLUE BOX", "address": {"city": "FALMOUTH", "state": "MA", "street": "135 SCRANTON AVE", "postcode": "02540"}}},
{"geometry": {"type": "Point", "coordinates": [-70.6180623376, 41.5532793282]}, "type": "Feature", "properties": {"collection_times": [{"days": "Mon-Fri", "time": "5:00pm"}, {"days": "Sat", "time": "4:00pm"}, {"days": "Sun", "time": "Closed"}], "id": "0254000031", "name": "USPS COLLECTION BOX - BLUE BOX", "address": {"city": "FALMOUTH", "state": "MA", "street": "120 MAIN STREET (CORNER POST OFFICE", "postcode": "02540"}}},
{"geometry": {"type": "Point", "coordinates": [-70.616152323, 41.5522799074]}, "type": "Feature", "properties": {"collection_times": [{"days": "Mon-Sat", "time": "2:30pm"}, {"days": "Sun", "time": "Closed"}], "id": "0254000033", "name": "USPS COLLECTION BOX - BLUE BOX", "address": {"city": "FALMOUTH", "state": "MA", "street": "218 MAIN ST", "postcode": "02540"}}},
{"geometry": {"type": "Point", "coordinates": [-70.5661923674, 41.6633791084]}, "type": "Feature", "properties": {"collection_times": [{"days": "Mon-Fri", "time": "3:00pm"}, {"days": "Sat-Sun", "time": "Closed"}], "id": "0254200007", "name": "USPS COLLECTION BOX - BLUE BOX", "address": {"city": "BUZZARDS BAY", "state": "MA", "street": "5203 E HOSPITAL RD", "postcode": "02542"}}},
{"geometry": {"type": "Point", "coordinates": [-70.6181091813, 41.553352015]}, "type": "Feature", "properties": {"collection_times": [{"days": "Mon-Fri", "time": "5:00pm"}, {"days": "Sat", "time": "12:30pm"}, {"days": "Sun", "time": "Closed"}], "id": "0254300001", "name": "USPS COLLECTION BOX - BLUE BOX", "address": {"city": "FALMOUTH", "state": "MA", "street": "16 WATER ST", "postcode": "02543"}}},
{"geometry": {"type": "Point", "coordinates": [-70.6181091813, 41.553352015]}, "type": "Feature", "properties": {"collection_times": [{"days": "Mon-Fri", "time": "4:00pm"}, {"days": "Sat", "time": "12:00pm"}, {"days": "Sun", "time": "Closed"}], "id": "0254300002", "name": "USPS COLLECTION BOX - PO LOBBY", "address": {"city": "FALMOUTH", "state": "MA", "street": "16 WATER ST", "postcode": "02543"}}},
{"geometry": {"type": "Point", "coordinates": [-70.6181091813, 41.553352015]}, "type": "Feature", "properties": {"collection_times": [{"days": "Mon-Fri", "time": "4:00pm"}, {"days": "Sat", "time": "12:00pm"}, {"days": "Sun", "time": "Closed"}], "id": "0254300003", "name": "USPS COLLECTION BOX - PO LOBBY", "address": {"city": "FALMOUTH", "state": "MA", "street": "16 WATER ST", "postcode": "02543"}}},
{"geometry": {"type": "Point", "coordinates": [-70.6181091813, 41.553352015]}, "type": "Feature", "properties": {"collection_times": [{"days": "Mon-Fri", "time": "2:30pm"}, {"days": "Sat", "time": "12:00pm"}, {"days": "Sun", "time": "Closed"}], "id": "0254300005", "name": "USPS COLLECTION BOX - BLUE BOX", "address": {"city": "FALMOUTH", "state": "MA", "street": "36 RAILROAD AVE", "postcode": "02543"}}},
{"geometry": {"type": "Point", "coordinates": [-70.6181091813, 41.553352015]}, "type": "Feature", "properties": {"collection_times": [{"days": "Mon-Fri", "time": "5:00pm"}, {"days": "Sat", "time": "12:30pm"}, {"days": "Sun", "time": "Closed"}], "id": "0254300006", "name": "USPS COLLECTION BOX - BLUE BOX", "address": {"city": "FALMOUTH", "state": "MA", "street": "16 WATER ST", "postcode": "02543"}}},
{"geometry": {"type": "Point", "coordinates": [-70.6145483201, 41.712302029]}, "type": "Feature", "properties": {"collection_times": [{"days": "Mon-Fri", "time": "4:30pm"}, {"days": "Sat", "time": "12:00pm"}, {"days": "Sun", "time": "Closed"}], "id": "0255300001", "name": "USPS COLLECTION BOX - BLUE BOX", "address": {"city": "MONUMENT BEACH", "state": "MA", "street": "436 SHORE RD", "postcode": "02553"}}},
{"geometry": {"type": "Point", "coordinates": [-70.6145483201, 41.712302029]}, "type": "Feature", "properties": {"collection_times": [{"days": "Mon-Fri", "time": "4:30pm"}, {"days": "Sat", "time": "12:00pm"}, {"days": "Sun", "time": "Closed"}], "id": "0255300004", "name": "USPS COLLECTION BOX - PO LOBBY", "address": {"city": "MONUMENT BEACH", "state": "MA", "street": "436 SHORE RD", "postcode": "02553"}}},
{"geometry": {"type": "Point", "coordinates": [-70.0987237578, 41.2838091279]}, "type": "Feature", "properties": {"collection_times": [{"days": "Mon-Fri", "time": "4:30pm"}, {"days": "Sat", "time": "1:00pm"}, {"days": "Sun", "time": "Closed"}], "id": "0255400002", "name": "USPS COLLECTION BOX - BLUE BOX", "address": {"city": "NANTUCKET", "state": "MA", "street": "5 FEDERAL ST", "postcode": "02554"}}},
{"geometry": {"type": "Point", "coordinates": [-70.0987237578, 41.2838091279]}, "type": "Feature", "properties": {"collection_times": [{"days": "Mon-Fri", "time": "4:30pm"}, {"days": "Sat", "time": "1:00pm"}, {"days": "Sun", "time": "Closed"}], "id": "0255400004", "name": "USPS COLLECTION BOX - BLUE BOX", "address": {"city": "NANTUCKET", "state": "MA", "street": "5 FEDERAL ST", "postcode": "02554"}}},
{"geometry": {"type": "Point", "coordinates": [-70.1047183873, 41.2777731785]}, "type": "Feature", "properties": {"collection_times": [{"days": "Mon-Fri", "time": "4:30pm"}, {"days": "Sat", "time": "1:00pm"}, {"days": "Sun", "time": "Closed"}], "id": "0255400005", "name": "USPS COLLECTION BOX - PO LOBBY", "address": {"city": "NANTUCKET", "state": "MA", "street": "5 FEDERAL ST", "postcode": "02554"}}},
{"geometry": {"type": "Point", "coordinates": [-70.1047183873, 41.2777731785]}, "type": "Feature", "properties": {"collection_times": [{"days": "Mon-Fri", "time": "4:30pm"}, {"days": "Sat", "time": "1:00pm"}, {"days": "Sun", "time": "Closed"}], "id": "0255400006", "name": "USPS COLLECTION BOX - PO LOBBY", "address": {"city": "NANTUCKET", "state": "MA", "street": "5 FEDERAL ST", "postcode": "02554"}}},
{"geometry": {"type": "Point", "coordinates": [-69.9627048077, 41.2623466776]}, "type": "Feature", "properties": {"collection_times": [{"days": "Mon-Fri", "time": "3:00pm"}, {"days": "Sat", "time": "9:00am"}, {"days": "Sun", "time": "Closed"}], "id": "0255400007", "name": "USPS COLLECTION BOX - BLUE BOX", "address": {"city": "NANTUCKET", "state": "MA", "street": "8 BEACH ST", "postcode": "02554"}}},
{"geometry": {"type": "Point", "coordinates": [-70.1007366492, 41.2849906544]}, "type": "Feature", "properties": {"collection_times": [{"days": "Mon-Fri", "time": "3:00pm"}, {"days": "Sat", "time": "9:00am"}, {"days": "Sun", "time": "Closed"}], "id": "0255400008", "name": "USPS COLLECTION BOX - BLUE BOX", "address": {"city": "NANTUCKET", "state": "MA", "street": "16 BROAD ST", "postcode": "02554"}}},
{"geometry": {"type": "Point", "coordinates": [-70.1047096975, 41.2777732245]}, "type": "Feature", "properties": {"collection_times": [{"days": "Mon-Fri", "time": "3:00pm"}, {"days": "Sat", "time": "9:00am"}, {"days": "Sun", "time": "Closed"}], "id": "0255400014", "name": "USPS COLLECTION BOX - BLUE BOX", "address": {"city": "NANTUCKET", "state": "MA", "street": "61 MAIN ST", "postcode": "02554"}}},
{"geometry": {"type": "Point", "coordinates": [-70.10018183, 41.2754566834]}, "type": "Feature", "properties": {"collection_times": [{"days": "Mon-Fri", "time": "3:00pm"}, {"days": "Sat", "time": "9:00am"}, {"days": "Sun", "time": "Closed"}], "id": "0255400020", "name": "USPS COLLECTION BOX - BLUE BOX", "address": {"city": "NANTUCKET", "state": "MA", "street": "57 PROSPECT ST", "postcode": "02554"}}},
{"geometry": {"type": "Point", "coordinates": [-70.1047096975, 41.2777732245]}, "type": "Feature", "properties": {"collection_times": [{"days": "Mon-Fri", "time": "3:00pm"}, {"days": "Sat", "time": "9:00am"}, {"days": "Sun", "time": "Closed"}], "id": "0255400021", "name": "USPS COLLECTION BOX - BLUE BOX", "address": {"city": "NANTUCKET", "state": "MA", "street": "29 SPARKS AVE", "postcode": "02554"}}},
{"geometry": {"type": "Point", "coordinates": [-70.0973579068, 41.285592142]}, "type": "Feature", "properties": {"collection_times": [{"days": "Mon-Fri", "time": "10:30am"}, {"days": "Sat", "time": "9:00am"}, {"days": "Sun", "time": "Closed"}], "id": "0255400022", "name": "USPS COLLECTION BOX - BLUE BOX", "address": {"city": "NANTUCKET", "state": "MA", "street": "1 STEAMBOAT WHARF", "postcode": "02554"}}},
{"geometry": {"type": "Point", "coordinates": [-70.0971503418, 41.2837642806]}, "type": "Feature", "properties": {"collection_times": [{"days": "Mon-Fri", "time": "3:00pm"}, {"days": "Sat", "time": "9:00am"}, {"days": "Sun", "time": "Closed"}], "id": "0255400023", "name": "USPS COLLECTION BOX - BLUE BOX", "address": {"city": "NANTUCKET", "state": "MA", "street": "1 STRAIGHT WHARF", "postcode": "02554"}}},
{"geometry": {"type": "Point", "coordinates": [-70.0648018975, 41.2604771273]}, "type": "Feature", "properties": {"collection_times": [{"days": "Mon-Fri", "time": "2:00pm"}, {"days": "Sat", "time": "9:00am"}, {"days": "Sun", "time": "Closed"}], "id": "0255400025", "name": "USPS COLLECTION BOX - BLUE BOX", "address": {"city": "NANTUCKET", "state": "MA", "street": "14 AIRPORT RD", "postcode": "02554"}}},
{"geometry": {"type": "Point", "coordinates": [-70.0953186857, 41.2809361494]}, "type": "Feature", "properties": {"collection_times": [{"days": "Mon-Fri", "time": "3:00pm"}, {"days": "Sat", "time": "9:00am"}, {"days": "Sun", "time": "Closed"}], "id": "0255400026", "name": "USPS COLLECTION BOX - BLUE BOX", "address": {"city": "NANTUCKET", "state": "MA", "street": "37 WASHINGTON ST", "postcode": "02554"}}},
{"geometry": {"type": "Point", "coordinates": [-70.0578324118, 41.2603583987]}, "type": "Feature", "properties": {"collection_times": [{"days": "Mon-Fri", "time": "3:00pm"}, {"days": "Sat", "time": "12:30pm"}, {"days": "Sun", "time": "Closed"}], "id": "0255400028", "name": "USPS COLLECTION BOX - BLUE BOX", "address": {"city": "NANTUCKET", "state": "MA", "street": "155 OLD SOUTH RD", "postcode": "02554"}}},
{"geometry": {"type": "Point", "coordinates": [-70.6228383193, 41.6177420112]}, "type": "Feature", "properties": {"collection_times": [{"days": "Mon-Fri", "time": "5:00pm"}, {"days": "Sat", "time": "12:00pm"}, {"days": "Sun", "time": "Closed"}], "id": "0255600003", "name": "USPS COLLECTION BOX - PO LOBBY", "address": {"city": "NORTH FALMOUTH", "state": "MA", "street": "634 N FALMOUTH HWY", "postcode": "02556"}}},
{"geometry": {"type": "Point", "coordinates": [-70.6228383193, 41.6177420112]}, "type": "Feature", "properties": {"collection_times": [{"days": "Mon-Fri", "time": "5:00pm"}, {"days": "Sat", "time": "12:00pm"}, {"days": "Sun", "time": "Closed"}], "id": "0255600004", "name": "USPS COLLECTION BOX - PO LOBBY", "address": {"city": "NORTH FALMOUTH", "state": "MA", "street": "634 N FALMOUTH HWY", "postcode": "02556"}}},
{"geometry": {"type": "Point", "coordinates": [-70.6173064268, 41.6492941926]}, "type": "Feature", "properties": {"collection_times": [{"days": "Mon-Fri", "time": "12:00pm"}, {"days": "Sat", "time": "10:00am"}, {"days": "Sun", "time": "Closed"}], "id": "0255600005", "name": "USPS COLLECTION BOX - BLUE BOX", "address": {"city": "NORTH FALMOUTH", "state": "MA", "street": "78 COUNTY RD", "postcode": "02556"}}},
{"geometry": {"type": "Point", "coordinates": [-70.6228383193, 41.6177420112]}, "type": "Feature", "properties": {"collection_times": [{"days": "Mon-Fri", "time": "5:00pm"}, {"days": "Sat", "time": "12:00pm"}, {"days": "Sun", "time": "Closed"}], "id": "0255600006", "name": "USPS COLLECTION BOX - BLUE BOX", "address": {"city": "NORTH FALMOUTH", "state": "MA", "street": "634 N FALMOUTH HWY", "postcode": "02556"}}},
{"geometry": {"type": "Point", "coordinates": [-70.5576520703, 41.4558334157]}, "type": "Feature", "properties": {"collection_times": [{"days": "Mon-Sat", "time": "3:00pm"}, {"days": "Sun", "time": "Closed"}], "id": "0255700002", "name": "USPS COLLECTION BOX - BLUE BOX", "address": {"city": "OAK BLUFFS", "state": "MA", "street": "24E KENNEBEC AVE", "postcode": "02557"}}},
{"geometry": {"type": "Point", "coordinates": [-70.5624994768, 41.4541021917]}, "type": "Feature", "properties": {"collection_times": [{"days": "Mon-Sat", "time": "3:30pm"}, {"days": "Sun", "time": "Closed"}], "id": "0255700003", "name": "USPS COLLECTION BOX - PO LOBBY", "address": {"city": "OAK BLUFFS", "state": "MA", "street": "24E KENNEBEC AVE", "postcode": "02557"}}},
{"geometry": {"type": "Point", "coordinates": [-70.5624994768, 41.4541021917]}, "type": "Feature", "properties": {"collection_times": [{"days": "Mon-Sat", "time": "3:30pm"}, {"days": "Sun", "time": "Closed"}], "id": "0255700004", "name": "USPS COLLECTION BOX - PO LOBBY", "address": {"city": "OAK BLUFFS", "state": "MA", "street": "24E KENNEBEC AVE", "postcode": "02557"}}},
{"geometry": {"type": "Point", "coordinates": [-70.660725194, 41.742895956]}, "type": "Feature", "properties": {"collection_times": [{"days": "Mon-Fri", "time": "3:00pm"}, {"days": "Sat", "time": "9:00am"}, {"days": "Sun", "time": "Closed"}], "id": "0255800002", "name": "USPS COLLECTION BOX - BLUE BOX", "address": {"city": "ONSET", "state": "MA", "street": "214 ONSET AVE", "postcode": "02558"}}},
{"geometry": {"type": "Point", "coordinates": [-70.6607661211, 41.7429538123]}, "type": "Feature", "properties": {"collection_times": [{"days": "Mon-Fri", "time": "4:30pm"}, {"days": "Sat", "time": "12:00pm"}, {"days": "Sun", "time": "Closed"}], "id": "0255800005", "name": "USPS COLLECTION BOX - PO LOBBY", "address": {"city": "ONSET", "state": "MA", "street": "214 ONSET AVE", "postcode": "02558"}}},
{"geometry": {"type": "Point", "coordinates": [-70.6108542481, 41.6945042519]}, "type": "Feature", "properties": {"collection_times": [{"days": "Mon-Fri", "time": "4:30pm"}, {"days": "Sat", "time": "2:00pm"}, {"days": "Sun", "time": "Closed"}], "id": "0255900001", "name": "USPS COLLECTION BOX - BLUE BOX", "address": {"city": "POCASSET", "state": "MA", "street": "301 BARLOWS LANDING RD", "postcode": "02559"}}},
{"geometry": {"type": "Point", "coordinates": [-70.6090388307, 41.6927603088]}, "type": "Feature", "properties": {"collection_times": [{"days": "Mon-Fri", "time": "4:30pm"}, {"days": "Sat", "time": "2:00pm"}, {"days": "Sun", "time": "Closed"}], "id": "0255900005", "name": "USPS COLLECTION BOX - PO LOBBY", "address": {"city": "POCASSET", "state": "MA", "street": "301 BARLOWS LANDING RD", "postcode": "02559"}}},
{"geometry": {"type": "Point", "coordinates": [-70.529767109, 41.770542093]}, "type": "Feature", "properties": {"collection_times": [{"days": "Mon-Fri", "time": "4:30pm"}, {"days": "Sat", "time": "11:30am"}, {"days": "Sun", "time": "Closed"}], "id": "0256100002", "name": "USPS COLLECTION BOX - BLUE BOX", "address": {"city": "SAGAMORE", "state": "MA", "street": "883 SANDWICH RD", "postcode": "02561"}}},
{"geometry": {"type": "Point", "coordinates": [-70.5394492226, 41.7734340259]}, "type": "Feature", "properties": {"collection_times": [{"days": "Mon-Fri", "time": "4:30pm"}, {"days": "Sat", "time": "11:30am"}, {"days": "Sun", "time": "Closed"}], "id": "0256100004", "name": "USPS COLLECTION BOX - PO LOBBY", "address": {"city": "SAGAMORE", "state": "MA", "street": "883 SANDWICH RD", "postcode": "02561"}}},
{"geometry": {"type": "Point", "coordinates": [-70.5330490295, 41.7891108058]}, "type": "Feature", "properties": {"collection_times": [{"days": "Mon-Fri", "time": "5:00pm"}, {"days": "Sat", "time": "12:00pm"}, {"days": "Sun", "time": "Closed"}], "id": "0256200000", "name": "USPS COLLECTION BOX - PO LOBBY", "address": {"city": "SAGAMORE BEACH", "state": "MA", "street": "45 MEETINGHOUSE LN", "postcode": "02562"}}},
{"geometry": {"type": "Point", "coordinates": [-70.5384775361, 41.78179069]}, "type": "Feature", "properties": {"collection_times": [{"days": "Mon-Fri", "time": "5:00pm"}, {"days": "Sat", "time": "12:00pm"}, {"days": "Sun", "time": "Closed"}], "id": "0256200009", "name": "USPS COLLECTION BOX - BLUE BOX", "address": {"city": "SAGAMORE BEACH", "state": "MA", "street": "45 MEETINGHOUSE LN", "postcode": "02562"}}},
{"geometry": {"type": "Point", "coordinates": [-70.4766960839, 41.7489427627]}, "type": "Feature", "properties": {"collection_times": [{"days": "Mon-Fri", "time": "5:00pm"}, {"days": "Sat", "time": "1:00pm"}, {"days": "Sun", "time": "Closed"}], "id": "0256300004", "name": "USPS COLLECTION BOX - PO LOBBY", "address": {"city": "SANDWICH", "state": "MA", "street": "69 ROUTE 6A", "postcode": "02563"}}},
{"geometry": {"type": "Point", "coordinates": [-70.4766960839, 41.7489427627]}, "type": "Feature", "properties": {"collection_times": [{"days": "Mon-Fri", "time": "5:00pm"}, {"days": "Sat", "time": "1:00pm"}, {"days": "Sun", "time": "Closed"}], "id": "0256300005", "name": "USPS COLLECTION BOX - PO LOBBY", "address": {"city": "SANDWICH", "state": "MA", "street": "69 ROUTE 6A", "postcode": "02563"}}},
{"geometry": {"type": "Point", "coordinates": [-70.4766960839, 41.7489427627]}, "type": "Feature", "properties": {"collection_times": [{"days": "Mon-Fri", "time": "5:00pm"}, {"days": "Sat", "time": "1:00pm"}, {"days": "Sun", "time": "Closed"}], "id": "0256300006", "name": "USPS COLLECTION BOX - EXPRESS", "address": {"city": "SANDWICH", "state": "MA", "street": "69 ROUTE 6A", "postcode": "02563"}}},
{"geometry": {"type": "Point", "coordinates": [-70.4872933648, 41.7096239491]}, "type": "Feature", "properties": {"collection_times": [{"days": "Mon-Sat", "time": "9:00am"}, {"days": "Sun", "time": "Closed"}], "id": "0256300007", "name": "USPS COLLECTION BOX - BLUE BOX", "address": {"city": "SANDWICH", "state": "MA", "street": "331 COTUIT RD", "postcode": "02563"}}},
{"geometry": {"type": "Point", "coordinates": [-70.4870909882, 41.7180958541]}, "type": "Feature", "properties": {"collection_times": [{"days": "Mon-Sat", "time": "9:00am"}, {"days": "Sun", "time": "Closed"}], "id": "0256300008", "name": "USPS COLLECTION BOX - BLUE BOX", "address": {"city": "SANDWICH", "state": "MA", "street": "15 JAN SEBASTIAN DR", "postcode": "02563"}}},
{"geometry": {"type": "Point", "coordinates": [-70.487938971, 41.699087524]}, "type": "Feature", "properties": {"collection_times": [{"days": "Mon-Sat", "time": "8:00am"}, {"days": "Sun", "time": "Closed"}], "id": "0256300009", "name": "USPS COLLECTION BOX - BLUE BOX", "address": {"city": "SANDWICH", "state": "MA", "street": "61 QUAKER MEETING HOUSE RD", "postcode": "02563"}}},
{"geometry": {"type": "Point", "coordinates": [-70.4886565548, 41.7180092325]}, "type": "Feature", "properties": {"collection_times": [{"days": "Mon-Sat", "time": "9:00am"}, {"days": "Sun", "time": "Closed"}], "id": "0256300012", "name": "USPS COLLECTION BOX - BLUE BOX", "address": {"city": "SANDWICH", "state": "MA", "street": "441 ROUTE 130", "postcode": "02563"}}},
{"geometry": {"type": "Point", "coordinates": [-70.5075363809, 41.75786419]}, "type": "Feature", "properties": {"collection_times": [{"days": "Mon-Sat", "time": "9:00am"}, {"days": "Sun", "time": "Closed"}], "id": "0256300013", "name": "USPS COLLECTION BOX - BLUE BOX", "address": {"city": "SANDWICH", "state": "MA", "street": "145 MAIN ST", "postcode": "02563"}}},
{"geometry": {"type": "Point", "coordinates": [-70.4766960839, 41.7489427627]}, "type": "Feature", "properties": {"collection_times": [{"days": "Mon-Fri", "time": "5:00pm"}, {"days": "Sat", "time": "1:00pm"}, {"days": "Sun", "time": "Closed"}], "id": "0256300015", "name": "USPS COLLECTION BOX - PO LOBBY", "address": {"city": "SANDWICH", "state": "MA", "street": "69 ROUTE 6A", "postcode": "02563"}}},
{"geometry": {"type": "Point", "coordinates": [-70.4766960839, 41.7489427627]}, "type": "Feature", "properties": {"collection_times": [{"days": "Mon-Fri", "time": "5:00pm"}, {"days": "Sat", "time": "1:00pm"}, {"days": "Sun", "time": "Closed"}], "id": "0256300016", "name": "USPS COLLECTION BOX - PO LOBBY", "address": {"city": "SANDWICH", "state": "MA", "street": "69 ROUTE 6A", "postcode": "02563"}}},
{"geometry": {"type": "Point", "coordinates": [-70.4766960839, 41.7489427627]}, "type": "Feature", "properties": {"collection_times": [{"days": "Mon-Fri", "time": "5:00pm"}, {"days": "Sat", "time": "1:00pm"}, {"days": "Sun", "time": "Closed"}], "id": "0256300017", "name": "USPS COLLECTION BOX - BLUE BOX", "address": {"city": "SANDWICH", "state": "MA", "street": "69 ROUTE 6A", "postcode": "02563"}}},
{"geometry": {"type": "Point", "coordinates": [-70.4766960839, 41.7489427627]}, "type": "Feature", "properties": {"collection_times": [{"days": "Mon-Fri", "time": "5:00pm"}, {"days": "Sat", "time": "1:00pm"}, {"days": "Sun", "time": "Closed"}], "id": "0256300018", "name": "USPS COLLECTION BOX - BLUE BOX", "address": {"city": "SANDWICH", "state": "MA", "street": "69 ROUTE 6A", "postcode": "02563"}}},
{"geometry": {"type": "Point", "coordinates": [-70.0986778681, 41.283641111]}, "type": "Feature", "properties": {"collection_times": [{"days": "Mon-Fri", "time": "1:45pm"}, {"days": "Sat", "time": "9:00am"}, {"days": "Sun", "time": "Closed"}], "id": "0256400000", "name": "USPS COLLECTION BOX - BLUE BOX", "address": {"city": "NANTUCKET", "state": "MA", "street": "6 MAIN ST", "postcode": "02564"}}},
{"geometry": {"type": "Point", "coordinates": [-70.0986778681, 41.283641111]}, "type": "Feature", "properties": {"collection_times": [{"days": "Mon-Fri", "time": "1:45pm"}, {"days": "Sat", "time": "9:00am"}, {"days": "Sun", "time": "Closed"}], "id": "0256400001", "name": "USPS COLLECTION BOX - PO LOBBY", "address": {"city": "NANTUCKET", "state": "MA", "street": "6 MAIN ST", "postcode": "02564"}}},
{"geometry": {"type": "Point", "coordinates": [-70.6012854799, 41.4538602019]}, "type": "Feature", "properties": {"collection_times": [{"days": "Mon-Sat", "time": "3:30pm"}, {"days": "Sun", "time": "Closed"}], "id": "0256800002", "name": "USPS COLLECTION BOX - BLUE BOX", "address": {"city": "VINEYARD HAVEN", "state": "MA", "street": "1 LAGOON POND RD", "postcode": "02568"}}},
{"geometry": {"type": "Point", "coordinates": [-70.6012854799, 41.4538602019]}, "type": "Feature", "properties": {"collection_times": [{"days": "Mon-Sat", "time": "3:30pm"}, {"days": "Sun", "time": "Closed"}], "id": "0256800003", "name": "USPS COLLECTION BOX - BLUE BOX", "address": {"city": "VINEYARD HAVEN", "state": "MA", "street": "1 LAGOON POND RD", "postcode": "02568"}}},
{"geometry": {"type": "Point", "coordinates": [-70.6044765749, 41.4432222979]}, "type": "Feature", "properties": {"collection_times": [{"days": "Mon-Sat", "time": "3:30pm"}, {"days": "Sun", "time": "Closed"}], "id": "0256800005", "name": "USPS COLLECTION BOX - PO LOBBY", "address": {"city": "VINEYARD HAVEN", "state": "MA", "street": "1 LAGOON POND RD", "postcode": "02568"}}},
{"geometry": {"type": "Point", "coordinates": [-70.6032868521, 41.4535805419]}, "type": "Feature", "properties": {"collection_times": [{"days": "Mon-Sat", "time": "2:30pm"}, {"days": "Sun", "time": "Closed"}], "id": "0256800010", "name": "USPS COLLECTION BOX - BLUE BOX", "address": {"city": "VINEYARD HAVEN", "state": "MA", "street": "90 MAIN ST", "postcode": "02568"}}},
{"geometry": {"type": "Point", "coordinates": [-70.6333643298, 41.4377990954]}, "type": "Feature", "properties": {"collection_times": [{"days": "Mon-Sat", "time": "12:00pm"}, {"days": "Sun", "time": "Closed"}], "id": "0256800012", "name": "USPS COLLECTION BOX - BLUE BOX", "address": {"city": "VINEYARD HAVEN", "state": "MA", "street": "1045 STATE RD", "postcode": "02568"}}},
{"geometry": {"type": "Point", "coordinates": [-70.6774097189, 41.37726118]}, "type": "Feature", "properties": {"collection_times": [{"days": "Mon-Sat", "time": "11:00am"}, {"days": "Sun", "time": "Closed"}], "id": "0256800013", "name": "USPS COLLECTION BOX - BLUE BOX", "address": {"city": "VINEYARD HAVEN", "state": "MA", "street": "379 STATE RD", "postcode": "02568"}}},
{"geometry": {"type": "Point", "coordinates": [-70.6724884397, 41.4084303445]}, "type": "Feature", "properties": {"collection_times": [{"days": "Mon-Sat", "time": "12:00pm"}, {"days": "Sun", "time": "Closed"}], "id": "0256800014", "name": "USPS COLLECTION BOX - BLUE BOX", "address": {"city": "VINEYARD HAVEN", "state": "MA", "street": "10 AIRPORT RD", "postcode": "02568"}}},
{"geometry": {"type": "Point", "coordinates": [-70.6724884397, 41.4084303445]}, "type": "Feature", "properties": {"collection_times": [{"days": "Mon-Sat", "time": "11:00am"}, {"days": "Sun", "time": "Closed"}], "id": "0256800015", "name": "USPS COLLECTION BOX - BLUE BOX", "address": {"city": "VINEYARD HAVEN", "state": "MA", "street": "421 VINEYARD HAVEN-EDGARTOWN RD", "postcode": "02568"}}},
{"geometry": {"type": "Point", "coordinates": [-70.6011479516, 41.4539249615]}, "type": "Feature", "properties": {"collection_times": [{"days": "Mon-Sat", "time": "2:30pm"}, {"days": "Sun", "time": "Closed"}], "id": "0256800017", "name": "USPS COLLECTION BOX - BLUE BOX", "address": {"city": "VINEYARD HAVEN", "state": "MA", "street": "1 WATER ST", "postcode": "02568"}}},
{"geometry": {"type": "Point", "coordinates": [-70.6044765749, 41.4432222979]}, "type": "Feature", "properties": {"collection_times": [{"days": "Mon-Fri", "time": "3:30pm"}, {"days": "Sat", "time": "3:15pm"}, {"days": "Sun", "time": "Closed"}], "id": "0256800018", "name": "USPS COLLECTION BOX - PO LOBBY", "address": {"city": "VINEYARD HAVEN", "state": "MA", "street": "1 LAGOON POND RD", "postcode": "02568"}}},
{"geometry": {"type": "Point", "coordinates": [-70.6033250348, 41.4535736319]}, "type": "Feature", "properties": {"collection_times": [{"days": "Mon-Sat", "time": "2:30pm"}, {"days": "Sun", "time": "Closed"}], "id": "0256800019", "name": "USPS COLLECTION BOX - BLUE BOX", "address": {"city": "VINEYARD HAVEN", "state": "MA", "street": "4 MAIN ST", "postcode": "02568"}}},
{"geometry": {"type": "Point", "coordinates": [-70.6092254034, 41.4434959527]}, "type": "Feature", "properties": {"collection_times": [{"days": "Mon-Sat", "time": "11:00am"}, {"days": "Sun", "time": "Closed"}], "id": "0256800020", "name": "USPS COLLECTION BOX - BLUE BOX", "address": {"city": "VINEYARD HAVEN", "state": "MA", "street": "253 EDGARTOWN RD", "postcode": "02568"}}},
{"geometry": {"type": "Point", "coordinates": [-70.7163636749, 41.7589127267]}, "type": "Feature", "properties": {"collection_times": [{"days": "Mon-Fri", "time": "4:15pm"}, {"days": "Sat", "time": "12:00pm"}, {"days": "Sun", "time": "Closed"}], "id": "0257100001", "name": "USPS COLLECTION BOX - BLUE BOX", "address": {"city": "WAREHAM", "state": "MA", "street": "248 MAIN ST", "postcode": "02571"}}},
{"geometry": {"type": "Point", "coordinates": [-70.7134058628, 41.7518436936]}, "type": "Feature", "properties": {"collection_times": [{"days": "Mon-Fri", "time": "4:30pm"}, {"days": "Sat", "time": "2:00pm"}, {"days": "Sun", "time": "Closed"}], "id": "0257100003", "name": "USPS COLLECTION BOX - PO LOBBY", "address": {"city": "WAREHAM", "state": "MA", "street": "248 MAIN ST", "postcode": "02571"}}},
{"geometry": {"type": "Point", "coordinates": [-70.7134058628, 41.7518436936]}, "type": "Feature", "properties": {"collection_times": [{"days": "Mon-Fri", "time": "4:30pm"}, {"days": "Sat", "time": "2:00pm"}, {"days": "Sun", "time": "Closed"}], "id": "0257100004", "name": "USPS COLLECTION BOX - PO LOBBY", "address": {"city": "WAREHAM", "state": "MA", "street": "248 MAIN ST", "postcode": "02571"}}},
{"geometry": {"type": "Point", "coordinates": [-70.7134058628, 41.7518436936]}, "type": "Feature", "properties": {"collection_times": [{"days": "Mon-Fri", "time": "4:30pm"}, {"days": "Sat", "time": "2:00pm"}, {"days": "Sun", "time": "Closed"}], "id": "0257100005", "name": "USPS COLLECTION BOX - PO LOBBY", "address": {"city": "WAREHAM", "state": "MA", "street": "248 MAIN ST", "postcode": "02571"}}},
{"geometry": {"type": "Point", "coordinates": [-70.715515533, 41.7583944123]}, "type": "Feature", "properties": {"collection_times": [{"days": "Mon-Fri", "time": "3:30pm"}, {"days": "Sat", "time": "9:00am"}, {"days": "Sun", "time": "Closed"}], "id": "0257100010", "name": "USPS COLLECTION BOX - BLUE BOX", "address": {"city": "WAREHAM", "state": "MA", "street": "218 MAIN ST", "postcode": "02571"}}},
{"geometry": {"type": "Point", "coordinates": [-70.7135275229, 41.7519219495]}, "type": "Feature", "properties": {"collection_times": [{"days": "Mon-Fri", "time": "3:30pm"}, {"days": "Sat", "time": "9:00am"}, {"days": "Sun", "time": "Closed"}], "id": "0257100011", "name": "USPS COLLECTION BOX - BLUE BOX", "address": {"city": "WAREHAM", "state": "MA", "street": "419 MAIN ST", "postcode": "02571"}}},
{"geometry": {"type": "Point", "coordinates": [-70.7278138451, 41.758795251]}, "type": "Feature", "properties": {"collection_times": [{"days": "Mon-Fri", "time": "3:30pm"}, {"days": "Sat", "time": "9:00am"}, {"days": "Sun", "time": "Closed"}], "id": "0257100015", "name": "USPS COLLECTION BOX - BLUE BOX", "address": {"city": "WAREHAM", "state": "MA", "street": "121 MARION RD", "postcode": "02571"}}},
{"geometry": {"type": "Point", "coordinates": [-70.7325621043, 41.754775116]}, "type": "Feature", "properties": {"collection_times": [{"days": "Mon-Fri", "time": "3:30pm"}, {"days": "Sat", "time": "9:00am"}, {"days": "Sun", "time": "Closed"}], "id": "0257100016", "name": "USPS COLLECTION BOX - BLUE BOX", "address": {"city": "WAREHAM", "state": "MA", "street": "204 MARION RD", "postcode": "02571"}}},
{"geometry": {"type": "Point", "coordinates": [-70.7423143244, 41.778884999]}, "type": "Feature", "properties": {"collection_times": [{"days": "Mon-Fri", "time": "3:30pm"}, {"days": "Sat", "time": "9:00am"}, {"days": "Sun", "time": "Closed"}], "id": "0257100020", "name": "USPS COLLECTION BOX - BLUE BOX", "address": {"city": "WAREHAM", "state": "MA", "street": "2 KENDRICK RD", "postcode": "02571"}}},
{"geometry": {"type": "Point", "coordinates": [-70.7423143244, 41.778884999]}, "type": "Feature", "properties": {"collection_times": [{"days": "Mon-Fri", "time": "3:30pm"}, {"days": "Sat", "time": "9:00am"}, {"days": "Sun", "time": "Closed"}], "id": "0257100026", "name": "USPS COLLECTION BOX - BLUE BOX", "address": {"city": "WAREHAM", "state": "MA", "street": "2 KENDRICK RD", "postcode": "02571"}}},
{"geometry": {"type": "Point", "coordinates": [-70.7462250157, 41.7758703202]}, "type": "Feature", "properties": {"collection_times": [{"days": "Mon-Sat", "time": "7:00pm"}, {"days": "Sun", "time": "Closed"}], "id": "0257100027", "name": "USPS COLLECTION BOX - BLUE BOX", "address": {"city": "WAREHAM", "state": "MA", "street": "25 TOBEY RD", "postcode": "02571"}}},
{"geometry": {"type": "Point", "coordinates": [-70.7134058628, 41.7518436936]}, "type": "Feature", "properties": {"collection_times": [{"days": "Mon-Sat", "time": "7:00pm"}, {"days": "Sun", "time": "Closed"}], "id": "0257100028", "name": "USPS COLLECTION BOX - EXPRESS", "address": {"city": "WAREHAM", "state": "MA", "street": "25 TOBEY RD", "postcode": "02571"}}},
{"geometry": {"type": "Point", "coordinates": [-70.6357514349, 41.5924612656]}, "type": "Feature", "properties": {"collection_times": [{"days": "Mon-Fri", "time": "4:45pm"}, {"days": "Sat", "time": "12:00pm"}, {"days": "Sun", "time": "Closed"}], "id": "0257400001", "name": "USPS COLLECTION BOX - BLUE BOX", "address": {"city": "WEST FALMOUTH", "state": "MA", "street": "410 W FALMOUTH HWY", "postcode": "02574"}}},
{"geometry": {"type": "Point", "coordinates": [-70.6357475795, 41.5924602018]}, "type": "Feature", "properties": {"collection_times": [{"days": "Mon-Fri", "time": "4:45pm"}, {"days": "Sat", "time": "12:00pm"}, {"days": "Sun", "time": "Closed"}], "id": "0257400003", "name": "USPS COLLECTION BOX - PO LOBBY", "address": {"city": "WEST FALMOUTH", "state": "MA", "street": "410 W FALMOUTH HWY", "postcode": "02574"}}},
{"geometry": {"type": "Point", "coordinates": [-70.6357475795, 41.5924602018]}, "type": "Feature", "properties": {"collection_times": [{"days": "Mon-Fri", "time": "4:45pm"}, {"days": "Sat", "time": "12:00pm"}, {"days": "Sun", "time": "Closed"}], "id": "0257400004", "name": "USPS COLLECTION BOX - PO LOBBY", "address": {"city": "WEST FALMOUTH", "state": "MA", "street": "410 W FALMOUTH HWY", "postcode": "02574"}}},
{"geometry": {"type": "Point", "coordinates": [-70.6745256102, 41.3813917742]}, "type": "Feature", "properties": {"collection_times": [{"days": "Mon-Fri", "time": "3:30pm"}, {"days": "Sat", "time": "1:00pm"}, {"days": "Sun", "time": "Closed"}], "id": "0257500001", "name": "USPS COLLECTION BOX - BLUE BOX", "address": {"city": "WEST TISBURY", "state": "MA", "street": "479 STATE RD", "postcode": "02575"}}},
{"geometry": {"type": "Point", "coordinates": [-70.6745256102, 41.3813917742]}, "type": "Feature", "properties": {"collection_times": [{"days": "Mon-Fri", "time": "3:30pm"}, {"days": "Sat", "time": "1:00pm"}, {"days": "Sun", "time": "Closed"}], "id": "0257500002", "name": "USPS COLLECTION BOX - BLUE BOX", "address": {"city": "WEST TISBURY", "state": "MA", "street": "479 STATE RD", "postcode": "02575"}}},
{"geometry": {"type": "Point", "coordinates": [-70.6745256102, 41.3813917742]}, "type": "Feature", "properties": {"collection_times": [{"days": "Mon-Fri", "time": "3:30pm"}, {"days": "Sat", "time": "1:00pm"}, {"days": "Sun", "time": "Closed"}], "id": "0257500003", "name": "USPS COLLECTION BOX - PO LOBBY", "address": {"city": "WEST TISBURY", "state": "MA", "street": "479 STATE RD", "postcode": "02575"}}},
{"geometry": {"type": "Point", "coordinates": [-70.6745256102, 41.3813917742]}, "type": "Feature", "properties": {"collection_times": [{"days": "Mon-Fri", "time": "3:30pm"}, {"days": "Sat", "time": "1:00pm"}, {"days": "Sun", "time": "Closed"}], "id": "0257500004", "name": "USPS COLLECTION BOX - PO LOBBY", "address": {"city": "WEST TISBURY", "state": "MA", "street": "479 STATE RD", "postcode": "02575"}}},
{"geometry": {"type": "Point", "coordinates": [-70.6745256102, 41.3813917742]}, "type": "Feature", "properties": {"collection_times": [{"days": "Mon-Sat", "time": "9:00am"}, {"days": "Sun", "time": "Closed"}], "id": "0257500005", "name": "USPS COLLECTION BOX - PO LOBBY", "address": {"city": "WEST TISBURY", "state": "MA", "street": "479 STATE RD", "postcode": "02575"}}},
{"geometry": {"type": "Point", "coordinates": [-70.0967061971, 41.2751010001]}, "type": "Feature", "properties": {"collection_times": [{"days": "Mon-Fri", "time": "3:00pm"}, {"days": "Sat", "time": "12:00pm"}, {"days": "Sun", "time": "Closed"}], "id": "0258400003", "name": "USPS COLLECTION BOX - PO LOBBY", "address": {"city": "NANTUCKET", "state": "MA", "street": "144 PLEASANT ST", "postcode": "02584"}}},
{"geometry": {"type": "Point", "coordinates": [-70.0967061971, 41.2751010001]}, "type": "Feature", "properties": {"collection_times": [{"days": "Mon-Fri", "time": "3:00pm"}, {"days": "Sat", "time": "12:00pm"}, {"days": "Sun", "time": "Closed"}], "id": "0258400004", "name": "USPS COLLECTION BOX - PO LOBBY", "address": {"city": "NANTUCKET", "state": "MA", "street": "144 PLEASANT ST", "postcode": "02584"}}},
{"geometry": {"type": "Point", "coordinates": [-70.0906755718, 41.2713068634]}, "type": "Feature", "properties": {"collection_times": [{"days": "Mon-Fri", "time": "3:00pm"}, {"days": "Sat", "time": "12:00pm"}, {"days": "Sun", "time": "Closed"}], "id": "0258400005", "name": "USPS COLLECTION BOX - BLUE BOX", "address": {"city": "NANTUCKET", "state": "MA", "street": "144 PLEASANT ST", "postcode": "02584"}}},
{"geometry": {"type": "Point", "coordinates": [-70.0906755718, 41.2713068634]}, "type": "Feature", "properties": {"collection_times": [{"days": "Mon-Fri", "time": "3:00pm"}, {"days": "Sat", "time": "12:00pm"}, {"days": "Sun", "time": "Closed"}], "id": "0258400006", "name": "USPS COLLECTION BOX - BLUE BOX", "address": {"city": "NANTUCKET", "state": "MA", "street": "144 PLEASANT ST", "postcode": "02584"}}}
]}
