{"type": "FeatureCollection", "features": [
{"geometry": {"type": "Point", "coordinates": [-70.2965286553, 41.6547806616]}, "type": "Feature", "properties": {"collection_times": [{"days": "Mon-Fri", "time": "4:00pm"}, {"days": "Sat", "time": "1:00pm"}, {"days": "Sun", "time": "Closed"}], "id": "0260100004", "name": "USPS COLLECTION BOX - BLUE BOX", "address": {"city": "HYANNIS", "state": "MA", "street": "360 BARNSTABLE RD", "postcode": "02601"}}},
{"geometry": {"type": "Point", "coordinates": [-70.2965373451, 41.6547806157]}, "type": "Feature", "properties": {"collection_times": [{"days": "Mon-Fri", "time": "4:00pm"}, {"days": "Sat", "time": "1:00pm"}, {"days": "Sun", "time": "Closed"}], "id": "0260100006", "name": "USPS COLLECTION BOX - BLUE BOX", "address": {"city": "HYANNIS", "state": "MA", "street": "220 W MAIN ST", "postcode": "02601"}}},
{"geometry": {"type": "Point", "coordinates": [-70.2965373451, 41.6547806157]}, "type": "Feature", "properties": {"collection_times": [{"days": "Mon-Fri", "time": "4:00pm"}, {"days": "Sat", "time": "1:00pm"}, {"days": "Sun", "time": "Closed"}], "id": "0260100009", "name": "USPS COLLECTION BOX - BLUE BOX", "address": {"city": "HYANNIS", "state": "MA", "street": "134 CENTER ST", "postcode": "02601"}}},
{"geometry": {"type": "Point", "coordinates": [-70.2965373451, 41.6547806157]}, "type": "Feature", "properties": {"collection_times": [{"days": "Mon-Fri", "time": "4:00pm"}, {"days": "Sat", "time": "1:00pm"}, {"days": "Sun", "time": "Closed"}], "id": "0260100011", "name": "USPS COLLECTION BOX - BLUE BOX", "address": {"city": "HYANNIS", "state": "MA", "street": "88 FALMOUTH RD", "postcode": "02601"}}},
{"geometry": {"type": "Point", "coordinates": [-70.2965286553, 41.6547806616]}, "type": "Feature", "properties": {"collection_times": [{"days": "Mon-Fri", "time": "4:00pm"}, {"days": "Sat", "time": "1:00pm"}, {"days": "Sun", "time": "Closed"}], "id": "0260100012", "name": "USPS COLLECTION BOX - BLUE BOX", "address": {"city": "HYANNIS", "state": "MA", "street": "489 BEARSES WAY", "postcode": "02601"}}},
{"geometry": {"type": "Point", "coordinates": [-70.2965373451, 41.6547806157]}, "type": "Feature", "properties": {"collection_times": [{"days": "Mon-Fri", "time": "4:00pm"}, {"days": "Sat", "time": "1:00pm"}, {"days": "Sun", "time": "Closed"}], "id": "0260100013", "name": "USPS COLLECTION BOX - BLUE BOX", "address": {"city": "HYANNIS", "state": "MA", "street": "1220 IYANNOUGH RD", "postcode": "02601"}}},
{"geometry": {"type": "Point", "coordinates": [-70.2965373451, 41.6547806157]}, "type": "Feature", "properties": {"collection_times": [{"days": "Mon-Fri", "time": "4:00pm"}, {"days": "Sat", "time": "1:00pm"}, {"days": "Sun", "time": "Closed"}], "id": "0260100015", "name": "USPS COLLECTION BOX - BLUE BOX", "address": {"city": "HYANNIS", "state": "MA", "street": "375 IYANNOUGH RD", "postcode": "02601"}}},
{"geometry": {"type": "Point", "coordinates": [-70.2965373451, 41.6547806157]}, "type": "Feature", "properties": {"collection_times": [{"days": "Mon-Fri", "time": "4:00pm"}, {"days": "Sat", "time": "1:00pm"}, {"days": "Sun", "time": "Closed"}], "id": "0260100017", "name": "USPS COLLECTION BOX - BLUE BOX", "address": {"city": "HYANNIS", "state": "MA", "street": "40 LEWIS BAY RD", "postcode": "02601"}}},
{"geometry": {"type": "Point", "coordinates": [-70.2965373451, 41.6547806157]}, "type": "Feature", "properties": {"collection_times": [{"days": "Mon-Fri", "time": "4:00pm"}, {"days": "Sat", "time": "1:00pm"}, {"days": "Sun", "time": "Closed"}], "id": "0260100020", "name": "USPS COLLECTION BOX - BLUE BOX", "address": {"city": "HYANNIS", "state": "MA", "street": "200 MAIN ST", "postcode": "02601"}}},
{"geometry": {"type": "Point", "coordinates": [-70.2965373451, 41.6547806157]}, "type": "Feature", "properties": {"collection_times": [{"days": "Mon-Fri", "time": "4:00pm"}, {"days": "Sat", "time": "1:00pm"}, {"days": "Sun", "time": "Closed"}], "id": "0260100021", "name": "USPS COLLECTION BOX - BLUE BOX", "address": {"city": "HYANNIS", "state": "MA", "street": "128 MAIN ST", "postcode": "02601"}}},
{"geometry": {"type": "Point", "coordinates": [-70.2965373451, 41.6547806157]}, "type": "Feature", "properties": {"collection_times": [{"days": "Mon-Fri", "time": "5:00pm"}, {"days": "Sat", "time": "4:30pm"}, {"days": "Sun", "time": "Closed"}], "id": "0260100026", "name": "USPS COLLECTION BOX - BLUE BOX", "address": {"city": "HYANNIS", "state": "MA", "street": "385 MAIN ST", "postcode": "02601"}}},
{"geometry": {"type": "Point", "coordinates": [-70.2965373451, 41.6547806157]}, "type": "Feature", "properties": {"collection_times": [{"days": "Mon-Fri", "time": "5:00pm"}, {"days": "Sat", "time": "4:30pm"}, {"days": "Sun", "time": "Closed"}], "id": "0260100028", "name": "USPS COLLECTION BOX - PO LOBBY", "address": {"city": "HYANNIS", "state": "MA", "street": "385 MAIN ST LBBY PICKUP", "postcode": "02601"}}},
{"geometry": {"type": "Point", "coordinates": [-70.2965373451, 41.6547806157]}, "type": "Feature", "properties": {"collection_times": [{"days": "Mon-Fri", "time": "5:00pm"}, {"days": "Sat", "time": "4:30pm"}, {"days": "Sun", "time": "Closed"}], "id": "0260100029", "name": "USPS COLLECTION BOX - PO LOBBY", "address": {"city": "HYANNIS", "state": "MA", "street": "385 MAIN ST LBBY PICKUP", "postcode": "02601"}}},
{"geometry": {"type": "Point", "coordinates": [-70.2965286553, 41.6547806616]}, "type": "Feature", "properties": {"collection_times": [{"days": "Mon-Fri", "time": "4:00pm"}, {"days": "Sat", "time": "1:00pm"}, {"days": "Sun", "time": "Closed"}], "id": "0260100030", "name": "USPS COLLECTION BOX - BLUE BOX", "address": {"city": "HYANNIS", "state": "MA", "street": "367 MAIN ST", "postcode": "02601"}}},
{"geometry": {"type": "Point", "coordinates": [-70.2914240755, 41.6489060436]}, "type": "Feature", "properties": {"collection_times": [{"days": "Mon-Fri", "time": "4:00pm"}, {"days": "Sat", "time": "1:00pm"}, {"days": "Sun", "time": "Closed"}], "id": "0260100033", "name": "USPS COLLECTION BOX - BLUE BOX", "address": {"city": "HYANNIS", "state": "MA", "street": "640 MAIN ST", "postcode": "02601"}}},
{"geometry": {"type": "Point", "coordinates": [-70.2965373451, 41.6547806157]}, "type": "Feature", "properties": {"collection_times": [{"days": "Mon-Fri", "time": "4:00pm"}, {"days": "Sat", "time": "1:00pm"}, {"days": "Sun", "time": "Closed"}], "id": "0260100036", "name": "USPS COLLECTION BOX - BLUE BOX", "address": {"city": "HYANNIS", "state": "MA", "street": "72 NORTH ST", "postcode": "02601"}}},
{"geometry": {"type": "Point", "coordinates": [-70.2963088897, 41.6475009824]}, "type": "Feature", "properties": {"collection_times": [{"days": "Mon-Fri", "time": "4:00pm"}, {"days": "Sat", "time": "1:00pm"}, {"days": "Sun", "time": "Closed"}], "id": "0260100037", "name": "USPS COLLECTION BOX - BLUE BOX", "address": {"city": "HYANNIS", "state": "MA", "street": "297 NORTH ST", "postcode": "02601"}}},
{"geometry": {"type": "Point", "coordinates": [-70.2965286553, 41.6547806616]}, "type": "Feature", "properties": {"collection_times": [{"days": "Mon-Sat", "time": "1:00pm"}, {"days": "Sun", "time": "Closed"}], "id": "0260100040", "name": "USPS COLLECTION BOX - BLUE BOX", "address": {"city": "HYANNIS", "state": "MA", "street": "479 OCEAN ST", "postcode": "02601"}}},
{"geometry": {"type": "Point", "coordinates": [-70.2965286553, 41.6547806616]}, "type": "Feature", "properties": {"collection_times": [{"days": "Mon-Fri", "time": "4:00pm"}, {"days": "Sat", "time": "1:00pm"}, {"days": "Sun", "time": "Closed"}], "id": "0260100042", "name": "USPS COLLECTION BOX - BLUE BOX", "address": {"city": "HYANNIS", "state": "MA", "street": "790 IYANNOUGH RD", "postcode": "02601"}}},
{"geometry": {"type": "Point", "coordinates": [-70.2965286553, 41.6547806616]}, "type": "Feature", "properties": {"collection_times": [{"days": "Mon-Fri", "time": "4:00pm"}, {"days": "Sat", "time": "1:00pm"}, {"days": "Sun", "time": "Closed"}], "id": "0260100046", "name": "USPS COLLECTION BOX - BLUE BOX", "address": {"city": "HYANNIS", "state": "MA", "street": "700 ATTUCKS LN", "postcode": "02601"}}},
{"geometry": {"type": "Point", "coordinates": [-70.2965373451, 41.6547806157]}, "type": "Feature", "properties": {"collection_times": [{"days": "Mon-Fri", "time": "4:00pm"}, {"days": "Sat", "time": "1:00pm"}, {"days": "Sun", "time": "Closed"}], "id": "0260100047", "name": "USPS COLLECTION BOX - BLUE BOX", "address": {"city": "HYANNIS", "state": "MA", "street": "1070 IYANNOUGH RD", "postcode": "02601"}}},
{"geometry": {"type": "Point", "coordinates": [-70.2965373451, 41.6547806157]}, "type": "Feature", "properties": {"collection_times": [{"days": "Mon-Sat", "time": "1:00pm"}, {"days": "Sun", "time": "Closed"}], "id": "0260100050", "name": "USPS COLLECTION BOX - BLUE BOX", "address": {"city": "HYANNIS", "state": "MA", "street": "231 SEA ST", "postcode": "02601"}}},
{"geometry": {"type": "Point", "coordinates": [-70.2965373451, 41.6547806157]}, "type": "Feature", "properties": {"collection_times": [{"days": "Mon-Fri", "time": "4:00pm"}, {"days": "Sat", "time": "1:00pm"}, {"days": "Sun", "time": "Closed"}], "id": "0260100053", "name": "USPS COLLECTION BOX - BLUE BOX", "address": {"city": "HYANNIS", "state": "MA", "street": "215 W MAIN ST", "postcode": "02601"}}},
{"geometry": {"type": "Point", "coordinates": [-70.2965286553, 41.6547806616]}, "type": "Feature", "properties": {"collection_times": [{"days": "Mon-Fri", "time": "4:00pm"}, {"days": "Sat", "time": "1:00pm"}, {"days": "Sun", "time": "Closed"}], "id": "0260100055", "name": "USPS COLLECTION BOX - BLUE BOX", "address": {"city": "HYANNIS", "state": "MA", "street": "625 W MAIN ST", "postcode": "02601"}}},
{"geometry": {"type": "Point", "coordinates": [-70.2965373451, 41.6547806157]}, "type": "Feature", "properties": {"collection_times": [{"days": "Mon-Fri", "time": "4:00pm"}, {"days": "Sat", "time": "1:00pm"}, {"days": "Sun", "time": "Closed"}], "id": "0260100058", "name": "USPS COLLECTION BOX - BLUE BOX", "address": {"city": "HYANNIS", "state": "MA", "street": "130 NORTH ST", "postcode": "02601"}}},
{"geometry": {"type": "Point", "coordinates": [-70.2965373451, 41.6547806157]}, "type": "Feature", "properties": {"collection_times": [{"days": "Mon-Fri", "time": "4:00pm"}, {"days": "Sat", "time": "1:00pm"}, {"days": "Sun", "time": "Closed"}], "id": "0260100063", "name": "USPS COLLECTION BOX - BLUE BOX", "address": {"city": "HYANNIS", "state": "MA", "street": "1471 IYANNOUGH RD", "postcode": "02601"}}},
{"geometry": {"type": "Point", "coordinates": [-70.3045935722, 41.7020216652]}, "type": "Feature", "properties": {"collection_times": [{"days": "Mon-Fri", "time": "5:00pm"}, {"days": "Sat", "time": "1:00pm"}, {"days": "Sun", "time": "Closed"}], "id": "0263000002", "name": "USPS COLLECTION BOX - BLUE BOX", "address": {"city": "BARNSTABLE", "state": "MA", "street": "3230 MAIN ST", "postcode": "02630"}}},
{"geometry": {"type": "Point", "coordinates": [-70.2997483042, 41.6992821621]}, "type": "Feature", "properties": {"collection_times": [{"days": "Mon-Fri", "time": "5:00pm"}, {"days": "Sat", "time": "1:00pm"}, {"days": "Sun", "time": "Closed"}], "id": "0263000004", "name": "USPS COLLECTION BOX - PO LOBBY", "address": {"city": "BARNSTABLE", "state": "MA", "street": "3230 MAIN ST", "postcode": "02630"}}},
{"geometry": {"type": "Point", "coordinates": [-70.2997483042, 41.6992821621]}, "type": "Feature", "properties": {"collection_times": [{"days": "Mon-Fri", "time": "5:00pm"}, {"days": "Sat", "time": "1:00pm"}, {"days": "Sun", "time": "Closed"}], "id": "0263000005", "name": "USPS COLLECTION BOX - PO LOBBY", "address": {"city": "BARNSTABLE", "state": "MA", "street": "3230 MAIN ST", "postcode": "02630"}}},
{"geometry": {"type": "Point", "coordinates": [-70.2997483042, 41.6992821621]}, "type": "Feature", "properties": {"collection_times": [{"days": "Mon-Fri", "time": "5:00pm"}, {"days": "Sat", "time": "1:00pm"}, {"days": "Sun", "time": "Closed"}], "id": "0263000006", "name": "USPS COLLECTION BOX - PO LOBBY", "address": {"city": "BARNSTABLE", "state": "MA", "street": "3230 MAIN ST", "postcode": "02630"}}},
{"geometry": {"type": "Point", "coordinates": [-70.1123095254, 41.754792839]}, "type": "Feature", "properties": {"collection_times": [{"days": "Mon-Sat", "time": "11:00am"}, {"days": "Sun", "time": "Closed"}], "id": "0263100001", "name": "USPS COLLECTION BOX - BLUE BOX", "address": {"city": "BREWSTER", "state": "MA", "street": "15 LOWER RD", "postcode": "02631"}}},
{"geometry": {"type": "Point", "coordinates": [-70.0721482257, 41.7521435452]}, "type": "Feature", "properties": {"collection_times": [{"days": "Mon-Sat", "time": "10:30am"}, {"days": "Sun", "time": "Closed"}], "id": "0263100003", "name": "USPS COLLECTION BOX - BLUE BOX", "address": {"city": "BREWSTER", "state": "MA", "street": "1760 MAIN ST", "postcode": "02631"}}},
{"geometry": {"type": "Point", "coordinates": [-70.0721482257, 41.7521435452]}, "type": "Feature", "properties": {"collection_times": [{"days": "Mon-Fri", "time": "5:00pm"}, {"days": "Sat", "time": "12:00pm"}, {"days": "Sun", "time": "Closed"}], "id": "0263100005", "name": "USPS COLLECTION BOX - BLUE BOX", "address": {"city": "BREWSTER", "state": "MA", "street": "260 UNDERPASS RD", "postcode": "02631"}}},
{"geometry": {"type": "Point", "coordinates": [-70.0721482257, 41.7521435452]}, "type": "Feature", "properties": {"collection_times": [{"days": "Mon-Fri", "time": "5:00pm"}, {"days": "Sat", "time": "12:00pm"}, {"days": "Sun", "time": "Closed"}], "id": "0263100011", "name": "USPS COLLECTION BOX - PO LOBBY", "address": {"city": "BREWSTER", "state": "MA", "street": "260 UNDERPASS RD", "postcode": "02631"}}},
{"geometry": {"type": "Point", "coordinates": [-70.0550490073, 41.7695652059]}, "type": "Feature", "properties": {"collection_times": [{"days": "Mon-Sat", "time": "10:30am"}, {"days": "Sun", "time": "Closed"}], "id": "0263100012", "name": "USPS COLLECTION BOX - BLUE BOX", "address": {"city": "BREWSTER", "state": "MA", "street": "2771 MAIN ST", "postcode": "02631"}}},
{"geometry": {"type": "Point", "coordinates": [-70.0721482257, 41.7521435452]}, "type": "Feature", "properties": {"collection_times": [{"days": "Mon-Fri", "time": "5:00pm"}, {"days": "Sat", "time": "12:00pm"}, {"days": "Sun", "time": "Closed"}], "id": "0263100013", "name": "USPS COLLECTION BOX - PO LOBBY", "address": {"city": "BREWSTER", "state": "MA", "street": "260 UNDERPASS RD", "postcode": "02631"}}},
{"geometry": {"type": "Point", "coordinates": [-70.0721482257, 41.7521435452]}, "type": "Feature", "properties": {"collection_times": [{"days": "Mon-Sat", "time": "10:30am"}, {"days": "Sun", "time": "Closed"}], "id": "0263100015", "name": "USPS COLLECTION BOX - BLUE BOX", "address": {"city": "BREWSTER", "state": "MA", "street": "1935 MAIN ST", "postcode": "02631"}}},
{"geometry": {"type": "Point", "coordinates": [-70.3460673274, 41.6571614076]}, "type": "Feature", "properties": {"collection_times": [{"days": "Mon-Fri", "time": "3:00pm"}, {"days": "Sat", "time": "1:30pm"}, {"days": "Sun", "time": "Closed"}], "id": "0263200004", "name": "USPS COLLECTION BOX - BLUE BOX", "address": {"city": "CENTERVILLE", "state": "MA", "street": "1550 FALMOUTH RD", "postcode": "02632"}}},
{"geometry": {"type": "Point", "coordinates": [-70.3486260505, 41.6502630423]}, "type": "Feature", "properties": {"collection_times": [{"days": "Mon-Fri", "time": "3:00pm"}, {"days": "Sat", "time": "1:30pm"}, {"days": "Sun", "time": "Closed"}], "id": "0263200005", "name": "USPS COLLECTION BOX - BLUE BOX", "address": {"city": "CENTERVILLE", "state": "MA", "street": "1600 FALMOUTH RD", "postcode": "02632"}}},
{"geometry": {"type": "Point", "coordinates": [-70.3486260505, 41.6502630423]}, "type": "Feature", "properties": {"collection_times": [{"days": "Mon-Fri", "time": "3:00pm"}, {"days": "Sat", "time": "1:30pm"}, {"days": "Sun", "time": "Closed"}], "id": "0263200007", "name": "USPS COLLECTION BOX - BLUE BOX", "address": {"city": "CENTERVILLE", "state": "MA", "street": "1645 FALMOUTH RD", "postcode": "02632"}}},
{"geometry": {"type": "Point", "coordinates": [-70.3473261146, 41.6607333192]}, "type": "Feature", "properties": {"collection_times": [{"days": "Mon-Fri", "time": "5:00pm"}, {"days": "Sat", "time": "2:30pm"}, {"days": "Sun", "time": "Closed"}], "id": "0263200009", "name": "USPS COLLECTION BOX - BLUE BOX", "address": {"city": "CENTERVILLE", "state": "MA", "street": "1672 FALMOUTH RD", "postcode": "02632"}}},
{"geometry": {"type": "Point", "coordinates": [-70.3473261146, 41.6607333192]}, "type": "Feature", "properties": {"collection_times": [{"days": "Mon-Fri", "time": "5:00pm"}, {"days": "Sat", "time": "2:30pm"}, {"days": "Sun", "time": "Closed"}], "id": "0263200012", "name": "USPS COLLECTION BOX - PO LOBBY", "address": {"city": "CENTERVILLE", "state": "MA", "street": "1672 FALMOUTH RD", "postcode": "02632"}}},
{"geometry": {"type": "Point", "coordinates": [-70.3318948283, 41.657983454]}, "type": "Feature", "properties": {"collection_times": [{"days": "Mon-Fri", "time": "3:00pm"}, {"days": "Sat", "time": "1:30pm"}, {"days": "Sun", "time": "Closed"}], "id": "0263200018", "name": "USPS COLLECTION BOX - BLUE BOX", "address": {"city": "CENTERVILLE", "state": "MA", "street": "1185 FALMOUTH RD", "postcode": "02632"}}},
{"geometry": {"type": "Point", "coordinates": [-70.3473261146, 41.6607333192]}, "type": "Feature", "properties": {"collection_times": [{"days": "Mon-Fri", "time": "5:00pm"}, {"days": "Sat", "time": "2:30pm"}, {"days": "Sun", "time": "Closed"}], "id": "0263200020", "name": "USPS COLLECTION BOX - PO LOBBY", "address": {"city": "CENTERVILLE", "state": "MA", "street": "1672 FALMOUTH RD", "postcode": "02632"}}},
{"geometry": {"type": "Point", "coordinates": [-69.9565658799, 41.6796228946]}, "type": "Feature", "properties": {"collection_times": [{"days": "Mon-Fri", "time": "3:45pm"}, {"days": "Sat", "time": "12:00pm"}, {"days": "Sun", "time": "Closed"}], "id": "0263300002", "name": "USPS COLLECTION BOX - BLUE BOX", "address": {"city": "CHATHAM", "state": "MA", "street": "475 MAIN ST", "postcode": "02633"}}},
{"geometry": {"type": "Point", "coordinates": [-69.9504361293, 41.6704933304]}, "type": "Feature", "properties": {"collection_times": [{"days": "Mon-Fri", "time": "3:45pm"}, {"days": "Sat", "time": "12:00pm"}, {"days": "Sun", "time": "Closed"}], "id": "0263300003", "name": "USPS COLLECTION BOX - BLUE BOX", "address": {"city": "CHATHAM", "state": "MA", "street": "549 MAIN ST", "postcode": "02633"}}},
{"geometry": {"type": "Point", "coordinates": [-69.9504361293, 41.6704933304]}, "type": "Feature", "properties": {"collection_times": [{"days": "Mon-Fri", "time": "3:45pm"}, {"days": "Sat", "time": "11:45am"}, {"days": "Sun", "time": "Closed"}], "id": "0263300004", "name": "USPS COLLECTION BOX - BLUE BOX", "address": {"city": "CHATHAM", "state": "MA", "street": "655 MAIN ST", "postcode": "02633"}}},
{"geometry": {"type": "Point", "coordinates": [-69.9659775014, 41.6846445554]}, "type": "Feature", "properties": {"collection_times": [{"days": "Mon-Fri", "time": "4:30pm"}, {"days": "Sat", "time": "2:00pm"}, {"days": "Sun", "time": "Closed"}], "id": "0263300007", "name": "USPS COLLECTION BOX - BLUE BOX", "address": {"city": "CHATHAM", "state": "MA", "street": "802 MAIN ST", "postcode": "02633"}}},
{"geometry": {"type": "Point", "coordinates": [-69.9773880011, 41.6861732805]}, "type": "Feature", "properties": {"collection_times": [{"days": "Mon-Fri", "time": "4:30pm"}, {"days": "Sat", "time": "2:00pm"}, {"days": "Sun", "time": "Closed"}], "id": "0263300010", "name": "USPS COLLECTION BOX - PO LOBBY", "address": {"city": "CHATHAM", "state": "MA", "street": "802 MAIN ST", "postcode": "02633"}}},
{"geometry": {"type": "Point", "coordinates": [-69.9672054001, 41.6848596926]}, "type": "Feature", "properties": {"collection_times": [{"days": "Mon-Fri", "time": "3:45pm"}, {"days": "Sat", "time": "11:45am"}, {"days": "Sun", "time": "Closed"}], "id": "0263300013", "name": "USPS COLLECTION BOX - BLUE BOX", "address": {"city": "CHATHAM", "state": "MA", "street": "12 QUEEN ANNE RD", "postcode": "02633"}}},
{"geometry": {"type": "Point", "coordinates": [-69.9773880011, 41.6861732805]}, "type": "Feature", "properties": {"collection_times": [{"days": "Mon-Fri", "time": "4:30pm"}, {"days": "Sat", "time": "2:00pm"}, {"days": "Sun", "time": "Closed"}], "id": "0263300015", "name": "USPS COLLECTION BOX - PO LOBBY", "address": {"city": "CHATHAM", "state": "MA", "street": "802 MAIN ST", "postcode": "02633"}}},
{"geometry": {"type": "Point", "coordinates": [-70.436839546, 41.61752587]}, "type": "Feature", "properties": {"collection_times": [{"days": "Mon-Fri", "time": "4:00pm"}, {"days": "Sat", "time": "12:00pm"}, {"days": "Sun", "time": "Closed"}], "id": "0263500001", "name": "USPS COLLECTION BOX - BLUE BOX", "address": {"city": "COTUIT", "state": "MA", "street": "45 SCHOOL ST", "postcode": "02635"}}},
{"geometry": {"type": "Point", "coordinates": [-70.4391360806, 41.6262817247]}, "type": "Feature", "properties": {"collection_times": [{"days": "Mon-Fri", "time": "4:00pm"}, {"days": "Sat", "time": "12:00pm"}, {"days": "Sun", "time": "Closed"}], "id": "0263500004", "name": "USPS COLLECTION BOX - PO LOBBY", "address": {"city": "COTUIT", "state": "MA", "street": "45 SCHOOL ST", "postcode": "02635"}}},
{"geometry": {"type": "Point", "coordinates": [-70.4391360806, 41.6262817247]}, "type": "Feature", "properties": {"collection_times": [{"days": "Mon-Fri", "time": "4:00pm"}, {"days": "Sat", "time": "12:00pm"}, {"days": "Sun", "time": "Closed"}], "id": "0263500005", "name": "USPS COLLECTION BOX - PO LOBBY", "address": {"city": "COTUIT", "state": "MA", "street": "45 SCHOOL ST", "postcode": "02635"}}},
{"geometry": {"type": "Point", "coordinates": [-70.2716474594, 41.7023115746]}, "type": "Feature", "properties": {"collection_times": [{"days": "Mon-Fri", "time": "4:30pm"}, {"days": "Sat", "time": "11:30am"}, {"days": "Sun", "time": "Closed"}], "id": "0263700001", "name": "USPS COLLECTION BOX - BLUE BOX", "address": {"city": "CUMMAQUID", "state": "MA", "street": "4029 MAIN ST", "postcode": "02637"}}},
{"geometry": {"type": "Point", "coordinates": [-70.2716474594, 41.7023115746]}, "type": "Feature", "properties": {"collection_times": [{"days": "Mon-Fri", "time": "4:30pm"}, {"days": "Sat", "time": "12:00pm"}, {"days": "Sun", "time": "Closed"}], "id": "0263700004", "name": "USPS COLLECTION BOX - PO LOBBY", "address": {"city": "CUMMAQUID", "state": "MA", "street": "4029 MAIN ST", "postcode": "02637"}}},
{"geometry": {"type": "Point", "coordinates": [-70.1916607597, 41.7386868973]}, "type": "Feature", "properties": {"collection_times": [{"days": "Mon-Fri", "time": "4:15pm"}, {"days": "Sat", "time": "12:00pm"}, {"days": "Sun", "time": "Closed"}], "id": "0263800001", "name": "USPS COLLECTION BOX - BLUE BOX", "address": {"city": "DENNIS", "state": "MA", "street": "788 MAIN ST", "postcode": "02638"}}},
{"geometry": {"type": "Point", "coordinates": [-70.1946295861, 41.7346331268]}, "type": "Feature", "properties": {"collection_times": [{"days": "Mon-Fri", "time": "4:15pm"}, {"days": "Sat", "time": "12:00pm"}, {"days": "Sun", "time": "Closed"}], "id": "0263800004", "name": "USPS COLLECTION BOX - PO LOBBY", "address": {"city": "DENNIS", "state": "MA", "street": "788 MAIN ST", "postcode": "02638"}}},
{"geometry": {"type": "Point", "coordinates": [-70.1916607597, 41.7386868973]}, "type": "Feature", "properties": {"collection_times": [{"days": "Mon-Fri", "time": "4:15pm"}, {"days": "Sat", "time": "12:00pm"}, {"days": "Sun", "time": "Closed"}], "id": "0263800007", "name": "USPS COLLECTION BOX - BLUE BOX", "address": {"city": "DENNIS", "state": "MA", "street": "788 MAIN ST", "postcode": "02638"}}},
{"geometry": {"type": "Point", "coordinates": [-70.1335779138, 41.6642614177]}, "type": "Feature", "properties": {"collection_times": [{"days": "Mon-Fri", "time": "4:00pm"}, {"days": "Sat", "time": "1:30pm"}, {"days": "Sun", "time": "Closed"}], "id": "0263900005", "name": "USPS COLLECTION BOX - PO LOBBY", "address": {"city": "DENNISPORT", "state": "MA", "street": "3 MILL ST", "postcode": "02639"}}},
{"geometry": {"type": "Point", "coordinates": [-70.1335779138, 41.6642614177]}, "type": "Feature", "properties": {"collection_times": [{"days": "Mon-Fri", "time": "4:00pm"}, {"days": "Sat", "time": "1:30pm"}, {"days": "Sun", "time": "Closed"}], "id": "0263900006", "name": "USPS COLLECTION BOX - PO LOBBY", "address": {"city": "DENNISPORT", "state": "MA", "street": "3 MILL ST", "postcode": "02639"}}},
{"geometry": {"type": "Point", "coordinates": [-70.129357147, 41.6657006505]}, "type": "Feature", "properties": {"collection_times": [{"days": "Mon-Fri", "time": "4:00pm"}, {"days": "Sat", "time": "1:30pm"}, {"days": "Sun", "time": "Closed"}], "id": "0263900010", "name": "USPS COLLECTION BOX - BLUE BOX", "address": {"city": "DENNISPORT", "state": "MA", "street": "3 MILL ST", "postcode": "02639"}}},
{"geometry": {"type": "Point", "coordinates": [-70.1611078683, 41.7506532085]}, "type": "Feature", "properties": {"collection_times": [{"days": "Mon-Fri", "time": "4:15pm"}, {"days": "Sat", "time": "11:45am"}, {"days": "Sun", "time": "Closed"}], "id": "0264100001", "name": "USPS COLLECTION BOX - BLUE BOX", "address": {"city": "EAST DENNIS", "state": "MA", "street": "1600 MAIN ST", "postcode": "02641"}}},
{"geometry": {"type": "Point", "coordinates": [-70.1611078683, 41.7506532085]}, "type": "Feature", "properties": {"collection_times": [{"days": "Mon-Fri", "time": "4:15pm"}, {"days": "Sat", "time": "11:45am"}, {"days": "Sun", "time": "Closed"}], "id": "0264100006", "name": "USPS COLLECTION BOX - PO LOBBY", "address": {"city": "EAST DENNIS", "state": "MA", "street": "1600 MAIN ST", "postcode": "02641"}}},
{"geometry": {"type": "Point", "coordinates": [-69.987316339, 41.8426326298]}, "type": "Feature", "properties": {"collection_times": [{"days": "Mon-Fri", "time": "5:00pm"}, {"days": "Sat", "time": "12:00pm"}, {"days": "Sun", "time": "Closed"}], "id": "0264200001", "name": "USPS COLLECTION BOX - BLUE BOX", "address": {"city": "EASTHAM", "state": "MA", "street": "2365 STATE HWY", "postcode": "02642"}}},
{"geometry": {"type": "Point", "coordinates": [-69.987316339, 41.8426326298]}, "type": "Feature", "properties": {"collection_times": [{"days": "Mon-Fri", "time": "5:00pm"}, {"days": "Sat", "time": "12:00pm"}, {"days": "Sun", "time": "Closed"}], "id": "0264200002", "name": "USPS COLLECTION BOX - BLUE BOX", "address": {"city": "EASTHAM", "state": "MA", "street": "2365 STATE HWY", "postcode": "02642"}}},
{"geometry": {"type": "Point", "coordinates": [-69.987316339, 41.8426326298]}, "type": "Feature", "properties": {"collection_times": [{"days": "Mon-Fri", "time": "5:00pm"}, {"days": "Sat", "time": "12:00pm"}, {"days": "Sun", "time": "Closed"}], "id": "0264200003", "name": "USPS COLLECTION BOX - EXPRESS", "address": {"city": "EASTHAM", "state": "MA", "street": "2365 STATE HWY", "postcode": "02642"}}},
{"geometry": {"type": "Point", "coordinates": [-69.987316339, 41.8426326298]}, "type": "Feature", "properties": {"collection_times": [{"days": "Mon-Fri", "time": "5:00pm"}, {"days": "Sat", "time": "12:00pm"}, {"days": "Sun", "time": "Closed"}], "id": "0264200004", "name": "USPS COLLECTION BOX - PO LOBBY", "address": {"city": "EASTHAM", "state": "MA", "street": "2365 STATE HWY", "postcode": "02642"}}},
{"geometry": {"type": "Point", "coordinates": [-69.9662744622, 41.7848460218]}, "type": "Feature", "properties": {"collection_times": [{"days": "Mon-Fri", "time": "4:45pm"}, {"days": "Sat", "time": "11:45am"}, {"days": "Sun", "time": "Closed"}], "id": "0264300002", "name": "USPS COLLECTION BOX - BLUE BOX", "address": {"city": "EAST ORLEANS", "state": "MA", "street": "210 MAIN ST", "postcode": "02643"}}},
{"geometry": {"type": "Point", "coordinates": [-69.9707966278, 41.7849004954]}, "type": "Feature", "properties": {"collection_times": [{"days": "Mon-Fri", "time": "4:45pm"}, {"days": "Sat", "time": "11:45am"}, {"days": "Sun", "time": "Closed"}], "id": "0264300003", "name": "USPS COLLECTION BOX - PO LOBBY", "address": {"city": "EAST ORLEANS", "state": "MA", "street": "210 MAIN ST", "postcode": "02643"}}},
{"geometry": {"type": "Point", "coordinates": [-69.9707966278, 41.7849004954]}, "type": "Feature", "properties": {"collection_times": [{"days": "Mon-Fri", "time": "4:45pm"}, {"days": "Sat", "time": "11:45am"}, {"days": "Sun", "time": "Closed"}], "id": "0264300004", "name": "USPS COLLECTION BOX - PO LOBBY", "address": {"city": "EAST ORLEANS", "state": "MA", "street": "210 MAIN ST", "postcode": "02643"}}},
{"geometry": {"type": "Point", "coordinates": [-70.5070112326, 41.685314579]}, "type": "Feature", "properties": {"collection_times": [{"days": "Mon-Fri", "time": "12:00pm"}, {"days": "Sat-Sun", "time": "Closed"}], "id": "0264400001", "name": "USPS COLLECTION BOX - BLUE BOX", "address": {"city": "FORESTDALE", "state": "MA", "street": "110 ROUTE 130", "postcode": "02644"}}},
{"geometry": {"type": "Point", "coordinates": [-70.5092493871, 41.6753025935]}, "type": "Feature", "properties": {"collection_times": [{"days": "Mon-Fri", "time": "5:00pm"}, {"days": "Sat", "time": "12:00pm"}, {"days": "Sun", "time": "Closed"}], "id": "0264400004", "name": "USPS COLLECTION BOX - PO LOBBY", "address": {"city": "FORESTDALE", "state": "MA", "street": "290 ROUTE 130", "postcode": "02644"}}},
{"geometry": {"type": "Point", "coordinates": [-70.5092493871, 41.6753025935]}, "type": "Feature", "properties": {"collection_times": [{"days": "Mon-Fri", "time": "5:00pm"}, {"days": "Sat", "time": "12:00pm"}, {"days": "Sun", "time": "Closed"}], "id": "0264400005", "name": "USPS COLLECTION BOX - PO LOBBY", "address": {"city": "FORESTDALE", "state": "MA", "street": "290 ROUTE 130", "postcode": "02644"}}},
{"geometry": {"type": "Point", "coordinates": [-70.5092493871, 41.6753025935]}, "type": "Feature", "properties": {"collection_times": [{"days": "Mon-Fri", "time": "5:00pm"}, {"days": "Sat", "time": "12:00pm"}, {"days": "Sun", "time": "Closed"}], "id": "0264400006", "name": "USPS COLLECTION BOX - PO LOBBY", "address": {"city": "FORESTDALE", "state": "MA", "street": "290 ROUTE 130", "postcode": "02644"}}},
{"geometry": {"type": "Point", "coordinates": [-70.5092493871, 41.6753025935]}, "type": "Feature", "properties": {"collection_times": [{"days": "Mon-Fri", "time": "5:00pm"}, {"days": "Sat", "time": "12:00pm"}, {"days": "Sun", "time": "Closed"}], "id": "0264400007", "name": "USPS COLLECTION BOX - BLUE BOX", "address": {"city": "FORESTDALE", "state": "MA", "street": "290 ROUTE 130", "postcode": "02644"}}},
{"geometry": {"type": "Point", "coordinates": [-70.5092493871, 41.6753025935]}, "type": "Feature", "properties": {"collection_times": [{"days": "Mon-Fri", "time": "5:00pm"}, {"days": "Sat", "time": "12:00pm"}, {"days": "Sun", "time": "Closed"}], "id": "0264400009", "name": "USPS COLLECTION BOX - EXPRESS", "address": {"city": "FORESTDALE", "state": "MA", "street": "290 ROUTE 130", "postcode": "02644"}}},
{"geometry": {"type": "Point", "coordinates": [-70.5092493871, 41.6753025935]}, "type": "Feature", "properties": {"collection_times": [{"days": "Mon-Fri", "time": "5:00pm"}, {"days": "Sat", "time": "12:00pm"}, {"days": "Sun", "time": "Closed"}], "id": "0264400010", "name": "USPS COLLECTION BOX - BLUE BOX", "address": {"city": "FORESTDALE", "state": "MA", "street": "290 ROUTE 130", "postcode": "02644"}}},
{"geometry": {"type": "Point", "coordinates": [-70.0674083722, 41.6869227634]}, "type": "Feature", "properties": {"collection_times": [{"days": "Mon-Sat", "time": "11:00am"}, {"days": "Sun", "time": "Closed"}], "id": "0264500001", "name": "USPS COLLECTION BOX - BLUE BOX", "address": {"city": "HARWICH", "state": "MA", "street": "706 MAIN ST", "postcode": "02645"}}},
{"geometry": {"type": "Point", "coordinates": [-70.0559891506, 41.7008507091]}, "type": "Feature", "properties": {"collection_times": [{"days": "Mon-Fri", "time": "4:00pm"}, {"days": "Sat", "time": "12:00pm"}, {"days": "Sun", "time": "Closed"}], "id": "0264500002", "name": "USPS COLLECTION BOX - EXPRESS", "address": {"city": "HARWICH", "state": "MA", "street": "1484 ORLEANS RD", "postcode": "02645"}}},
{"geometry": {"type": "Point", "coordinates": [-70.0734173139, 41.6862736237]}, "type": "Feature", "properties": {"collection_times": [{"days": "Mon-Fri", "time": "5:00pm"}, {"days": "Sat", "time": "12:00pm"}, {"days": "Sun", "time": "Closed"}], "id": "0264500003", "name": "USPS COLLECTION BOX - PO LOBBY", "address": {"city": "HARWICH", "state": "MA", "street": "1484 ROUTE 39", "postcode": "02645"}}},
{"geometry": {"type": "Point", "coordinates": [-70.0734173139, 41.6862736237]}, "type": "Feature", "properties": {"collection_times": [{"days": "Mon-Fri", "time": "5:00pm"}, {"days": "Sat", "time": "12:00pm"}, {"days": "Sun", "time": "Closed"}], "id": "0264500004", "name": "USPS COLLECTION BOX - PO LOBBY", "address": {"city": "HARWICH", "state": "MA", "street": "1484 ROUTE 39", "postcode": "02645"}}},
{"geometry": {"type": "Point", "coordinates": [-70.0816991597, 41.7123280441]}, "type": "Feature", "properties": {"collection_times": [{"days": "Mon-Sat", "time": "9:00am"}, {"days": "Sun", "time": "Closed"}], "id": "0264500005", "name": "USPS COLLECTION BOX - BLUE BOX", "address": {"city": "HARWICH", "state": "MA", "street": "402 PLEASANT LAKE AVE", "postcode": "02645"}}},
{"geometry": {"type": "Point", "coordinates": [-70.0734173139, 41.6862736237]}, "type": "Feature", "properties": {"collection_times": [{"days": "Mon-Sat", "time": "10:00am"}, {"days": "Sun", "time": "Closed"}], "id": "0264500009", "name": "USPS COLLECTION BOX - BLUE BOX", "address": {"city": "HARWICH", "state": "MA", "street": "1421 ROUTE 39", "postcode": "02645"}}},
{"geometry": {"type": "Point", "coordinates": [-70.0734173139, 41.6862736237]}, "type": "Feature", "properties": {"collection_times": [{"days": "Mon-Fri", "time": "5:00pm"}, {"days": "Sat", "time": "12:00pm"}, {"days": "Sun", "time": "Closed"}], "id": "0264500011", "name": "USPS COLLECTION BOX - BLUE BOX", "address": {"city": "HARWICH", "state": "MA", "street": "1484 ROUTE 39", "postcode": "02645"}}},
{"geometry": {"type": "Point", "coordinates": [-70.0796938936, 41.6679178075]}, "type": "Feature", "properties": {"collection_times": [{"days": "Mon-Fri", "time": "5:15pm"}, {"days": "Sat", "time": "2:30pm"}, {"days": "Sun", "time": "Closed"}], "id": "0264600011", "name": "USPS COLLECTION BOX - BLUE BOX", "address": {"city": "HARWICHPORT", "state": "MA", "street": "10 POST OFFICE SQ", "postcode": "02646"}}},
{"geometry": {"type": "Point", "coordinates": [-70.0755199504, 41.6699534206]}, "type": "Feature", "properties": {"collection_times": [{"days": "Mon-Fri", "time": "2:30pm"}, {"days": "Sat", "time": "2:15pm"}, {"days": "Sun", "time": "Closed"}], "id": "0264600013", "name": "USPS COLLECTION BOX - BLUE BOX", "address": {"city": "HARWICHPORT", "state": "MA", "street": "6 POST OFFICE SQ", "postcode": "02646"}}},
{"geometry": {"type": "Point", "coordinates": [-70.0916978781, 41.6724131696]}, "type": "Feature", "properties": {"collection_times": [{"days": "Mon-Sat", "time": "10:30am"}, {"days": "Sun", "time": "Closed"}], "id": "0264600015", "name": "USPS COLLECTION BOX - BLUE BOX", "address": {"city": "HARWICHPORT", "state": "MA", "street": "8 SISSON RD", "postcode": "02646"}}},
{"geometry": {"type": "Point", "coordinates": [-70.0755199503, 41.669962065]}, "type": "Feature", "properties": {"collection_times": [{"days": "Mon-Fri", "time": "5:15pm"}, {"days": "Sat", "time": "2:30pm"}, {"days": "Sun", "time": "Closed"}], "id": "0264600016", "name": "USPS COLLECTION BOX - PO LOBBY", "address": {"city": "HARWICHPORT", "state": "MA", "street": "10 POST OFFICE SQ", "postcode": "02646"}}},
{"geometry": {"type": "Point", "coordinates": [-70.0755199503, 41.669962065]}, "type": "Feature", "properties": {"collection_times": [{"days": "Mon-Fri", "time": "5:15pm"}, {"days": "Sat", "time": "2:30pm"}, {"days": "Sun", "time": "Closed"}], "id": "0264600017", "name": "USPS COLLECTION BOX - PO LOBBY", "address": {"city": "HARWICHPORT", "state": "MA", "street": "10 POST OFFICE SQ", "postcode": "02646"}}},
{"geometry": {"type": "Point", "coordinates": [-70.0755199503, 41.669962065]}, "type": "Feature", "properties": {"collection_times": [{"days": "Mon-Fri", "time": "5:15pm"}, {"days": "Sat", "time": "2:30pm"}, {"days": "Sun", "time": "Closed"}], "id": "0264600018", "name": "USPS COLLECTION BOX - PO LOBBY", "address": {"city": "HARWICHPORT", "state": "MA", "street": "10 POST OFFICE SQ", "postcode": "02646"}}},
{"geometry": {"type": "Point", "coordinates": [-70.3030289258, 41.6323460625]}, "type": "Feature", "properties": {"collection_times": [{"days": "Mon-Fri", "time": "4:30pm"}, {"days": "Sat", "time": "12:00pm"}, {"days": "Sun", "time": "Closed"}], "id": "0264700002", "name": "USPS COLLECTION BOX - BLUE BOX", "address": {"city": "HYANNISPORT", "state": "MA", "street": "44 LONGWOOD AVE", "postcode": "02647"}}},
{"geometry": {"type": "Point", "coordinates": [-70.3030289258, 41.6323460625]}, "type": "Feature", "properties": {"collection_times": [{"days": "Mon-Fri", "time": "4:30pm"}, {"days": "Sat", "time": "12:00pm"}, {"days": "Sun", "time": "Closed"}], "id": "0264700003", "name": "USPS COLLECTION BOX - BLUE BOX", "address": {"city": "HYANNISPORT", "state": "MA", "street": "44 LONGWOOD AVE", "postcode": "02647"}}},
{"geometry": {"type": "Point", "coordinates": [-70.3028462931, 41.6320040969]}, "type": "Feature", "properties": {"collection_times": [{"days": "Mon-Fri", "time": "4:45pm"}, {"days": "Sat", "time": "12:00pm"}, {"days": "Sun", "time": "Closed"}], "id": "0264700004", "name": "USPS COLLECTION BOX - PO LOBBY", "address": {"city": "HYANNISPORT", "state": "MA", "street": "44 LONGWOOD AVE", "postcode": "02647"}}},
{"geometry": {"type": "Point", "coordinates": [-70.4142772195, 41.6509084068]}, "type": "Feature", "properties": {"collection_times": [{"days": "Mon-Sat", "time": "10:00am"}, {"days": "Sun", "time": "Closed"}], "id": "0264800002", "name": "USPS COLLECTION BOX - BLUE BOX", "address": {"city": "MARSTONS MILLS", "state": "MA", "street": "3821 FALMOUTH RD", "postcode": "02648"}}},
{"geometry": {"type": "Point", "coordinates": [-70.4163159109, 41.6502554302]}, "type": "Feature", "properties": {"collection_times": [{"days": "Mon-Sat", "time": "10:00am"}, {"days": "Sun", "time": "Closed"}], "id": "0264800003", "name": "USPS COLLECTION BOX - BLUE BOX", "address": {"city": "MARSTONS MILLS", "state": "MA", "street": "3858 FALMOUTH RD", "postcode": "02648"}}},
{"geometry": {"type": "Point", "coordinates": [-70.4133094663, 41.6542049339]}, "type": "Feature", "properties": {"collection_times": [{"days": "Mon-Fri", "time": "4:45pm"}, {"days": "Sat", "time": "1:00pm"}, {"days": "Sun", "time": "Closed"}], "id": "0264800004", "name": "USPS COLLECTION BOX - BLUE BOX", "address": {"city": "MARSTONS MILLS", "state": "MA", "street": "40 RIVER RD", "postcode": "02648"}}},
{"geometry": {"type": "Point", "coordinates": [-70.4133094663, 41.6542049339]}, "type": "Feature", "properties": {"collection_times": [{"days": "Mon-Fri", "time": "4:45pm"}, {"days": "Sat", "time": "1:00pm"}, {"days": "Sun", "time": "Closed"}], "id": "0264800005", "name": "USPS COLLECTION BOX - BLUE BOX", "address": {"city": "MARSTONS MILLS", "state": "MA", "street": "40 RIVER RD", "postcode": "02648"}}},
{"geometry": {"type": "Point", "coordinates": [-70.4156556709, 41.6663513654]}, "type": "Feature", "properties": {"collection_times": [{"days": "Mon-Fri", "time": "4:45pm"}, {"days": "Sat", "time": "1:00pm"}, {"days": "Sun", "time": "Closed"}], "id": "0264800007", "name": "USPS COLLECTION BOX - PO LOBBY", "address": {"city": "MARSTONS MILLS", "state": "MA", "street": "40 RIVER RD", "postcode": "02648"}}},
{"geometry": {"type": "Point", "coordinates": [-70.4156556709, 41.6663513654]}, "type": "Feature", "properties": {"collection_times": [{"days": "Mon-Fri", "time": "4:45pm"}, {"days": "Sat", "time": "1:00pm"}, {"days": "Sun", "time": "Closed"}], "id": "0264800008", "name": "USPS COLLECTION BOX - PO LOBBY", "address": {"city": "MARSTONS MILLS", "state": "MA", "street": "40 RIVER RD", "postcode": "02648"}}},
{"geometry": {"type": "Point", "coordinates": [-70.485436459, 41.6132033046]}, "type": "Feature", "properties": {"collection_times": [{"days": "Mon-Fri", "time": "10:00am"}, {"days": "Sat", "time": "9:30am"}, {"days": "Sun", "time": "Closed"}], "id": "0264900001", "name": "USPS COLLECTION BOX - BLUE BOX", "address": {"city": "MASHPEE", "state": "MA", "street": "681 FALMOUTH RD", "postcode": "02649"}}},
{"geometry": {"type": "Point", "coordinates": [-70.4908089639, 41.6171264875]}, "type": "Feature", "properties": {"collection_times": [{"days": "Mon-Fri", "time": "5:00pm"}, {"days": "Sat", "time": "1:30pm"}, {"days": "Sun", "time": "Closed"}], "id": "0264900006", "name": "USPS COLLECTION BOX - BLUE BOX", "address": {"city": "MASHPEE", "state": "MA", "street": "11 MARKET ST", "postcode": "02649"}}},
{"geometry": {"type": "Point", "coordinates": [-70.4908089639, 41.6171264875]}, "type": "Feature", "properties": {"collection_times": [{"days": "Mon-Fri", "time": "5:00pm"}, {"days": "Sat", "time": "1:30pm"}, {"days": "Sun", "time": "Closed"}], "id": "0264900007", "name": "USPS COLLECTION BOX - BLUE BOX", "address": {"city": "MASHPEE", "state": "MA", "street": "11 MARKET ST", "postcode": "02649"}}},
{"geometry": {"type": "Point", "coordinates": [-70.4854494942, 41.6132032581]}, "type": "Feature", "properties": {"collection_times": [{"days": "Mon-Fri", "time": "5:00pm"}, {"days": "Sat", "time": "1:30pm"}, {"days": "Sun", "time": "Closed"}], "id": "0264900009", "name": "USPS COLLECTION BOX - PO LOBBY", "address": {"city": "MASHPEE", "state": "MA", "street": "11 MARKET ST", "postcode": "02649"}}},
{"geometry": {"type": "Point", "coordinates": [-70.5041052191, 41.6227610201]}, "type": "Feature", "properties": {"collection_times": [{"days": "Mon-Sat", "time": "10:00am"}, {"days": "Sun", "time": "Closed"}], "id": "0264900013", "name": "USPS COLLECTION BOX - BLUE BOX", "address": {"city": "MASHPEE", "state": "MA", "street": "12 WAMPANOAG DR", "postcode": "02649"}}},
{"geometry": {"type": "Point", "coordinates": [-70.4909087132, 41.6182228697]}, "type": "Feature", "properties": {"collection_times": [{"days": "Mon-Sat", "time": "9:30am"}, {"days": "Sun", "time": "Closed"}], "id": "0264900015", "name": "USPS COLLECTION BOX - BLUE BOX", "address": {"city": "MASHPEE", "state": "MA", "street": "39 NATHAN ELLIS HWY", "postcode": "02649"}}},
{"geometry": {"type": "Point", "coordinates": [-70.4909087132, 41.6182228697]}, "type": "Feature", "properties": {"collection_times": [{"days": "Mon-Sat", "time": "10:00am"}, {"days": "Sun", "time": "Closed"}], "id": "0264900018", "name": "USPS COLLECTION BOX - BLUE BOX", "address": {"city": "MASHPEE", "state": "MA", "street": "16 GREAT NECK RD N", "postcode": "02649"}}},
{"geometry": {"type": "Point", "coordinates": [-70.4911753792, 41.6165332669]}, "type": "Feature", "properties": {"collection_times": [{"days": "Mon-Sat", "time": "9:30am"}, {"days": "Sun", "time": "Closed"}], "id": "0264900020", "name": "USPS COLLECTION BOX - BLUE BOX", "address": {"city": "MASHPEE", "state": "MA", "street": "25 STEEPLE ST", "postcode": "02649"}}},
{"geometry": {"type": "Point", "coordinates": [-69.9601904661, 41.6966634184]}, "type": "Feature", "properties": {"collection_times": [{"days": "Mon-Fri", "time": "4:15pm"}, {"days": "Sat", "time": "11:45am"}, {"days": "Sun", "time": "Closed"}], "id": "0265000001", "name": "USPS COLLECTION BOX - BLUE BOX", "address": {"city": "NORTH CHATHAM", "state": "MA", "street": "200 ORLEANS RD", "postcode": "02650"}}},
{"geometry": {"type": "Point", "coordinates": [-69.9657260063, 41.7021411757]}, "type": "Feature", "properties": {"collection_times": [{"days": "Mon-Fri", "time": "4:30pm"}, {"days": "Sat", "time": "12:00pm"}, {"days": "Sun", "time": "Closed"}], "id": "0265000006", "name": "USPS COLLECTION BOX - PO LOBBY", "address": {"city": "NORTH CHATHAM", "state": "MA", "street": "200 ORLEANS RD", "postcode": "02650"}}},
{"geometry": {"type": "Point", "coordinates": [-69.9834204957, 41.8551848254]}, "type": "Feature", "properties": {"collection_times": [{"days": "Mon-Fri", "time": "5:00pm"}, {"days": "Sat", "time": "12:00pm"}, {"days": "Sun", "time": "Closed"}], "id": "0265100001", "name": "USPS COLLECTION BOX - BLUE BOX", "address": {"city": "NORTH EASTHAM", "state": "MA", "street": "50 BRACKETT RD", "postcode": "02651"}}},
{"geometry": {"type": "Point", "coordinates": [-69.9915961691, 41.8650006718]}, "type": "Feature", "properties": {"collection_times": [{"days": "Mon-Fri", "time": "5:00pm"}, {"days": "Sat", "time": "12:00pm"}, {"days": "Sun", "time": "Closed"}], "id": "0265100004", "name": "USPS COLLECTION BOX - PO LOBBY", "address": {"city": "NORTH EASTHAM", "state": "MA", "street": "50 BRACKETT RD", "postcode": "02651"}}},
{"geometry": {"type": "Point", "coordinates": [-69.9915961691, 41.8650006718]}, "type": "Feature", "properties": {"collection_times": [{"days": "Mon-Fri", "time": "5:00pm"}, {"days": "Sat", "time": "12:00pm"}, {"days": "Sun", "time": "Closed"}], "id": "0265100005", "name": "USPS COLLECTION BOX - PO LOBBY", "address": {"city": "NORTH EASTHAM", "state": "MA", "street": "50 BRACKETT RD", "postcode": "02651"}}},
{"geometry": {"type": "Point", "coordinates": [-69.9915961691, 41.8650006718]}, "type": "Feature", "properties": {"collection_times": [{"days": "Mon-Fri", "time": "5:00pm"}, {"days": "Sat", "time": "12:00pm"}, {"days": "Sun", "time": "Closed"}], "id": "0265100006", "name": "USPS COLLECTION BOX - PO LOBBY", "address": {"city": "NORTH EASTHAM", "state": "MA", "street": "50 BRACKETT RD", "postcode": "02651"}}},
{"geometry": {"type": "Point", "coordinates": [-70.0845182704, 42.0341261224]}, "type": "Feature", "properties": {"collection_times": [{"days": "Mon-Fri", "time": "4:45pm"}, {"days": "Sat", "time": "11:30am"}, {"days": "Sun", "time": "Closed"}], "id": "0265200001", "name": "USPS COLLECTION BOX - BLUE BOX", "address": {"city": "NORTH TRURO", "state": "MA", "street": "1 HIGHLAND RD UNIT 0", "postcode": "02652"}}},
{"geometry": {"type": "Point", "coordinates": [-70.0822677439, 42.0329220994]}, "type": "Feature", "properties": {"collection_times": [{"days": "Mon-Fri", "time": "4:45pm"}, {"days": "Sat", "time": "11:30am"}, {"days": "Sun", "time": "Closed"}], "id": "0265200004", "name": "USPS COLLECTION BOX - PO LOBBY", "address": {"city": "NORTH TRURO", "state": "MA", "street": "1 HIGHLAND RD UNIT 0", "postcode": "02652"}}},
{"geometry": {"type": "Point", "coordinates": [-70.0822677439, 42.0329220994]}, "type": "Feature", "properties": {"collection_times": [{"days": "Mon-Fri", "time": "4:45pm"}, {"days": "Sat", "time": "11:30am"}, {"days": "Sun", "time": "Closed"}], "id": "0265200005", "name": "USPS COLLECTION BOX - PO LOBBY", "address": {"city": "NORTH TRURO", "state": "MA", "street": "1 HIGHLAND RD UNIT 0", "postcode": "02652"}}},
{"geometry": {"type": "Point", "coordinates": [-69.9783960418, 41.780442566]}, "type": "Feature", "properties": {"collection_times": [{"days": "Mon-Fri", "time": "4:30pm"}, {"days": "Sat", "time": "12:00pm"}, {"days": "Sun", "time": "Closed"}], "id": "0265300001", "name": "USPS COLLECTION BOX - BLUE BOX", "address": {"city": "ORLEANS", "state": "MA", "street": "56 MAIN ST", "postcode": "02653"}}},
{"geometry": {"type": "Point", "coordinates": [-69.9783960418, 41.780442566]}, "type": "Feature", "properties": {"collection_times": [{"days": "Mon-Fri", "time": "4:30pm"}, {"days": "Sat", "time": "12:00pm"}, {"days": "Sun", "time": "Closed"}], "id": "0265300004", "name": "USPS COLLECTION BOX - BLUE BOX", "address": {"city": "ORLEANS", "state": "MA", "street": "56 MAIN ST", "postcode": "02653"}}},
{"geometry": {"type": "Point", "coordinates": [-69.9783960418, 41.780442566]}, "type": "Feature", "properties": {"collection_times": [{"days": "Mon-Fri", "time": "4:30pm"}, {"days": "Sat", "time": "12:00pm"}, {"days": "Sun", "time": "Closed"}], "id": "0265300005", "name": "USPS COLLECTION BOX - BLUE BOX", "address": {"city": "ORLEANS", "state": "MA", "street": "56 MAIN ST", "postcode": "02653"}}},
{"geometry": {"type": "Point", "coordinates": [-69.9783960418, 41.780442566]}, "type": "Feature", "properties": {"collection_times": [{"days": "Mon-Fri", "time": "4:00pm"}, {"days": "Sat", "time": "12:00pm"}, {"days": "Sun", "time": "Closed"}], "id": "0265300006", "name": "USPS COLLECTION BOX - EXPRESS", "address": {"city": "ORLEANS", "state": "MA", "street": "56 MAIN ST", "postcode": "02653"}}},
{"geometry": {"type": "Point", "coordinates": [-69.9783960418, 41.780442566]}, "type": "Feature", "properties": {"collection_times": [{"days": "Mon-Fri", "time": "5:00pm"}, {"days": "Sat", "time": "1:30pm"}, {"days": "Sun", "time": "Closed"}], "id": "0265300008", "name": "USPS COLLECTION BOX - PO LOBBY", "address": {"city": "ORLEANS", "state": "MA", "street": "56 MAIN ST", "postcode": "02653"}}},
{"geometry": {"type": "Point", "coordinates": [-69.9783960418, 41.780442566]}, "type": "Feature", "properties": {"collection_times": [{"days": "Mon-Sat", "time": "9:00am"}, {"days": "Sun", "time": "Closed"}], "id": "0265300009", "name": "USPS COLLECTION BOX - BLUE BOX", "address": {"city": "ORLEANS", "state": "MA", "street": "9 MAIN ST", "postcode": "02653"}}},
{"geometry": {"type": "Point", "coordinates": [-69.9899583358, 41.7864806708]}, "type": "Feature", "properties": {"collection_times": [{"days": "Mon-Sat", "time": "9:30am"}, {"days": "Sun", "time": "Closed"}], "id": "0265300012", "name": "USPS COLLECTION BOX - BLUE BOX", "address": {"city": "ORLEANS", "state": "MA", "street": "9 WEST RD", "postcode": "02653"}}},
{"geometry": {"type": "Point", "coordinates": [-69.9783960418, 41.780442566]}, "type": "Feature", "properties": {"collection_times": [{"days": "Mon-Fri", "time": "4:30pm"}, {"days": "Sat", "time": "12:00pm"}, {"days": "Sun", "time": "Closed"}], "id": "0265300014", "name": "USPS COLLECTION BOX - BLUE BOX", "address": {"city": "ORLEANS", "state": "MA", "street": "56 MAIN ST", "postcode": "02653"}}},
{"geometry": {"type": "Point", "coordinates": [-69.9783960418, 41.780442566]}, "type": "Feature", "properties": {"collection_times": [{"days": "Mon-Fri", "time": "5:00pm"}, {"days": "Sat", "time": "1:30pm"}, {"days": "Sun", "time": "Closed"}], "id": "0265300016", "name": "USPS COLLECTION BOX - PO LOBBY", "address": {"city": "ORLEANS", "state": "MA", "street": "56 MAIN ST", "postcode": "02653"}}},
{"geometry": {"type": "Point", "coordinates": [-69.9783960418, 41.780442566]}, "type": "Feature", "properties": {"collection_times": [{"days": "Mon-Fri", "time": "5:00pm"}, {"days": "Sat", "time": "1:30pm"}, {"days": "Sun", "time": "Closed"}], "id": "0265300017", "name": "USPS COLLECTION BOX - PO LOBBY", "address": {"city": "ORLEANS", "state": "MA", "street": "56 MAIN ST", "postcode": "02653"}}},
{"geometry": {"type": "Point", "coordinates": [-69.9783960418, 41.780442566]}, "type": "Feature", "properties": {"collection_times": [{"days": "Mon-Fri", "time": "5:00pm"}, {"days": "Sat", "time": "1:30pm"}, {"days": "Sun", "time": "Closed"}], "id": "0265300018", "name": "USPS COLLECTION BOX - PO LOBBY", "address": {"city": "ORLEANS", "state": "MA", "street": "56 MAIN ST", "postcode": "02653"}}},
{"geometry": {"type": "Point", "coordinates": [-70.384339663, 41.6281535967]}, "type": "Feature", "properties": {"collection_times": [{"days": "Mon-Fri", "time": "5:00pm"}, {"days": "Sat", "time": "3:15pm"}, {"days": "Sun", "time": "Closed"}], "id": "0265500002", "name": "USPS COLLECTION BOX - BLUE BOX", "address": {"city": "OSTERVILLE", "state": "MA", "street": "770 MAIN ST", "postcode": "02655"}}},
{"geometry": {"type": "Point", "coordinates": [-70.3580056152, 41.6352121216]}, "type": "Feature", "properties": {"collection_times": [{"days": "Mon-Fri", "time": "5:00pm"}, {"days": "Sat", "time": "3:15pm"}, {"days": "Sun", "time": "Closed"}], "id": "0265500003", "name": "USPS COLLECTION BOX - BLUE BOX", "address": {"city": "OSTERVILLE", "state": "MA", "street": "846 MAIN ST", "postcode": "02655"}}},
{"geometry": {"type": "Point", "coordinates": [-70.3840978957, 41.6334119244]}, "type": "Feature", "properties": {"collection_times": [{"days": "Mon-Fri", "time": "5:00pm"}, {"days": "Sat", "time": "3:15pm"}, {"days": "Sun", "time": "Closed"}], "id": "0265500004", "name": "USPS COLLECTION BOX - BLUE BOX", "address": {"city": "OSTERVILLE", "state": "MA", "street": "867 MAIN ST", "postcode": "02655"}}},
{"geometry": {"type": "Point", "coordinates": [-70.3857003279, 41.6281444756]}, "type": "Feature", "properties": {"collection_times": [{"days": "Mon-Fri", "time": "5:00pm"}, {"days": "Sat", "time": "3:15pm"}, {"days": "Sun", "time": "Closed"}], "id": "0265500008", "name": "USPS COLLECTION BOX - BLUE BOX", "address": {"city": "OSTERVILLE", "state": "MA", "street": "1 WIANNO AVE", "postcode": "02655"}}},
{"geometry": {"type": "Point", "coordinates": [-70.3841269092, 41.6271248894]}, "type": "Feature", "properties": {"collection_times": [{"days": "Mon-Fri", "time": "5:00pm"}, {"days": "Sat", "time": "3:30pm"}, {"days": "Sun", "time": "Closed"}], "id": "0265500009", "name": "USPS COLLECTION BOX - BLUE BOX", "address": {"city": "OSTERVILLE", "state": "MA", "street": "42 WIANNO AVE", "postcode": "02655"}}},
{"geometry": {"type": "Point", "coordinates": [-70.3841269092, 41.6271248894]}, "type": "Feature", "properties": {"collection_times": [{"days": "Mon-Fri", "time": "5:00pm"}, {"days": "Sat", "time": "3:30pm"}, {"days": "Sun", "time": "Closed"}], "id": "0265500010", "name": "USPS COLLECTION BOX - BLUE BOX", "address": {"city": "OSTERVILLE", "state": "MA", "street": "42 WIANNO AVE", "postcode": "02655"}}},
{"geometry": {"type": "Point", "coordinates": [-70.3840978959, 41.6334205687]}, "type": "Feature", "properties": {"collection_times": [{"days": "Mon-Fri", "time": "5:00pm"}, {"days": "Sat", "time": "3:30pm"}, {"days": "Sun", "time": "Closed"}], "id": "0265500011", "name": "USPS COLLECTION BOX - EXPRESS", "address": {"city": "OSTERVILLE", "state": "MA", "street": "42 WIANNO AVE", "postcode": "02655"}}},
{"geometry": {"type": "Point", "coordinates": [-70.3840978959, 41.6334205687]}, "type": "Feature", "properties": {"collection_times": [{"days": "Mon-Fri", "time": "5:00pm"}, {"days": "Sat", "time": "3:30pm"}, {"days": "Sun", "time": "Closed"}], "id": "0265500012", "name": "USPS COLLECTION BOX - PO LOBBY", "address": {"city": "OSTERVILLE", "state": "MA", "street": "42 WIANNO AVE", "postcode": "02655"}}},
{"geometry": {"type": "Point", "coordinates": [-70.3840978959, 41.6334205687]}, "type": "Feature", "properties": {"collection_times": [{"days": "Mon-Fri", "time": "5:00pm"}, {"days": "Sat", "time": "3:30pm"}, {"days": "Sun", "time": "Closed"}], "id": "0265500013", "name": "USPS COLLECTION BOX - PO LOBBY", "address": {"city": "OSTERVILLE", "state": "MA", "street": "42 WIANNO AVE", "postcode": "02655"}}},
{"geometry": {"type": "Point", "coordinates": [-70.3580056152, 41.6352121216]}, "type": "Feature", "properties": {"collection_times": [{"days": "Mon-Fri", "time": "5:00pm"}, {"days": "Sat", "time": "3:15pm"}, {"days": "Sun", "time": "Closed"}], "id": "0265500014", "name": "USPS COLLECTION BOX - BLUE BOX", "address": {"city": "OSTERVILLE", "state": "MA", "street": "1046 MAIN ST", "postcode": "02655"}}},
{"geometry": {"type": "Point", "coordinates": [-70.1865614937, 42.052847631]}, "type": "Feature", "properties": {"collection_times": [{"days": "Mon-Sat", "time": "10:00am"}, {"days": "Sun", "time": "Closed"}], "id": "0265700001", "name": "USPS COLLECTION BOX - BLUE BOX", "address": {"city": "PROVINCETOWN", "state": "MA", "street": "130 BRADFORD ST", "postcode": "02657"}}},
{"geometry": {"type": "Point", "coordinates": [-70.1928288103, 42.0470203751]}, "type": "Feature", "properties": {"collection_times": [{"days": "Mon-Sat", "time": "10:00am"}, {"days": "Sun", "time": "Closed"}], "id": "0265700002", "name": "USPS COLLECTION BOX - BLUE BOX", "address": {"city": "PROVINCETOWN", "state": "MA", "street": "35 BRADFORD ST", "postcode": "02657"}}},
{"geometry": {"type": "Point", "coordinates": [-70.1773036568, 42.0582584853]}, "type": "Feature", "properties": {"collection_times": [{"days": "Mon-Fri", "time": "3:00pm"}, {"days": "Sat", "time": "10:00am"}, {"days": "Sun", "time": "Closed"}], "id": "0265700003", "name": "USPS COLLECTION BOX - BLUE BOX", "address": {"city": "PROVINCETOWN", "state": "MA", "street": "212 BRADFORD ST", "postcode": "02657"}}},
{"geometry": {"type": "Point", "coordinates": [-70.1919699821, 42.0447727531]}, "type": "Feature", "properties": {"collection_times": [{"days": "Mon-Sat", "time": "10:00am"}, {"days": "Sun", "time": "Closed"}], "id": "0265700005", "name": "USPS COLLECTION BOX - BLUE BOX", "address": {"city": "PROVINCETOWN", "state": "MA", "street": "100 COMMERCIAL ST", "postcode": "02657"}}},
{"geometry": {"type": "Point", "coordinates": [-70.1965277669, 42.0373922214]}, "type": "Feature", "properties": {"collection_times": [{"days": "Mon-Sat", "time": "10:00am"}, {"days": "Sun", "time": "Closed"}], "id": "0265700006", "name": "USPS COLLECTION BOX - BLUE BOX", "address": {"city": "PROVINCETOWN", "state": "MA", "street": "161 COMMERCIAL ST", "postcode": "02657"}}},
{"geometry": {"type": "Point", "coordinates": [-70.1965277669, 42.0373922214]}, "type": "Feature", "properties": {"collection_times": [{"days": "Mon-Fri", "time": "5:00pm"}, {"days": "Sat", "time": "3:45pm"}, {"days": "Sun", "time": "Closed"}], "id": "0265700009", "name": "USPS COLLECTION BOX - BLUE BOX", "address": {"city": "PROVINCETOWN", "state": "MA", "street": "219 COMMERCIAL ST", "postcode": "02657"}}},
{"geometry": {"type": "Point", "coordinates": [-70.1965277669, 42.0373922214]}, "type": "Feature", "properties": {"collection_times": [{"days": "Mon-Fri", "time": "3:00pm"}, {"days": "Sat", "time": "10:00am"}, {"days": "Sun", "time": "Closed"}], "id": "0265700010", "name": "USPS COLLECTION BOX - BLUE BOX", "address": {"city": "PROVINCETOWN", "state": "MA", "street": "260 COMMERCIAL ST", "postcode": "02657"}}},
{"geometry": {"type": "Point", "coordinates": [-70.1857415, 42.0519038884]}, "type": "Feature", "properties": {"collection_times": [{"days": "Mon-Fri", "time": "3:00pm"}, {"days": "Sat", "time": "10:00am"}, {"days": "Sun", "time": "Closed"}], "id": "0265700011", "name": "USPS COLLECTION BOX - BLUE BOX", "address": {"city": "PROVINCETOWN", "state": "MA", "street": "310 COMMERCIAL ST", "postcode": "02657"}}},
{"geometry": {"type": "Point", "coordinates": [-70.1956454356, 42.0530463681]}, "type": "Feature", "properties": {"collection_times": [{"days": "Mon-Sat", "time": "10:00am"}, {"days": "Sun", "time": "Closed"}], "id": "0265700017", "name": "USPS COLLECTION BOX - BLUE BOX", "address": {"city": "PROVINCETOWN", "state": "MA", "street": "100 SHANKPAINTER RD", "postcode": "02657"}}},
{"geometry": {"type": "Point", "coordinates": [-70.1821845455, 42.0559185924]}, "type": "Feature", "properties": {"collection_times": [{"days": "Mon-Sat", "time": "10:00am"}, {"days": "Sun", "time": "Closed"}], "id": "0265700018", "name": "USPS COLLECTION BOX - BLUE BOX", "address": {"city": "PROVINCETOWN", "state": "MA", "street": "175 BRADFORD STREET EXT", "postcode": "02657"}}},
{"geometry": {"type": "Point", "coordinates": [-70.1965277669, 42.0373922214]}, "type": "Feature", "properties": {"collection_times": [{"days": "Mon-Fri", "time": "4:45pm"}, {"days": "Sat", "time": "3:45pm"}, {"days": "Sun", "time": "Closed"}], "id": "0265700019", "name": "USPS COLLECTION BOX - PO LOBBY", "address": {"city": "PROVINCETOWN", "state": "MA", "street": "219 COMMERCIAL ST", "postcode": "02657"}}},
{"geometry": {"type": "Point", "coordinates": [-70.1965277669, 42.0373922214]}, "type": "Feature", "properties": {"collection_times": [{"days": "Mon-Fri", "time": "4:45pm"}, {"days": "Sat", "time": "3:45pm"}, {"days": "Sun", "time": "Closed"}], "id": "0265700020", "name": "USPS COLLECTION BOX - PO LOBBY", "address": {"city": "PROVINCETOWN", "state": "MA", "street": "219 COMMERCIAL ST", "postcode": "02657"}}},
{"geometry": {"type": "Point", "coordinates": [-70.1965277669, 42.0373922214]}, "type": "Feature", "properties": {"collection_times": [{"days": "Mon-Fri", "time": "4:45pm"}, {"days": "Sat", "time": "3:45pm"}, {"days": "Sun", "time": "Closed"}], "id": "0265700021", "name": "USPS COLLECTION BOX - PO LOBBY", "address": {"city": "PROVINCETOWN", "state": "MA", "street": "219 COMMERCIAL ST", "postcode": "02657"}}},
{"geometry": {"type": "Point", "coordinates": [-70.1965277669, 42.0373922214]}, "type": "Feature", "properties": {"collection_times": [{"days": "Mon-Fri", "time": "5:00pm"}, {"days": "Sat", "time": "3:45pm"}, {"days": "Sun", "time": "Closed"}], "id": "0265700025", "name": "USPS COLLECTION BOX - BLUE BOX", "address": {"city": "PROVINCETOWN", "state": "MA", "street": "219 COMMERCIAL ST", "postcode": "02657"}}},
{"geometry": {"type": "Point", "coordinates": [-70.1965277669, 42.0373922214]}, "type": "Feature", "properties": {"collection_times": [{"days": "Mon-Sat", "time": "10:00am"}, {"days": "Sun", "time": "Closed"}], "id": "0265700027", "name": "USPS COLLECTION BOX - BLUE BOX", "address": {"city": "PROVINCETOWN", "state": "MA", "street": "619 COMMERCIAL ST", "postcode": "02657"}}},
{"geometry": {"type": "Point", "coordinates": [-70.0214395362, 41.6814248693]}, "type": "Feature", "properties": {"collection_times": [{"days": "Mon-Fri", "time": "4:15pm"}, {"days": "Sat", "time": "11:30am"}, {"days": "Sun", "time": "Closed"}], "id": "0265900001", "name": "USPS COLLECTION BOX - BLUE BOX", "address": {"city": "SOUTH CHATHAM", "state": "MA", "street": "2455 MAIN ST", "postcode": "02659"}}},
{"geometry": {"type": "Point", "coordinates": [-70.0242575754, 41.679451557]}, "type": "Feature", "properties": {"collection_times": [{"days": "Mon-Fri", "time": "4:15pm"}, {"days": "Sat", "time": "11:30am"}, {"days": "Sun", "time": "Closed"}], "id": "0265900002", "name": "USPS COLLECTION BOX - PO LOBBY", "address": {"city": "SOUTH CHATHAM", "state": "MA", "street": "2455 MAIN ST", "postcode": "02659"}}},
{"geometry": {"type": "Point", "coordinates": [-70.0242575754, 41.679451557]}, "type": "Feature", "properties": {"collection_times": [{"days": "Mon-Fri", "time": "4:15pm"}, {"days": "Sat", "time": "11:30am"}, {"days": "Sun", "time": "Closed"}], "id": "0265900003", "name": "USPS COLLECTION BOX - PO LOBBY", "address": {"city": "SOUTH CHATHAM", "state": "MA", "street": "2455 MAIN ST", "postcode": "02659"}}},
{"geometry": {"type": "Point", "coordinates": [-70.1529787012, 41.6936141034]}, "type": "Feature", "properties": {"collection_times": [{"days": "Mon-Fri", "time": "4:30pm"}, {"days": "Sat", "time": "12:00pm"}, {"days": "Sun", "time": "Closed"}], "id": "0266000001", "name": "USPS COLLECTION BOX - PO LOBBY", "address": {"city": "SOUTH DENNIS", "state": "MA", "street": "9 MARKET PL", "postcode": "02660"}}},
{"geometry": {"type": "Point", "coordinates": [-70.1529787012, 41.6936141034]}, "type": "Feature", "properties": {"collection_times": [{"days": "Mon-Fri", "time": "4:30pm"}, {"days": "Sat", "time": "12:00pm"}, {"days": "Sun", "time": "Closed"}], "id": "0266000002", "name": "USPS COLLECTION BOX - BLUE BOX", "address": {"city": "SOUTH DENNIS", "state": "MA", "street": "9 MARKET PL", "postcode": "02660"}}},
{"geometry": {"type": "Point", "coordinates": [-70.1529787012, 41.6936141034]}, "type": "Feature", "properties": {"collection_times": [{"days": "Mon-Fri", "time": "4:30pm"}, {"days": "Sat", "time": "12:00pm"}, {"days": "Sun", "time": "Closed"}], "id": "0266000003", "name": "USPS COLLECTION BOX - BLUE BOX", "address": {"city": "SOUTH DENNIS", "state": "MA", "street": "9 MARKET PL", "postcode": "02660"}}},
{"geometry": {"type": "Point", "coordinates": [-70.1529787012, 41.6936141034]}, "type": "Feature", "properties": {"collection_times": [{"days": "Mon-Fri", "time": "4:30pm"}, {"days": "Sat", "time": "12:00pm"}, {"days": "Sun", "time": "Closed"}], "id": "0266000005", "name": "USPS COLLECTION BOX - PO LOBBY", "address": {"city": "SOUTH DENNIS", "state": "MA", "street": "9 MARKET PL", "postcode": "02660"}}},
{"geometry": {"type": "Point", "coordinates": [-70.148005587, 41.6674908628]}, "type": "Feature", "properties": {"collection_times": [{"days": "Mon-Sat", "time": "9:30am"}, {"days": "Sun", "time": "Closed"}], "id": "0266000006", "name": "USPS COLLECTION BOX - BLUE BOX", "address": {"city": "SOUTH DENNIS", "state": "MA", "street": "516 ROUTE 134", "postcode": "02660"}}},
{"geometry": {"type": "Point", "coordinates": [-70.1529787012, 41.6936141034]}, "type": "Feature", "properties": {"collection_times": [{"days": "Mon-Fri", "time": "4:30pm"}, {"days": "Sat", "time": "12:00pm"}, {"days": "Sun", "time": "Closed"}], "id": "0266000007", "name": "USPS COLLECTION BOX - BLUE BOX", "address": {"city": "SOUTH DENNIS", "state": "MA", "street": "9 MARKET PL", "postcode": "02660"}}},
{"geometry": {"type": "Point", "coordinates": [-70.0414073117, 41.6779308514]}, "type": "Feature", "properties": {"collection_times": [{"days": "Mon-Fri", "time": "4:45pm"}, {"days": "Sat", "time": "11:45am"}, {"days": "Sun", "time": "Closed"}], "id": "0266100002", "name": "USPS COLLECTION BOX - PO LOBBY", "address": {"city": "SOUTH HARWICH", "state": "MA", "street": "944 ROUTE 28", "postcode": "02661"}}},
{"geometry": {"type": "Point", "coordinates": [-70.0414073117, 41.6779308514]}, "type": "Feature", "properties": {"collection_times": [{"days": "Mon-Fri", "time": "4:45pm"}, {"days": "Sat", "time": "11:45am"}, {"days": "Sun", "time": "Closed"}], "id": "0266100003", "name": "USPS COLLECTION BOX - PO LOBBY", "address": {"city": "SOUTH HARWICH", "state": "MA", "street": "944 ROUTE 28", "postcode": "02661"}}},
{"geometry": {"type": "Point", "coordinates": [-69.9905315247, 41.7557724981]}, "type": "Feature", "properties": {"collection_times": [{"days": "Mon-Fri", "time": "4:30pm"}, {"days": "Sat", "time": "11:45am"}, {"days": "Sun", "time": "Closed"}], "id": "0266200002", "name": "USPS COLLECTION BOX - BLUE BOX", "address": {"city": "SOUTH ORLEANS", "state": "MA", "street": "403 S ORLEANS ROAD ROUTE 28", "postcode": "02662"}}},
{"geometry": {"type": "Point", "coordinates": [-69.9910182834, 41.7528517349]}, "type": "Feature", "properties": {"collection_times": [{"days": "Mon-Fri", "time": "4:30pm"}, {"days": "Sat", "time": "11:45am"}, {"days": "Sun", "time": "Closed"}], "id": "0266200004", "name": "USPS COLLECTION BOX - PO LOBBY", "address": {"city": "SOUTH ORLEANS", "state": "MA", "street": "403 S ORLEANS RD", "postcode": "02662"}}},
{"geometry": {"type": "Point", "coordinates": [-69.9910182834, 41.7528517349]}, "type": "Feature", "properties": {"collection_times": [{"days": "Mon-Fri", "time": "4:30pm"}, {"days": "Sat", "time": "11:45am"}, {"days": "Sun", "time": "Closed"}], "id": "0266200005", "name": "USPS COLLECTION BOX - PO LOBBY", "address": {"city": "SOUTH ORLEANS", "state": "MA", "street": "403 S ORLEANS RD", "postcode": "02662"}}},
{"geometry": {"type": "Point", "coordinates": [-69.9815374817, 41.9245837784]}, "type": "Feature", "properties": {"collection_times": [{"days": "Mon-Fri", "time": "4:30pm"}, {"days": "Sat", "time": "11:30am"}, {"days": "Sun", "time": "Closed"}], "id": "0266300002", "name": "USPS COLLECTION BOX - BLUE BOX", "address": {"city": "SOUTH WELLFLEET", "state": "MA", "street": "1426 ROUTE 6", "postcode": "02663"}}},
{"geometry": {"type": "Point", "coordinates": [-69.9815374817, 41.9245837784]}, "type": "Feature", "properties": {"collection_times": [{"days": "Mon-Fri", "time": "4:30pm"}, {"days": "Sat", "time": "11:30am"}, {"days": "Sun", "time": "Closed"}], "id": "0266300004", "name": "USPS COLLECTION BOX - PO LOBBY", "address": {"city": "SOUTH WELLFLEET", "state": "MA", "street": "1426 ROUTE 6", "postcode": "02663"}}},
{"geometry": {"type": "Point", "coordinates": [-69.9815374817, 41.9245837784]}, "type": "Feature", "properties": {"collection_times": [{"days": "Mon-Fri", "time": "4:30pm"}, {"days": "Sat", "time": "11:30am"}, {"days": "Sun", "time": "Closed"}], "id": "0266300005", "name": "USPS COLLECTION BOX - PO LOBBY", "address": {"city": "SOUTH WELLFLEET", "state": "MA", "street": "1426 ROUTE 6", "postcode": "02663"}}},
{"geometry": {"type": "Point", "coordinates": [-70.209326781, 41.6574717081]}, "type": "Feature", "properties": {"collection_times": [{"days": "Mon-Sat", "time": "9:00am"}, {"days": "Sun", "time": "Closed"}], "id": "0266400001", "name": "USPS COLLECTION BOX - BLUE BOX", "address": {"city": "WEST YARMOUTH", "state": "MA", "street": "1100 ALEWIFE CIR", "postcode": "02664"}}},
{"geometry": {"type": "Point", "coordinates": [-70.1979361349, 41.6708615272]}, "type": "Feature", "properties": {"collection_times": [{"days": "Mon-Fri", "time": "5:00pm"}, {"days": "Sat", "time": "12:00pm"}, {"days": "Sun", "time": "Closed"}], "id": "0266400003", "name": "USPS COLLECTION BOX - BLUE BOX", "address": {"city": "WEST YARMOUTH", "state": "MA", "street": "59 LONG POND DR", "postcode": "02664"}}},
{"geometry": {"type": "Point", "coordinates": [-70.2072715328, 41.6564267814]}, "type": "Feature", "properties": {"collection_times": [{"days": "Mon-Sat", "time": "10:00am"}, {"days": "Sun", "time": "Closed"}], "id": "0266400005", "name": "USPS COLLECTION BOX - BLUE BOX", "address": {"city": "WEST YARMOUTH", "state": "MA", "street": "21 LONG POND PLZ", "postcode": "02664"}}},
{"geometry": {"type": "Point", "coordinates": [-70.1979361349, 41.6708615272]}, "type": "Feature", "properties": {"collection_times": [{"days": "Mon-Fri", "time": "4:00pm"}, {"days": "Sat", "time": "10:00am"}, {"days": "Sun", "time": "Closed"}], "id": "0266400008", "name": "USPS COLLECTION BOX - BLUE BOX", "address": {"city": "WEST YARMOUTH", "state": "MA", "street": "1146 ROUTE 28", "postcode": "02664"}}},
{"geometry": {"type": "Point", "coordinates": [-70.1979361349, 41.6708615272]}, "type": "Feature", "properties": {"collection_times": [{"days": "Mon-Fri", "time": "3:45pm"}, {"days": "Sat", "time": "10:00am"}, {"days": "Sun", "time": "Closed"}], "id": "0266400011", "name": "USPS COLLECTION BOX - BLUE BOX", "address": {"city": "WEST YARMOUTH", "state": "MA", "street": "1326 ROUTE 28", "postcode": "02664"}}},
{"geometry": {"type": "Point", "coordinates": [-70.1979361353, 41.6708614811]}, "type": "Feature", "properties": {"collection_times": [{"days": "Mon-Fri", "time": "5:00pm"}, {"days": "Sat", "time": "3:00pm"}, {"days": "Sun", "time": "Closed"}], "id": "0266400013", "name": "USPS COLLECTION BOX - BLUE BOX", "address": {"city": "WEST YARMOUTH", "state": "MA", "street": "1057 ROUTE 28", "postcode": "02664"}}},
{"geometry": {"type": "Point", "coordinates": [-70.1979361353, 41.6708614811]}, "type": "Feature", "properties": {"collection_times": [{"days": "Mon-Fri", "time": "5:00pm"}, {"days": "Sat", "time": "4:00pm"}, {"days": "Sun", "time": "Closed"}], "id": "0266400014", "name": "USPS COLLECTION BOX - BLUE BOX", "address": {"city": "WEST YARMOUTH", "state": "MA", "street": "1057 ROUTE 28", "postcode": "02664"}}},
{"geometry": {"type": "Point", "coordinates": [-70.1979361353, 41.6708614811]}, "type": "Feature", "properties": {"collection_times": [{"days": "Mon-Fri", "time": "5:00pm"}, {"days": "Sat", "time": "4:00pm"}, {"days": "Sun", "time": "Closed"}], "id": "0266400017", "name": "USPS COLLECTION BOX - PO LOBBY", "address": {"city": "WEST YARMOUTH", "state": "MA", "street": "1057 ROUTE 28", "postcode": "02664"}}},
{"geometry": {"type": "Point", "coordinates": [-70.213676069, 41.6894363086]}, "type": "Feature", "properties": {"collection_times": [{"days": "Mon-Fri", "time": "3:45pm"}, {"days": "Sat", "time": "9:00am"}, {"days": "Sun", "time": "Closed"}], "id": "0266400020", "name": "USPS COLLECTION BOX - BLUE BOX", "address": {"city": "WEST YARMOUTH", "state": "MA", "street": "484 STATION AVE", "postcode": "02664"}}},
{"geometry": {"type": "Point", "coordinates": [-70.2490606324, 41.6783751581]}, "type": "Feature", "properties": {"collection_times": [{"days": "Mon-Fri", "time": "4:45pm"}, {"days": "Sat", "time": "10:00am"}, {"days": "Sun", "time": "Closed"}], "id": "0266400022", "name": "USPS COLLECTION BOX - BLUE BOX", "address": {"city": "WEST YARMOUTH", "state": "MA", "street": "25 MID TECH DR", "postcode": "02664"}}},
{"geometry": {"type": "Point", "coordinates": [-70.2497306685, 41.6597361176]}, "type": "Feature", "properties": {"collection_times": [{"days": "Mon-Sat", "time": "10:00am"}, {"days": "Sun", "time": "Closed"}], "id": "0266400024", "name": "USPS COLLECTION BOX - BLUE BOX", "address": {"city": "WEST YARMOUTH", "state": "MA", "street": "481 BUCK ISLAND RD", "postcode": "02664"}}},
{"geometry": {"type": "Point", "coordinates": [-70.2100567772, 41.6883802861]}, "type": "Feature", "properties": {"collection_times": [{"days": "Mon-Fri", "time": "3:30pm"}, {"days": "Sat", "time": "9:00am"}, {"days": "Sun", "time": "Closed"}], "id": "0266400025", "name": "USPS COLLECTION BOX - BLUE BOX", "address": {"city": "WEST YARMOUTH", "state": "MA", "street": "23 WHITES PATH", "postcode": "02664"}}},
{"geometry": {"type": "Point", "coordinates": [-70.2216096754, 41.6841878395]}, "type": "Feature", "properties": {"collection_times": [{"days": "Mon-Sat", "time": "10:00am"}, {"days": "Sun", "time": "Closed"}], "id": "0266400027", "name": "USPS COLLECTION BOX - BLUE BOX", "address": {"city": "WEST YARMOUTH", "state": "MA", "street": "182 OLD TOWN HOUSE RD", "postcode": "02664"}}},
{"geometry": {"type": "Point", "coordinates": [-70.0484281714, 41.9917219427]}, "type": "Feature", "properties": {"collection_times": [{"days": "Mon-Fri", "time": "5:00pm"}, {"days": "Sat", "time": "11:30am"}, {"days": "Sun", "time": "Closed"}], "id": "0266600001", "name": "USPS COLLECTION BOX - BLUE BOX", "address": {"city": "TRURO", "state": "MA", "street": "16 TRURO CENTER RD", "postcode": "02666"}}},
{"geometry": {"type": "Point", "coordinates": [-70.0484281714, 41.9917219427]}, "type": "Feature", "properties": {"collection_times": [{"days": "Mon-Fri", "time": "5:00pm"}, {"days": "Sat", "time": "11:30am"}, {"days": "Sun", "time": "Closed"}], "id": "0266600005", "name": "USPS COLLECTION BOX - PO LOBBY", "address": {"city": "TRURO", "state": "MA", "street": "16 TRURO CENTER RD", "postcode": "02666"}}},
{"geometry": {"type": "Point", "coordinates": [-70.019169574, 41.9273906516]}, "type": "Feature", "properties": {"collection_times": [{"days": "Mon-Fri", "time": "4:30pm"}, {"days": "Sat", "time": "12:00pm"}, {"days": "Sun", "time": "Closed"}], "id": "0266700003", "name": "USPS COLLECTION BOX - PO LOBBY", "address": {"city": "WELLFLEET", "state": "MA", "street": "2357 STATE HWY RTE 6", "postcode": "02667"}}},
{"geometry": {"type": "Point", "coordinates": [-70.019169574, 41.9273906516]}, "type": "Feature", "properties": {"collection_times": [{"days": "Mon-Sat", "time": "9:30am"}, {"days": "Sun", "time": "Closed"}], "id": "0266700005", "name": "USPS COLLECTION BOX - BLUE BOX", "address": {"city": "WELLFLEET", "state": "MA", "street": "295 MAIN ST", "postcode": "02667"}}},
{"geometry": {"type": "Point", "coordinates": [-70.019169574, 41.9273906516]}, "type": "Feature", "properties": {"collection_times": [{"days": "Mon-Fri", "time": "4:30pm"}, {"days": "Sat", "time": "12:00pm"}, {"days": "Sun", "time": "Closed"}], "id": "0266700011", "name": "USPS COLLECTION BOX - BLUE BOX", "address": {"city": "WELLFLEET", "state": "MA", "street": "2357 STATE HWY RTE 6", "postcode": "02667"}}},
{"geometry": {"type": "Point", "coordinates": [-70.019169574, 41.9273906516]}, "type": "Feature", "properties": {"collection_times": [{"days": "Mon-Fri", "time": "4:30pm"}, {"days": "Sat", "time": "12:00pm"}, {"days": "Sun", "time": "Closed"}], "id": "0266700013", "name": "USPS COLLECTION BOX - PO LOBBY", "address": {"city": "WELLFLEET", "state": "MA", "street": "2357 STATE HWY RTE 6", "postcode": "02667"}}},
{"geometry": {"type": "Point", "coordinates": [-70.337108259, 41.6883553745]}, "type": "Feature", "properties": {"collection_times": [{"days": "Mon-Fri", "time": "10:00am"}, {"days": "Sat-Sun", "time": "Closed"}], "id": "0266800001", "name": "USPS COLLECTION BOX - BLUE BOX", "address": {"city": "WEST BARNSTABLE", "state": "MA", "street": "2125 IYANNOUGH RD", "postcode": "02668"}}},
{"geometry": {"type": "Point", "coordinates": [-70.3407841787, 41.6913308834]}, "type": "Feature", "properties": {"collection_times": [{"days": "Mon-Fri", "time": "10:00am"}, {"days": "Sat-Sun", "time": "Closed"}], "id": "0266800002", "name": "USPS COLLECTION BOX - BLUE BOX", "address": {"city": "WEST BARNSTABLE", "state": "MA", "street": "2240 IYANNOUGH RD", "postcode": "02668"}}},
{"geometry": {"type": "Point", "coordinates": [-70.3714793489, 41.7080014521]}, "type": "Feature", "properties": {"collection_times": [{"days": "Mon-Fri", "time": "4:45pm"}, {"days": "Sat", "time": "12:00pm"}, {"days": "Sun", "time": "Closed"}], "id": "0266800004", "name": "USPS COLLECTION BOX - BLUE BOX", "address": {"city": "WEST BARNSTABLE", "state": "MA", "street": "1165 MAIN ST", "postcode": "02668"}}},
{"geometry": {"type": "Point", "coordinates": [-70.3714793489, 41.7080014521]}, "type": "Feature", "properties": {"collection_times": [{"days": "Mon-Fri", "time": "5:00pm"}, {"days": "Sat", "time": "12:00pm"}, {"days": "Sun", "time": "Closed"}], "id": "0266800007", "name": "USPS COLLECTION BOX - PO LOBBY", "address": {"city": "WEST BARNSTABLE", "state": "MA", "street": "1165 MAIN ST", "postcode": "02668"}}},
{"geometry": {"type": "Point", "coordinates": [-70.3714793489, 41.7080014521]}, "type": "Feature", "properties": {"collection_times": [{"days": "Mon-Fri", "time": "5:00pm"}, {"days": "Sat", "time": "12:00pm"}, {"days": "Sun", "time": "Closed"}], "id": "0266800008", "name": "USPS COLLECTION BOX - PO LOBBY", "address": {"city": "WEST BARNSTABLE", "state": "MA", "street": "1165 MAIN ST", "postcode": "02668"}}},
{"geometry": {"type": "Point", "coordinates": [-70.3714793489, 41.7080014521]}, "type": "Feature", "properties": {"collection_times": [{"days": "Mon-Fri", "time": "5:00pm"}, {"days": "Sat", "time": "12:00pm"}, {"days": "Sun", "time": "Closed"}], "id": "0266800009", "name": "USPS COLLECTION BOX - PO LOBBY", "address": {"city": "WEST BARNSTABLE", "state": "MA", "street": "1165 MAIN ST", "postcode": "02668"}}},
{"geometry": {"type": "Point", "coordinates": [-69.9912177905, 41.6824818608]}, "type": "Feature", "properties": {"collection_times": [{"days": "Mon-Fri", "time": "4:15pm"}, {"days": "Sat", "time": "12:00pm"}, {"days": "Sun", "time": "Closed"}], "id": "0266900001", "name": "USPS COLLECTION BOX - BLUE BOX", "address": {"city": "WEST CHATHAM", "state": "MA", "street": "1671 MAIN ST UNIT 0", "postcode": "02669"}}},
{"geometry": {"type": "Point", "coordinates": [-69.9912177905, 41.6824818608]}, "type": "Feature", "properties": {"collection_times": [{"days": "Mon-Fri", "time": "4:15pm"}, {"days": "Sat", "time": "12:00pm"}, {"days": "Sun", "time": "Closed"}], "id": "0266900003", "name": "USPS COLLECTION BOX - BLUE BOX", "address": {"city": "WEST CHATHAM", "state": "MA", "street": "1671 MAIN ST UNIT 0", "postcode": "02669"}}},
{"geometry": {"type": "Point", "coordinates": [-69.9912177905, 41.6824818608]}, "type": "Feature", "properties": {"collection_times": [{"days": "Mon-Fri", "time": "4:30pm"}, {"days": "Sat", "time": "12:00pm"}, {"days": "Sun", "time": "Closed"}], "id": "0266900004", "name": "USPS COLLECTION BOX - PO LOBBY", "address": {"city": "WEST CHATHAM", "state": "MA", "street": "1671 MAIN ST UNIT 0", "postcode": "02669"}}},
{"geometry": {"type": "Point", "coordinates": [-70.1687970116, 41.6568405174]}, "type": "Feature", "properties": {"collection_times": [{"days": "Mon-Fri", "time": "4:30pm"}, {"days": "Sat", "time": "12:00pm"}, {"days": "Sun", "time": "Closed"}], "id": "0267000002", "name": "USPS COLLECTION BOX - BLUE BOX", "address": {"city": "WEST DENNIS", "state": "MA", "street": "97 SCHOOL ST", "postcode": "02670"}}},
{"geometry": {"type": "Point", "coordinates": [-70.1687970116, 41.6568405174]}, "type": "Feature", "properties": {"collection_times": [{"days": "Mon-Fri", "time": "4:30pm"}, {"days": "Sat", "time": "12:00pm"}, {"days": "Sun", "time": "Closed"}], "id": "0267000004", "name": "USPS COLLECTION BOX - PO LOBBY", "address": {"city": "WEST DENNIS", "state": "MA", "street": "97 SCHOOL ST", "postcode": "02670"}}},
{"geometry": {"type": "Point", "coordinates": [-70.1125089816, 41.6666121119]}, "type": "Feature", "properties": {"collection_times": [{"days": "Mon-Fri", "time": "4:30pm"}, {"days": "Sat", "time": "12:00pm"}, {"days": "Sun", "time": "Closed"}], "id": "0267100002", "name": "USPS COLLECTION BOX - BLUE BOX", "address": {"city": "WEST HARWICH", "state": "MA", "street": "216 MAIN STREET (RT 28)", "postcode": "02671"}}},
{"geometry": {"type": "Point", "coordinates": [-70.1186460326, 41.6694808934]}, "type": "Feature", "properties": {"collection_times": [{"days": "Mon-Fri", "time": "4:30pm"}, {"days": "Sat", "time": "12:00pm"}, {"days": "Sun", "time": "Closed"}], "id": "0267100003", "name": "USPS COLLECTION BOX - PO LOBBY", "address": {"city": "WEST HARWICH", "state": "MA", "street": "216 MAIN ST", "postcode": "02671"}}},
{"geometry": {"type": "Point", "coordinates": [-70.3191193161, 41.6392993843]}, "type": "Feature", "properties": {"collection_times": [{"days": "Mon-Fri", "time": "4:30pm"}, {"days": "Sat", "time": "11:30am"}, {"days": "Sun", "time": "Closed"}], "id": "0267200002", "name": "USPS COLLECTION BOX - BLUE BOX", "address": {"city": "W HYANNISPRT", "state": "MA", "street": "401 CRAIGVILLE BEACH RD", "postcode": "02672"}}},
{"geometry": {"type": "Point", "coordinates": [-70.3189271584, 41.6392515661]}, "type": "Feature", "properties": {"collection_times": [{"days": "Mon-Fri", "time": "4:30pm"}, {"days": "Sat", "time": "11:30am"}, {"days": "Sun", "time": "Closed"}], "id": "0267200003", "name": "USPS COLLECTION BOX - PO LOBBY", "address": {"city": "W HYANNISPRT", "state": "MA", "street": "401 CRAIGVILLE BEACH RD", "postcode": "02672"}}},
{"geometry": {"type": "Point", "coordinates": [-70.3189271584, 41.6392515661]}, "type": "Feature", "properties": {"collection_times": [{"days": "Mon-Fri", "time": "4:30pm"}, {"days": "Sat", "time": "11:30am"}, {"days": "Sun", "time": "Closed"}], "id": "0267200004", "name": "USPS COLLECTION BOX - PO LOBBY", "address": {"city": "W HYANNISPRT", "state": "MA", "street": "401 CRAIGVILLE BEACH RD", "postcode": "02672"}}},
{"geometry": {"type": "Point", "coordinates": [-70.2685382782, 41.6576420606]}, "type": "Feature", "properties": {"collection_times": [{"days": "Mon-Fri", "time": "5:00pm"}, {"days": "Sat", "time": "12:00pm"}, {"days": "Sun", "time": "Closed"}], "id": "0267300001", "name": "USPS COLLECTION BOX - BLUE BOX", "address": {"city": "WEST YARMOUTH", "state": "MA", "street": "602 ROUTE 28", "postcode": "02673"}}},
{"geometry": {"type": "Point", "coordinates": [-70.2685382782, 41.6576420606]}, "type": "Feature", "properties": {"collection_times": [{"days": "Mon-Fri", "time": "4:00pm"}, {"days": "Sat", "time": "12:00pm"}, {"days": "Sun", "time": "Closed"}], "id": "0267300004", "name": "USPS COLLECTION BOX - PO LOBBY", "address": {"city": "WEST YARMOUTH", "state": "MA", "street": "602 ROUTE 28", "postcode": "02673"}}},
{"geometry": {"type": "Point", "coordinates": [-70.2685382782, 41.6576420606]}, "type": "Feature", "properties": {"collection_times": [{"days": "Mon-Fri", "time": "4:00pm"}, {"days": "Sat", "time": "12:00pm"}, {"days": "Sun", "time": "Closed"}], "id": "0267300005", "name": "USPS COLLECTION BOX - PO LOBBY", "address": {"city": "WEST YARMOUTH", "state": "MA", "street": "602 ROUTE 28", "postcode": "02673"}}},
{"geometry": {"type": "Point", "coordinates": [-70.2451166798, 41.7042382343]}, "type": "Feature", "properties": {"collection_times": [{"days": "Mon-Fri", "time": "5:00pm"}, {"days": "Sat", "time": "12:00pm"}, {"days": "Sun", "time": "Closed"}], "id": "0267500001", "name": "USPS COLLECTION BOX - BLUE BOX", "address": {"city": "YARMOUTH PORT", "state": "MA", "street": "231 MAIN ST", "postcode": "02675"}}},
{"geometry": {"type": "Point", "coordinates": [-70.2088874826, 41.7105838023]}, "type": "Feature", "properties": {"collection_times": [{"days": "Mon-Sat", "time": "10:00am"}, {"days": "Sun", "time": "Closed"}], "id": "0267500003", "name": "USPS COLLECTION BOX - BLUE BOX", "address": {"city": "YARMOUTH PORT", "state": "MA", "street": "64 KINGS CIRCUIT", "postcode": "02675"}}},
{"geometry": {"type": "Point", "coordinates": [-70.2451166798, 41.7042382343]}, "type": "Feature", "properties": {"collection_times": [{"days": "Mon-Fri", "time": "5:00pm"}, {"days": "Sat", "time": "12:00pm"}, {"days": "Sun", "time": "Closed"}], "id": "0267500004", "name": "USPS COLLECTION BOX - BLUE BOX", "address": {"city": "YARMOUTH PORT", "state": "MA", "street": "231 MAIN ST", "postcode": "02675"}}},
{"geometry": {"type": "Point", "coordinates": [-70.2218293205, 41.7045222387]}, "type": "Feature", "properties": {"collection_times": [{"days": "Mon-Fri", "time": "5:00pm"}, {"days": "Sat", "time": "12:00pm"}, {"days": "Sun", "time": "Closed"}], "id": "0267500005", "name": "USPS COLLECTION BOX - PO LOBBY", "address": {"city": "YARMOUTH PORT", "state": "MA", "street": "231 MAIN ST", "postcode": "02675"}}},
{"geometry": {"type": "Point", "coordinates": [-70.2218293205, 41.7045222387]}, "type": "Feature", "properties": {"collection_times": [{"days": "Mon-Fri", "time": "5:00pm"}, {"days": "Sat", "time": "12:00pm"}, {"days": "Sun", "time": "Closed"}], "id": "0267500006", "name": "USPS COLLECTION BOX - PO LOBBY", "address": {"city": "YARMOUTH PORT", "state": "MA", "street": "231 MAIN ST", "postcode": "02675"}}}
]}
