{"type": "FeatureCollection", "features": [
{"geometry": {"type": "Point", "coordinates": [-71.074244888, 41.7882021985]}, "type": "Feature", "properties": {"collection_times": [{"days": "Mon-Fri", "time": "4:30pm"}, {"days": "Sat", "time": "12:00pm"}, {"days": "Sun", "time": "Closed"}], "id": "0270200004", "name": "USPS COLLECTION BOX - BLUE BOX", "address": {"city": "ASSONET", "state": "MA", "street": "57 S MAIN ST", "postcode": "02702"}}},
{"geometry": {"type": "Point", "coordinates": [-71.2747513741, 41.9425605512]}, "type": "Feature", "properties": {"collection_times": [{"days": "Mon-Fri", "time": "4:00pm"}, {"days": "Sat", "time": "9:00am"}, {"days": "Sun", "time": "Closed"}], "id": "0270300001", "name": "USPS COLLECTION BOX - BLUE BOX", "address": {"city": "ATTLEBORO", "state": "MA", "street": "211 PARK ST", "postcode": "02703"}}},
{"geometry": {"type": "Point", "coordinates": [-71.2841186332, 41.9492644561]}, "type": "Feature", "properties": {"collection_times": [{"days": "Mon-Fri", "time": "3:30pm"}, {"days": "Sat", "time": "9:00am"}, {"days": "Sun", "time": "Closed"}], "id": "0270300009", "name": "USPS COLLECTION BOX - BLUE BOX", "address": {"city": "ATTLEBORO", "state": "MA", "street": "129 BANK ST", "postcode": "02703"}}},
{"geometry": {"type": "Point", "coordinates": [-71.3034271944, 41.9303409108]}, "type": "Feature", "properties": {"collection_times": [{"days": "Mon-Sat", "time": "9:00am"}, {"days": "Sun", "time": "Closed"}], "id": "0270300010", "name": "USPS COLLECTION BOX - BLUE BOX", "address": {"city": "ATTLEBORO", "state": "MA", "street": "16 12TH ST", "postcode": "02703"}}},
{"geometry": {"type": "Point", "coordinates": [-71.2830539928, 41.9413836573]}, "type": "Feature", "properties": {"collection_times": [{"days": "Mon-Sat", "time": "9:00am"}, {"days": "Sun", "time": "Closed"}], "id": "0270300011", "name": "USPS COLLECTION BOX - BLUE BOX", "address": {"city": "ATTLEBORO", "state": "MA", "street": "87 UNION ST", "postcode": "02703"}}},
{"geometry": {"type": "Point", "coordinates": [-71.2824575666, 41.944601008]}, "type": "Feature", "properties": {"collection_times": [{"days": "Mon-Sat", "time": "9:00am"}, {"days": "Sun", "time": "Closed"}], "id": "0270300016", "name": "USPS COLLECTION BOX - BLUE BOX", "address": {"city": "ATTLEBORO", "state": "MA", "street": "47 PARK ST", "postcode": "02703"}}},
{"geometry": {"type": "Point", "coordinates": [-71.2698575734, 41.9422052608]}, "type": "Feature", "properties": {"collection_times": [{"days": "Mon-Fri", "time": "4:00pm"}, {"days": "Sat", "time": "9:00am"}, {"days": "Sun", "time": "Closed"}], "id": "0270300018", "name": "USPS COLLECTION BOX - BLUE BOX", "address": {"city": "ATTLEBORO", "state": "MA", "street": "152 EMORY ST", "postcode": "02703"}}},
{"geometry": {"type": "Point", "coordinates": [-71.2928041767, 41.9439978086]}, "type": "Feature", "properties": {"collection_times": [{"days": "Mon-Fri", "time": "3:30pm"}, {"days": "Sat", "time": "9:00am"}, {"days": "Sun", "time": "Closed"}], "id": "0270300024", "name": "USPS COLLECTION BOX - BLUE BOX", "address": {"city": "ATTLEBORO", "state": "MA", "street": "67 MECHANIC ST", "postcode": "02703"}}},
{"geometry": {"type": "Point", "coordinates": [-71.2923480774, 41.9226022337]}, "type": "Feature", "properties": {"collection_times": [{"days": "Mon-Sat", "time": "9:00am"}, {"days": "Sun", "time": "Closed"}], "id": "0270300030", "name": "USPS COLLECTION BOX - BLUE BOX", "address": {"city": "ATTLEBORO", "state": "MA", "street": "408 S MAIN ST", "postcode": "02703"}}},
{"geometry": {"type": "Point", "coordinates": [-71.2810870779, 41.9450826517]}, "type": "Feature", "properties": {"collection_times": [{"days": "Mon-Sat", "time": "9:00am"}, {"days": "Sun", "time": "Closed"}], "id": "0270300039", "name": "USPS COLLECTION BOX - BLUE BOX", "address": {"city": "ATTLEBORO", "state": "MA", "street": "392 N MAIN ST", "postcode": "02703"}}},
{"geometry": {"type": "Point", "coordinates": [-71.2841723569, 41.9432297731]}, "type": "Feature", "properties": {"collection_times": [{"days": "Mon-Fri", "time": "4:00pm"}, {"days": "Sat", "time": "9:00am"}, {"days": "Sun", "time": "Closed"}], "id": "0270300041", "name": "USPS COLLECTION BOX - BLUE BOX", "address": {"city": "ATTLEBORO", "state": "MA", "street": "38 S MAIN ST", "postcode": "02703"}}},
{"geometry": {"type": "Point", "coordinates": [-71.2972748092, 41.930138628]}, "type": "Feature", "properties": {"collection_times": [{"days": "Mon-Sat", "time": "9:00am"}, {"days": "Sun", "time": "Closed"}], "id": "0270300053", "name": "USPS COLLECTION BOX - BLUE BOX", "address": {"city": "ATTLEBORO", "state": "MA", "street": "75 LINDEN ST", "postcode": "02703"}}},
{"geometry": {"type": "Point", "coordinates": [-71.3034271944, 41.9303409108]}, "type": "Feature", "properties": {"collection_times": [{"days": "Mon-Fri", "time": "4:00pm"}, {"days": "Sat", "time": "9:00am"}, {"days": "Sun", "time": "Closed"}], "id": "0270300055", "name": "USPS COLLECTION BOX - BLUE BOX", "address": {"city": "ATTLEBORO", "state": "MA", "street": "16 FRANK MOSSBERG DR", "postcode": "02703"}}},
{"geometry": {"type": "Point", "coordinates": [-71.2689055575, 41.9528507848]}, "type": "Feature", "properties": {"collection_times": [{"days": "Mon-Fri", "time": "4:00pm"}, {"days": "Sat", "time": "8:30am"}, {"days": "Sun", "time": "Closed"}], "id": "0270300057", "name": "USPS COLLECTION BOX - BLUE BOX", "address": {"city": "ATTLEBORO", "state": "MA", "street": "555 PLEASANT ST", "postcode": "02703"}}},
{"geometry": {"type": "Point", "coordinates": [-71.2810870779, 41.9450826517]}, "type": "Feature", "properties": {"collection_times": [{"days": "Mon-Sat", "time": "9:00am"}, {"days": "Sun", "time": "Closed"}], "id": "0270300058", "name": "USPS COLLECTION BOX - BLUE BOX", "address": {"city": "ATTLEBORO", "state": "MA", "street": "193 PINE ST", "postcode": "02703"}}},
{"geometry": {"type": "Point", "coordinates": [-71.258413435, 41.913205197]}, "type": "Feature", "properties": {"collection_times": [{"days": "Mon-Sat", "time": "9:00am"}, {"days": "Sun", "time": "Closed"}], "id": "0270300059", "name": "USPS COLLECTION BOX - BLUE BOX", "address": {"city": "ATTLEBORO", "state": "MA", "street": "1503 PARK ST", "postcode": "02703"}}},
{"geometry": {"type": "Point", "coordinates": [-71.3550796611, 41.8995058743]}, "type": "Feature", "properties": {"collection_times": [{"days": "Mon-Sat", "time": "9:00am"}, {"days": "Sun", "time": "Closed"}], "id": "0270300065", "name": "USPS COLLECTION BOX - BLUE BOX", "address": {"city": "ATTLEBORO", "state": "MA", "street": "1120 NEWPORT AVE", "postcode": "02703"}}},
{"geometry": {"type": "Point", "coordinates": [-71.3034271944, 41.9303409108]}, "type": "Feature", "properties": {"collection_times": [{"days": "Mon-Sat", "time": "9:00am"}, {"days": "Sun", "time": "Closed"}], "id": "0270300066", "name": "USPS COLLECTION BOX - BLUE BOX", "address": {"city": "ATTLEBORO", "state": "MA", "street": "49 SOUTH AVE", "postcode": "02703"}}},
{"geometry": {"type": "Point", "coordinates": [-71.3588649596, 41.9164301873]}, "type": "Feature", "properties": {"collection_times": [{"days": "Mon-Fri", "time": "5:00pm"}, {"days": "Sat", "time": "12:00pm"}, {"days": "Sun", "time": "Closed"}], "id": "0270300069", "name": "USPS COLLECTION BOX - BLUE BOX", "address": {"city": "ATTLEBORO", "state": "MA", "street": "775 NEWPORT AVE", "postcode": "02703"}}},
{"geometry": {"type": "Point", "coordinates": [-71.2537884261, 41.9544728527]}, "type": "Feature", "properties": {"collection_times": [{"days": "Mon-Fri", "time": "5:00pm"}, {"days": "Sat", "time": "3:00pm"}, {"days": "Sun", "time": "Closed"}], "id": "0270300071", "name": "USPS COLLECTION BOX - BLUE BOX", "address": {"city": "ATTLEBORO", "state": "MA", "street": "901 PLEASANT ST", "postcode": "02703"}}},
{"geometry": {"type": "Point", "coordinates": [-71.2849052881, 41.9352364108]}, "type": "Feature", "properties": {"collection_times": [{"days": "Mon-Sat", "time": "9:00am"}, {"days": "Sun", "time": "Closed"}], "id": "0270300072", "name": "USPS COLLECTION BOX - BLUE BOX", "address": {"city": "ATTLEBORO", "state": "MA", "street": "217 S MAIN ST", "postcode": "02703"}}},
{"geometry": {"type": "Point", "coordinates": [-71.121038652, 41.814787247]}, "type": "Feature", "properties": {"collection_times": [{"days": "Mon-Fri", "time": "4:30pm"}, {"days": "Sat", "time": "11:30am"}, {"days": "Sun", "time": "Closed"}], "id": "0271500001", "name": "USPS COLLECTION BOX - BLUE BOX", "address": {"city": "DIGHTON", "state": "MA", "street": "232 MAIN ST", "postcode": "02715"}}},
{"geometry": {"type": "Point", "coordinates": [-70.9822053646, 41.7560225563]}, "type": "Feature", "properties": {"collection_times": [{"days": "Mon-Fri", "time": "4:00pm"}, {"days": "Sat", "time": "3:30pm"}, {"days": "Sun", "time": "Closed"}], "id": "0271700004", "name": "USPS COLLECTION BOX - BLUE BOX", "address": {"city": "EAST FREETOWN", "state": "MA", "street": "10 CROSSROADS DR", "postcode": "02717"}}},
{"geometry": {"type": "Point", "coordinates": [-71.0198286851, 41.8709012355]}, "type": "Feature", "properties": {"collection_times": [{"days": "Mon-Fri", "time": "4:00pm"}, {"days": "Sat", "time": "11:30am"}, {"days": "Sun", "time": "Closed"}], "id": "0271800001", "name": "USPS COLLECTION BOX - BLUE BOX", "address": {"city": "EAST TAUNTON", "state": "MA", "street": "493 MIDDLEBORO AVE", "postcode": "02718"}}},
{"geometry": {"type": "Point", "coordinates": [-70.9037977447, 41.6353703358]}, "type": "Feature", "properties": {"collection_times": [{"days": "Mon-Fri", "time": "5:00pm"}, {"days": "Sat", "time": "3:45pm"}, {"days": "Sun", "time": "Closed"}], "id": "0271900002", "name": "USPS COLLECTION BOX - BLUE BOX", "address": {"city": "FAIRHAVEN", "state": "MA", "street": "13 WILLIAM ST", "postcode": "02719"}}},
{"geometry": {"type": "Point", "coordinates": [-70.9037977447, 41.6353703358]}, "type": "Feature", "properties": {"collection_times": [{"days": "Mon-Fri", "time": "5:00pm"}, {"days": "Sat", "time": "3:45pm"}, {"days": "Sun", "time": "Closed"}], "id": "0271900003", "name": "USPS COLLECTION BOX - EXPRESS", "address": {"city": "FAIRHAVEN", "state": "MA", "street": "13 WILLIAM ST", "postcode": "02719"}}},
{"geometry": {"type": "Point", "coordinates": [-70.8858340512, 41.6443640697]}, "type": "Feature", "properties": {"collection_times": [{"days": "Mon-Fri", "time": "4:15pm"}, {"days": "Sat", "time": "2:45pm"}, {"days": "Sun", "time": "Closed"}], "id": "0271900007", "name": "USPS COLLECTION BOX - BLUE BOX", "address": {"city": "FAIRHAVEN", "state": "MA", "street": "32 FAIRHAVEN COMMONS WAY", "postcode": "02719"}}},
{"geometry": {"type": "Point", "coordinates": [-70.8991483801, 41.6442222089]}, "type": "Feature", "properties": {"collection_times": [{"days": "Mon-Sat", "time": "2:45pm"}, {"days": "Sun", "time": "Closed"}], "id": "0271900009", "name": "USPS COLLECTION BOX - BLUE BOX", "address": {"city": "FAIRHAVEN", "state": "MA", "street": "75 HUTTLESTON AVE", "postcode": "02719"}}},
{"geometry": {"type": "Point", "coordinates": [-70.8960761611, 41.6450742095]}, "type": "Feature", "properties": {"collection_times": [{"days": "Mon-Fri", "time": "4:15pm"}, {"days": "Sat", "time": "2:45pm"}, {"days": "Sun", "time": "Closed"}], "id": "0271900010", "name": "USPS COLLECTION BOX - BLUE BOX", "address": {"city": "FAIRHAVEN", "state": "MA", "street": "10 SARAHS WAY", "postcode": "02719"}}},
{"geometry": {"type": "Point", "coordinates": [-70.8953941692, 41.6388738049]}, "type": "Feature", "properties": {"collection_times": [{"days": "Mon-Sat", "time": "2:45pm"}, {"days": "Sun", "time": "Closed"}], "id": "0271900013", "name": "USPS COLLECTION BOX - BLUE BOX", "address": {"city": "FAIRHAVEN", "state": "MA", "street": "9 MCGANN TER", "postcode": "02719"}}},
{"geometry": {"type": "Point", "coordinates": [-70.9091778498, 41.6476426202]}, "type": "Feature", "properties": {"collection_times": [{"days": "Mon-Sat", "time": "2:45pm"}, {"days": "Sun", "time": "Closed"}], "id": "0271900014", "name": "USPS COLLECTION BOX - BLUE BOX", "address": {"city": "FAIRHAVEN", "state": "MA", "street": "45 OXFORD ST", "postcode": "02719"}}},
{"geometry": {"type": "Point", "coordinates": [-70.8982670031, 41.6410787177]}, "type": "Feature", "properties": {"collection_times": [{"days": "Mon-Sat", "time": "2:45pm"}, {"days": "Sun", "time": "Closed"}], "id": "0271900015", "name": "USPS COLLECTION BOX - BLUE BOX", "address": {"city": "FAIRHAVEN", "state": "MA", "street": "69 ADAMS ST", "postcode": "02719"}}},
{"geometry": {"type": "Point", "coordinates": [-70.8542763199, 41.5825139434]}, "type": "Feature", "properties": {"collection_times": [{"days": "Mon-Fri", "time": "4:30pm"}, {"days": "Sat", "time": "2:45pm"}, {"days": "Sun", "time": "Closed"}], "id": "0271900016", "name": "USPS COLLECTION BOX - BLUE BOX", "address": {"city": "FAIRHAVEN", "state": "MA", "street": "16 SCONTICUT NECK RD", "postcode": "02719"}}},
{"geometry": {"type": "Point", "coordinates": [-70.8868122375, 41.6392640036]}, "type": "Feature", "properties": {"collection_times": [{"days": "Mon-Fri", "time": "4:30pm"}, {"days": "Sat", "time": "2:45pm"}, {"days": "Sun", "time": "Closed"}], "id": "0271900020", "name": "USPS COLLECTION BOX - BLUE BOX", "address": {"city": "FAIRHAVEN", "state": "MA", "street": "4 PLAZA WAY", "postcode": "02719"}}},
{"geometry": {"type": "Point", "coordinates": [-70.8594975436, 41.6489130367]}, "type": "Feature", "properties": {"collection_times": [{"days": "Mon-Sat", "time": "2:45pm"}, {"days": "Sun", "time": "Closed"}], "id": "0271900023", "name": "USPS COLLECTION BOX - BLUE BOX", "address": {"city": "FAIRHAVEN", "state": "MA", "street": "355 HUTTLESTON AVE", "postcode": "02719"}}},
{"geometry": {"type": "Point", "coordinates": [-70.9050141632, 41.6514560209]}, "type": "Feature", "properties": {"collection_times": [{"days": "Mon-Sat", "time": "2:45pm"}, {"days": "Sun", "time": "Closed"}], "id": "0271900025", "name": "USPS COLLECTION BOX - BLUE BOX", "address": {"city": "FAIRHAVEN", "state": "MA", "street": "180 ADAMS ST", "postcode": "02719"}}},
{"geometry": {"type": "Point", "coordinates": [-70.9086067452, 41.6570192316]}, "type": "Feature", "properties": {"collection_times": [{"days": "Mon-Sat", "time": "2:45pm"}, {"days": "Sun", "time": "Closed"}], "id": "0271900030", "name": "USPS COLLECTION BOX - BLUE BOX", "address": {"city": "FAIRHAVEN", "state": "MA", "street": "348 MAIN ST", "postcode": "02719"}}},
{"geometry": {"type": "Point", "coordinates": [-70.8849870373, 41.6434596503]}, "type": "Feature", "properties": {"collection_times": [{"days": "Mon-Fri", "time": "4:15pm"}, {"days": "Sat", "time": "2:45pm"}, {"days": "Sun", "time": "Closed"}], "id": "0271900032", "name": "USPS COLLECTION BOX - BLUE BOX", "address": {"city": "FAIRHAVEN", "state": "MA", "street": "75 ALDEN RD", "postcode": "02719"}}},
{"geometry": {"type": "Point", "coordinates": [-70.8781936125, 41.6415000537]}, "type": "Feature", "properties": {"collection_times": [{"days": "Mon-Fri", "time": "4:30pm"}, {"days": "Sat", "time": "2:45pm"}, {"days": "Sun", "time": "Closed"}], "id": "0271900035", "name": "USPS COLLECTION BOX - BLUE BOX", "address": {"city": "FAIRHAVEN", "state": "MA", "street": "221 HUTTLESTON AVE", "postcode": "02719"}}},
{"geometry": {"type": "Point", "coordinates": [-71.140628525, 41.7151423073]}, "type": "Feature", "properties": {"collection_times": [{"days": "Mon-Sat", "time": "9:00am"}, {"days": "Sun", "time": "Closed"}], "id": "0272000001", "name": "USPS COLLECTION BOX - BLUE BOX", "address": {"city": "FALL RIVER", "state": "MA", "street": "1110 ROBESON ST", "postcode": "02720"}}},
{"geometry": {"type": "Point", "coordinates": [-71.1195615629, 41.7574690234]}, "type": "Feature", "properties": {"collection_times": [{"days": "Mon-Sat", "time": "9:00am"}, {"days": "Sun", "time": "Closed"}], "id": "0272000002", "name": "USPS COLLECTION BOX - BLUE BOX", "address": {"city": "FALL RIVER", "state": "MA", "street": "24 ROLLING GREEN DR", "postcode": "02720"}}},
{"geometry": {"type": "Point", "coordinates": [-71.1516341113, 41.707426267]}, "type": "Feature", "properties": {"collection_times": [{"days": "Mon-Fri", "time": "10:00am"}, {"days": "Sat", "time": "9:00am"}, {"days": "Sun", "time": "Closed"}], "id": "0272000005", "name": "USPS COLLECTION BOX - BLUE BOX", "address": {"city": "FALL RIVER", "state": "MA", "street": "417 ROCK ST", "postcode": "02720"}}},
{"geometry": {"type": "Point", "coordinates": [-71.1385168561, 41.7196342142]}, "type": "Feature", "properties": {"collection_times": [{"days": "Mon-Sat", "time": "9:00am"}, {"days": "Sun", "time": "Closed"}], "id": "0272000008", "name": "USPS COLLECTION BOX - BLUE BOX", "address": {"city": "FALL RIVER", "state": "MA", "street": "1197 ROBESON ST", "postcode": "02720"}}},
{"geometry": {"type": "Point", "coordinates": [-71.1385168561, 41.7196342142]}, "type": "Feature", "properties": {"collection_times": [{"days": "Mon-Sat", "time": "9:00am"}, {"days": "Sun", "time": "Closed"}], "id": "0272000012", "name": "USPS COLLECTION BOX - BLUE BOX", "address": {"city": "FALL RIVER", "state": "MA", "street": "1647 ROBESON ST", "postcode": "02720"}}},
{"geometry": {"type": "Point", "coordinates": [-71.141857738, 41.7113252421]}, "type": "Feature", "properties": {"collection_times": [{"days": "Mon-Fri", "time": "12:00pm"}, {"days": "Sat", "time": "9:00am"}, {"days": "Sun", "time": "Closed"}], "id": "0272000013", "name": "USPS COLLECTION BOX - BLUE BOX", "address": {"city": "FALL RIVER", "state": "MA", "street": "818 ROBESON ST", "postcode": "02720"}}},
{"geometry": {"type": "Point", "coordinates": [-71.128135008, 41.71210741]}, "type": "Feature", "properties": {"collection_times": [{"days": "Mon-Sat", "time": "9:00am"}, {"days": "Sun", "time": "Closed"}], "id": "0272000019", "name": "USPS COLLECTION BOX - BLUE BOX", "address": {"city": "FALL RIVER", "state": "MA", "street": "1620 PRESIDENT AVE", "postcode": "02720"}}},
{"geometry": {"type": "Point", "coordinates": [-71.1481075062, 41.7186801741]}, "type": "Feature", "properties": {"collection_times": [{"days": "Mon-Fri", "time": "2:00pm"}, {"days": "Sat", "time": "9:00am"}, {"days": "Sun", "time": "Closed"}], "id": "0272000022", "name": "USPS COLLECTION BOX - BLUE BOX", "address": {"city": "FALL RIVER", "state": "MA", "street": "1335 N MAIN ST", "postcode": "02720"}}},
{"geometry": {"type": "Point", "coordinates": [-71.1545104223, 41.7081320943]}, "type": "Feature", "properties": {"collection_times": [{"days": "Mon-Fri", "time": "11:00am"}, {"days": "Sat", "time": "9:00am"}, {"days": "Sun", "time": "Closed"}], "id": "0272000025", "name": "USPS COLLECTION BOX - BLUE BOX", "address": {"city": "FALL RIVER", "state": "MA", "street": "441 N MAIN ST", "postcode": "02720"}}},
{"geometry": {"type": "Point", "coordinates": [-71.1553425636, 41.7020630651]}, "type": "Feature", "properties": {"collection_times": [{"days": "Mon-Fri", "time": "12:00pm"}, {"days": "Sat", "time": "9:00am"}, {"days": "Sun", "time": "Closed"}], "id": "0272000031", "name": "USPS COLLECTION BOX - BLUE BOX", "address": {"city": "FALL RIVER", "state": "MA", "street": "10 N MAIN ST", "postcode": "02720"}}},
{"geometry": {"type": "Point", "coordinates": [-71.1385168561, 41.7196342142]}, "type": "Feature", "properties": {"collection_times": [{"days": "Mon-Sat", "time": "9:00am"}, {"days": "Sun", "time": "Closed"}], "id": "0272000039", "name": "USPS COLLECTION BOX - BLUE BOX", "address": {"city": "FALL RIVER", "state": "MA", "street": "613 LOCUST ST", "postcode": "02720"}}},
{"geometry": {"type": "Point", "coordinates": [-71.1385168561, 41.7196342142]}, "type": "Feature", "properties": {"collection_times": [{"days": "Mon-Sat", "time": "9:00am"}, {"days": "Sun", "time": "Closed"}], "id": "0272000044", "name": "USPS COLLECTION BOX - BLUE BOX", "address": {"city": "FALL RIVER", "state": "MA", "street": "1168 HIGHLAND AVE", "postcode": "02720"}}},
{"geometry": {"type": "Point", "coordinates": [-71.1088555188, 41.7616150097]}, "type": "Feature", "properties": {"collection_times": [{"days": "Mon-Sat", "time": "9:00am"}, {"days": "Sun", "time": "Closed"}], "id": "0272000047", "name": "USPS COLLECTION BOX - BLUE BOX", "address": {"city": "FALL RIVER", "state": "MA", "street": "5500 N MAIN ST", "postcode": "02720"}}},
{"geometry": {"type": "Point", "coordinates": [-71.1385168561, 41.7196342142]}, "type": "Feature", "properties": {"collection_times": [{"days": "Mon-Sat", "time": "9:00am"}, {"days": "Sun", "time": "Closed"}], "id": "0272000048", "name": "USPS COLLECTION BOX - BLUE BOX", "address": {"city": "FALL RIVER", "state": "MA", "street": "4980 N MAIN ST", "postcode": "02720"}}},
{"geometry": {"type": "Point", "coordinates": [-71.1385168561, 41.7196342142]}, "type": "Feature", "properties": {"collection_times": [{"days": "Mon-Sat", "time": "2:00pm"}, {"days": "Sun", "time": "Closed"}], "id": "0272000049", "name": "USPS COLLECTION BOX - BLUE BOX", "address": {"city": "FALL RIVER", "state": "MA", "street": "4263 N MAIN ST", "postcode": "02720"}}},
{"geometry": {"type": "Point", "coordinates": [-71.1226559764, 41.7506629475]}, "type": "Feature", "properties": {"collection_times": [{"days": "Mon-Fri", "time": "11:00am"}, {"days": "Sat", "time": "9:00am"}, {"days": "Sun", "time": "Closed"}], "id": "0272000050", "name": "USPS COLLECTION BOX - BLUE BOX", "address": {"city": "FALL RIVER", "state": "MA", "street": "4171 N MAIN ST", "postcode": "02720"}}},
{"geometry": {"type": "Point", "coordinates": [-71.1235085122, 41.7194812895]}, "type": "Feature", "properties": {"collection_times": [{"days": "Mon-Sat", "time": "9:00am"}, {"days": "Sun", "time": "Closed"}], "id": "0272000061", "name": "USPS COLLECTION BOX - BLUE BOX", "address": {"city": "FALL RIVER", "state": "MA", "street": "777 ELSBREE ST", "postcode": "02720"}}},
{"geometry": {"type": "Point", "coordinates": [-71.1177196091, 41.7517836808]}, "type": "Feature", "properties": {"collection_times": [{"days": "Mon-Fri", "time": "12:00pm"}, {"days": "Sat", "time": "9:00am"}, {"days": "Sun", "time": "Closed"}], "id": "0272000066", "name": "USPS COLLECTION BOX - BLUE BOX", "address": {"city": "FALL RIVER", "state": "MA", "street": "322 AIRPORT RD", "postcode": "02720"}}},
{"geometry": {"type": "Point", "coordinates": [-71.1551540261, 41.703702824]}, "type": "Feature", "properties": {"collection_times": [{"days": "Mon-Fri", "time": "12:00pm"}, {"days": "Sat", "time": "9:00am"}, {"days": "Sun", "time": "Closed"}], "id": "0272000069", "name": "USPS COLLECTION BOX - BLUE BOX", "address": {"city": "FALL RIVER", "state": "MA", "street": "104 N MAIN ST", "postcode": "02720"}}},
{"geometry": {"type": "Point", "coordinates": [-71.1265291251, 41.711793195]}, "type": "Feature", "properties": {"collection_times": [{"days": "Mon-Fri", "time": "5:00pm"}, {"days": "Sat", "time": "12:00pm"}, {"days": "Sun", "time": "Closed"}], "id": "0272000078", "name": "USPS COLLECTION BOX - BLUE BOX", "address": {"city": "FALL RIVER", "state": "MA", "street": "1701 PRESIDENT AVE", "postcode": "02720"}}},
{"geometry": {"type": "Point", "coordinates": [-71.1444838492, 41.7082463988]}, "type": "Feature", "properties": {"collection_times": [{"days": "Mon-Fri", "time": "10:00am"}, {"days": "Sat", "time": "9:00am"}, {"days": "Sun", "time": "Closed"}], "id": "0272000080", "name": "USPS COLLECTION BOX - BLUE BOX", "address": {"city": "FALL RIVER", "state": "MA", "street": "235 HANOVER ST", "postcode": "02720"}}},
{"geometry": {"type": "Point", "coordinates": [-71.1391835866, 41.7138182549]}, "type": "Feature", "properties": {"collection_times": [{"days": "Mon-Fri", "time": "10:00am"}, {"days": "Sat", "time": "9:00am"}, {"days": "Sun", "time": "Closed"}], "id": "0272000083", "name": "USPS COLLECTION BOX - BLUE BOX", "address": {"city": "FALL RIVER", "state": "MA", "street": "1030 PRESIDENT AVE", "postcode": "02720"}}},
{"geometry": {"type": "Point", "coordinates": [-71.1385168561, 41.7196342142]}, "type": "Feature", "properties": {"collection_times": [{"days": "Mon-Fri", "time": "10:00am"}, {"days": "Sat", "time": "9:00am"}, {"days": "Sun", "time": "Closed"}], "id": "0272000085", "name": "USPS COLLECTION BOX - BLUE BOX", "address": {"city": "FALL RIVER", "state": "MA", "street": "363 HIGHLAND AVE", "postcode": "02720"}}},
{"geometry": {"type": "Point", "coordinates": [-71.1552742147, 41.7029688827]}, "type": "Feature", "properties": {"collection_times": [{"days": "Mon-Fri", "time": "12:00pm"}, {"days": "Sat", "time": "9:00am"}, {"days": "Sun", "time": "Closed"}], "id": "0272000086", "name": "USPS COLLECTION BOX - BLUE BOX", "address": {"city": "FALL RIVER", "state": "MA", "street": "80 N MAIN ST", "postcode": "02720"}}},
{"geometry": {"type": "Point", "coordinates": [-71.1385168561, 41.7196342142]}, "type": "Feature", "properties": {"collection_times": [{"days": "Mon-Fri", "time": "10:00am"}, {"days": "Sat", "time": "9:00am"}, {"days": "Sun", "time": "Closed"}], "id": "0272000087", "name": "USPS COLLECTION BOX - BLUE BOX", "address": {"city": "FALL RIVER", "state": "MA", "street": "289 ROCK ST", "postcode": "02720"}}},
{"geometry": {"type": "Point", "coordinates": [-71.1651337009, 41.6977441777]}, "type": "Feature", "properties": {"collection_times": [{"days": "Mon-Fri", "time": "2:00pm"}, {"days": "Sat", "time": "9:00am"}, {"days": "Sun", "time": "Closed"}], "id": "0272100001", "name": "USPS COLLECTION BOX - BLUE BOX", "address": {"city": "FALL RIVER", "state": "MA", "street": "374 WILLIAM CANNING BLVD", "postcode": "02721"}}},
{"geometry": {"type": "Point", "coordinates": [-71.1436457239, 41.6973541464]}, "type": "Feature", "properties": {"collection_times": [{"days": "Mon-Fri", "time": "2:00pm"}, {"days": "Sat", "time": "9:00am"}, {"days": "Sun", "time": "Closed"}], "id": "0272100002", "name": "USPS COLLECTION BOX - BLUE BOX", "address": {"city": "FALL RIVER", "state": "MA", "street": "465 WILLIAM CANNING BLVD", "postcode": "02721"}}},
{"geometry": {"type": "Point", "coordinates": [-71.1628045885, 41.7045539415]}, "type": "Feature", "properties": {"collection_times": [{"days": "Mon-Sat", "time": "10:30am"}, {"days": "Sun", "time": "Closed"}], "id": "0272100005", "name": "USPS COLLECTION BOX - BLUE BOX", "address": {"city": "FALL RIVER", "state": "MA", "street": "5 WATER ST", "postcode": "02721"}}},
{"geometry": {"type": "Point", "coordinates": [-71.158826066, 41.6770429193]}, "type": "Feature", "properties": {"collection_times": [{"days": "Mon-Sat", "time": "10:00am"}, {"days": "Sun", "time": "Closed"}], "id": "0272100006", "name": "USPS COLLECTION BOX - BLUE BOX", "address": {"city": "FALL RIVER", "state": "MA", "street": "515 TUCKER ST", "postcode": "02721"}}},
{"geometry": {"type": "Point", "coordinates": [-71.1538596183, 41.6739809704]}, "type": "Feature", "properties": {"collection_times": [{"days": "Mon-Sat", "time": "9:00am"}, {"days": "Sun", "time": "Closed"}], "id": "0272100007", "name": "USPS COLLECTION BOX - BLUE BOX", "address": {"city": "FALL RIVER", "state": "MA", "street": "1101 STAFFORD RD", "postcode": "02721"}}},
{"geometry": {"type": "Point", "coordinates": [-71.159977171, 41.688429856]}, "type": "Feature", "properties": {"collection_times": [{"days": "Mon-Fri", "time": "2:00pm"}, {"days": "Sat", "time": "9:00am"}, {"days": "Sun", "time": "Closed"}], "id": "0272100008", "name": "USPS COLLECTION BOX - BLUE BOX", "address": {"city": "FALL RIVER", "state": "MA", "street": "10 STAFFORD RD", "postcode": "02721"}}},
{"geometry": {"type": "Point", "coordinates": [-71.1554493419, 41.6869728079]}, "type": "Feature", "properties": {"collection_times": [{"days": "Mon-Fri", "time": "2:00pm"}, {"days": "Sat", "time": "9:00am"}, {"days": "Sun", "time": "Closed"}], "id": "0272100009", "name": "USPS COLLECTION BOX - BLUE BOX", "address": {"city": "FALL RIVER", "state": "MA", "street": "186 S MAIN ST", "postcode": "02721"}}},
{"geometry": {"type": "Point", "coordinates": [-71.1436457239, 41.6973541464]}, "type": "Feature", "properties": {"collection_times": [{"days": "Mon-Fri", "time": "2:00pm"}, {"days": "Sat", "time": "9:00am"}, {"days": "Sun", "time": "Closed"}], "id": "0272100010", "name": "USPS COLLECTION BOX - BLUE BOX", "address": {"city": "FALL RIVER", "state": "MA", "street": "97 SECOND & RODMAN", "postcode": "02721"}}},
{"geometry": {"type": "Point", "coordinates": [-71.1554493419, 41.6869728079]}, "type": "Feature", "properties": {"collection_times": [{"days": "Mon-Fri", "time": "2:00pm"}, {"days": "Sat", "time": "9:00am"}, {"days": "Sun", "time": "Closed"}], "id": "0272100011", "name": "USPS COLLECTION BOX - BLUE BOX", "address": {"city": "FALL RIVER", "state": "MA", "street": "95 MORGAN ST", "postcode": "02721"}}},
{"geometry": {"type": "Point", "coordinates": [-71.1600515625, 41.6926090973]}, "type": "Feature", "properties": {"collection_times": [{"days": "Mon-Sat", "time": "9:00am"}, {"days": "Sun", "time": "Closed"}], "id": "0272100012", "name": "USPS COLLECTION BOX - BLUE BOX", "address": {"city": "FALL RIVER", "state": "MA", "street": "1017 MIDDLE ST", "postcode": "02721"}}},
{"geometry": {"type": "Point", "coordinates": [-71.1571707797, 41.6994863448]}, "type": "Feature", "properties": {"collection_times": [{"days": "Mon-Fri", "time": "2:00pm"}, {"days": "Sat", "time": "9:00am"}, {"days": "Sun", "time": "Closed"}], "id": "0272100013", "name": "USPS COLLECTION BOX - BLUE BOX", "address": {"city": "FALL RIVER", "state": "MA", "street": "248 S MAIN ST", "postcode": "02721"}}},
{"geometry": {"type": "Point", "coordinates": [-71.1638256681, 41.6944661272]}, "type": "Feature", "properties": {"collection_times": [{"days": "Mon-Sat", "time": "9:00am"}, {"days": "Sun", "time": "Closed"}], "id": "0272100015", "name": "USPS COLLECTION BOX - BLUE BOX", "address": {"city": "FALL RIVER", "state": "MA", "street": "720 S MAIN ST", "postcode": "02721"}}},
{"geometry": {"type": "Point", "coordinates": [-71.1598404155, 41.6974885281]}, "type": "Feature", "properties": {"collection_times": [{"days": "Mon-Sat", "time": "9:00am"}, {"days": "Sun", "time": "Closed"}], "id": "0272100016", "name": "USPS COLLECTION BOX - BLUE BOX", "address": {"city": "FALL RIVER", "state": "MA", "street": "408 S MAIN ST", "postcode": "02721"}}},
{"geometry": {"type": "Point", "coordinates": [-71.1554493419, 41.6869728079]}, "type": "Feature", "properties": {"collection_times": [{"days": "Mon-Fri", "time": "2:00pm"}, {"days": "Sat", "time": "9:00am"}, {"days": "Sun", "time": "Closed"}], "id": "0272100017", "name": "USPS COLLECTION BOX - BLUE BOX", "address": {"city": "FALL RIVER", "state": "MA", "street": "594 S MAIN ST", "postcode": "02721"}}},
{"geometry": {"type": "Point", "coordinates": [-71.1477408677, 41.6909199999]}, "type": "Feature", "properties": {"collection_times": [{"days": "Mon-Sat", "time": "9:00am"}, {"days": "Sun", "time": "Closed"}], "id": "0272100019", "name": "USPS COLLECTION BOX - BLUE BOX", "address": {"city": "FALL RIVER", "state": "MA", "street": "834 RODMAN ST", "postcode": "02721"}}},
{"geometry": {"type": "Point", "coordinates": [-71.1554493419, 41.6869728079]}, "type": "Feature", "properties": {"collection_times": [{"days": "Mon-Sat", "time": "9:00am"}, {"days": "Sun", "time": "Closed"}], "id": "0272100020", "name": "USPS COLLECTION BOX - BLUE BOX", "address": {"city": "FALL RIVER", "state": "MA", "street": "164 HARTWELL ST", "postcode": "02721"}}},
{"geometry": {"type": "Point", "coordinates": [-71.1554493419, 41.6869728079]}, "type": "Feature", "properties": {"collection_times": [{"days": "Mon-Sat", "time": "9:00am"}, {"days": "Sun", "time": "Closed"}], "id": "0272100021", "name": "USPS COLLECTION BOX - BLUE BOX", "address": {"city": "FALL RIVER", "state": "MA", "street": "1392 RODMAN ST", "postcode": "02721"}}},
{"geometry": {"type": "Point", "coordinates": [-71.1554493419, 41.6869728079]}, "type": "Feature", "properties": {"collection_times": [{"days": "Mon-Fri", "time": "2:00pm"}, {"days": "Sat", "time": "9:00am"}, {"days": "Sun", "time": "Closed"}], "id": "0272100022", "name": "USPS COLLECTION BOX - BLUE BOX", "address": {"city": "FALL RIVER", "state": "MA", "street": "390 RHODE ISLAND AVE", "postcode": "02721"}}},
{"geometry": {"type": "Point", "coordinates": [-71.1554493419, 41.6869728079]}, "type": "Feature", "properties": {"collection_times": [{"days": "Mon-Sat", "time": "9:30am"}, {"days": "Sun", "time": "Closed"}], "id": "0272100024", "name": "USPS COLLECTION BOX - BLUE BOX", "address": {"city": "FALL RIVER", "state": "MA", "street": "917 PLYMOUTH AVE", "postcode": "02721"}}},
{"geometry": {"type": "Point", "coordinates": [-71.1618139322, 41.6862611735]}, "type": "Feature", "properties": {"collection_times": [{"days": "Mon-Sat", "time": "9:00am"}, {"days": "Sun", "time": "Closed"}], "id": "0272100025", "name": "USPS COLLECTION BOX - BLUE BOX", "address": {"city": "FALL RIVER", "state": "MA", "street": "1254 PLYMOUTH AVE", "postcode": "02721"}}},
{"geometry": {"type": "Point", "coordinates": [-71.1628648134, 41.6848611512]}, "type": "Feature", "properties": {"collection_times": [{"days": "Mon-Sat", "time": "1:00pm"}, {"days": "Sun", "time": "Closed"}], "id": "0272100026", "name": "USPS COLLECTION BOX - BLUE BOX", "address": {"city": "FALL RIVER", "state": "MA", "street": "1368 PLYMOUTH AVE", "postcode": "02721"}}},
{"geometry": {"type": "Point", "coordinates": [-71.1479233391, 41.698995753]}, "type": "Feature", "properties": {"collection_times": [{"days": "Mon-Sat", "time": "1:00pm"}, {"days": "Sun", "time": "Closed"}], "id": "0272100027", "name": "USPS COLLECTION BOX - BLUE BOX", "address": {"city": "FALL RIVER", "state": "MA", "street": "435 PLEASANT ST", "postcode": "02721"}}},
{"geometry": {"type": "Point", "coordinates": [-71.1538916152, 41.688048091]}, "type": "Feature", "properties": {"collection_times": [{"days": "Mon-Sat", "time": "9:00am"}, {"days": "Sun", "time": "Closed"}], "id": "0272100028", "name": "USPS COLLECTION BOX - BLUE BOX", "address": {"city": "FALL RIVER", "state": "MA", "street": "315 WARREN ST", "postcode": "02721"}}},
{"geometry": {"type": "Point", "coordinates": [-71.159898962, 41.6987045494]}, "type": "Feature", "properties": {"collection_times": [{"days": "Mon-Sat", "time": "9:00am"}, {"days": "Sun", "time": "Closed"}], "id": "0272100030", "name": "USPS COLLECTION BOX - BLUE BOX", "address": {"city": "FALL RIVER", "state": "MA", "street": "400 COLUMBIA ST", "postcode": "02721"}}},
{"geometry": {"type": "Point", "coordinates": [-71.1603875951, 41.699337019]}, "type": "Feature", "properties": {"collection_times": [{"days": "Mon-Sat", "time": "9:00am"}, {"days": "Sun", "time": "Closed"}], "id": "0272100031", "name": "USPS COLLECTION BOX - BLUE BOX", "address": {"city": "FALL RIVER", "state": "MA", "street": "301 MILLIKEN BLVD", "postcode": "02721"}}},
{"geometry": {"type": "Point", "coordinates": [-71.1593090136, 41.7002577065]}, "type": "Feature", "properties": {"collection_times": [{"days": "Mon-Fri", "time": "2:00pm"}, {"days": "Sat", "time": "9:00am"}, {"days": "Sun", "time": "Closed"}], "id": "0272100033", "name": "USPS COLLECTION BOX - BLUE BOX", "address": {"city": "FALL RIVER", "state": "MA", "street": "222 MILLIKEN BLVD", "postcode": "02721"}}},
{"geometry": {"type": "Point", "coordinates": [-71.1554493419, 41.6869728079]}, "type": "Feature", "properties": {"collection_times": [{"days": "Mon-Fri", "time": "2:00pm"}, {"days": "Sat", "time": "9:00am"}, {"days": "Sun", "time": "Closed"}], "id": "0272100035", "name": "USPS COLLECTION BOX - BLUE BOX", "address": {"city": "FALL RIVER", "state": "MA", "street": "795 MIDDLE ST", "postcode": "02721"}}},
{"geometry": {"type": "Point", "coordinates": [-71.1542112664, 41.6678396911]}, "type": "Feature", "properties": {"collection_times": [{"days": "Mon-Sat", "time": "9:00am"}, {"days": "Sun", "time": "Closed"}], "id": "0272100037", "name": "USPS COLLECTION BOX - BLUE BOX", "address": {"city": "FALL RIVER", "state": "MA", "street": "1575 STAFFORD RD", "postcode": "02721"}}},
{"geometry": {"type": "Point", "coordinates": [-71.1601887852, 41.6842992311]}, "type": "Feature", "properties": {"collection_times": [{"days": "Mon-Sat", "time": "11:30am"}, {"days": "Sun", "time": "Closed"}], "id": "0272100039", "name": "USPS COLLECTION BOX - BLUE BOX", "address": {"city": "FALL RIVER", "state": "MA", "street": "1210 GLOBE ST", "postcode": "02721"}}},
{"geometry": {"type": "Point", "coordinates": [-71.1653023081, 41.698300532]}, "type": "Feature", "properties": {"collection_times": [{"days": "Mon-Sat", "time": "10:30am"}, {"days": "Sun", "time": "Closed"}], "id": "0272100040", "name": "USPS COLLECTION BOX - BLUE BOX", "address": {"city": "FALL RIVER", "state": "MA", "street": "183 FOUNTAIN ST", "postcode": "02721"}}},
{"geometry": {"type": "Point", "coordinates": [-71.1554493419, 41.6869728079]}, "type": "Feature", "properties": {"collection_times": [{"days": "Mon-Sat", "time": "9:00am"}, {"days": "Sun", "time": "Closed"}], "id": "0272100044", "name": "USPS COLLECTION BOX - BLUE BOX", "address": {"city": "FALL RIVER", "state": "MA", "street": "179 COTTAGE ST", "postcode": "02721"}}},
{"geometry": {"type": "Point", "coordinates": [-71.1641938971, 41.6992450447]}, "type": "Feature", "properties": {"collection_times": [{"days": "Mon-Sat", "time": "2:30pm"}, {"days": "Sun", "time": "Closed"}], "id": "0272100045", "name": "USPS COLLECTION BOX - BLUE BOX", "address": {"city": "FALL RIVER", "state": "MA", "street": "145 COLUMBIA ST", "postcode": "02721"}}},
{"geometry": {"type": "Point", "coordinates": [-71.1627426079, 41.6990019202]}, "type": "Feature", "properties": {"collection_times": [{"days": "Mon-Sat", "time": "9:00am"}, {"days": "Sun", "time": "Closed"}], "id": "0272100046", "name": "USPS COLLECTION BOX - BLUE BOX", "address": {"city": "FALL RIVER", "state": "MA", "street": "235 COLUMBIA ST", "postcode": "02721"}}},
{"geometry": {"type": "Point", "coordinates": [-71.1556024736, 41.6791852274]}, "type": "Feature", "properties": {"collection_times": [{"days": "Mon-Sat", "time": "9:00am"}, {"days": "Sun", "time": "Closed"}], "id": "0272100047", "name": "USPS COLLECTION BOX - BLUE BOX", "address": {"city": "FALL RIVER", "state": "MA", "street": "720 STAFFORD RD", "postcode": "02721"}}},
{"geometry": {"type": "Point", "coordinates": [-71.1554493419, 41.6869728079]}, "type": "Feature", "properties": {"collection_times": [{"days": "Mon-Sat", "time": "9:00am"}, {"days": "Sun", "time": "Closed"}], "id": "0272100049", "name": "USPS COLLECTION BOX - BLUE BOX", "address": {"city": "FALL RIVER", "state": "MA", "street": "260 BROADWAY", "postcode": "02721"}}},
{"geometry": {"type": "Point", "coordinates": [-71.1554493419, 41.6869728079]}, "type": "Feature", "properties": {"collection_times": [{"days": "Mon-Sat", "time": "10:30am"}, {"days": "Sun", "time": "Closed"}], "id": "0272100050", "name": "USPS COLLECTION BOX - BLUE BOX", "address": {"city": "FALL RIVER", "state": "MA", "street": "260 STAFFORD RD", "postcode": "02721"}}},
{"geometry": {"type": "Point", "coordinates": [-71.1554493419, 41.6869728079]}, "type": "Feature", "properties": {"collection_times": [{"days": "Mon-Sat", "time": "11:30am"}, {"days": "Sun", "time": "Closed"}], "id": "0272100055", "name": "USPS COLLECTION BOX - BLUE BOX", "address": {"city": "FALL RIVER", "state": "MA", "street": "638 QUEQUECHAN ST", "postcode": "02721"}}},
{"geometry": {"type": "Point", "coordinates": [-71.1499667856, 41.6993806461]}, "type": "Feature", "properties": {"collection_times": [{"days": "Mon-Fri", "time": "2:00pm"}, {"days": "Sat", "time": "9:00am"}, {"days": "Sun", "time": "Closed"}], "id": "0272100057", "name": "USPS COLLECTION BOX - BLUE BOX", "address": {"city": "FALL RIVER", "state": "MA", "street": "315 PLEASANT ST", "postcode": "02721"}}},
{"geometry": {"type": "Point", "coordinates": [-71.1502780098, 41.663907246]}, "type": "Feature", "properties": {"collection_times": [{"days": "Mon-Fri", "time": "2:00pm"}, {"days": "Sat", "time": "9:00am"}, {"days": "Sun", "time": "Closed"}], "id": "0272100060", "name": "USPS COLLECTION BOX - BLUE BOX", "address": {"city": "FALL RIVER", "state": "MA", "street": "153M BISHOP ST", "postcode": "02721"}}},
{"geometry": {"type": "Point", "coordinates": [-71.1545536905, 41.7013663776]}, "type": "Feature", "properties": {"collection_times": [{"days": "Mon-Fri", "time": "4:30pm"}, {"days": "Sat", "time": "9:00am"}, {"days": "Sun", "time": "Closed"}], "id": "0272200003", "name": "USPS COLLECTION BOX - PO LOBBY", "address": {"city": "FALL RIVER", "state": "MA", "street": "2 GOVERNMENT CTR", "postcode": "02722"}}},
{"geometry": {"type": "Point", "coordinates": [-71.149696555, 41.6994125122]}, "type": "Feature", "properties": {"collection_times": [{"days": "Mon-Fri", "time": "4:30pm"}, {"days": "Sat", "time": "9:00am"}, {"days": "Sun", "time": "Closed"}], "id": "0272200008", "name": "USPS COLLECTION BOX - BLUE BOX", "address": {"city": "FALL RIVER", "state": "MA", "street": "2 GOVERNMENT CTR", "postcode": "02722"}}},
{"geometry": {"type": "Point", "coordinates": [-71.155383545, 41.700951732]}, "type": "Feature", "properties": {"collection_times": [{"days": "Mon-Fri", "time": "4:30pm"}, {"days": "Sat", "time": "9:00am"}, {"days": "Sun", "time": "Closed"}], "id": "0272200010", "name": "USPS COLLECTION BOX - BLUE BOX", "address": {"city": "FALL RIVER", "state": "MA", "street": "1 SULLIVAN DR", "postcode": "02722"}}},
{"geometry": {"type": "Point", "coordinates": [-71.1334071294, 41.6930514705]}, "type": "Feature", "properties": {"collection_times": [{"days": "Mon-Fri", "time": "5:00pm"}, {"days": "Sat", "time": "1:00pm"}, {"days": "Sun", "time": "Closed"}], "id": "0272300006", "name": "USPS COLLECTION BOX - BLUE BOX", "address": {"city": "FALL RIVER", "state": "MA", "street": "1662 PLEASANT ST", "postcode": "02723"}}},
{"geometry": {"type": "Point", "coordinates": [-71.1391685956, 41.6948061607]}, "type": "Feature", "properties": {"collection_times": [{"days": "Mon-Sat", "time": "9:00am"}, {"days": "Sun", "time": "Closed"}], "id": "0272300011", "name": "USPS COLLECTION BOX - BLUE BOX", "address": {"city": "FALL RIVER", "state": "MA", "street": "1001 PLEASANT ST", "postcode": "02723"}}},
{"geometry": {"type": "Point", "coordinates": [-71.1253274539, 41.6833508646]}, "type": "Feature", "properties": {"collection_times": [{"days": "Mon-Sat", "time": "9:00am"}, {"days": "Sun", "time": "Closed"}], "id": "0272300012", "name": "USPS COLLECTION BOX - BLUE BOX", "address": {"city": "FALL RIVER", "state": "MA", "street": "2187 PLEASANT ST", "postcode": "02723"}}},
{"geometry": {"type": "Point", "coordinates": [-71.1334071294, 41.6930514705]}, "type": "Feature", "properties": {"collection_times": [{"days": "Mon-Sat", "time": "9:00am"}, {"days": "Sun", "time": "Closed"}], "id": "0272300016", "name": "USPS COLLECTION BOX - BLUE BOX", "address": {"city": "FALL RIVER", "state": "MA", "street": "1465 PLEASANT ST", "postcode": "02723"}}},
{"geometry": {"type": "Point", "coordinates": [-71.1343768728, 41.6981221654]}, "type": "Feature", "properties": {"collection_times": [{"days": "Mon-Sat", "time": "9:00am"}, {"days": "Sun", "time": "Closed"}], "id": "0272300017", "name": "USPS COLLECTION BOX - BLUE BOX", "address": {"city": "FALL RIVER", "state": "MA", "street": "1174 BEDFORD ST", "postcode": "02723"}}},
{"geometry": {"type": "Point", "coordinates": [-71.1367735975, 41.6839023131]}, "type": "Feature", "properties": {"collection_times": [{"days": "Mon-Sat", "time": "9:00am"}, {"days": "Sun", "time": "Closed"}], "id": "0272300019", "name": "USPS COLLECTION BOX - BLUE BOX", "address": {"city": "FALL RIVER", "state": "MA", "street": "1 FATHER DEVALLES BLVD", "postcode": "02723"}}},
{"geometry": {"type": "Point", "coordinates": [-71.1284726582, 41.7023032415]}, "type": "Feature", "properties": {"collection_times": [{"days": "Mon-Sat", "time": "9:00am"}, {"days": "Sun", "time": "Closed"}], "id": "0272300022", "name": "USPS COLLECTION BOX - BLUE BOX", "address": {"city": "FALL RIVER", "state": "MA", "street": "375 N EASTERN AVE", "postcode": "02723"}}},
{"geometry": {"type": "Point", "coordinates": [-71.1334071294, 41.6930514705]}, "type": "Feature", "properties": {"collection_times": [{"days": "Mon-Sat", "time": "9:00am"}, {"days": "Sun", "time": "Closed"}], "id": "0272300025", "name": "USPS COLLECTION BOX - BLUE BOX", "address": {"city": "FALL RIVER", "state": "MA", "street": "529 EASTERN AVE", "postcode": "02723"}}},
{"geometry": {"type": "Point", "coordinates": [-71.1334071294, 41.6930514705]}, "type": "Feature", "properties": {"collection_times": [{"days": "Mon-Sat", "time": "9:00am"}, {"days": "Sun", "time": "Closed"}], "id": "0272300027", "name": "USPS COLLECTION BOX - BLUE BOX", "address": {"city": "FALL RIVER", "state": "MA", "street": "964 COUNTY ST", "postcode": "02723"}}},
{"geometry": {"type": "Point", "coordinates": [-71.1750670424, 41.6844613945]}, "type": "Feature", "properties": {"collection_times": [{"days": "Mon-Fri", "time": "5:00pm"}, {"days": "Sat", "time": "9:00am"}, {"days": "Sun", "time": "Closed"}], "id": "0272400008", "name": "USPS COLLECTION BOX - BLUE BOX", "address": {"city": "FALL RIVER", "state": "MA", "street": "1460 S MAIN ST", "postcode": "02724"}}},
{"geometry": {"type": "Point", "coordinates": [-71.1697389153, 41.6879820628]}, "type": "Feature", "properties": {"collection_times": [{"days": "Mon-Fri", "time": "2:00pm"}, {"days": "Sat", "time": "9:00am"}, {"days": "Sun", "time": "Closed"}], "id": "0272400010", "name": "USPS COLLECTION BOX - BLUE BOX", "address": {"city": "FALL RIVER", "state": "MA", "street": "1313 S MAIN ST", "postcode": "02724"}}},
{"geometry": {"type": "Point", "coordinates": [-71.1750670424, 41.6844613945]}, "type": "Feature", "properties": {"collection_times": [{"days": "Mon-Fri", "time": "2:00pm"}, {"days": "Sat", "time": "9:00am"}, {"days": "Sun", "time": "Closed"}], "id": "0272400015", "name": "USPS COLLECTION BOX - BLUE BOX", "address": {"city": "FALL RIVER", "state": "MA", "street": "829 S MAIN ST", "postcode": "02724"}}},
{"geometry": {"type": "Point", "coordinates": [-71.1750670424, 41.6844613945]}, "type": "Feature", "properties": {"collection_times": [{"days": "Mon-Fri", "time": "2:00pm"}, {"days": "Sat", "time": "9:00am"}, {"days": "Sun", "time": "Closed"}], "id": "0272400021", "name": "USPS COLLECTION BOX - BLUE BOX", "address": {"city": "FALL RIVER", "state": "MA", "street": "261 OLIVER ST", "postcode": "02724"}}},
{"geometry": {"type": "Point", "coordinates": [-71.1750670424, 41.6844613945]}, "type": "Feature", "properties": {"collection_times": [{"days": "Mon-Sat", "time": "9:00am"}, {"days": "Sun", "time": "Closed"}], "id": "0272400022", "name": "USPS COLLECTION BOX - BLUE BOX", "address": {"city": "FALL RIVER", "state": "MA", "street": "65 MITCHELL DR", "postcode": "02724"}}},
{"geometry": {"type": "Point", "coordinates": [-71.1750670424, 41.6844613945]}, "type": "Feature", "properties": {"collection_times": [{"days": "Mon-Sat", "time": "9:00am"}, {"days": "Sun", "time": "Closed"}], "id": "0272400025", "name": "USPS COLLECTION BOX - BLUE BOX", "address": {"city": "FALL RIVER", "state": "MA", "street": "937 GLOBE ST", "postcode": "02724"}}},
{"geometry": {"type": "Point", "coordinates": [-71.1686810975, 41.6945790768]}, "type": "Feature", "properties": {"collection_times": [{"days": "Mon-Sat", "time": "9:00am"}, {"days": "Sun", "time": "Closed"}], "id": "0272400030", "name": "USPS COLLECTION BOX - BLUE BOX", "address": {"city": "FALL RIVER", "state": "MA", "street": "515 BROADWAY", "postcode": "02724"}}},
{"geometry": {"type": "Point", "coordinates": [-71.1914284616, 41.6762702616]}, "type": "Feature", "properties": {"collection_times": [{"days": "Mon-Sat", "time": "9:00am"}, {"days": "Sun", "time": "Closed"}], "id": "0272400031", "name": "USPS COLLECTION BOX - BLUE BOX", "address": {"city": "FALL RIVER", "state": "MA", "street": "2000 BAY ST", "postcode": "02724"}}},
{"geometry": {"type": "Point", "coordinates": [-71.1789208708, 41.6791596464]}, "type": "Feature", "properties": {"collection_times": [{"days": "Mon-Sat", "time": "9:00am"}, {"days": "Sun", "time": "Closed"}], "id": "0272400036", "name": "USPS COLLECTION BOX - BLUE BOX", "address": {"city": "FALL RIVER", "state": "MA", "street": "2137 S MAIN ST", "postcode": "02724"}}},
{"geometry": {"type": "Point", "coordinates": [-71.1675245378, 41.7199895251]}, "type": "Feature", "properties": {"collection_times": [{"days": "Mon-Sat", "time": "9:00am"}, {"days": "Sun", "time": "Closed"}], "id": "0272500001", "name": "USPS COLLECTION BOX - BLUE BOX", "address": {"city": "SOMERSET", "state": "MA", "street": "500 WILBUR AVE", "postcode": "02725"}}},
{"geometry": {"type": "Point", "coordinates": [-71.170375564, 41.731058142]}, "type": "Feature", "properties": {"collection_times": [{"days": "Mon-Sat", "time": "9:00am"}, {"days": "Sun", "time": "Closed"}], "id": "0272500003", "name": "USPS COLLECTION BOX - BLUE BOX", "address": {"city": "SOMERSET", "state": "MA", "street": "887 GRAND ARMY HWY", "postcode": "02725"}}},
{"geometry": {"type": "Point", "coordinates": [-71.1764661339, 41.722610543]}, "type": "Feature", "properties": {"collection_times": [{"days": "Mon-Sat", "time": "9:00am"}, {"days": "Sun", "time": "Closed"}], "id": "0272500004", "name": "USPS COLLECTION BOX - BLUE BOX", "address": {"city": "SOMERSET", "state": "MA", "street": "1229 WILBUR AVE", "postcode": "02725"}}},
{"geometry": {"type": "Point", "coordinates": [-71.1605982434, 41.7254378162]}, "type": "Feature", "properties": {"collection_times": [{"days": "Mon-Sat", "time": "9:00am"}, {"days": "Sun", "time": "Closed"}], "id": "0272500005", "name": "USPS COLLECTION BOX - BLUE BOX", "address": {"city": "SOMERSET", "state": "MA", "street": "207 BRAYTON AVE", "postcode": "02725"}}},
{"geometry": {"type": "Point", "coordinates": [-71.1373091256, 41.773131963]}, "type": "Feature", "properties": {"collection_times": [{"days": "Mon-Sat", "time": "9:00am"}, {"days": "Sun", "time": "Closed"}], "id": "0272600001", "name": "USPS COLLECTION BOX - BLUE BOX", "address": {"city": "SOMERSET", "state": "MA", "street": "3045 COUNTY ST", "postcode": "02726"}}},
{"geometry": {"type": "Point", "coordinates": [-71.140047045, 41.7457896214]}, "type": "Feature", "properties": {"collection_times": [{"days": "Mon-Sat", "time": "9:00am"}, {"days": "Sun", "time": "Closed"}], "id": "0272600008", "name": "USPS COLLECTION BOX - BLUE BOX", "address": {"city": "SOMERSET", "state": "MA", "street": "2541 RIVERSIDE AVE", "postcode": "02726"}}},
{"geometry": {"type": "Point", "coordinates": [-71.1494966843, 41.7547635833]}, "type": "Feature", "properties": {"collection_times": [{"days": "Mon-Sat", "time": "9:00am"}, {"days": "Sun", "time": "Closed"}], "id": "0272600009", "name": "USPS COLLECTION BOX - BLUE BOX", "address": {"city": "SOMERSET", "state": "MA", "street": "636 BRAYTON AVE", "postcode": "02726"}}},
{"geometry": {"type": "Point", "coordinates": [-71.1467912513, 41.7428539455]}, "type": "Feature", "properties": {"collection_times": [{"days": "Mon-Sat", "time": "9:00am"}, {"days": "Sun", "time": "Closed"}], "id": "0272600011", "name": "USPS COLLECTION BOX - BLUE BOX", "address": {"city": "SOMERSET", "state": "MA", "street": "740 COUNTY ST", "postcode": "02726"}}},
{"geometry": {"type": "Point", "coordinates": [-71.1411596565, 41.7513191485]}, "type": "Feature", "properties": {"collection_times": [{"days": "Mon-Sat", "time": "9:00am"}, {"days": "Sun", "time": "Closed"}], "id": "0272600012", "name": "USPS COLLECTION BOX - BLUE BOX", "address": {"city": "SOMERSET", "state": "MA", "street": "140 WOOD ST", "postcode": "02726"}}},
{"geometry": {"type": "Point", "coordinates": [-71.1494966843, 41.7547635833]}, "type": "Feature", "properties": {"collection_times": [{"days": "Mon-Sat", "time": "9:00am"}, {"days": "Sun", "time": "Closed"}], "id": "0272600019", "name": "USPS COLLECTION BOX - BLUE BOX", "address": {"city": "SOMERSET", "state": "MA", "street": "905 READ ST", "postcode": "02726"}}},
{"geometry": {"type": "Point", "coordinates": [-70.7626353016, 41.7030265547]}, "type": "Feature", "properties": {"collection_times": [{"days": "Mon-Fri", "time": "5:00pm"}, {"days": "Sat", "time": "12:00pm"}, {"days": "Sun", "time": "Closed"}], "id": "0273800002", "name": "USPS COLLECTION BOX - BLUE BOX", "address": {"city": "MARION", "state": "MA", "street": "143 FRONT ST", "postcode": "02738"}}},
{"geometry": {"type": "Point", "coordinates": [-70.7706214575, 41.7149200242]}, "type": "Feature", "properties": {"collection_times": [{"days": "Mon-Sat", "time": "11:00am"}, {"days": "Sun", "time": "Closed"}], "id": "0273800006", "name": "USPS COLLECTION BOX - BLUE BOX", "address": {"city": "MARION", "state": "MA", "street": "413 WAREHAM RD", "postcode": "02738"}}},
{"geometry": {"type": "Point", "coordinates": [-70.8054591493, 41.6582218601]}, "type": "Feature", "properties": {"collection_times": [{"days": "Mon-Fri", "time": "5:00pm"}, {"days": "Sat", "time": "1:00pm"}, {"days": "Sun", "time": "Closed"}], "id": "0273900001", "name": "USPS COLLECTION BOX - BLUE BOX", "address": {"city": "MATTAPOISETT", "state": "MA", "street": "30 COUNTY RD", "postcode": "02739"}}},
{"geometry": {"type": "Point", "coordinates": [-70.8154347578, 41.6629814193]}, "type": "Feature", "properties": {"collection_times": [{"days": "Mon-Fri", "time": "5:00pm"}, {"days": "Sat", "time": "1:00pm"}, {"days": "Sun", "time": "Closed"}], "id": "0273900002", "name": "USPS COLLECTION BOX - BLUE BOX", "address": {"city": "MATTAPOISETT", "state": "MA", "street": "30 COUNTY RD", "postcode": "02739"}}},
{"geometry": {"type": "Point", "coordinates": [-70.8479481099, 41.6525006671]}, "type": "Feature", "properties": {"collection_times": [{"days": "Mon-Sat", "time": "10:00am"}, {"days": "Sun", "time": "Closed"}], "id": "0273900006", "name": "USPS COLLECTION BOX - BLUE BOX", "address": {"city": "MATTAPOISETT", "state": "MA", "street": "109 FAIRHAVEN RD", "postcode": "02739"}}},
{"geometry": {"type": "Point", "coordinates": [-70.927969174, 41.6357835671]}, "type": "Feature", "properties": {"collection_times": [{"days": "Mon-Fri", "time": "5:45pm"}, {"days": "Sat", "time": "5:00pm"}, {"days": "Sun", "time": "Closed"}], "id": "0274000001", "name": "USPS COLLECTION BOX - BLUE BOX", "address": {"city": "NEW BEDFORD", "state": "MA", "street": "40 N 6TH ST", "postcode": "02740"}}},
{"geometry": {"type": "Point", "coordinates": [-70.927969174, 41.6357835671]}, "type": "Feature", "properties": {"collection_times": [{"days": "Mon-Fri", "time": "5:45pm"}, {"days": "Sat", "time": "5:00pm"}, {"days": "Sun", "time": "Closed"}], "id": "0274000002", "name": "USPS COLLECTION BOX - BLUE BOX", "address": {"city": "NEW BEDFORD", "state": "MA", "street": "40 N 6TH ST", "postcode": "02740"}}},
{"geometry": {"type": "Point", "coordinates": [-70.9371040045, 41.6387339179]}, "type": "Feature", "properties": {"collection_times": [{"days": "Mon-Sat", "time": "9:30am"}, {"days": "Sun", "time": "Closed"}], "id": "0274000006", "name": "USPS COLLECTION BOX - BLUE BOX", "address": {"city": "NEW BEDFORD", "state": "MA", "street": "181 HILLMAN ST", "postcode": "02740"}}},
{"geometry": {"type": "Point", "coordinates": [-70.9353764176, 41.633523506]}, "type": "Feature", "properties": {"collection_times": [{"days": "Mon-Sat", "time": "9:30am"}, {"days": "Sun", "time": "Closed"}], "id": "0274000007", "name": "USPS COLLECTION BOX - BLUE BOX", "address": {"city": "NEW BEDFORD", "state": "MA", "street": "219 ASH ST", "postcode": "02740"}}},
{"geometry": {"type": "Point", "coordinates": [-70.9330133324, 41.6262548838]}, "type": "Feature", "properties": {"collection_times": [{"days": "Mon-Sat", "time": "9:30am"}, {"days": "Sun", "time": "Closed"}], "id": "0274000008", "name": "USPS COLLECTION BOX - BLUE BOX", "address": {"city": "NEW BEDFORD", "state": "MA", "street": "222 ALLEN ST", "postcode": "02740"}}},
{"geometry": {"type": "Point", "coordinates": [-70.9372084058, 41.6351716522]}, "type": "Feature", "properties": {"collection_times": [{"days": "Mon-Sat", "time": "9:30am"}, {"days": "Sun", "time": "Closed"}], "id": "0274000009", "name": "USPS COLLECTION BOX - BLUE BOX", "address": {"city": "NEW BEDFORD", "state": "MA", "street": "136 THOMPSON ST", "postcode": "02740"}}},
{"geometry": {"type": "Point", "coordinates": [-70.9412005914, 41.6268676566]}, "type": "Feature", "properties": {"collection_times": [{"days": "Mon-Fri", "time": "2:30pm"}, {"days": "Sat", "time": "9:30am"}, {"days": "Sun", "time": "Closed"}], "id": "0274000010", "name": "USPS COLLECTION BOX - BLUE BOX", "address": {"city": "NEW BEDFORD", "state": "MA", "street": "52 BRIGHAM ST", "postcode": "02740"}}},
{"geometry": {"type": "Point", "coordinates": [-70.9372084058, 41.6351716522]}, "type": "Feature", "properties": {"collection_times": [{"days": "Mon-Sat", "time": "9:30am"}, {"days": "Sun", "time": "Closed"}], "id": "0274000011", "name": "USPS COLLECTION BOX - BLUE BOX", "address": {"city": "NEW BEDFORD", "state": "MA", "street": "610 UNION ST", "postcode": "02740"}}},
{"geometry": {"type": "Point", "coordinates": [-70.9362130792, 41.6437130266]}, "type": "Feature", "properties": {"collection_times": [{"days": "Mon-Sat", "time": "9:30am"}, {"days": "Sun", "time": "Closed"}], "id": "0274000012", "name": "USPS COLLECTION BOX - BLUE BOX", "address": {"city": "NEW BEDFORD", "state": "MA", "street": "274 CEDAR ST", "postcode": "02740"}}},
{"geometry": {"type": "Point", "coordinates": [-70.9337810728, 41.6420734111]}, "type": "Feature", "properties": {"collection_times": [{"days": "Mon-Sat", "time": "9:30am"}, {"days": "Sun", "time": "Closed"}], "id": "0274000013", "name": "USPS COLLECTION BOX - BLUE BOX", "address": {"city": "NEW BEDFORD", "state": "MA", "street": "127 CHESTNUT ST", "postcode": "02740"}}},
{"geometry": {"type": "Point", "coordinates": [-70.9372084058, 41.6351716522]}, "type": "Feature", "properties": {"collection_times": [{"days": "Mon-Sat", "time": "9:30am"}, {"days": "Sun", "time": "Closed"}], "id": "0274000014", "name": "USPS COLLECTION BOX - BLUE BOX", "address": {"city": "NEW BEDFORD", "state": "MA", "street": "1069 KEMPTON ST", "postcode": "02740"}}},
{"geometry": {"type": "Point", "coordinates": [-70.9340589259, 41.6499034136]}, "type": "Feature", "properties": {"collection_times": [{"days": "Mon-Sat", "time": "9:30am"}, {"days": "Sun", "time": "Closed"}], "id": "0274000015", "name": "USPS COLLECTION BOX - BLUE BOX", "address": {"city": "NEW BEDFORD", "state": "MA", "street": "8 DURFEE ST", "postcode": "02740"}}},
{"geometry": {"type": "Point", "coordinates": [-70.9372084058, 41.6351716522]}, "type": "Feature", "properties": {"collection_times": [{"days": "Mon-Sat", "time": "9:30am"}, {"days": "Sun", "time": "Closed"}], "id": "0274000016", "name": "USPS COLLECTION BOX - BLUE BOX", "address": {"city": "NEW BEDFORD", "state": "MA", "street": "602 COTTAGE ST", "postcode": "02740"}}},
{"geometry": {"type": "Point", "coordinates": [-70.9328548159, 41.6335182519]}, "type": "Feature", "properties": {"collection_times": [{"days": "Mon-Fri", "time": "5:00pm"}, {"days": "Sat", "time": "3:30pm"}, {"days": "Sun", "time": "Closed"}], "id": "0274000017", "name": "USPS COLLECTION BOX - BLUE BOX", "address": {"city": "NEW BEDFORD", "state": "MA", "street": "345 UNION ST", "postcode": "02740"}}},
{"geometry": {"type": "Point", "coordinates": [-70.9372084058, 41.6351716522]}, "type": "Feature", "properties": {"collection_times": [{"days": "Mon-Fri", "time": "5:00pm"}, {"days": "Sat", "time": "3:30pm"}, {"days": "Sun", "time": "Closed"}], "id": "0274000019", "name": "USPS COLLECTION BOX - BLUE BOX", "address": {"city": "NEW BEDFORD", "state": "MA", "street": "396 COUNTY ST", "postcode": "02740"}}},
{"geometry": {"type": "Point", "coordinates": [-70.9372084058, 41.6351716522]}, "type": "Feature", "properties": {"collection_times": [{"days": "Mon-Sat", "time": "9:30am"}, {"days": "Sun", "time": "Closed"}], "id": "0274000021", "name": "USPS COLLECTION BOX - BLUE BOX", "address": {"city": "NEW BEDFORD", "state": "MA", "street": "191 COUNTY ST", "postcode": "02740"}}},
{"geometry": {"type": "Point", "coordinates": [-70.9301082655, 41.6349128066]}, "type": "Feature", "properties": {"collection_times": [{"days": "Mon-Fri", "time": "5:00pm"}, {"days": "Sat", "time": "9:30am"}, {"days": "Sun", "time": "Closed"}], "id": "0274000023", "name": "USPS COLLECTION BOX - BLUE BOX", "address": {"city": "NEW BEDFORD", "state": "MA", "street": "190 WILLIAM ST", "postcode": "02740"}}},
{"geometry": {"type": "Point", "coordinates": [-70.9372084058, 41.6351716522]}, "type": "Feature", "properties": {"collection_times": [{"days": "Mon-Fri", "time": "5:00pm"}, {"days": "Sat", "time": "9:30am"}, {"days": "Sun", "time": "Closed"}], "id": "0274000024", "name": "USPS COLLECTION BOX - BLUE BOX", "address": {"city": "NEW BEDFORD", "state": "MA", "street": "190 WILLIAM ST", "postcode": "02740"}}},
{"geometry": {"type": "Point", "coordinates": [-70.9351145039, 41.6202903282]}, "type": "Feature", "properties": {"collection_times": [{"days": "Mon-Sat", "time": "9:30am"}, {"days": "Sun", "time": "Closed"}], "id": "0274000025", "name": "USPS COLLECTION BOX - BLUE BOX", "address": {"city": "NEW BEDFORD", "state": "MA", "street": "274 DARTMOUTH ST", "postcode": "02740"}}},
{"geometry": {"type": "Point", "coordinates": [-70.9369632324, 41.616361798]}, "type": "Feature", "properties": {"collection_times": [{"days": "Mon-Fri", "time": "4:30pm"}, {"days": "Sat", "time": "9:30am"}, {"days": "Sun", "time": "Closed"}], "id": "0274000026", "name": "USPS COLLECTION BOX - BLUE BOX", "address": {"city": "NEW BEDFORD", "state": "MA", "street": "438 DARTMOUTH ST", "postcode": "02740"}}},
{"geometry": {"type": "Point", "coordinates": [-70.938302342, 41.6243858086]}, "type": "Feature", "properties": {"collection_times": [{"days": "Mon-Sat", "time": "9:30am"}, {"days": "Sun", "time": "Closed"}], "id": "0274000027", "name": "USPS COLLECTION BOX - BLUE BOX", "address": {"city": "NEW BEDFORD", "state": "MA", "street": "84 GRAPE ST", "postcode": "02740"}}},
{"geometry": {"type": "Point", "coordinates": [-70.9523570774, 41.6392627006]}, "type": "Feature", "properties": {"collection_times": [{"days": "Mon-Sat", "time": "9:30am"}, {"days": "Sun", "time": "Closed"}], "id": "0274000029", "name": "USPS COLLECTION BOX - BLUE BOX", "address": {"city": "NEW BEDFORD", "state": "MA", "street": "143 JENNY LIND ST", "postcode": "02740"}}},
{"geometry": {"type": "Point", "coordinates": [-70.9372084058, 41.6351716522]}, "type": "Feature", "properties": {"collection_times": [{"days": "Mon-Fri", "time": "4:30pm"}, {"days": "Sat", "time": "9:00am"}, {"days": "Sun", "time": "Closed"}], "id": "0274000030", "name": "USPS COLLECTION BOX - BLUE BOX", "address": {"city": "NEW BEDFORD", "state": "MA", "street": "966 KEMPTON ST", "postcode": "02740"}}},
{"geometry": {"type": "Point", "coordinates": [-70.9202048385, 41.6264278182]}, "type": "Feature", "properties": {"collection_times": [{"days": "Mon-Sat", "time": "9:30am"}, {"days": "Sun", "time": "Closed"}], "id": "0274000033", "name": "USPS COLLECTION BOX - BLUE BOX", "address": {"city": "NEW BEDFORD", "state": "MA", "street": "87 CONWAY ST", "postcode": "02740"}}},
{"geometry": {"type": "Point", "coordinates": [-70.9372084058, 41.6351716522]}, "type": "Feature", "properties": {"collection_times": [{"days": "Mon-Fri", "time": "5:00pm"}, {"days": "Sat", "time": "9:30am"}, {"days": "Sun", "time": "Closed"}], "id": "0274000035", "name": "USPS COLLECTION BOX - BLUE BOX", "address": {"city": "NEW BEDFORD", "state": "MA", "street": "13 N 6TH ST", "postcode": "02740"}}},
{"geometry": {"type": "Point", "coordinates": [-70.9226314849, 41.6342371858]}, "type": "Feature", "properties": {"collection_times": [{"days": "Mon-Fri", "time": "5:00pm"}, {"days": "Sat", "time": "9:30am"}, {"days": "Sun", "time": "Closed"}], "id": "0274000036", "name": "USPS COLLECTION BOX - BLUE BOX", "address": {"city": "NEW BEDFORD", "state": "MA", "street": "18 S WATER ST", "postcode": "02740"}}},
{"geometry": {"type": "Point", "coordinates": [-70.9372084058, 41.6351716522]}, "type": "Feature", "properties": {"collection_times": [{"days": "Mon-Sat", "time": "9:30am"}, {"days": "Sun", "time": "Closed"}], "id": "0274000037", "name": "USPS COLLECTION BOX - BLUE BOX", "address": {"city": "NEW BEDFORD", "state": "MA", "street": "169 OAKDALE ST", "postcode": "02740"}}},
{"geometry": {"type": "Point", "coordinates": [-70.9370484055, 41.6270510152]}, "type": "Feature", "properties": {"collection_times": [{"days": "Mon-Fri", "time": "5:00pm"}, {"days": "Sat", "time": "9:30am"}, {"days": "Sun", "time": "Closed"}], "id": "0274000038", "name": "USPS COLLECTION BOX - BLUE BOX", "address": {"city": "NEW BEDFORD", "state": "MA", "street": "101 PAGE ST", "postcode": "02740"}}},
{"geometry": {"type": "Point", "coordinates": [-70.9372084058, 41.6351716522]}, "type": "Feature", "properties": {"collection_times": [{"days": "Mon-Sat", "time": "9:30am"}, {"days": "Sun", "time": "Closed"}], "id": "0274000039", "name": "USPS COLLECTION BOX - BLUE BOX", "address": {"city": "NEW BEDFORD", "state": "MA", "street": "509 KEMPTON ST", "postcode": "02740"}}},
{"geometry": {"type": "Point", "coordinates": [-70.9289344899, 41.6463060383]}, "type": "Feature", "properties": {"collection_times": [{"days": "Mon-Sat", "time": "9:30am"}, {"days": "Sun", "time": "Closed"}], "id": "0274000040", "name": "USPS COLLECTION BOX - BLUE BOX", "address": {"city": "NEW BEDFORD", "state": "MA", "street": "1220 PLEASANT ST", "postcode": "02740"}}},
{"geometry": {"type": "Point", "coordinates": [-70.9272807133, 41.6371392892]}, "type": "Feature", "properties": {"collection_times": [{"days": "Mon-Sat", "time": "5:00pm"}, {"days": "Sun", "time": "Closed"}], "id": "0274000041", "name": "USPS COLLECTION BOX - BLUE BOX", "address": {"city": "NEW BEDFORD", "state": "MA", "street": "725 PLEASANT ST", "postcode": "02740"}}},
{"geometry": {"type": "Point", "coordinates": [-70.9372084058, 41.6351716522]}, "type": "Feature", "properties": {"collection_times": [{"days": "Mon-Fri", "time": "5:00pm"}, {"days": "Sat", "time": "9:15am"}, {"days": "Sun", "time": "Closed"}], "id": "0274000050", "name": "USPS COLLECTION BOX - BLUE BOX", "address": {"city": "NEW BEDFORD", "state": "MA", "street": "680 PURCHASE ST", "postcode": "02740"}}},
{"geometry": {"type": "Point", "coordinates": [-70.9260409723, 41.6355363798]}, "type": "Feature", "properties": {"collection_times": [{"days": "Mon-Fri", "time": "5:00pm"}, {"days": "Sat", "time": "9:30am"}, {"days": "Sun", "time": "Closed"}], "id": "0274000051", "name": "USPS COLLECTION BOX - BLUE BOX", "address": {"city": "NEW BEDFORD", "state": "MA", "street": "824 PURCHASE ST", "postcode": "02740"}}},
{"geometry": {"type": "Point", "coordinates": [-70.9261552184, 41.6363618778]}, "type": "Feature", "properties": {"collection_times": [{"days": "Mon-Fri", "time": "5:00pm"}, {"days": "Sat", "time": "9:30am"}, {"days": "Sun", "time": "Closed"}], "id": "0274000052", "name": "USPS COLLECTION BOX - BLUE BOX", "address": {"city": "NEW BEDFORD", "state": "MA", "street": "888 PURCHASE ST", "postcode": "02740"}}},
{"geometry": {"type": "Point", "coordinates": [-70.9469142832, 41.6321909719]}, "type": "Feature", "properties": {"collection_times": [{"days": "Mon-Sat", "time": "9:30am"}, {"days": "Sun", "time": "Closed"}], "id": "0274000055", "name": "USPS COLLECTION BOX - BLUE BOX", "address": {"city": "NEW BEDFORD", "state": "MA", "street": "285 REED ST", "postcode": "02740"}}},
{"geometry": {"type": "Point", "coordinates": [-70.9372084061, 41.6351716059]}, "type": "Feature", "properties": {"collection_times": [{"days": "Mon-Sat", "time": "9:30am"}, {"days": "Sun", "time": "Closed"}], "id": "0274000057", "name": "USPS COLLECTION BOX - BLUE BOX", "address": {"city": "NEW BEDFORD", "state": "MA", "street": "330D HATHAWAY BLVD", "postcode": "02740"}}},
{"geometry": {"type": "Point", "coordinates": [-70.9487431378, 41.6354772319]}, "type": "Feature", "properties": {"collection_times": [{"days": "Mon-Sat", "time": "9:30am"}, {"days": "Sun", "time": "Closed"}], "id": "0274000058", "name": "USPS COLLECTION BOX - BLUE BOX", "address": {"city": "NEW BEDFORD", "state": "MA", "street": "874 KEMPTON ST", "postcode": "02740"}}},
{"geometry": {"type": "Point", "coordinates": [-70.9359316922, 41.614601555]}, "type": "Feature", "properties": {"collection_times": [{"days": "Mon-Sat", "time": "9:30am"}, {"days": "Sun", "time": "Closed"}], "id": "0274000059", "name": "USPS COLLECTION BOX - BLUE BOX", "address": {"city": "NEW BEDFORD", "state": "MA", "street": "117 ROCKDALE AVE", "postcode": "02740"}}},
{"geometry": {"type": "Point", "coordinates": [-70.9234987935, 41.6308199225]}, "type": "Feature", "properties": {"collection_times": [{"days": "Mon-Fri", "time": "5:00pm"}, {"days": "Sat", "time": "9:30am"}, {"days": "Sun", "time": "Closed"}], "id": "0274000060", "name": "USPS COLLECTION BOX - BLUE BOX", "address": {"city": "NEW BEDFORD", "state": "MA", "street": "134 S 2ND ST", "postcode": "02740"}}},
{"geometry": {"type": "Point", "coordinates": [-70.9372084058, 41.6351716522]}, "type": "Feature", "properties": {"collection_times": [{"days": "Mon-Fri", "time": "5:00pm"}, {"days": "Sat", "time": "9:30am"}, {"days": "Sun", "time": "Closed"}], "id": "0274000062", "name": "USPS COLLECTION BOX - BLUE BOX", "address": {"city": "NEW BEDFORD", "state": "MA", "street": "9 S 6TH ST", "postcode": "02740"}}},
{"geometry": {"type": "Point", "coordinates": [-70.9323189355, 41.6388604945]}, "type": "Feature", "properties": {"collection_times": [{"days": "Mon-Sat", "time": "9:30am"}, {"days": "Sun", "time": "Closed"}], "id": "0274000065", "name": "USPS COLLECTION BOX - BLUE BOX", "address": {"city": "NEW BEDFORD", "state": "MA", "street": "110 SUMMER ST", "postcode": "02740"}}},
{"geometry": {"type": "Point", "coordinates": [-70.9372084058, 41.6351716522]}, "type": "Feature", "properties": {"collection_times": [{"days": "Mon-Sat", "time": "9:30am"}, {"days": "Sun", "time": "Closed"}], "id": "0274000066", "name": "USPS COLLECTION BOX - BLUE BOX", "address": {"city": "NEW BEDFORD", "state": "MA", "street": "359 SUMMER ST", "postcode": "02740"}}},
{"geometry": {"type": "Point", "coordinates": [-70.9407619399, 41.6326414368]}, "type": "Feature", "properties": {"collection_times": [{"days": "Mon-Sat", "time": "9:30am"}, {"days": "Sun", "time": "Closed"}], "id": "0274000068", "name": "USPS COLLECTION BOX - BLUE BOX", "address": {"city": "NEW BEDFORD", "state": "MA", "street": "518 UNION ST", "postcode": "02740"}}},
{"geometry": {"type": "Point", "coordinates": [-70.9372084058, 41.6351716522]}, "type": "Feature", "properties": {"collection_times": [{"days": "Mon-Fri", "time": "5:00pm"}, {"days": "Sat", "time": "9:30am"}, {"days": "Sun", "time": "Closed"}], "id": "0274000069", "name": "USPS COLLECTION BOX - BLUE BOX", "address": {"city": "NEW BEDFORD", "state": "MA", "street": "261 UNION ST", "postcode": "02740"}}},
{"geometry": {"type": "Point", "coordinates": [-70.9271269286, 41.6340990847]}, "type": "Feature", "properties": {"collection_times": [{"days": "Mon-Sat", "time": "9:30am"}, {"days": "Sun", "time": "Closed"}], "id": "0274000070", "name": "USPS COLLECTION BOX - BLUE BOX", "address": {"city": "NEW BEDFORD", "state": "MA", "street": "222 UNION ST", "postcode": "02740"}}},
{"geometry": {"type": "Point", "coordinates": [-70.9271787843, 41.6341523669]}, "type": "Feature", "properties": {"collection_times": [{"days": "Mon-Fri", "time": "5:00pm"}, {"days": "Sat", "time": "9:30am"}, {"days": "Sun", "time": "Closed"}], "id": "0274000071", "name": "USPS COLLECTION BOX - BLUE BOX", "address": {"city": "NEW BEDFORD", "state": "MA", "street": "227 UNION ST", "postcode": "02740"}}},
{"geometry": {"type": "Point", "coordinates": [-70.9623655539, 41.6451375299]}, "type": "Feature", "properties": {"collection_times": [{"days": "Mon-Sat", "time": "9:30am"}, {"days": "Sun", "time": "Closed"}], "id": "0274000072", "name": "USPS COLLECTION BOX - BLUE BOX", "address": {"city": "NEW BEDFORD", "state": "MA", "street": "42 W HILL RD", "postcode": "02740"}}},
{"geometry": {"type": "Point", "coordinates": [-70.9485750232, 41.6262847927]}, "type": "Feature", "properties": {"collection_times": [{"days": "Mon-Sat", "time": "9:30am"}, {"days": "Sun", "time": "Closed"}], "id": "0274000073", "name": "USPS COLLECTION BOX - BLUE BOX", "address": {"city": "NEW BEDFORD", "state": "MA", "street": "187 RYAN ST", "postcode": "02740"}}},
{"geometry": {"type": "Point", "coordinates": [-70.9281466392, 41.6351495523]}, "type": "Feature", "properties": {"collection_times": [{"days": "Mon-Fri", "time": "5:00pm"}, {"days": "Sat", "time": "9:30am"}, {"days": "Sun", "time": "Closed"}], "id": "0274000076", "name": "USPS COLLECTION BOX - BLUE BOX", "address": {"city": "NEW BEDFORD", "state": "MA", "street": "133 WILLIAM ST", "postcode": "02740"}}},
{"geometry": {"type": "Point", "coordinates": [-70.9301598218, 41.6337531542]}, "type": "Feature", "properties": {"collection_times": [{"days": "Mon-Fri", "time": "5:00pm"}, {"days": "Sat", "time": "9:30am"}, {"days": "Sun", "time": "Closed"}], "id": "0274000077", "name": "USPS COLLECTION BOX - BLUE BOX", "address": {"city": "NEW BEDFORD", "state": "MA", "street": "300 UNION ST", "postcode": "02740"}}},
{"geometry": {"type": "Point", "coordinates": [-70.9372084058, 41.6351716522]}, "type": "Feature", "properties": {"collection_times": [{"days": "Mon-Fri", "time": "5:45pm"}, {"days": "Sat", "time": "4:30pm"}, {"days": "Sun", "time": "Closed"}], "id": "0274000079", "name": "USPS COLLECTION BOX - BLUE BOX", "address": {"city": "NEW BEDFORD", "state": "MA", "street": "695 PLEASANT ST", "postcode": "02740"}}},
{"geometry": {"type": "Point", "coordinates": [-70.9372084058, 41.6351716522]}, "type": "Feature", "properties": {"collection_times": [{"days": "Mon-Fri", "time": "5:45pm"}, {"days": "Sat", "time": "4:30pm"}, {"days": "Sun", "time": "Closed"}], "id": "0274000080", "name": "USPS COLLECTION BOX - BLUE BOX", "address": {"city": "NEW BEDFORD", "state": "MA", "street": "695 PLEASANT ST", "postcode": "02740"}}},
{"geometry": {"type": "Point", "coordinates": [-70.9372084058, 41.6351716522]}, "type": "Feature", "properties": {"collection_times": [{"days": "Mon-Fri", "time": "5:45pm"}, {"days": "Sat", "time": "4:30pm"}, {"days": "Sun", "time": "Closed"}], "id": "0274000081", "name": "USPS COLLECTION BOX - BLUE BOX", "address": {"city": "NEW BEDFORD", "state": "MA", "street": "695 PLEASANT ST", "postcode": "02740"}}},
{"geometry": {"type": "Point", "coordinates": [-70.9393729198, 41.6402776794]}, "type": "Feature", "properties": {"collection_times": [{"days": "Mon-Sat", "time": "9:30am"}, {"days": "Sun", "time": "Closed"}], "id": "0274000082", "name": "USPS COLLECTION BOX - BLUE BOX", "address": {"city": "NEW BEDFORD", "state": "MA", "street": "381 PARK ST", "postcode": "02740"}}},
{"geometry": {"type": "Point", "coordinates": [-70.9093259411, 41.6807002615]}, "type": "Feature", "properties": {"collection_times": [{"days": "Mon-Fri", "time": "4:30pm"}, {"days": "Sat", "time": "4:00pm"}, {"days": "Sun", "time": "Closed"}], "id": "0274300001", "name": "USPS COLLECTION BOX - BLUE BOX", "address": {"city": "NEW BEDFORD", "state": "MA", "street": "178 S MAIN ST", "postcode": "02743"}}},
{"geometry": {"type": "Point", "coordinates": [-70.9094180329, 41.6809146857]}, "type": "Feature", "properties": {"collection_times": [{"days": "Mon-Fri", "time": "4:30pm"}, {"days": "Sat", "time": "11:30am"}, {"days": "Sun", "time": "Closed"}], "id": "0274300003", "name": "USPS COLLECTION BOX - PO LOBBY", "address": {"city": "NEW BEDFORD", "state": "MA", "street": "178 S MAIN ST", "postcode": "02743"}}},
{"geometry": {"type": "Point", "coordinates": [-70.9297010473, 41.6164682643]}, "type": "Feature", "properties": {"collection_times": [{"days": "Mon-Fri", "time": "5:00pm"}, {"days": "Sat", "time": "12:00pm"}, {"days": "Sun", "time": "Closed"}], "id": "0274400001", "name": "USPS COLLECTION BOX - BLUE BOX", "address": {"city": "NEW BEDFORD", "state": "MA", "street": "584 ORCHARD ST", "postcode": "02744"}}},
{"geometry": {"type": "Point", "coordinates": [-70.9097196874, 41.6032569786]}, "type": "Feature", "properties": {"collection_times": [{"days": "Mon-Sat", "time": "9:30am"}, {"days": "Sun", "time": "Closed"}], "id": "0274400004", "name": "USPS COLLECTION BOX - BLUE BOX", "address": {"city": "NEW BEDFORD", "state": "MA", "street": "332 BROCK AVE", "postcode": "02744"}}},
{"geometry": {"type": "Point", "coordinates": [-70.9168172956, 41.612190918]}, "type": "Feature", "properties": {"collection_times": [{"days": "Mon-Sat", "time": "9:30am"}, {"days": "Sun", "time": "Closed"}], "id": "0274400005", "name": "USPS COLLECTION BOX - BLUE BOX", "address": {"city": "NEW BEDFORD", "state": "MA", "street": "890 BROCK AVE", "postcode": "02744"}}},
{"geometry": {"type": "Point", "coordinates": [-70.9168172956, 41.612190918]}, "type": "Feature", "properties": {"collection_times": [{"days": "Mon-Sat", "time": "9:30am"}, {"days": "Sun", "time": "Closed"}], "id": "0274400006", "name": "USPS COLLECTION BOX - BLUE BOX", "address": {"city": "NEW BEDFORD", "state": "MA", "street": "623 BROCK AVE", "postcode": "02744"}}},
{"geometry": {"type": "Point", "coordinates": [-70.9237858912, 41.6198276014]}, "type": "Feature", "properties": {"collection_times": [{"days": "Mon-Sat", "time": "9:30am"}, {"days": "Sun", "time": "Closed"}], "id": "0274400008", "name": "USPS COLLECTION BOX - BLUE BOX", "address": {"city": "NEW BEDFORD", "state": "MA", "street": "133 COUNTY ST", "postcode": "02744"}}},
{"geometry": {"type": "Point", "coordinates": [-70.9193590727, 41.6161678525]}, "type": "Feature", "properties": {"collection_times": [{"days": "Mon-Sat", "time": "9:30am"}, {"days": "Sun", "time": "Closed"}], "id": "0274400009", "name": "USPS COLLECTION BOX - BLUE BOX", "address": {"city": "NEW BEDFORD", "state": "MA", "street": "2 RODNEY FRENCH BLVD", "postcode": "02744"}}},
{"geometry": {"type": "Point", "coordinates": [-70.9119199911, 41.615295952]}, "type": "Feature", "properties": {"collection_times": [{"days": "Mon-Sat", "time": "9:30am"}, {"days": "Sun", "time": "Closed"}], "id": "0274400012", "name": "USPS COLLECTION BOX - BLUE BOX", "address": {"city": "NEW BEDFORD", "state": "MA", "street": "12 RUTH ST", "postcode": "02744"}}},
{"geometry": {"type": "Point", "coordinates": [-70.9360569796, 41.6930601142]}, "type": "Feature", "properties": {"collection_times": [{"days": "Mon-Fri", "time": "5:00pm"}, {"days": "Sat", "time": "1:00pm"}, {"days": "Sun", "time": "Closed"}], "id": "0274500001", "name": "USPS COLLECTION BOX - BLUE BOX", "address": {"city": "NEW BEDFORD", "state": "MA", "street": "748 MOUNT PLEASANT ST", "postcode": "02745"}}},
{"geometry": {"type": "Point", "coordinates": [-70.9440080351, 41.6701294218]}, "type": "Feature", "properties": {"collection_times": [{"days": "Mon-Fri", "time": "5:00pm"}, {"days": "Sat", "time": "1:00pm"}, {"days": "Sun", "time": "Closed"}], "id": "0274500002", "name": "USPS COLLECTION BOX - BLUE BOX", "address": {"city": "NEW BEDFORD", "state": "MA", "street": "748 MOUNT PLEASANT ST", "postcode": "02745"}}},
{"geometry": {"type": "Point", "coordinates": [-70.9261095839, 41.6710630035]}, "type": "Feature", "properties": {"collection_times": [{"days": "Mon-Sat", "time": "9:00am"}, {"days": "Sun", "time": "Closed"}], "id": "0274500006", "name": "USPS COLLECTION BOX - BLUE BOX", "address": {"city": "NEW BEDFORD", "state": "MA", "street": "1833 ACUSHNET AVE", "postcode": "02745"}}},
{"geometry": {"type": "Point", "coordinates": [-70.9243606012, 41.6730631297]}, "type": "Feature", "properties": {"collection_times": [{"days": "Mon-Sat", "time": "9:00am"}, {"days": "Sun", "time": "Closed"}], "id": "0274500007", "name": "USPS COLLECTION BOX - BLUE BOX", "address": {"city": "NEW BEDFORD", "state": "MA", "street": "1918 ACUSHNET AVE", "postcode": "02745"}}},
{"geometry": {"type": "Point", "coordinates": [-70.9436601565, 41.7327339535]}, "type": "Feature", "properties": {"collection_times": [{"days": "Mon-Fri", "time": "4:30pm"}, {"days": "Sat", "time": "1:00pm"}, {"days": "Sun", "time": "Closed"}], "id": "0274500008", "name": "USPS COLLECTION BOX - BLUE BOX", "address": {"city": "NEW BEDFORD", "state": "MA", "street": "4241 ACUSHNET AVE", "postcode": "02745"}}},
{"geometry": {"type": "Point", "coordinates": [-70.9337053634, 41.6962056133]}, "type": "Feature", "properties": {"collection_times": [{"days": "Mon-Sat", "time": "9:00am"}, {"days": "Sun", "time": "Closed"}], "id": "0274500009", "name": "USPS COLLECTION BOX - BLUE BOX", "address": {"city": "NEW BEDFORD", "state": "MA", "street": "2803 ACUSHNET AVE", "postcode": "02745"}}},
{"geometry": {"type": "Point", "coordinates": [-70.9225997447, 41.6801717875]}, "type": "Feature", "properties": {"collection_times": [{"days": "Mon-Sat", "time": "9:00am"}, {"days": "Sun", "time": "Closed"}], "id": "0274500012", "name": "USPS COLLECTION BOX - BLUE BOX", "address": {"city": "NEW BEDFORD", "state": "MA", "street": "2125 ACUSHNET AVE", "postcode": "02745"}}},
{"geometry": {"type": "Point", "coordinates": [-70.9360569795, 41.6930601606]}, "type": "Feature", "properties": {"collection_times": [{"days": "Mon-Fri", "time": "4:30pm"}, {"days": "Sat", "time": "1:00pm"}, {"days": "Sun", "time": "Closed"}], "id": "0274500014", "name": "USPS COLLECTION BOX - BLUE BOX", "address": {"city": "NEW BEDFORD", "state": "MA", "street": "4499 ACUSHNET AVE", "postcode": "02745"}}},
{"geometry": {"type": "Point", "coordinates": [-70.9309056719, 41.6664723266]}, "type": "Feature", "properties": {"collection_times": [{"days": "Mon-Sat", "time": "9:00am"}, {"days": "Sun", "time": "Closed"}], "id": "0274500015", "name": "USPS COLLECTION BOX - BLUE BOX", "address": {"city": "NEW BEDFORD", "state": "MA", "street": "669 ASHLEY BLVD", "postcode": "02745"}}},
{"geometry": {"type": "Point", "coordinates": [-70.9261274084, 41.6825430569]}, "type": "Feature", "properties": {"collection_times": [{"days": "Mon-Sat", "time": "9:00am"}, {"days": "Sun", "time": "Closed"}], "id": "0274500019", "name": "USPS COLLECTION BOX - BLUE BOX", "address": {"city": "NEW BEDFORD", "state": "MA", "street": "63 CASWELL ST", "postcode": "02745"}}},
{"geometry": {"type": "Point", "coordinates": [-70.9378634642, 41.6809702848]}, "type": "Feature", "properties": {"collection_times": [{"days": "Mon-Sat", "time": "9:00am"}, {"days": "Sun", "time": "Closed"}], "id": "0274500022", "name": "USPS COLLECTION BOX - BLUE BOX", "address": {"city": "NEW BEDFORD", "state": "MA", "street": "540 TARKILN HILL RD", "postcode": "02745"}}},
{"geometry": {"type": "Point", "coordinates": [-70.9457053572, 41.705439512]}, "type": "Feature", "properties": {"collection_times": [{"days": "Mon-Fri", "time": "4:15pm"}, {"days": "Sat-Sun", "time": "Closed"}], "id": "0274500026", "name": "USPS COLLECTION BOX - BLUE BOX", "address": {"city": "NEW BEDFORD", "state": "MA", "street": "4 WELBY RD", "postcode": "02745"}}},
{"geometry": {"type": "Point", "coordinates": [-70.9300890579, 41.6822183065]}, "type": "Feature", "properties": {"collection_times": [{"days": "Mon-Sat", "time": "9:00am"}, {"days": "Sun", "time": "Closed"}], "id": "0274500028", "name": "USPS COLLECTION BOX - BLUE BOX", "address": {"city": "NEW BEDFORD", "state": "MA", "street": "313 TARKILN HILL RD", "postcode": "02745"}}},
{"geometry": {"type": "Point", "coordinates": [-70.9360569796, 41.6930601142]}, "type": "Feature", "properties": {"collection_times": [{"days": "Mon-Fri", "time": "5:00pm"}, {"days": "Sat", "time": "1:00pm"}, {"days": "Sun", "time": "Closed"}], "id": "0274500030", "name": "USPS COLLECTION BOX - BLUE BOX", "address": {"city": "NEW BEDFORD", "state": "MA", "street": "200 THEODORE RICE BLVD", "postcode": "02745"}}},
{"geometry": {"type": "Point", "coordinates": [-70.9531102451, 41.7263697814]}, "type": "Feature", "properties": {"collection_times": [{"days": "Mon-Fri", "time": "5:00pm"}, {"days": "Sat", "time": "1:00pm"}, {"days": "Sun", "time": "Closed"}], "id": "0274500031", "name": "USPS COLLECTION BOX - BLUE BOX", "address": {"city": "NEW BEDFORD", "state": "MA", "street": "200 THEODORE RICE BLVD", "postcode": "02745"}}},
{"geometry": {"type": "Point", "coordinates": [-70.9282467366, 41.6785574644]}, "type": "Feature", "properties": {"collection_times": [{"days": "Mon-Sat", "time": "9:00am"}, {"days": "Sun", "time": "Closed"}], "id": "0274500033", "name": "USPS COLLECTION BOX - BLUE BOX", "address": {"city": "NEW BEDFORD", "state": "MA", "street": "335 WOOD ST", "postcode": "02745"}}},
{"geometry": {"type": "Point", "coordinates": [-70.9322594448, 41.6608027934]}, "type": "Feature", "properties": {"collection_times": [{"days": "Mon-Fri", "time": "5:00pm"}, {"days": "Sat", "time": "12:15pm"}, {"days": "Sun", "time": "Closed"}], "id": "0274600001", "name": "USPS COLLECTION BOX - BLUE BOX", "address": {"city": "NEW BEDFORD", "state": "MA", "street": "282 COFFIN AVE", "postcode": "02746"}}},
{"geometry": {"type": "Point", "coordinates": [-70.9288315725, 41.661938841]}, "type": "Feature", "properties": {"collection_times": [{"days": "Mon-Fri", "time": "5:00pm"}, {"days": "Sat", "time": "12:15pm"}, {"days": "Sun", "time": "Closed"}], "id": "0274600002", "name": "USPS COLLECTION BOX - BLUE BOX", "address": {"city": "NEW BEDFORD", "state": "MA", "street": "282 COFFIN AVE", "postcode": "02746"}}},
{"geometry": {"type": "Point", "coordinates": [-70.9314165138, 41.6604422041]}, "type": "Feature", "properties": {"collection_times": [{"days": "Mon-Sat", "time": "9:00am"}, {"days": "Sun", "time": "Closed"}], "id": "0274600006", "name": "USPS COLLECTION BOX - BLUE BOX", "address": {"city": "NEW BEDFORD", "state": "MA", "street": "1645 ACUSHNET AVE", "postcode": "02746"}}},
{"geometry": {"type": "Point", "coordinates": [-70.9231628331, 41.6643757365]}, "type": "Feature", "properties": {"collection_times": [{"days": "Mon-Sat", "time": "9:00am"}, {"days": "Sun", "time": "Closed"}], "id": "0274600009", "name": "USPS COLLECTION BOX - BLUE BOX", "address": {"city": "NEW BEDFORD", "state": "MA", "street": "483 BELLEVILLE AVE", "postcode": "02746"}}},
{"geometry": {"type": "Point", "coordinates": [-70.9314165138, 41.6604422041]}, "type": "Feature", "properties": {"collection_times": [{"days": "Mon-Sat", "time": "9:00am"}, {"days": "Sun", "time": "Closed"}], "id": "0274600014", "name": "USPS COLLECTION BOX - BLUE BOX", "address": {"city": "NEW BEDFORD", "state": "MA", "street": "446 MOUNT PLEASANT ST", "postcode": "02746"}}},
{"geometry": {"type": "Point", "coordinates": [-70.9391694509, 41.6561174999]}, "type": "Feature", "properties": {"collection_times": [{"days": "Mon-Sat", "time": "9:00am"}, {"days": "Sun", "time": "Closed"}], "id": "0274600015", "name": "USPS COLLECTION BOX - BLUE BOX", "address": {"city": "NEW BEDFORD", "state": "MA", "street": "255 MOUNT PLEASANT ST", "postcode": "02746"}}},
{"geometry": {"type": "Point", "coordinates": [-70.9224476168, 41.6581609856]}, "type": "Feature", "properties": {"collection_times": [{"days": "Mon-Sat", "time": "9:00am"}, {"days": "Sun", "time": "Closed"}], "id": "0274600021", "name": "USPS COLLECTION BOX - BLUE BOX", "address": {"city": "NEW BEDFORD", "state": "MA", "street": "124 SAWYER ST", "postcode": "02746"}}},
{"geometry": {"type": "Point", "coordinates": [-70.9885176446, 41.6448009657]}, "type": "Feature", "properties": {"collection_times": [{"days": "Mon-Fri", "time": "5:00pm"}, {"days": "Sat", "time": "4:00pm"}, {"days": "Sun", "time": "Closed"}], "id": "0274700002", "name": "USPS COLLECTION BOX - BLUE BOX", "address": {"city": "NORTH DARTMOUTH", "state": "MA", "street": "77 FAUNCE CORNER MALL RD", "postcode": "02747"}}},
{"geometry": {"type": "Point", "coordinates": [-70.9946363436, 41.6396209374]}, "type": "Feature", "properties": {"collection_times": [{"days": "Mon-Fri", "time": "4:30pm"}, {"days": "Sat-Sun", "time": "Closed"}], "id": "0274700005", "name": "USPS COLLECTION BOX - BLUE BOX", "address": {"city": "NORTH DARTMOUTH", "state": "MA", "street": "76 FAUNCE CORNER RD", "postcode": "02747"}}},
{"geometry": {"type": "Point", "coordinates": [-70.9881076019, 41.6425238176]}, "type": "Feature", "properties": {"collection_times": [{"days": "Mon-Fri", "time": "4:30pm"}, {"days": "Sat-Sun", "time": "Closed"}], "id": "0274700007", "name": "USPS COLLECTION BOX - BLUE BOX", "address": {"city": "NORTH DARTMOUTH", "state": "MA", "street": "25 FAUNCE CORNER MALL RD", "postcode": "02747"}}},
{"geometry": {"type": "Point", "coordinates": [-70.9663045056, 41.6290076593]}, "type": "Feature", "properties": {"collection_times": [{"days": "Mon-Fri", "time": "4:30pm"}, {"days": "Sat", "time": "8:30am"}, {"days": "Sun", "time": "Closed"}], "id": "0274700012", "name": "USPS COLLECTION BOX - BLUE BOX", "address": {"city": "NORTH DARTMOUTH", "state": "MA", "street": "400 SLOCUM RD", "postcode": "02747"}}},
{"geometry": {"type": "Point", "coordinates": [-70.9894944836, 41.6424980383]}, "type": "Feature", "properties": {"collection_times": [{"days": "Mon-Fri", "time": "4:30pm"}, {"days": "Sat", "time": "8:30am"}, {"days": "Sun", "time": "Closed"}], "id": "0274700013", "name": "USPS COLLECTION BOX - BLUE BOX", "address": {"city": "NORTH DARTMOUTH", "state": "MA", "street": "200 N DARTMOUTH MALL", "postcode": "02747"}}},
{"geometry": {"type": "Point", "coordinates": [-70.959912253, 41.6366368008]}, "type": "Feature", "properties": {"collection_times": [{"days": "Mon-Fri", "time": "4:30pm"}, {"days": "Sat", "time": "8:30am"}, {"days": "Sun", "time": "Closed"}], "id": "0274700015", "name": "USPS COLLECTION BOX - BLUE BOX", "address": {"city": "NORTH DARTMOUTH", "state": "MA", "street": "5 STATE RD", "postcode": "02747"}}},
{"geometry": {"type": "Point", "coordinates": [-70.9664267763, 41.6376688524]}, "type": "Feature", "properties": {"collection_times": [{"days": "Mon-Fri", "time": "4:30pm"}, {"days": "Sat", "time": "8:30am"}, {"days": "Sun", "time": "Closed"}], "id": "0274700017", "name": "USPS COLLECTION BOX - BLUE BOX", "address": {"city": "NORTH DARTMOUTH", "state": "MA", "street": "102 STATE RD", "postcode": "02747"}}},
{"geometry": {"type": "Point", "coordinates": [-70.9898329189, 41.6398348813]}, "type": "Feature", "properties": {"collection_times": [{"days": "Mon-Sat", "time": "8:30am"}, {"days": "Sun", "time": "Closed"}], "id": "0274700018", "name": "USPS COLLECTION BOX - BLUE BOX", "address": {"city": "NORTH DARTMOUTH", "state": "MA", "street": "400 STATE RD", "postcode": "02747"}}},
{"geometry": {"type": "Point", "coordinates": [-70.9808276951, 41.6403928471]}, "type": "Feature", "properties": {"collection_times": [{"days": "Mon-Sat", "time": "9:00am"}, {"days": "Sun", "time": "Closed"}], "id": "0274700019", "name": "USPS COLLECTION BOX - BLUE BOX", "address": {"city": "NORTH DARTMOUTH", "state": "MA", "street": "634 STATE RD", "postcode": "02747"}}},
{"geometry": {"type": "Point", "coordinates": [-70.9885176446, 41.6448009657]}, "type": "Feature", "properties": {"collection_times": [{"days": "Mon-Fri", "time": "5:00pm"}, {"days": "Sat", "time": "4:00pm"}, {"days": "Sun", "time": "Closed"}], "id": "0274700022", "name": "USPS COLLECTION BOX - PO LOBBY", "address": {"city": "NORTH DARTMOUTH", "state": "MA", "street": "77 FAUNCE CORNER MALL RD", "postcode": "02747"}}},
{"geometry": {"type": "Point", "coordinates": [-70.9946363436, 41.6396209374]}, "type": "Feature", "properties": {"collection_times": [{"days": "Mon-Fri", "time": "5:00pm"}, {"days": "Sat", "time": "4:00pm"}, {"days": "Sun", "time": "Closed"}], "id": "0274700023", "name": "USPS COLLECTION BOX - PO LOBBY", "address": {"city": "NORTH DARTMOUTH", "state": "MA", "street": "77 FAUNCE CORNER MALL RD", "postcode": "02747"}}},
{"geometry": {"type": "Point", "coordinates": [-70.9417578, 41.5993712432]}, "type": "Feature", "properties": {"collection_times": [{"days": "Mon-Fri", "time": "5:00pm"}, {"days": "Sat", "time": "4:15pm"}, {"days": "Sun", "time": "Closed"}], "id": "0274800002", "name": "USPS COLLECTION BOX - BLUE BOX", "address": {"city": "SOUTH DARTMOUTH", "state": "MA", "street": "668 DARTMOUTH ST", "postcode": "02748"}}},
{"geometry": {"type": "Point", "coordinates": [-70.9477228096, 41.5924961863]}, "type": "Feature", "properties": {"collection_times": [{"days": "Mon-Sat", "time": "2:45pm"}, {"days": "Sun", "time": "Closed"}], "id": "0274800006", "name": "USPS COLLECTION BOX - BLUE BOX", "address": {"city": "SOUTH DARTMOUTH", "state": "MA", "street": "8 BUSH ST", "postcode": "02748"}}},
{"geometry": {"type": "Point", "coordinates": [-70.9451557886, 41.5880238316]}, "type": "Feature", "properties": {"collection_times": [{"days": "Mon-Fri", "time": "2:45pm"}, {"days": "Sat", "time": "3:45pm"}, {"days": "Sun", "time": "Closed"}], "id": "0274800007", "name": "USPS COLLECTION BOX - BLUE BOX", "address": {"city": "SOUTH DARTMOUTH", "state": "MA", "street": "354 ELM ST", "postcode": "02748"}}},
{"geometry": {"type": "Point", "coordinates": [-70.9621299502, 41.6012550178]}, "type": "Feature", "properties": {"collection_times": [{"days": "Mon-Sat", "time": "11:00am"}, {"days": "Sun", "time": "Closed"}], "id": "0274800008", "name": "USPS COLLECTION BOX - BLUE BOX", "address": {"city": "SOUTH DARTMOUTH", "state": "MA", "street": "247 RUSSELLS MILLS RD", "postcode": "02748"}}},
{"geometry": {"type": "Point", "coordinates": [-71.003129572, 41.5758465273]}, "type": "Feature", "properties": {"collection_times": [{"days": "Mon-Sat", "time": "11:00am"}, {"days": "Sun", "time": "Closed"}], "id": "0274800010", "name": "USPS COLLECTION BOX - BLUE BOX", "address": {"city": "SOUTH DARTMOUTH", "state": "MA", "street": "1228 RUSSELLS MILLS RD", "postcode": "02748"}}},
{"geometry": {"type": "Point", "coordinates": [-70.9358406087, 41.5991286314]}, "type": "Feature", "properties": {"collection_times": [{"days": "Mon-Sat", "time": "10:30am"}, {"days": "Sun", "time": "Closed"}], "id": "0274800011", "name": "USPS COLLECTION BOX - BLUE BOX", "address": {"city": "SOUTH DARTMOUTH", "state": "MA", "street": "25 SEA BREEZE DR", "postcode": "02748"}}},
{"geometry": {"type": "Point", "coordinates": [-71.3326962383, 41.981206495]}, "type": "Feature", "properties": {"collection_times": [{"days": "Mon-Fri", "time": "5:00pm"}, {"days": "Sat", "time": "2:00pm"}, {"days": "Sun", "time": "Closed"}], "id": "0276000002", "name": "USPS COLLECTION BOX - BLUE BOX", "address": {"city": "NORTH ATTLEBORO", "state": "MA", "street": "30 S WASHINGTON ST", "postcode": "02760"}}},
{"geometry": {"type": "Point", "coordinates": [-71.3330160859, 41.9883013795]}, "type": "Feature", "properties": {"collection_times": [{"days": "Mon-Sat", "time": "10:00am"}, {"days": "Sun", "time": "Closed"}], "id": "0276000009", "name": "USPS COLLECTION BOX - BLUE BOX", "address": {"city": "NORTH ATTLEBORO", "state": "MA", "street": "125 BROAD ST", "postcode": "02760"}}},
{"geometry": {"type": "Point", "coordinates": [-71.3392379261, 41.9756667612]}, "type": "Feature", "properties": {"collection_times": [{"days": "Mon-Sat", "time": "10:00am"}, {"days": "Sun", "time": "Closed"}], "id": "0276000011", "name": "USPS COLLECTION BOX - BLUE BOX", "address": {"city": "NORTH ATTLEBORO", "state": "MA", "street": "174 BROADWAY", "postcode": "02760"}}},
{"geometry": {"type": "Point", "coordinates": [-71.3297745945, 41.9813906833]}, "type": "Feature", "properties": {"collection_times": [{"days": "Mon-Sat", "time": "10:00am"}, {"days": "Sun", "time": "Closed"}], "id": "0276000013", "name": "USPS COLLECTION BOX - BLUE BOX", "address": {"city": "NORTH ATTLEBORO", "state": "MA", "street": "500 E WASHINGTON ST", "postcode": "02760"}}},
{"geometry": {"type": "Point", "coordinates": [-71.3311639846, 41.9830853643]}, "type": "Feature", "properties": {"collection_times": [{"days": "Mon-Sat", "time": "9:30am"}, {"days": "Sun", "time": "Closed"}], "id": "0276000015", "name": "USPS COLLECTION BOX - BLUE BOX", "address": {"city": "NORTH ATTLEBORO", "state": "MA", "street": "25 ORNE ST", "postcode": "02760"}}},
{"geometry": {"type": "Point", "coordinates": [-71.314216281, 41.9710323726]}, "type": "Feature", "properties": {"collection_times": [{"days": "Mon-Sat", "time": "10:00am"}, {"days": "Sun", "time": "Closed"}], "id": "0276000017", "name": "USPS COLLECTION BOX - BLUE BOX", "address": {"city": "NORTH ATTLEBORO", "state": "MA", "street": "164 ELM ST", "postcode": "02760"}}},
{"geometry": {"type": "Point", "coordinates": [-71.3326296444, 41.9820502773]}, "type": "Feature", "properties": {"collection_times": [{"days": "Mon-Sat", "time": "10:00am"}, {"days": "Sun", "time": "Closed"}], "id": "0276000024", "name": "USPS COLLECTION BOX - BLUE BOX", "address": {"city": "NORTH ATTLEBORO", "state": "MA", "street": "61 N WASHINGTON ST", "postcode": "02760"}}},
{"geometry": {"type": "Point", "coordinates": [-71.3318180319, 41.9859512638]}, "type": "Feature", "properties": {"collection_times": [{"days": "Mon-Sat", "time": "10:00am"}, {"days": "Sun", "time": "Closed"}], "id": "0276000025", "name": "USPS COLLECTION BOX - BLUE BOX", "address": {"city": "NORTH ATTLEBORO", "state": "MA", "street": "135 N WASHINGTON ST", "postcode": "02760"}}},
{"geometry": {"type": "Point", "coordinates": [-71.3528276604, 41.9313316013]}, "type": "Feature", "properties": {"collection_times": [{"days": "Mon-Sat", "time": "12:00pm"}, {"days": "Sun", "time": "Closed"}], "id": "0276000029", "name": "USPS COLLECTION BOX - BLUE BOX", "address": {"city": "NORTH ATTLEBORO", "state": "MA", "street": "999 S WASHINGTON ST", "postcode": "02760"}}},
{"geometry": {"type": "Point", "coordinates": [-71.3231661145, 41.9784012601]}, "type": "Feature", "properties": {"collection_times": [{"days": "Mon-Sat", "time": "10:00am"}, {"days": "Sun", "time": "Closed"}], "id": "0276000031", "name": "USPS COLLECTION BOX - BLUE BOX", "address": {"city": "NORTH ATTLEBORO", "state": "MA", "street": "99 HOPE ST", "postcode": "02760"}}},
{"geometry": {"type": "Point", "coordinates": [-71.3320115017, 41.9711991124]}, "type": "Feature", "properties": {"collection_times": [{"days": "Mon-Sat", "time": "9:30am"}, {"days": "Sun", "time": "Closed"}], "id": "0276000033", "name": "USPS COLLECTION BOX - BLUE BOX", "address": {"city": "NORTH ATTLEBORO", "state": "MA", "street": "206 E WASHINGTON ST", "postcode": "02760"}}},
{"geometry": {"type": "Point", "coordinates": [-71.332389523, 41.9828602438]}, "type": "Feature", "properties": {"collection_times": [{"days": "Mon-Sat", "time": "10:00am"}, {"days": "Sun", "time": "Closed"}], "id": "0276000034", "name": "USPS COLLECTION BOX - BLUE BOX", "address": {"city": "NORTH ATTLEBORO", "state": "MA", "street": "31 N WASHINGTON ST", "postcode": "02760"}}},
{"geometry": {"type": "Point", "coordinates": [-71.3331624989, 41.9804022434]}, "type": "Feature", "properties": {"collection_times": [{"days": "Mon-Fri", "time": "4:00pm"}, {"days": "Sat-Sun", "time": "Closed"}], "id": "0276000037", "name": "USPS COLLECTION BOX - BLUE BOX", "address": {"city": "NORTH ATTLEBORO", "state": "MA", "street": "43 S WASHINGTON ST", "postcode": "02760"}}},
{"geometry": {"type": "Point", "coordinates": [-71.3383752912, 41.9668626686]}, "type": "Feature", "properties": {"collection_times": [{"days": "Mon-Sat", "time": "9:00am"}, {"days": "Sun", "time": "Closed"}], "id": "0276000038", "name": "USPS COLLECTION BOX - BLUE BOX", "address": {"city": "NORTH ATTLEBORO", "state": "MA", "street": "8 E WASHINGTON ST", "postcode": "02760"}}},
{"geometry": {"type": "Point", "coordinates": [-71.3411127101, 41.961104664]}, "type": "Feature", "properties": {"collection_times": [{"days": "Mon-Sat", "time": "9:00am"}, {"days": "Sun", "time": "Closed"}], "id": "0276000039", "name": "USPS COLLECTION BOX - BLUE BOX", "address": {"city": "NORTH ATTLEBORO", "state": "MA", "street": "637 S WASHINGTON ST", "postcode": "02760"}}},
{"geometry": {"type": "Point", "coordinates": [-71.3361480995, 42.0051495041]}, "type": "Feature", "properties": {"collection_times": [{"days": "Mon-Fri", "time": "4:30pm"}, {"days": "Sat", "time": "12:00pm"}, {"days": "Sun", "time": "Closed"}], "id": "0276200003", "name": "USPS COLLECTION BOX - BLUE BOX", "address": {"city": "PLAINVILLE", "state": "MA", "street": "127 SOUTH ST", "postcode": "02762"}}},
{"geometry": {"type": "Point", "coordinates": [-71.3058500211, 42.0111165393]}, "type": "Feature", "properties": {"collection_times": [{"days": "Mon-Sat", "time": "12:00pm"}, {"days": "Sun", "time": "Closed"}], "id": "0276200006", "name": "USPS COLLECTION BOX - BLUE BOX", "address": {"city": "PLAINVILLE", "state": "MA", "street": "13 TAUNTON ST", "postcode": "02762"}}},
{"geometry": {"type": "Point", "coordinates": [-71.3082014032, 41.9693362845]}, "type": "Feature", "properties": {"collection_times": [{"days": "Mon-Fri", "time": "5:00pm"}, {"days": "Sat", "time": "2:00pm"}, {"days": "Sun", "time": "Closed"}], "id": "0276300003", "name": "USPS COLLECTION BOX - BLUE BOX", "address": {"city": "NORTH ATTLEBORO", "state": "MA", "street": "215 COMMONWEALTH AVE", "postcode": "02763"}}},
{"geometry": {"type": "Point", "coordinates": [-71.3327470554, 41.9813344053]}, "type": "Feature", "properties": {"collection_times": [{"days": "Mon-Sat", "time": "10:00am"}, {"days": "Sun", "time": "Closed"}], "id": "0276300005", "name": "USPS COLLECTION BOX - BLUE BOX", "address": {"city": "NORTH ATTLEBORO", "state": "MA", "street": "96 COMMONWEALTH AVE", "postcode": "02763"}}},
{"geometry": {"type": "Point", "coordinates": [-71.3045488058, 41.9705582516]}, "type": "Feature", "properties": {"collection_times": [{"days": "Mon-Sat", "time": "9:30am"}, {"days": "Sun", "time": "Closed"}], "id": "0276300009", "name": "USPS COLLECTION BOX - BLUE BOX", "address": {"city": "NORTH ATTLEBORO", "state": "MA", "street": "530 JOHN DIETSCH BLVD", "postcode": "02763"}}},
{"geometry": {"type": "Point", "coordinates": [-71.3045488058, 41.9705582516]}, "type": "Feature", "properties": {"collection_times": [{"days": "Mon-Sat", "time": "9:30am"}, {"days": "Sun", "time": "Closed"}], "id": "0276300010", "name": "USPS COLLECTION BOX - BLUE BOX", "address": {"city": "NORTH ATTLEBORO", "state": "MA", "street": "11 TONER BLVD", "postcode": "02763"}}},
{"geometry": {"type": "Point", "coordinates": [-71.1179664921, 41.8365324492]}, "type": "Feature", "properties": {"collection_times": [{"days": "Mon-Fri", "time": "4:30pm"}, {"days": "Sat", "time": "12:15pm"}, {"days": "Sun", "time": "Closed"}], "id": "0276400001", "name": "USPS COLLECTION BOX - BLUE BOX", "address": {"city": "NORTH DIGHTON", "state": "MA", "street": "1120 SOMERSET AVE", "postcode": "02764"}}},
{"geometry": {"type": "Point", "coordinates": [-71.1872595435, 41.9665777374]}, "type": "Feature", "properties": {"collection_times": [{"days": "Mon-Fri", "time": "5:00pm"}, {"days": "Sat", "time": "1:00pm"}, {"days": "Sun", "time": "Closed"}], "id": "0276600002", "name": "USPS COLLECTION BOX - BLUE BOX", "address": {"city": "NORTON", "state": "MA", "street": "6 TAUNTON AVE", "postcode": "02766"}}},
{"geometry": {"type": "Point", "coordinates": [-71.2098967078, 41.981296358]}, "type": "Feature", "properties": {"collection_times": [{"days": "Mon-Sat", "time": "9:30am"}, {"days": "Sun", "time": "Closed"}], "id": "0276600007", "name": "USPS COLLECTION BOX - BLUE BOX", "address": {"city": "NORTON", "state": "MA", "street": "175 MANSFIELD AVE", "postcode": "02766"}}},
{"geometry": {"type": "Point", "coordinates": [-71.1911479071, 41.9707624969]}, "type": "Feature", "properties": {"collection_times": [{"days": "Mon-Sat", "time": "10:00am"}, {"days": "Sun", "time": "Closed"}], "id": "0276600008", "name": "USPS COLLECTION BOX - BLUE BOX", "address": {"city": "NORTON", "state": "MA", "street": "36 S WORCESTER ST", "postcode": "02766"}}},
{"geometry": {"type": "Point", "coordinates": [-71.2073143083, 41.958003896]}, "type": "Feature", "properties": {"collection_times": [{"days": "Mon-Sat", "time": "10:00am"}, {"days": "Sun", "time": "Closed"}], "id": "0276600009", "name": "USPS COLLECTION BOX - BLUE BOX", "address": {"city": "NORTON", "state": "MA", "street": "181 W MAIN ST", "postcode": "02766"}}},
{"geometry": {"type": "Point", "coordinates": [-71.1562739986, 41.9867531057]}, "type": "Feature", "properties": {"collection_times": [{"days": "Mon-Sat", "time": "10:00am"}, {"days": "Sun", "time": "Closed"}], "id": "0276600010", "name": "USPS COLLECTION BOX - BLUE BOX", "address": {"city": "NORTON", "state": "MA", "street": "250 E MAIN ST", "postcode": "02766"}}},
{"geometry": {"type": "Point", "coordinates": [-71.0857098931, 41.930583199]}, "type": "Feature", "properties": {"collection_times": [{"days": "Mon-Fri", "time": "4:15pm"}, {"days": "Sat", "time": "12:15pm"}, {"days": "Sun", "time": "Closed"}], "id": "0276700002", "name": "USPS COLLECTION BOX - BLUE BOX", "address": {"city": "RAYNHAM", "state": "MA", "street": "681 BROADWAY", "postcode": "02767"}}},
{"geometry": {"type": "Point", "coordinates": [-71.0857098931, 41.930583199]}, "type": "Feature", "properties": {"collection_times": [{"days": "Mon-Fri", "time": "4:15pm"}, {"days": "Sat", "time": "11:45am"}, {"days": "Sun", "time": "Closed"}], "id": "0276700004", "name": "USPS COLLECTION BOX - PO LOBBY", "address": {"city": "RAYNHAM", "state": "MA", "street": "681 BROADWAY", "postcode": "02767"}}},
{"geometry": {"type": "Point", "coordinates": [-71.0857098931, 41.930583199]}, "type": "Feature", "properties": {"collection_times": [{"days": "Mon-Fri", "time": "4:15pm"}, {"days": "Sat", "time": "11:45am"}, {"days": "Sun", "time": "Closed"}], "id": "0276700005", "name": "USPS COLLECTION BOX - PO LOBBY", "address": {"city": "RAYNHAM", "state": "MA", "street": "681 BROADWAY", "postcode": "02767"}}},
{"geometry": {"type": "Point", "coordinates": [-71.0711835764, 41.9516804319]}, "type": "Feature", "properties": {"collection_times": [{"days": "Mon-Sat", "time": "9:00am"}, {"days": "Sun", "time": "Closed"}], "id": "0276700011", "name": "USPS COLLECTION BOX - BLUE BOX", "address": {"city": "RAYNHAM", "state": "MA", "street": "855 BROADWAY", "postcode": "02767"}}},
{"geometry": {"type": "Point", "coordinates": [-71.0813321047, 41.9363079771]}, "type": "Feature", "properties": {"collection_times": [{"days": "Mon-Sat", "time": "9:00am"}, {"days": "Sun", "time": "Closed"}], "id": "0276700012", "name": "USPS COLLECTION BOX - BLUE BOX", "address": {"city": "RAYNHAM", "state": "MA", "street": "242 BROADWAY", "postcode": "02767"}}},
{"geometry": {"type": "Point", "coordinates": [-71.0118124888, 41.9041985865]}, "type": "Feature", "properties": {"collection_times": [{"days": "Mon-Sat", "time": "9:00am"}, {"days": "Sun", "time": "Closed"}], "id": "0276700013", "name": "USPS COLLECTION BOX - BLUE BOX", "address": {"city": "RAYNHAM", "state": "MA", "street": "1470 NEW STATE HWY", "postcode": "02767"}}},
{"geometry": {"type": "Point", "coordinates": [-71.0524921646, 41.9058920712]}, "type": "Feature", "properties": {"collection_times": [{"days": "Mon-Sat", "time": "9:00am"}, {"days": "Sun", "time": "Closed"}], "id": "0276700014", "name": "USPS COLLECTION BOX - BLUE BOX", "address": {"city": "RAYNHAM", "state": "MA", "street": "350 NEW STATE HWY", "postcode": "02767"}}},
{"geometry": {"type": "Point", "coordinates": [-71.0440477462, 41.9278034278]}, "type": "Feature", "properties": {"collection_times": [{"days": "Mon-Sat", "time": "9:00am"}, {"days": "Sun", "time": "Closed"}], "id": "0276700018", "name": "USPS COLLECTION BOX - BLUE BOX", "address": {"city": "RAYNHAM", "state": "MA", "street": "36 NEW STATE HWY", "postcode": "02767"}}},
{"geometry": {"type": "Point", "coordinates": [-71.0356731244, 41.9013585314]}, "type": "Feature", "properties": {"collection_times": [{"days": "Mon-Sat", "time": "9:00am"}, {"days": "Sun", "time": "Closed"}], "id": "0276700019", "name": "USPS COLLECTION BOX - BLUE BOX", "address": {"city": "RAYNHAM", "state": "MA", "street": "40 ASHLEY WAY", "postcode": "02767"}}},
{"geometry": {"type": "Point", "coordinates": [-71.245824049, 41.8506431538]}, "type": "Feature", "properties": {"collection_times": [{"days": "Mon-Fri", "time": "4:30pm"}, {"days": "Sat", "time": "3:00pm"}, {"days": "Sun", "time": "Closed"}], "id": "0276900002", "name": "USPS COLLECTION BOX - BLUE BOX", "address": {"city": "REHOBOTH", "state": "MA", "street": "275 WINTHROP ST", "postcode": "02769"}}},
{"geometry": {"type": "Point", "coordinates": [-70.8219561326, 41.7298001516]}, "type": "Feature", "properties": {"collection_times": [{"days": "Mon-Fri", "time": "4:15pm"}, {"days": "Sat", "time": "1:00pm"}, {"days": "Sun", "time": "Closed"}], "id": "0277000003", "name": "USPS COLLECTION BOX - BLUE BOX", "address": {"city": "ROCHESTER", "state": "MA", "street": "603 NEW BEDFORD RD", "postcode": "02770"}}},
{"geometry": {"type": "Point", "coordinates": [-70.8227661187, 41.7286440056]}, "type": "Feature", "properties": {"collection_times": [{"days": "Mon-Sat", "time": "9:30am"}, {"days": "Sun", "time": "Closed"}], "id": "0277000004", "name": "USPS COLLECTION BOX - BLUE BOX", "address": {"city": "ROCHESTER", "state": "MA", "street": "565 ROUNSEVILLE RD", "postcode": "02770"}}},
{"geometry": {"type": "Point", "coordinates": [-70.8684435797, 41.7425409218]}, "type": "Feature", "properties": {"collection_times": [{"days": "Mon-Sat", "time": "9:00am"}, {"days": "Sun", "time": "Closed"}], "id": "0277000005", "name": "USPS COLLECTION BOX - BLUE BOX", "address": {"city": "ROCHESTER", "state": "MA", "street": "4 HARTLEY RD", "postcode": "02770"}}},
{"geometry": {"type": "Point", "coordinates": [-71.3474072764, 41.8231807679]}, "type": "Feature", "properties": {"collection_times": [{"days": "Mon-Fri", "time": "5:00pm"}, {"days": "Sat", "time": "3:00pm"}, {"days": "Sun", "time": "Closed"}], "id": "0277100002", "name": "USPS COLLECTION BOX - BLUE BOX", "address": {"city": "SEEKONK", "state": "MA", "street": "156 TAUNTON AVE", "postcode": "02771"}}},
{"geometry": {"type": "Point", "coordinates": [-71.3289863697, 41.8530304833]}, "type": "Feature", "properties": {"collection_times": [{"days": "Mon-Sat", "time": "9:00am"}, {"days": "Sun", "time": "Closed"}], "id": "0277100004", "name": "USPS COLLECTION BOX - BLUE BOX", "address": {"city": "SEEKONK", "state": "MA", "street": "410 NEWMAN AVE", "postcode": "02771"}}},
{"geometry": {"type": "Point", "coordinates": [-71.333359769, 41.8096324507]}, "type": "Feature", "properties": {"collection_times": [{"days": "Mon-Sat", "time": "9:00am"}, {"days": "Sun", "time": "Closed"}], "id": "0277100008", "name": "USPS COLLECTION BOX - BLUE BOX", "address": {"city": "SEEKONK", "state": "MA", "street": "25 CHAPPELL ST", "postcode": "02771"}}},
{"geometry": {"type": "Point", "coordinates": [-71.319409134, 41.7883155302]}, "type": "Feature", "properties": {"collection_times": [{"days": "Mon-Fri", "time": "2:00pm"}, {"days": "Sat", "time": "1:00pm"}, {"days": "Sun", "time": "Closed"}], "id": "0277100015", "name": "USPS COLLECTION BOX - BLUE BOX", "address": {"city": "SEEKONK", "state": "MA", "street": "1400 FALL RIVER AVE", "postcode": "02771"}}},
{"geometry": {"type": "Point", "coordinates": [-71.3362279356, 41.8013195796]}, "type": "Feature", "properties": {"collection_times": [{"days": "Mon-Sat", "time": "9:00am"}, {"days": "Sun", "time": "Closed"}], "id": "0277100019", "name": "USPS COLLECTION BOX - BLUE BOX", "address": {"city": "SEEKONK", "state": "MA", "street": "125 HIGHLAND AVE", "postcode": "02771"}}},
{"geometry": {"type": "Point", "coordinates": [-71.3185592401, 41.8140443855]}, "type": "Feature", "properties": {"collection_times": [{"days": "Mon-Sat", "time": "12:00pm"}, {"days": "Sun", "time": "Closed"}], "id": "0277100022", "name": "USPS COLLECTION BOX - BLUE BOX", "address": {"city": "SEEKONK", "state": "MA", "street": "10 OLNEY ST", "postcode": "02771"}}},
{"geometry": {"type": "Point", "coordinates": [-71.3247844995, 41.8274572764]}, "type": "Feature", "properties": {"collection_times": [{"days": "Mon-Sat", "time": "10:00am"}, {"days": "Sun", "time": "Closed"}], "id": "0277100025", "name": "USPS COLLECTION BOX - BLUE BOX", "address": {"city": "SEEKONK", "state": "MA", "street": "520 TAUNTON AVE", "postcode": "02771"}}},
{"geometry": {"type": "Point", "coordinates": [-71.3222115637, 41.9000483703]}, "type": "Feature", "properties": {"collection_times": [{"days": "Mon-Sat", "time": "11:00am"}, {"days": "Sun", "time": "Closed"}], "id": "0277100026", "name": "USPS COLLECTION BOX - BLUE BOX", "address": {"city": "SEEKONK", "state": "MA", "street": "545 CENTRAL AVE", "postcode": "02771"}}},
{"geometry": {"type": "Point", "coordinates": [-71.2653774832, 41.7689611386]}, "type": "Feature", "properties": {"collection_times": [{"days": "Mon-Fri", "time": "10:00am"}, {"days": "Sat", "time": "11:00am"}, {"days": "Sun", "time": "Closed"}], "id": "0277700001", "name": "USPS COLLECTION BOX - BLUE BOX", "address": {"city": "SWANSEA", "state": "MA", "street": "25 MARKET ST", "postcode": "02777"}}},
{"geometry": {"type": "Point", "coordinates": [-71.1593725304, 41.7506311894]}, "type": "Feature", "properties": {"collection_times": [{"days": "Mon-Sat", "time": "10:00am"}, {"days": "Sun", "time": "Closed"}], "id": "0277700008", "name": "USPS COLLECTION BOX - BLUE BOX", "address": {"city": "SWANSEA", "state": "MA", "street": "75 BUFFINGTON ST", "postcode": "02777"}}},
{"geometry": {"type": "Point", "coordinates": [-71.2065857117, 41.7468817432]}, "type": "Feature", "properties": {"collection_times": [{"days": "Mon-Sat", "time": "12:00pm"}, {"days": "Sun", "time": "Closed"}], "id": "0277700010", "name": "USPS COLLECTION BOX - BLUE BOX", "address": {"city": "SWANSEA", "state": "MA", "street": "856 GARDNERS NECK RD", "postcode": "02777"}}},
{"geometry": {"type": "Point", "coordinates": [-71.1875856575, 41.7486327727]}, "type": "Feature", "properties": {"collection_times": [{"days": "Mon-Sat", "time": "11:00am"}, {"days": "Sun", "time": "Closed"}], "id": "0277700015", "name": "USPS COLLECTION BOX - BLUE BOX", "address": {"city": "SWANSEA", "state": "MA", "street": "69 MAIN ST", "postcode": "02777"}}},
{"geometry": {"type": "Point", "coordinates": [-71.24844984, 41.7371410269]}, "type": "Feature", "properties": {"collection_times": [{"days": "Mon-Sat", "time": "12:00pm"}, {"days": "Sun", "time": "Closed"}], "id": "0277700018", "name": "USPS COLLECTION BOX - BLUE BOX", "address": {"city": "SWANSEA", "state": "MA", "street": "159 OLD WARREN RD", "postcode": "02777"}}},
{"geometry": {"type": "Point", "coordinates": [-71.2146699469, 41.7544485975]}, "type": "Feature", "properties": {"collection_times": [{"days": "Mon-Sat", "time": "9:30am"}, {"days": "Sun", "time": "Closed"}], "id": "0277700019", "name": "USPS COLLECTION BOX - BLUE BOX", "address": {"city": "SWANSEA", "state": "MA", "street": "207 SWANSEA MALL DR", "postcode": "02777"}}},
{"geometry": {"type": "Point", "coordinates": [-71.2065857117, 41.7468817432]}, "type": "Feature", "properties": {"collection_times": [{"days": "Mon-Sat", "time": "12:00pm"}, {"days": "Sun", "time": "Closed"}], "id": "0277700024", "name": "USPS COLLECTION BOX - BLUE BOX", "address": {"city": "SWANSEA", "state": "MA", "street": "262 SWANSEA MALL DR", "postcode": "02777"}}},
{"geometry": {"type": "Point", "coordinates": [-71.2113422836, 41.732539015]}, "type": "Feature", "properties": {"collection_times": [{"days": "Mon-Sat", "time": "12:00pm"}, {"days": "Sun", "time": "Closed"}], "id": "0277700025", "name": "USPS COLLECTION BOX - BLUE BOX", "address": {"city": "SWANSEA", "state": "MA", "street": "510 WILBUR AVE", "postcode": "02777"}}},
{"geometry": {"type": "Point", "coordinates": [-71.2068210145, 41.7318670943]}, "type": "Feature", "properties": {"collection_times": [{"days": "Mon-Sat", "time": "12:00pm"}, {"days": "Sun", "time": "Closed"}], "id": "0277700027", "name": "USPS COLLECTION BOX - BLUE BOX", "address": {"city": "SWANSEA", "state": "MA", "street": "377 WILBUR AVE", "postcode": "02777"}}},
{"geometry": {"type": "Point", "coordinates": [-71.2217736158, 41.7338450017]}, "type": "Feature", "properties": {"collection_times": [{"days": "Mon-Sat", "time": "8:30am"}, {"days": "Sun", "time": "Closed"}], "id": "0277700028", "name": "USPS COLLECTION BOX - BLUE BOX", "address": {"city": "SWANSEA", "state": "MA", "street": "810 WILBUR AVE", "postcode": "02777"}}},
{"geometry": {"type": "Point", "coordinates": [-71.1868771104, 41.7404534845]}, "type": "Feature", "properties": {"collection_times": [{"days": "Mon-Sat", "time": "9:00am"}, {"days": "Sun", "time": "Closed"}], "id": "0277700032", "name": "USPS COLLECTION BOX - BLUE BOX", "address": {"city": "SWANSEA", "state": "MA", "street": "579 GAR HWY", "postcode": "02777"}}},
{"geometry": {"type": "Point", "coordinates": [-71.229917022, 41.7425922]}, "type": "Feature", "properties": {"collection_times": [{"days": "Mon-Fri", "time": "5:00pm"}, {"days": "Sat", "time": "3:00pm"}, {"days": "Sun", "time": "Closed"}], "id": "0277700033", "name": "USPS COLLECTION BOX - EXPRESS", "address": {"city": "SWANSEA", "state": "MA", "street": "1278 GRAND ARMY HWY", "postcode": "02777"}}},
{"geometry": {"type": "Point", "coordinates": [-71.0825753663, 41.8434159564]}, "type": "Feature", "properties": {"collection_times": [{"days": "Mon-Sat", "time": "9:00am"}, {"days": "Sun", "time": "Closed"}], "id": "0277900000", "name": "USPS COLLECTION BOX - BLUE BOX", "address": {"city": "BERKLEY", "state": "MA", "street": "1 N MAIN ST", "postcode": "02779"}}},
{"geometry": {"type": "Point", "coordinates": [-71.104169587, 41.9067909804]}, "type": "Feature", "properties": {"collection_times": [{"days": "Mon-Fri", "time": "4:00pm"}, {"days": "Sat", "time": "9:00am"}, {"days": "Sun", "time": "Closed"}], "id": "0278000003", "name": "USPS COLLECTION BOX - BLUE BOX", "address": {"city": "TAUNTON", "state": "MA", "street": "255 WARNER BLVD", "postcode": "02780"}}},
{"geometry": {"type": "Point", "coordinates": [-71.1096292974, 41.930268594]}, "type": "Feature", "properties": {"collection_times": [{"days": "Mon-Sat", "time": "9:00am"}, {"days": "Sun", "time": "Closed"}], "id": "0278000008", "name": "USPS COLLECTION BOX - BLUE BOX", "address": {"city": "TAUNTON", "state": "MA", "street": "750 WHITTENTON ST", "postcode": "02780"}}},
{"geometry": {"type": "Point", "coordinates": [-71.104169587, 41.9067909804]}, "type": "Feature", "properties": {"collection_times": [{"days": "Mon-Sat", "time": "9:00am"}, {"days": "Sun", "time": "Closed"}], "id": "0278000009", "name": "USPS COLLECTION BOX - BLUE BOX", "address": {"city": "TAUNTON", "state": "MA", "street": "309 WHITTENTON ST", "postcode": "02780"}}},
{"geometry": {"type": "Point", "coordinates": [-71.0944227459, 41.9056050361]}, "type": "Feature", "properties": {"collection_times": [{"days": "Mon-Fri", "time": "3:00pm"}, {"days": "Sat", "time": "9:00am"}, {"days": "Sun", "time": "Closed"}], "id": "0278000012", "name": "USPS COLLECTION BOX - BLUE BOX", "address": {"city": "TAUNTON", "state": "MA", "street": "88 WASHINGTON ST", "postcode": "02780"}}},
{"geometry": {"type": "Point", "coordinates": [-71.0955927935, 41.904674892]}, "type": "Feature", "properties": {"collection_times": [{"days": "Mon-Fri", "time": "3:00pm"}, {"days": "Sat", "time": "9:00am"}, {"days": "Sun", "time": "Closed"}], "id": "0278000013", "name": "USPS COLLECTION BOX - BLUE BOX", "address": {"city": "TAUNTON", "state": "MA", "street": "72 WASHINGTON ST", "postcode": "02780"}}},
{"geometry": {"type": "Point", "coordinates": [-71.0999028934, 41.9024289403]}, "type": "Feature", "properties": {"collection_times": [{"days": "Mon-Fri", "time": "4:00pm"}, {"days": "Sat", "time": "9:00am"}, {"days": "Sun", "time": "Closed"}], "id": "0278000014", "name": "USPS COLLECTION BOX - BLUE BOX", "address": {"city": "TAUNTON", "state": "MA", "street": "1 WASHINGTON ST", "postcode": "02780"}}},
{"geometry": {"type": "Point", "coordinates": [-71.0891389318, 41.8869094152]}, "type": "Feature", "properties": {"collection_times": [{"days": "Mon-Sat", "time": "9:00am"}, {"days": "Sun", "time": "Closed"}], "id": "0278000015", "name": "USPS COLLECTION BOX - BLUE BOX", "address": {"city": "TAUNTON", "state": "MA", "street": "3 W WATER ST", "postcode": "02780"}}},
{"geometry": {"type": "Point", "coordinates": [-71.1053375455, 41.9050025315]}, "type": "Feature", "properties": {"collection_times": [{"days": "Mon-Fri", "time": "4:00pm"}, {"days": "Sat", "time": "9:00am"}, {"days": "Sun", "time": "Closed"}], "id": "0278000018", "name": "USPS COLLECTION BOX - BLUE BOX", "address": {"city": "TAUNTON", "state": "MA", "street": "53 TREMONT ST", "postcode": "02780"}}},
{"geometry": {"type": "Point", "coordinates": [-71.0928203038, 41.9021313733]}, "type": "Feature", "properties": {"collection_times": [{"days": "Mon-Fri", "time": "4:00pm"}, {"days": "Sat", "time": "9:00am"}, {"days": "Sun", "time": "Closed"}], "id": "0278000020", "name": "USPS COLLECTION BOX - BLUE BOX", "address": {"city": "TAUNTON", "state": "MA", "street": "1 TAUNTON GRN", "postcode": "02780"}}},
{"geometry": {"type": "Point", "coordinates": [-71.0900864034, 41.8993173246]}, "type": "Feature", "properties": {"collection_times": [{"days": "Mon-Fri", "time": "4:00pm"}, {"days": "Sat", "time": "9:00am"}, {"days": "Sun", "time": "Closed"}], "id": "0278000023", "name": "USPS COLLECTION BOX - BLUE BOX", "address": {"city": "TAUNTON", "state": "MA", "street": "21 SPRING ST", "postcode": "02780"}}},
{"geometry": {"type": "Point", "coordinates": [-71.0883126719, 41.9094250568]}, "type": "Feature", "properties": {"collection_times": [{"days": "Mon-Sat", "time": "9:00am"}, {"days": "Sun", "time": "Closed"}], "id": "0278000026", "name": "USPS COLLECTION BOX - BLUE BOX", "address": {"city": "TAUNTON", "state": "MA", "street": "143 SCHOOL ST", "postcode": "02780"}}},
{"geometry": {"type": "Point", "coordinates": [-71.0900457721, 41.9079738803]}, "type": "Feature", "properties": {"collection_times": [{"days": "Mon-Sat", "time": "9:00am"}, {"days": "Sun", "time": "Closed"}], "id": "0278000027", "name": "USPS COLLECTION BOX - BLUE BOX", "address": {"city": "TAUNTON", "state": "MA", "street": "120 SCHOOL ST", "postcode": "02780"}}},
{"geometry": {"type": "Point", "coordinates": [-71.104169587, 41.9067909804]}, "type": "Feature", "properties": {"collection_times": [{"days": "Mon-Sat", "time": "9:00am"}, {"days": "Sun", "time": "Closed"}], "id": "0278000030", "name": "USPS COLLECTION BOX - BLUE BOX", "address": {"city": "TAUNTON", "state": "MA", "street": "91 PLAIN ST", "postcode": "02780"}}},
{"geometry": {"type": "Point", "coordinates": [-71.1267443738, 41.9158975874]}, "type": "Feature", "properties": {"collection_times": [{"days": "Mon-Sat", "time": "9:00am"}, {"days": "Sun", "time": "Closed"}], "id": "0278000033", "name": "USPS COLLECTION BOX - BLUE BOX", "address": {"city": "TAUNTON", "state": "MA", "street": "200 NORTON AVE", "postcode": "02780"}}},
{"geometry": {"type": "Point", "coordinates": [-71.104169587, 41.9067909804]}, "type": "Feature", "properties": {"collection_times": [{"days": "Mon-Fri", "time": "4:00pm"}, {"days": "Sat", "time": "9:00am"}, {"days": "Sun", "time": "Closed"}], "id": "0278000035", "name": "USPS COLLECTION BOX - BLUE BOX", "address": {"city": "TAUNTON", "state": "MA", "street": "66 MAIN ST", "postcode": "02780"}}},
{"geometry": {"type": "Point", "coordinates": [-71.104169587, 41.9067909804]}, "type": "Feature", "properties": {"collection_times": [{"days": "Mon-Fri", "time": "4:00pm"}, {"days": "Sat", "time": "9:00am"}, {"days": "Sun", "time": "Closed"}], "id": "0278000036", "name": "USPS COLLECTION BOX - BLUE BOX", "address": {"city": "TAUNTON", "state": "MA", "street": "49 MAIN ST", "postcode": "02780"}}},
{"geometry": {"type": "Point", "coordinates": [-71.0936631925, 41.9022558639]}, "type": "Feature", "properties": {"collection_times": [{"days": "Mon-Fri", "time": "4:00pm"}, {"days": "Sat", "time": "9:00am"}, {"days": "Sun", "time": "Closed"}], "id": "0278000039", "name": "USPS COLLECTION BOX - BLUE BOX", "address": {"city": "TAUNTON", "state": "MA", "street": "30 TAUNTON GRN", "postcode": "02780"}}},
{"geometry": {"type": "Point", "coordinates": [-71.1402483861, 41.9475690428]}, "type": "Feature", "properties": {"collection_times": [{"days": "Mon-Fri", "time": "4:00pm"}, {"days": "Sat", "time": "9:00am"}, {"days": "Sun", "time": "Closed"}], "id": "0278000044", "name": "USPS COLLECTION BOX - BLUE BOX", "address": {"city": "TAUNTON", "state": "MA", "street": "25 JOHN HANCOCK RD", "postcode": "02780"}}},
{"geometry": {"type": "Point", "coordinates": [-71.0595937075, 41.8755937373]}, "type": "Feature", "properties": {"collection_times": [{"days": "Mon-Sat", "time": "9:00am"}, {"days": "Sun", "time": "Closed"}], "id": "0278000052", "name": "USPS COLLECTION BOX - BLUE BOX", "address": {"city": "TAUNTON", "state": "MA", "street": "1000 COUNTY ST", "postcode": "02780"}}},
{"geometry": {"type": "Point", "coordinates": [-71.068996235, 41.8881631742]}, "type": "Feature", "properties": {"collection_times": [{"days": "Mon-Sat", "time": "9:00am"}, {"days": "Sun", "time": "Closed"}], "id": "0278000054", "name": "USPS COLLECTION BOX - BLUE BOX", "address": {"city": "TAUNTON", "state": "MA", "street": "534 COUNTY ST", "postcode": "02780"}}},
{"geometry": {"type": "Point", "coordinates": [-71.104169587, 41.9067909804]}, "type": "Feature", "properties": {"collection_times": [{"days": "Mon-Fri", "time": "4:00pm"}, {"days": "Sat", "time": "9:00am"}, {"days": "Sun", "time": "Closed"}], "id": "0278000055", "name": "USPS COLLECTION BOX - BLUE BOX", "address": {"city": "TAUNTON", "state": "MA", "street": "68 CHURCH GRN", "postcode": "02780"}}},
{"geometry": {"type": "Point", "coordinates": [-71.0912680781, 41.9172298024]}, "type": "Feature", "properties": {"collection_times": [{"days": "Mon-Sat", "time": "9:00am"}, {"days": "Sun", "time": "Closed"}], "id": "0278000059", "name": "USPS COLLECTION BOX - BLUE BOX", "address": {"city": "TAUNTON", "state": "MA", "street": "188 BROADWAY", "postcode": "02780"}}},
{"geometry": {"type": "Point", "coordinates": [-71.0926093686, 41.9016700554]}, "type": "Feature", "properties": {"collection_times": [{"days": "Mon-Sat", "time": "9:00am"}, {"days": "Sun", "time": "Closed"}], "id": "0278000060", "name": "USPS COLLECTION BOX - BLUE BOX", "address": {"city": "TAUNTON", "state": "MA", "street": "96 BROADWAY", "postcode": "02780"}}},
{"geometry": {"type": "Point", "coordinates": [-71.0934836212, 41.9034282705]}, "type": "Feature", "properties": {"collection_times": [{"days": "Mon-Fri", "time": "4:00pm"}, {"days": "Sat", "time": "9:00am"}, {"days": "Sun", "time": "Closed"}], "id": "0278000062", "name": "USPS COLLECTION BOX - BLUE BOX", "address": {"city": "TAUNTON", "state": "MA", "street": "40 BROADWAY", "postcode": "02780"}}},
{"geometry": {"type": "Point", "coordinates": [-71.118860298, 41.9586095316]}, "type": "Feature", "properties": {"collection_times": [{"days": "Mon-Fri", "time": "4:00pm"}, {"days": "Sat", "time": "9:00am"}, {"days": "Sun", "time": "Closed"}], "id": "0278000065", "name": "USPS COLLECTION BOX - BLUE BOX", "address": {"city": "TAUNTON", "state": "MA", "street": "2005 BAY ST", "postcode": "02780"}}},
{"geometry": {"type": "Point", "coordinates": [-71.0958545174, 41.9201956253]}, "type": "Feature", "properties": {"collection_times": [{"days": "Mon-Sat", "time": "9:00am"}, {"days": "Sun", "time": "Closed"}], "id": "0278000067", "name": "USPS COLLECTION BOX - BLUE BOX", "address": {"city": "TAUNTON", "state": "MA", "street": "308 BAY ST", "postcode": "02780"}}},
{"geometry": {"type": "Point", "coordinates": [-71.0981166896, 41.9228339046]}, "type": "Feature", "properties": {"collection_times": [{"days": "Mon-Sat", "time": "9:00am"}, {"days": "Sun", "time": "Closed"}], "id": "0278000069", "name": "USPS COLLECTION BOX - BLUE BOX", "address": {"city": "TAUNTON", "state": "MA", "street": "430 BAY ST", "postcode": "02780"}}},
{"geometry": {"type": "Point", "coordinates": [-71.1041695874, 41.9067909347]}, "type": "Feature", "properties": {"collection_times": [{"days": "Mon-Fri", "time": "4:00pm"}, {"days": "Sat", "time": "9:00am"}, {"days": "Sun", "time": "Closed"}], "id": "0278000080", "name": "USPS COLLECTION BOX - BLUE BOX", "address": {"city": "TAUNTON", "state": "MA", "street": "100 JOHN QUINCY ADAMS RD", "postcode": "02780"}}},
{"geometry": {"type": "Point", "coordinates": [-71.1201318183, 41.9593310106]}, "type": "Feature", "properties": {"collection_times": [{"days": "Mon-Fri", "time": "4:00pm"}, {"days": "Sat", "time": "9:00am"}, {"days": "Sun", "time": "Closed"}], "id": "0278000082", "name": "USPS COLLECTION BOX - BLUE BOX", "address": {"city": "TAUNTON", "state": "MA", "street": "2074 BAY ST", "postcode": "02780"}}},
{"geometry": {"type": "Point", "coordinates": [-71.104169587, 41.9067909804]}, "type": "Feature", "properties": {"collection_times": [{"days": "Mon-Sat", "time": "9:00am"}, {"days": "Sun", "time": "Closed"}], "id": "0278000083", "name": "USPS COLLECTION BOX - BLUE BOX", "address": {"city": "TAUNTON", "state": "MA", "street": "160 OAK ST", "postcode": "02780"}}},
{"geometry": {"type": "Point", "coordinates": [-71.1001760334, 41.9023207608]}, "type": "Feature", "properties": {"collection_times": [{"days": "Mon-Sat", "time": "9:00am"}, {"days": "Sun", "time": "Closed"}], "id": "0278000085", "name": "USPS COLLECTION BOX - BLUE BOX", "address": {"city": "TAUNTON", "state": "MA", "street": "10 OAK ST", "postcode": "02780"}}},
{"geometry": {"type": "Point", "coordinates": [-71.1367494985, 41.9543337771]}, "type": "Feature", "properties": {"collection_times": [{"days": "Mon-Fri", "time": "4:00pm"}, {"days": "Sat", "time": "9:00am"}, {"days": "Sun", "time": "Closed"}], "id": "0278000087", "name": "USPS COLLECTION BOX - BLUE BOX", "address": {"city": "TAUNTON", "state": "MA", "street": "350 MYLES STANDISH BLVD", "postcode": "02780"}}},
{"geometry": {"type": "Point", "coordinates": [-71.0886093057, 41.9007400594]}, "type": "Feature", "properties": {"collection_times": [{"days": "Mon-Fri", "time": "4:00pm"}, {"days": "Sat", "time": "9:00am"}, {"days": "Sun", "time": "Closed"}], "id": "0278000091", "name": "USPS COLLECTION BOX - BLUE BOX", "address": {"city": "TAUNTON", "state": "MA", "street": "23 SUMMER ST", "postcode": "02780"}}},
{"geometry": {"type": "Point", "coordinates": [-71.0919026675, 41.5737114317]}, "type": "Feature", "properties": {"collection_times": [{"days": "Mon-Fri", "time": "5:00pm"}, {"days": "Sat", "time": "12:15pm"}, {"days": "Sun", "time": "Closed"}], "id": "0279000006", "name": "USPS COLLECTION BOX - BLUE BOX", "address": {"city": "WESTPORT", "state": "MA", "street": "10 ADAMSVILLE RD", "postcode": "02790"}}},
{"geometry": {"type": "Point", "coordinates": [-71.0796898259, 41.6193341071]}, "type": "Feature", "properties": {"collection_times": [{"days": "Mon-Fri", "time": "5:00pm"}, {"days": "Sat", "time": "12:00pm"}, {"days": "Sun", "time": "Closed"}], "id": "0279000009", "name": "USPS COLLECTION BOX - BLUE BOX", "address": {"city": "WESTPORT", "state": "MA", "street": "529 OLD COUNTY RD", "postcode": "02790"}}},
{"geometry": {"type": "Point", "coordinates": [-71.0878665321, 41.5287839432]}, "type": "Feature", "properties": {"collection_times": [{"days": "Mon-Sat", "time": "11:00am"}, {"days": "Sun", "time": "Closed"}], "id": "0279000012", "name": "USPS COLLECTION BOX - BLUE BOX", "address": {"city": "WESTPORT", "state": "MA", "street": "796 MAIN RD", "postcode": "02790"}}},
{"geometry": {"type": "Point", "coordinates": [-71.0490160185, 41.6401808067]}, "type": "Feature", "properties": {"collection_times": [{"days": "Mon-Fri", "time": "5:00pm"}, {"days": "Sat", "time": "1:45pm"}, {"days": "Sun", "time": "Closed"}], "id": "0279000013", "name": "USPS COLLECTION BOX - BLUE BOX", "address": {"city": "WESTPORT", "state": "MA", "street": "649 STATE RD", "postcode": "02790"}}},
{"geometry": {"type": "Point", "coordinates": [-71.0711669671, 41.5164640829]}, "type": "Feature", "properties": {"collection_times": [{"days": "Mon-Fri", "time": "4:30pm"}, {"days": "Sat", "time": "12:15pm"}, {"days": "Sun", "time": "Closed"}], "id": "0279100001", "name": "USPS COLLECTION BOX - BLUE BOX", "address": {"city": "WESTPORT POINT", "state": "MA", "street": "1974 MAIN RD", "postcode": "02791"}}}
]}
