{"type": "FeatureCollection", "features": [
{"geometry": {"type": "Point", "coordinates": [-73.2067468192, 42.8734035682]}, "type": "Feature", "properties": {"collection_times": [{"days": "Mon-Fri", "time": "3:45pm"}, {"days": "Sat", "time": "3:00pm"}, {"days": "Sun", "time": "Closed"}], "id": "0520100000", "name": "USPS COLLECTION BOX - BLUE BOX", "address": {"city": "BENNINGTON", "state": "MA", "street": "100 HOSPITAL DR", "postcode": "05201"}}},
{"geometry": {"type": "Point", "coordinates": [-73.19377804, 42.8778372984]}, "type": "Feature", "properties": {"collection_times": [{"days": "Mon-Fri", "time": "4:45pm"}, {"days": "Sat", "time": "3:00pm"}, {"days": "Sun", "time": "Closed"}], "id": "0520100007", "name": "USPS COLLECTION BOX - BLUE BOX", "address": {"city": "BENNINGTON", "state": "MA", "street": "101 SILVER ST", "postcode": "05201"}}},
{"geometry": {"type": "Point", "coordinates": [-73.1983478105, 42.8767619887]}, "type": "Feature", "properties": {"collection_times": [{"days": "Mon-Fri", "time": "5:15pm"}, {"days": "Sat", "time": "4:15pm"}, {"days": "Sun", "time": "Closed"}], "id": "0520100010", "name": "USPS COLLECTION BOX - BLUE BOX", "address": {"city": "BENNINGTON", "state": "MA", "street": "108 ELM ST", "postcode": "05201"}}},
{"geometry": {"type": "Point", "coordinates": [-73.1960919078, 42.8715534203]}, "type": "Feature", "properties": {"collection_times": [{"days": "Mon-Fri", "time": "12:30pm"}, {"days": "Sat", "time": "12:00pm"}, {"days": "Sun", "time": "Closed"}], "id": "0520100011", "name": "USPS COLLECTION BOX - BLUE BOX", "address": {"city": "BENNINGTON", "state": "MA", "street": "510 SOUTH ST", "postcode": "05201"}}},
{"geometry": {"type": "Point", "coordinates": [-73.1980403163, 42.8940321199]}, "type": "Feature", "properties": {"collection_times": [{"days": "Mon-Fri", "time": "4:15pm"}, {"days": "Sat", "time": "3:00pm"}, {"days": "Sun", "time": "Closed"}], "id": "0520100015", "name": "USPS COLLECTION BOX - BLUE BOX", "address": {"city": "BENNINGTON", "state": "MA", "street": "3 BENNINGTON SQ", "postcode": "05201"}}},
{"geometry": {"type": "Point", "coordinates": [-73.2088275981, 42.8986002717]}, "type": "Feature", "properties": {"collection_times": [{"days": "Mon-Sat", "time": "11:00am"}, {"days": "Sun", "time": "Closed"}], "id": "0520100016", "name": "USPS COLLECTION BOX - BLUE BOX", "address": {"city": "BENNINGTON", "state": "MA", "street": "350 NORTHSIDE DR", "postcode": "05201"}}},
{"geometry": {"type": "Point", "coordinates": [-73.2087883808, 42.8985741268]}, "type": "Feature", "properties": {"collection_times": [{"days": "Mon-Sat", "time": "11:00am"}, {"days": "Sun", "time": "Closed"}], "id": "0520100020", "name": "USPS COLLECTION BOX - BLUE BOX", "address": {"city": "BENNINGTON", "state": "MA", "street": "212 NORTHSIDE DR", "postcode": "05201"}}},
{"geometry": {"type": "Point", "coordinates": [-73.1931834738, 42.8809989719]}, "type": "Feature", "properties": {"collection_times": [{"days": "Mon-Fri", "time": "3:30pm"}, {"days": "Sat", "time": "3:00pm"}, {"days": "Sun", "time": "Closed"}], "id": "0520100023", "name": "USPS COLLECTION BOX - BLUE BOX", "address": {"city": "BENNINGTON", "state": "MA", "street": "140 PARK ST", "postcode": "05201"}}},
{"geometry": {"type": "Point", "coordinates": [-73.191127869, 42.8814626144]}, "type": "Feature", "properties": {"collection_times": [{"days": "Mon-Sat", "time": "9:00am"}, {"days": "Sun", "time": "Closed"}], "id": "0520100025", "name": "USPS COLLECTION BOX - BLUE BOX", "address": {"city": "BENNINGTON", "state": "MA", "street": "349 SAFFORD ST", "postcode": "05201"}}},
{"geometry": {"type": "Point", "coordinates": [-73.191127869, 42.8814626144]}, "type": "Feature", "properties": {"collection_times": [{"days": "Mon-Sat", "time": "2:00pm"}, {"days": "Sun", "time": "Closed"}], "id": "0520100028", "name": "USPS COLLECTION BOX - BLUE BOX", "address": {"city": "BENNINGTON", "state": "MA", "street": "901 MAIN ST", "postcode": "05201"}}},
{"geometry": {"type": "Point", "coordinates": [-73.191127869, 42.8814626144]}, "type": "Feature", "properties": {"collection_times": [{"days": "Mon-Fri", "time": "4:30pm"}, {"days": "Sat", "time": "11:00am"}, {"days": "Sun", "time": "Closed"}], "id": "0520100031", "name": "USPS COLLECTION BOX - BLUE BOX", "address": {"city": "BENNINGTON", "state": "MA", "street": "600 MAIN ST", "postcode": "05201"}}},
{"geometry": {"type": "Point", "coordinates": [-73.1946936503, 42.8781555143]}, "type": "Feature", "properties": {"collection_times": [{"days": "Mon-Fri", "time": "4:45pm"}, {"days": "Sat", "time": "3:00pm"}, {"days": "Sun", "time": "Closed"}], "id": "0520100032", "name": "USPS COLLECTION BOX - BLUE BOX", "address": {"city": "BENNINGTON", "state": "MA", "street": "500 MAIN ST", "postcode": "05201"}}},
{"geometry": {"type": "Point", "coordinates": [-73.2030304673, 42.8774866577]}, "type": "Feature", "properties": {"collection_times": [{"days": "Mon-Sat", "time": "9:00am"}, {"days": "Sun", "time": "Closed"}], "id": "0520100035", "name": "USPS COLLECTION BOX - BLUE BOX", "address": {"city": "BENNINGTON", "state": "MA", "street": "251 ELM ST", "postcode": "05201"}}},
{"geometry": {"type": "Point", "coordinates": [-73.2019582013, 42.8834184988]}, "type": "Feature", "properties": {"collection_times": [{"days": "Mon-Fri", "time": "3:30pm"}, {"days": "Sat", "time": "3:00pm"}, {"days": "Sun", "time": "Closed"}], "id": "0520100040", "name": "USPS COLLECTION BOX - BLUE BOX", "address": {"city": "BENNINGTON", "state": "MA", "street": "150 BENMONT AVE", "postcode": "05201"}}},
{"geometry": {"type": "Point", "coordinates": [-73.191127869, 42.8814626144]}, "type": "Feature", "properties": {"collection_times": [{"days": "Mon-Fri", "time": "3:30pm"}, {"days": "Sat", "time": "11:00am"}, {"days": "Sun", "time": "Closed"}], "id": "0520100047", "name": "USPS COLLECTION BOX - BLUE BOX", "address": {"city": "BENNINGTON", "state": "MA", "street": "160 BENMONT AVE", "postcode": "05201"}}},
{"geometry": {"type": "Point", "coordinates": [-73.2047417037, 42.8815766317]}, "type": "Feature", "properties": {"collection_times": [{"days": "Mon-Sat", "time": "9:00am"}, {"days": "Sun", "time": "Closed"}], "id": "0520100048", "name": "USPS COLLECTION BOX - BLUE BOX", "address": {"city": "BENNINGTON", "state": "MA", "street": "200 MAIN ST", "postcode": "05201"}}},
{"geometry": {"type": "Point", "coordinates": [-73.2095539808, 42.8738921302]}, "type": "Feature", "properties": {"collection_times": [{"days": "Mon-Fri", "time": "3:45pm"}, {"days": "Sat", "time": "3:00pm"}, {"days": "Sun", "time": "Closed"}], "id": "0520100052", "name": "USPS COLLECTION BOX - BLUE BOX", "address": {"city": "BENNINGTON", "state": "MA", "street": "140 HOSPITAL DR", "postcode": "05201"}}},
{"geometry": {"type": "Point", "coordinates": [-73.1983478105, 42.8767619887]}, "type": "Feature", "properties": {"collection_times": [{"days": "Mon-Fri", "time": "5:15pm"}, {"days": "Sat", "time": "4:15pm"}, {"days": "Sun", "time": "Closed"}], "id": "0520100057", "name": "USPS COLLECTION BOX - PO LOBBY", "address": {"city": "BENNINGTON", "state": "MA", "street": "108 ELM ST", "postcode": "05201"}}},
{"geometry": {"type": "Point", "coordinates": [-73.1968752569, 42.881856719]}, "type": "Feature", "properties": {"collection_times": [{"days": "Mon-Fri", "time": "4:45pm"}, {"days": "Sat", "time": "3:00pm"}, {"days": "Sun", "time": "Closed"}], "id": "0520100060", "name": "USPS COLLECTION BOX - BLUE BOX", "address": {"city": "BENNINGTON", "state": "MA", "street": "205 NORTH ST", "postcode": "05201"}}},
{"geometry": {"type": "Point", "coordinates": [-73.19694681, 42.880503268]}, "type": "Feature", "properties": {"collection_times": [{"days": "Mon-Fri", "time": "4:45pm"}, {"days": "Sat", "time": "3:00pm"}, {"days": "Sun", "time": "Closed"}], "id": "0520100061", "name": "USPS COLLECTION BOX - BLUE BOX", "address": {"city": "BENNINGTON", "state": "MA", "street": "155 NORTH ST", "postcode": "05201"}}},
{"geometry": {"type": "Point", "coordinates": [-73.1985119834, 42.8859423556]}, "type": "Feature", "properties": {"collection_times": [{"days": "Mon-Sat", "time": "9:00am"}, {"days": "Sun", "time": "Closed"}], "id": "0520100063", "name": "USPS COLLECTION BOX - BLUE BOX", "address": {"city": "BENNINGTON", "state": "MA", "street": "325 NORTH ST", "postcode": "05201"}}},
{"geometry": {"type": "Point", "coordinates": [-73.196776841, 42.878310482]}, "type": "Feature", "properties": {"collection_times": [{"days": "Mon-Fri", "time": "5:00pm"}, {"days": "Sat", "time": "4:00pm"}, {"days": "Sun", "time": "Closed"}], "id": "0520100065", "name": "USPS COLLECTION BOX - BLUE BOX", "address": {"city": "BENNINGTON", "state": "MA", "street": "401 MAIN ST", "postcode": "05201"}}},
{"geometry": {"type": "Point", "coordinates": [-73.1991581374, 42.8885572725]}, "type": "Feature", "properties": {"collection_times": [{"days": "Mon-Fri", "time": "4:30pm"}, {"days": "Sat-Sun", "time": "Closed"}], "id": "0520100066", "name": "USPS COLLECTION BOX - BLUE BOX", "address": {"city": "BENNINGTON", "state": "MA", "street": "150 VETERANS MEMORIAL DR", "postcode": "05201"}}}
]}
