{"type": "FeatureCollection", "features": [
{"geometry": {"type": "Point", "coordinates": [-106.730641556, 34.6448415679]}, "type": "Feature", "properties": {"collection_times": [{"days": "Mon-Sat", "time": "1:00pm"}, {"days": "Sun", "time": "Closed"}], "id": "8700200009", "name": "USPS COLLECTION BOX - BLUE BOX", "address": {"city": "BELEN", "state": "NM", "street": "394 RIO COMMUNITIES BLVD", "postcode": "87002"}}},
{"geometry": {"type": "Point", "coordinates": [-106.730641556, 34.6448415679]}, "type": "Feature", "properties": {"collection_times": [{"days": "Mon-Sat", "time": "1:00pm"}, {"days": "Sun", "time": "Closed"}], "id": "8700200010", "name": "USPS COLLECTION BOX - BLUE BOX", "address": {"city": "BELEN", "state": "NM", "street": "394 RIO COMMUNITIES BLVD", "postcode": "87002"}}},
{"geometry": {"type": "Point", "coordinates": [-106.7672445989, 34.6937099508]}, "type": "Feature", "properties": {"collection_times": [{"days": "Mon-Sat", "time": "12:30pm"}, {"days": "Sun", "time": "Closed"}], "id": "8700200011", "name": "USPS COLLECTION BOX - BLUE BOX", "address": {"city": "BELEN", "state": "NM", "street": "1 I 25 BYPASS", "postcode": "87002"}}},
{"geometry": {"type": "Point", "coordinates": [-106.7750853321, 34.6650269419]}, "type": "Feature", "properties": {"collection_times": [{"days": "Mon-Sat", "time": "5:00pm"}, {"days": "Sun", "time": "Closed"}], "id": "8700200012", "name": "USPS COLLECTION BOX - BLUE BOX", "address": {"city": "BELEN", "state": "NM", "street": "400 N MAIN ST", "postcode": "87002"}}},
{"geometry": {"type": "Point", "coordinates": [-106.7750853321, 34.6650269419]}, "type": "Feature", "properties": {"collection_times": [{"days": "Mon-Sat", "time": "5:00pm"}, {"days": "Sun", "time": "Closed"}], "id": "8700200013", "name": "USPS COLLECTION BOX - PO LOBBY", "address": {"city": "BELEN", "state": "NM", "street": "400 N MAIN ST", "postcode": "87002"}}},
{"geometry": {"type": "Point", "coordinates": [-106.7750853321, 34.6650269419]}, "type": "Feature", "properties": {"collection_times": [{"days": "Mon-Sat", "time": "5:00pm"}, {"days": "Sun", "time": "Closed"}], "id": "8700200014", "name": "USPS COLLECTION BOX - PO LOBBY", "address": {"city": "BELEN", "state": "NM", "street": "400 N MAIN ST", "postcode": "87002"}}},
{"geometry": {"type": "Point", "coordinates": [-106.7750853321, 34.6650269419]}, "type": "Feature", "properties": {"collection_times": [{"days": "Mon-Sat", "time": "5:00pm"}, {"days": "Sun", "time": "Closed"}], "id": "8700200015", "name": "USPS COLLECTION BOX - PO LOBBY", "address": {"city": "BELEN", "state": "NM", "street": "400 N MAIN ST", "postcode": "87002"}}},
{"geometry": {"type": "Point", "coordinates": [-106.7750853321, 34.6650269419]}, "type": "Feature", "properties": {"collection_times": [{"days": "Mon-Sat", "time": "5:00pm"}, {"days": "Sun", "time": "Closed"}], "id": "8700200017", "name": "USPS COLLECTION BOX - BLUE BOX", "address": {"city": "BELEN", "state": "NM", "street": "400 N MAIN ST", "postcode": "87002"}}},
{"geometry": {"type": "Point", "coordinates": [-106.5477953679, 35.3056504582]}, "type": "Feature", "properties": {"collection_times": [{"days": "Mon-Fri", "time": "5:00pm"}, {"days": "Sat", "time": "11:30am"}, {"days": "Sun", "time": "Closed"}], "id": "8700400001", "name": "USPS COLLECTION BOX - BLUE BOX", "address": {"city": "BERNALILLO", "state": "NM", "street": "145 CALLE DEL PRESIDENTE", "postcode": "87004"}}},
{"geometry": {"type": "Point", "coordinates": [-106.5477953679, 35.3056504582]}, "type": "Feature", "properties": {"collection_times": [{"days": "Mon-Fri", "time": "4:30pm"}, {"days": "Sat", "time": "11:30am"}, {"days": "Sun", "time": "Closed"}], "id": "8700400005", "name": "USPS COLLECTION BOX - PO LOBBY", "address": {"city": "BERNALILLO", "state": "NM", "street": "145 CALLE DEL PRESIDENTE", "postcode": "87004"}}},
{"geometry": {"type": "Point", "coordinates": [-106.5477953679, 35.3056504582]}, "type": "Feature", "properties": {"collection_times": [{"days": "Mon-Fri", "time": "4:30pm"}, {"days": "Sat", "time": "11:30am"}, {"days": "Sun", "time": "Closed"}], "id": "8700400006", "name": "USPS COLLECTION BOX - PO LOBBY", "address": {"city": "BERNALILLO", "state": "NM", "street": "145 CALLE DEL PRESIDENTE", "postcode": "87004"}}},
{"geometry": {"type": "Point", "coordinates": [-108.2645105535, 35.1368949141]}, "type": "Feature", "properties": {"collection_times": [{"days": "Mon-Fri", "time": "3:00pm"}, {"days": "Sat", "time": "9:45am"}, {"days": "Sun", "time": "Closed"}], "id": "8700500002", "name": "USPS COLLECTION BOX - PO LOBBY", "address": {"city": "BLUEWATER", "state": "NM", "street": "202 MAIN ST", "postcode": "87005"}}},
{"geometry": {"type": "Point", "coordinates": [-108.2645105535, 35.1368949141]}, "type": "Feature", "properties": {"collection_times": [{"days": "Mon-Fri", "time": "3:00pm"}, {"days": "Sat", "time": "9:45am"}, {"days": "Sun", "time": "Closed"}], "id": "8700500003", "name": "USPS COLLECTION BOX - PO LOBBY", "address": {"city": "BLUEWATER", "state": "NM", "street": "202 MAIN ST", "postcode": "87005"}}},
{"geometry": {"type": "Point", "coordinates": [-106.7933178403, 34.5410413293]}, "type": "Feature", "properties": {"collection_times": [{"days": "Mon-Fri", "time": "2:00pm"}, {"days": "Sat", "time": "11:45am"}, {"days": "Sun", "time": "Closed"}], "id": "8700600001", "name": "USPS COLLECTION BOX - BLUE BOX", "address": {"city": "BOSQUE", "state": "NM", "street": "1002 S HIGHWAY 116", "postcode": "87006"}}},
{"geometry": {"type": "Point", "coordinates": [-106.7933178403, 34.5410413293]}, "type": "Feature", "properties": {"collection_times": [{"days": "Mon-Fri", "time": "2:00pm"}, {"days": "Sat", "time": "11:45am"}, {"days": "Sun", "time": "Closed"}], "id": "8700600002", "name": "USPS COLLECTION BOX - PO LOBBY", "address": {"city": "BOSQUE", "state": "NM", "street": "1002 S HIGHWAY 116", "postcode": "87006"}}},
{"geometry": {"type": "Point", "coordinates": [-107.4330529563, 35.0045246369]}, "type": "Feature", "properties": {"collection_times": [{"days": "Mon-Fri", "time": "4:30pm"}, {"days": "Sat", "time": "10:30am"}, {"days": "Sun", "time": "Closed"}], "id": "8700700001", "name": "USPS COLLECTION BOX - BLUE BOX", "address": {"city": "CASA BLANCA", "state": "NM", "street": "182 CASA BLANCA RD", "postcode": "87007"}}},
{"geometry": {"type": "Point", "coordinates": [-107.4330529563, 35.0045246369]}, "type": "Feature", "properties": {"collection_times": [{"days": "Mon-Fri", "time": "4:30pm"}, {"days": "Sat", "time": "10:30am"}, {"days": "Sun", "time": "Closed"}], "id": "8700700002", "name": "USPS COLLECTION BOX - PO LOBBY", "address": {"city": "CASA BLANCA", "state": "NM", "street": "182 CASA BLANCA RD", "postcode": "87007"}}},
{"geometry": {"type": "Point", "coordinates": [-106.3662724711, 35.1300698708]}, "type": "Feature", "properties": {"collection_times": [{"days": "Mon-Fri", "time": "4:45pm"}, {"days": "Sat", "time": "12:15pm"}, {"days": "Sun", "time": "Closed"}], "id": "8700800001", "name": "USPS COLLECTION BOX - BLUE BOX", "address": {"city": "CEDAR CREST", "state": "NM", "street": "12218 STATE HIGHWAY 14 N", "postcode": "87008"}}},
{"geometry": {"type": "Point", "coordinates": [-106.3662724711, 35.1300698708]}, "type": "Feature", "properties": {"collection_times": [{"days": "Mon-Fri", "time": "4:45pm"}, {"days": "Sat", "time": "12:15pm"}, {"days": "Sun", "time": "Closed"}], "id": "8700800003", "name": "USPS COLLECTION BOX - BLUE BOX", "address": {"city": "CEDAR CREST", "state": "NM", "street": "12218 STATE HIGHWAY 14 N", "postcode": "87008"}}},
{"geometry": {"type": "Point", "coordinates": [-106.3662724711, 35.1300698708]}, "type": "Feature", "properties": {"collection_times": [{"days": "Mon-Fri", "time": "4:45pm"}, {"days": "Sat", "time": "12:15pm"}, {"days": "Sun", "time": "Closed"}], "id": "8700800004", "name": "USPS COLLECTION BOX - BLUE BOX", "address": {"city": "CEDAR CREST", "state": "NM", "street": "12218 STATE HIGHWAY 14 N", "postcode": "87008"}}},
{"geometry": {"type": "Point", "coordinates": [-106.3662724711, 35.1300698708]}, "type": "Feature", "properties": {"collection_times": [{"days": "Mon-Fri", "time": "4:45pm"}, {"days": "Sat", "time": "12:15pm"}, {"days": "Sun", "time": "Closed"}], "id": "8700800005", "name": "USPS COLLECTION BOX - PO LOBBY", "address": {"city": "CEDAR CREST", "state": "NM", "street": "12218 STATE HIGHWAY 14 N", "postcode": "87008"}}},
{"geometry": {"type": "Point", "coordinates": [-106.3662724711, 35.1300698708]}, "type": "Feature", "properties": {"collection_times": [{"days": "Mon-Fri", "time": "4:45pm"}, {"days": "Sat", "time": "12:15pm"}, {"days": "Sun", "time": "Closed"}], "id": "8700800006", "name": "USPS COLLECTION BOX - PO LOBBY", "address": {"city": "CEDAR CREST", "state": "NM", "street": "12218 STATE HIGHWAY 14 N", "postcode": "87008"}}},
{"geometry": {"type": "Point", "coordinates": [-106.3662724711, 35.1300698708]}, "type": "Feature", "properties": {"collection_times": [{"days": "Mon-Fri", "time": "4:45pm"}, {"days": "Sat", "time": "12:15pm"}, {"days": "Sun", "time": "Closed"}], "id": "8700800007", "name": "USPS COLLECTION BOX - PO LOBBY", "address": {"city": "CEDAR CREST", "state": "NM", "street": "12218 STATE HIGHWAY 14 N", "postcode": "87008"}}},
{"geometry": {"type": "Point", "coordinates": [-106.1197521654, 35.4341205702]}, "type": "Feature", "properties": {"collection_times": [{"days": "Mon-Sat", "time": "10:15am"}, {"days": "Sun", "time": "Closed"}], "id": "8701000001", "name": "USPS COLLECTION BOX - BLUE BOX", "address": {"city": "CERRILLOS", "state": "NM", "street": "1 MAIN ST", "postcode": "87010"}}},
{"geometry": {"type": "Point", "coordinates": [-106.1197521654, 35.4341205702]}, "type": "Feature", "properties": {"collection_times": [{"days": "Mon-Sat", "time": "10:15am"}, {"days": "Sun", "time": "Closed"}], "id": "8701000002", "name": "USPS COLLECTION BOX - PO LOBBY", "address": {"city": "CERRILLOS", "state": "NM", "street": "1 MAIN ST", "postcode": "87010"}}},
{"geometry": {"type": "Point", "coordinates": [-105.9942665977, 34.1425230035]}, "type": "Feature", "properties": {"collection_times": [{"days": "Mon-Sat", "time": "10:30am"}, {"days": "Sun", "time": "Closed"}], "id": "8701100001", "name": "USPS COLLECTION BOX - BLUE BOX", "address": {"city": "CLAUNCH", "state": "NM", "street": "1468 S HIGHWAY 55", "postcode": "87011"}}},
{"geometry": {"type": "Point", "coordinates": [-105.9942665977, 34.1425230035]}, "type": "Feature", "properties": {"collection_times": [{"days": "Mon-Sat", "time": "10:30am"}, {"days": "Sun", "time": "Closed"}], "id": "8701100002", "name": "USPS COLLECTION BOX - PO LOBBY", "address": {"city": "CLAUNCH", "state": "NM", "street": "1468 S HIGHWAY 55", "postcode": "87011"}}},
{"geometry": {"type": "Point", "coordinates": [-106.6512660032, 36.1785604955]}, "type": "Feature", "properties": {"collection_times": [{"days": "Mon-Fri", "time": "11:30am"}, {"days": "Sat", "time": "11:00am"}, {"days": "Sun", "time": "Closed"}], "id": "8701200000", "name": "USPS COLLECTION BOX - BLUE BOX", "address": {"city": "COYOTE", "state": "NM", "street": "3390 STATE HIGHWAY 96", "postcode": "87012"}}},
{"geometry": {"type": "Point", "coordinates": [-106.6512660032, 36.1785604955]}, "type": "Feature", "properties": {"collection_times": [{"days": "Mon-Fri", "time": "11:30am"}, {"days": "Sat", "time": "11:00am"}, {"days": "Sun", "time": "Closed"}], "id": "8701200001", "name": "USPS COLLECTION BOX - PO LOBBY", "address": {"city": "COYOTE", "state": "NM", "street": "3390 STATE HIGHWAY 96", "postcode": "87012"}}},
{"geometry": {"type": "Point", "coordinates": [-106.9645956379, 36.0143153819]}, "type": "Feature", "properties": {"collection_times": [{"days": "Mon-Fri", "time": "4:30pm"}, {"days": "Sat", "time": "12:30pm"}, {"days": "Sun", "time": "Closed"}], "id": "8701300001", "name": "USPS COLLECTION BOX - BLUE BOX", "address": {"city": "CUBA", "state": "NM", "street": "6358 MAIN ST", "postcode": "87013"}}},
{"geometry": {"type": "Point", "coordinates": [-106.9645956379, 36.0143153819]}, "type": "Feature", "properties": {"collection_times": [{"days": "Mon-Fri", "time": "4:30pm"}, {"days": "Sat", "time": "12:30pm"}, {"days": "Sun", "time": "Closed"}], "id": "8701300004", "name": "USPS COLLECTION BOX - PO LOBBY", "address": {"city": "CUBA", "state": "NM", "street": "6358 MAIN ST", "postcode": "87013"}}},
{"geometry": {"type": "Point", "coordinates": [-106.9645956379, 36.0143153819]}, "type": "Feature", "properties": {"collection_times": [{"days": "Mon-Fri", "time": "4:30pm"}, {"days": "Sat", "time": "12:30pm"}, {"days": "Sun", "time": "Closed"}], "id": "8701300005", "name": "USPS COLLECTION BOX - PO LOBBY", "address": {"city": "CUBA", "state": "NM", "street": "6358 MAIN ST", "postcode": "87013"}}},
{"geometry": {"type": "Point", "coordinates": [-107.910486448, 34.898771346]}, "type": "Feature", "properties": {"collection_times": [{"days": "Mon-Fri", "time": "4:45pm"}, {"days": "Sat", "time": "9:45am"}, {"days": "Sun", "time": "Closed"}], "id": "8701400002", "name": "USPS COLLECTION BOX - PO LOBBY", "address": {"city": "CUBERO", "state": "NM", "street": "6 CAMINO REAL RD", "postcode": "87014"}}},
{"geometry": {"type": "Point", "coordinates": [-107.910486448, 34.898771346]}, "type": "Feature", "properties": {"collection_times": [{"days": "Mon-Fri", "time": "4:45pm"}, {"days": "Sat", "time": "9:45am"}, {"days": "Sun", "time": "Closed"}], "id": "8701400003", "name": "USPS COLLECTION BOX - PO LOBBY", "address": {"city": "CUBERO", "state": "NM", "street": "6 CAMINO REAL RD", "postcode": "87014"}}},
{"geometry": {"type": "Point", "coordinates": [-106.1920788485, 35.0626522154]}, "type": "Feature", "properties": {"collection_times": [{"days": "Mon-Fri", "time": "4:45pm"}, {"days": "Sat", "time": "11:45am"}, {"days": "Sun", "time": "Closed"}], "id": "8701500001", "name": "USPS COLLECTION BOX - BLUE BOX", "address": {"city": "EDGEWOOD", "state": "NM", "street": "13 PLAZA LOOP", "postcode": "87015"}}},
{"geometry": {"type": "Point", "coordinates": [-106.1920788485, 35.0626522154]}, "type": "Feature", "properties": {"collection_times": [{"days": "Mon-Fri", "time": "5:00pm"}, {"days": "Sat", "time": "12:00pm"}, {"days": "Sun", "time": "Closed"}], "id": "8701500002", "name": "USPS COLLECTION BOX - PO LOBBY", "address": {"city": "EDGEWOOD", "state": "NM", "street": "13 PLAZA LOOP", "postcode": "87015"}}},
{"geometry": {"type": "Point", "coordinates": [-106.1920788485, 35.0626522154]}, "type": "Feature", "properties": {"collection_times": [{"days": "Mon-Fri", "time": "5:00pm"}, {"days": "Sat", "time": "12:00pm"}, {"days": "Sun", "time": "Closed"}], "id": "8701500003", "name": "USPS COLLECTION BOX - PO LOBBY", "address": {"city": "EDGEWOOD", "state": "NM", "street": "13 PLAZA LOOP", "postcode": "87015"}}},
{"geometry": {"type": "Point", "coordinates": [-106.1920788485, 35.0626522154]}, "type": "Feature", "properties": {"collection_times": [{"days": "Mon-Fri", "time": "5:00pm"}, {"days": "Sat", "time": "12:00pm"}, {"days": "Sun", "time": "Closed"}], "id": "8701500004", "name": "USPS COLLECTION BOX - PO LOBBY", "address": {"city": "EDGEWOOD", "state": "NM", "street": "13 PLAZA LOOP", "postcode": "87015"}}},
{"geometry": {"type": "Point", "coordinates": [-106.157102768, 34.7476339196]}, "type": "Feature", "properties": {"collection_times": [{"days": "Mon-Fri", "time": "4:30pm"}, {"days": "Sat", "time": "11:00am"}, {"days": "Sun", "time": "Closed"}], "id": "8701600001", "name": "USPS COLLECTION BOX - BLUE BOX", "address": {"city": "ESTANCIA", "state": "NM", "street": "413 E HIGHLAND AVE", "postcode": "87016"}}},
{"geometry": {"type": "Point", "coordinates": [-106.157102768, 34.7476339196]}, "type": "Feature", "properties": {"collection_times": [{"days": "Mon-Fri", "time": "4:30pm"}, {"days": "Sat", "time": "11:00am"}, {"days": "Sun", "time": "Closed"}], "id": "8701600002", "name": "USPS COLLECTION BOX - PO LOBBY", "address": {"city": "ESTANCIA", "state": "NM", "street": "413 E HIGHLAND AVE", "postcode": "87016"}}},
{"geometry": {"type": "Point", "coordinates": [-106.157102768, 34.7476339196]}, "type": "Feature", "properties": {"collection_times": [{"days": "Mon-Fri", "time": "4:30pm"}, {"days": "Sat", "time": "11:00am"}, {"days": "Sun", "time": "Closed"}], "id": "8701600003", "name": "USPS COLLECTION BOX - PO LOBBY", "address": {"city": "ESTANCIA", "state": "NM", "street": "413 E HIGHLAND AVE", "postcode": "87016"}}},
{"geometry": {"type": "Point", "coordinates": [-106.7188339943, 36.2032944207]}, "type": "Feature", "properties": {"collection_times": [{"days": "Mon-Sat", "time": "12:00pm"}, {"days": "Sun", "time": "Closed"}], "id": "8701700001", "name": "USPS COLLECTION BOX - BLUE BOX", "address": {"city": "GALLINA", "state": "NM", "street": "1970 STATE RD 96", "postcode": "87017"}}},
{"geometry": {"type": "Point", "coordinates": [-106.7188339943, 36.2032944207]}, "type": "Feature", "properties": {"collection_times": [{"days": "Mon-Sat", "time": "12:00pm"}, {"days": "Sun", "time": "Closed"}], "id": "8701700002", "name": "USPS COLLECTION BOX - PO LOBBY", "address": {"city": "GALLINA", "state": "NM", "street": "1970 STATE RD 96", "postcode": "87017"}}},
{"geometry": {"type": "Point", "coordinates": [-107.8314895086, 35.1610677114]}, "type": "Feature", "properties": {"collection_times": [{"days": "Mon-Sat", "time": "2:00pm"}, {"days": "Sun", "time": "Closed"}], "id": "8702000003", "name": "USPS COLLECTION BOX - BLUE BOX", "address": {"city": "GRANTS", "state": "NM", "street": "700 E ROOSEVELT AVE", "postcode": "87020"}}},
{"geometry": {"type": "Point", "coordinates": [-107.8576609943, 35.1535428331]}, "type": "Feature", "properties": {"collection_times": [{"days": "Mon-Fri", "time": "5:00pm"}, {"days": "Sat", "time": "3:30pm"}, {"days": "Sun", "time": "Closed"}], "id": "8702000009", "name": "USPS COLLECTION BOX - BLUE BOX", "address": {"city": "GRANTS", "state": "NM", "street": "816 W SANTA FE AVE", "postcode": "87020"}}},
{"geometry": {"type": "Point", "coordinates": [-107.8576609943, 35.1535428331]}, "type": "Feature", "properties": {"collection_times": [{"days": "Mon-Fri", "time": "5:00pm"}, {"days": "Sat", "time": "3:30pm"}, {"days": "Sun", "time": "Closed"}], "id": "8702000010", "name": "USPS COLLECTION BOX - BLUE BOX", "address": {"city": "GRANTS", "state": "NM", "street": "816 W SANTA FE AVE", "postcode": "87020"}}},
{"geometry": {"type": "Point", "coordinates": [-107.8576609943, 35.1535428331]}, "type": "Feature", "properties": {"collection_times": [{"days": "Mon-Fri", "time": "5:00pm"}, {"days": "Sat", "time": "3:30pm"}, {"days": "Sun", "time": "Closed"}], "id": "8702000011", "name": "USPS COLLECTION BOX - BLUE BOX", "address": {"city": "GRANTS", "state": "NM", "street": "816 W SANTA FE AVE", "postcode": "87020"}}},
{"geometry": {"type": "Point", "coordinates": [-107.8576609943, 35.1535428331]}, "type": "Feature", "properties": {"collection_times": [{"days": "Mon-Fri", "time": "5:00pm"}, {"days": "Sat", "time": "3:30pm"}, {"days": "Sun", "time": "Closed"}], "id": "8702000012", "name": "USPS COLLECTION BOX - PO LOBBY", "address": {"city": "GRANTS", "state": "NM", "street": "816 W SANTA FE AVE", "postcode": "87020"}}},
{"geometry": {"type": "Point", "coordinates": [-107.8576609943, 35.1535428331]}, "type": "Feature", "properties": {"collection_times": [{"days": "Mon-Fri", "time": "5:00pm"}, {"days": "Sat", "time": "3:30pm"}, {"days": "Sun", "time": "Closed"}], "id": "8702000018", "name": "USPS COLLECTION BOX - PO LOBBY", "address": {"city": "GRANTS", "state": "NM", "street": "816 W SANTA FE AVE", "postcode": "87020"}}},
{"geometry": {"type": "Point", "coordinates": [-107.8916650708, 35.1724464054]}, "type": "Feature", "properties": {"collection_times": [{"days": "Mon-Fri", "time": "4:30pm"}, {"days": "Sat", "time": "12:00pm"}, {"days": "Sun", "time": "Closed"}], "id": "8702100001", "name": "USPS COLLECTION BOX - PO LOBBY", "address": {"city": "MILAN", "state": "NM", "street": "105 AIRPORT RD", "postcode": "87021"}}},
{"geometry": {"type": "Point", "coordinates": [-107.8916650708, 35.1724464054]}, "type": "Feature", "properties": {"collection_times": [{"days": "Mon-Fri", "time": "4:30pm"}, {"days": "Sat", "time": "12:00pm"}, {"days": "Sun", "time": "Closed"}], "id": "8702100004", "name": "USPS COLLECTION BOX - PO LOBBY", "address": {"city": "MILAN", "state": "NM", "street": "105 AIRPORT RD", "postcode": "87021"}}},
{"geometry": {"type": "Point", "coordinates": [-106.76164537, 34.8945061494]}, "type": "Feature", "properties": {"collection_times": [{"days": "Mon-Fri", "time": "3:00pm"}, {"days": "Sat", "time": "10:00am"}, {"days": "Sun", "time": "Closed"}], "id": "8702200004", "name": "USPS COLLECTION BOX - PO LOBBY", "address": {"city": "ISLETA", "state": "NM", "street": "119 TRIBAL ROAD 40", "postcode": "87022"}}},
{"geometry": {"type": "Point", "coordinates": [-106.76164537, 34.8945061494]}, "type": "Feature", "properties": {"collection_times": [{"days": "Mon-Fri", "time": "3:00pm"}, {"days": "Sat", "time": "10:00am"}, {"days": "Sun", "time": "Closed"}], "id": "8702200005", "name": "USPS COLLECTION BOX - BLUE BOX", "address": {"city": "ISLETA", "state": "NM", "street": "119 TRIBAL ROAD 40", "postcode": "87022"}}},
{"geometry": {"type": "Point", "coordinates": [-106.7622585786, 34.621936853]}, "type": "Feature", "properties": {"collection_times": [{"days": "Mon-Fri", "time": "1:00pm"}, {"days": "Sat", "time": "11:45am"}, {"days": "Sun", "time": "Closed"}], "id": "8702300002", "name": "USPS COLLECTION BOX - PO LOBBY", "address": {"city": "JARALES", "state": "NM", "street": "483 HIGHWAY 109", "postcode": "87023"}}},
{"geometry": {"type": "Point", "coordinates": [-106.7259799517, 35.6085841111]}, "type": "Feature", "properties": {"collection_times": [{"days": "Mon-Fri", "time": "4:30pm"}, {"days": "Sat", "time": "10:30am"}, {"days": "Sun", "time": "Closed"}], "id": "8702400001", "name": "USPS COLLECTION BOX - BLUE BOX", "address": {"city": "JEMEZ PUEBLO", "state": "NM", "street": "4965 HIGHWAY 4", "postcode": "87024"}}},
{"geometry": {"type": "Point", "coordinates": [-106.7259799517, 35.6085841111]}, "type": "Feature", "properties": {"collection_times": [{"days": "Mon-Fri", "time": "4:30pm"}, {"days": "Sat", "time": "10:30am"}, {"days": "Sun", "time": "Closed"}], "id": "8702400002", "name": "USPS COLLECTION BOX - PO LOBBY", "address": {"city": "JEMEZ PUEBLO", "state": "NM", "street": "4965 HIGHWAY 4", "postcode": "87024"}}},
{"geometry": {"type": "Point", "coordinates": [-106.7259799517, 35.6085841111]}, "type": "Feature", "properties": {"collection_times": [{"days": "Mon-Fri", "time": "4:30pm"}, {"days": "Sat", "time": "10:30am"}, {"days": "Sun", "time": "Closed"}], "id": "8702400003", "name": "USPS COLLECTION BOX - PO LOBBY", "address": {"city": "JEMEZ PUEBLO", "state": "NM", "street": "4965 HIGHWAY 4", "postcode": "87024"}}},
{"geometry": {"type": "Point", "coordinates": [-106.6978815538, 35.7618118097]}, "type": "Feature", "properties": {"collection_times": [{"days": "Mon-Fri", "time": "4:00pm"}, {"days": "Sat", "time": "12:00pm"}, {"days": "Sun", "time": "Closed"}], "id": "8702500004", "name": "USPS COLLECTION BOX - PO LOBBY", "address": {"city": "JEMEZ SPRINGS", "state": "NM", "street": "16957 HIGHWAY 4", "postcode": "87025"}}},
{"geometry": {"type": "Point", "coordinates": [-107.3612663728, 34.7736555971]}, "type": "Feature", "properties": {"collection_times": [{"days": "Mon-Fri", "time": "12:15pm"}, {"days": "Sat", "time": "11:30am"}, {"days": "Sun", "time": "Closed"}], "id": "8702600001", "name": "USPS COLLECTION BOX - BLUE BOX", "address": {"city": "LAGUNA", "state": "NM", "street": "11 RAILROAD AVE", "postcode": "87026"}}},
{"geometry": {"type": "Point", "coordinates": [-107.3612663728, 34.7736555971]}, "type": "Feature", "properties": {"collection_times": [{"days": "Mon-Fri", "time": "12:15pm"}, {"days": "Sat", "time": "11:30am"}, {"days": "Sun", "time": "Closed"}], "id": "8702600003", "name": "USPS COLLECTION BOX - PO LOBBY", "address": {"city": "LAGUNA", "state": "NM", "street": "11 RAILROAD AVE", "postcode": "87026"}}},
{"geometry": {"type": "Point", "coordinates": [-106.9747898604, 36.0873696407]}, "type": "Feature", "properties": {"collection_times": [{"days": "Mon-Fri", "time": "12:30pm"}, {"days": "Sat", "time": "10:30am"}, {"days": "Sun", "time": "Closed"}], "id": "8702700001", "name": "USPS COLLECTION BOX - BLUE BOX", "address": {"city": "LA JARA", "state": "NM", "street": "167 STATE HIGHWAY 96", "postcode": "87027"}}},
{"geometry": {"type": "Point", "coordinates": [-106.9747898604, 36.0873696407]}, "type": "Feature", "properties": {"collection_times": [{"days": "Mon-Fri", "time": "12:30pm"}, {"days": "Sat", "time": "10:30am"}, {"days": "Sun", "time": "Closed"}], "id": "8702700002", "name": "USPS COLLECTION BOX - PO LOBBY", "address": {"city": "LA JARA", "state": "NM", "street": "167 STATE HIGHWAY 96", "postcode": "87027"}}},
{"geometry": {"type": "Point", "coordinates": [-106.8453717061, 34.3454359562]}, "type": "Feature", "properties": {"collection_times": [{"days": "Mon-Fri", "time": "11:00am"}, {"days": "Sat", "time": "10:00am"}, {"days": "Sun", "time": "Closed"}], "id": "8702800000", "name": "USPS COLLECTION BOX - PO LOBBY", "address": {"city": "LA JOYA", "state": "NM", "street": "8 HIGHWAY 304", "postcode": "87028"}}},
{"geometry": {"type": "Point", "coordinates": [-107.0455780602, 36.30576359]}, "type": "Feature", "properties": {"collection_times": [{"days": "Mon-Sat", "time": "11:30am"}, {"days": "Sun", "time": "Closed"}], "id": "8702900002", "name": "USPS COLLECTION BOX - PO LOBBY", "address": {"city": "LINDRITH", "state": "NM", "street": "1094 STATE HIGHWAY 595", "postcode": "87029"}}},
{"geometry": {"type": "Point", "coordinates": [-106.7341956285, 34.8026856]}, "type": "Feature", "properties": {"collection_times": [{"days": "Mon-Fri", "time": "4:55pm"}, {"days": "Sat-Sun", "time": "Closed"}], "id": "8703100004", "name": "USPS COLLECTION BOX - BLUE BOX", "address": {"city": "LOS LUNAS", "state": "NM", "street": "444 LUNA ST SE", "postcode": "87031"}}},
{"geometry": {"type": "Point", "coordinates": [-106.7231365812, 34.8051404278]}, "type": "Feature", "properties": {"collection_times": [{"days": "Mon-Fri", "time": "5:30pm"}, {"days": "Sat", "time": "5:00pm"}, {"days": "Sun", "time": "Closed"}], "id": "8703100008", "name": "USPS COLLECTION BOX - BLUE BOX", "address": {"city": "LOS LUNAS", "state": "NM", "street": "100 CARSON DR SE", "postcode": "87031"}}},
{"geometry": {"type": "Point", "coordinates": [-106.7231365812, 34.8051404278]}, "type": "Feature", "properties": {"collection_times": [{"days": "Mon-Fri", "time": "5:30pm"}, {"days": "Sat", "time": "5:00pm"}, {"days": "Sun", "time": "Closed"}], "id": "8703100009", "name": "USPS COLLECTION BOX - BLUE BOX", "address": {"city": "LOS LUNAS", "state": "NM", "street": "100 CARSON DR SE", "postcode": "87031"}}},
{"geometry": {"type": "Point", "coordinates": [-106.7231365812, 34.8051404278]}, "type": "Feature", "properties": {"collection_times": [{"days": "Mon-Fri", "time": "5:30pm"}, {"days": "Sat", "time": "5:00pm"}, {"days": "Sun", "time": "Closed"}], "id": "8703100010", "name": "USPS COLLECTION BOX - PO LOBBY", "address": {"city": "LOS LUNAS", "state": "NM", "street": "100 CARSON DR SE", "postcode": "87031"}}},
{"geometry": {"type": "Point", "coordinates": [-106.7231365812, 34.8051404278]}, "type": "Feature", "properties": {"collection_times": [{"days": "Mon-Fri", "time": "5:30pm"}, {"days": "Sat", "time": "5:00pm"}, {"days": "Sun", "time": "Closed"}], "id": "8703100011", "name": "USPS COLLECTION BOX - BLUE BOX", "address": {"city": "LOS LUNAS", "state": "NM", "street": "100 CARSON DR SE", "postcode": "87031"}}},
{"geometry": {"type": "Point", "coordinates": [-106.0529833799, 34.8694307147]}, "type": "Feature", "properties": {"collection_times": [{"days": "Mon-Fri", "time": "4:00pm"}, {"days": "Sat", "time": "11:00am"}, {"days": "Sun", "time": "Closed"}], "id": "8703200001", "name": "USPS COLLECTION BOX - PO LOBBY", "address": {"city": "MCINTOSH", "state": "NM", "street": "1820 HIGHWAY 41", "postcode": "87032"}}},
{"geometry": {"type": "Point", "coordinates": [-106.0531083565, 34.8653401965]}, "type": "Feature", "properties": {"collection_times": [{"days": "Mon-Fri", "time": "4:00pm"}, {"days": "Sat", "time": "11:00am"}, {"days": "Sun", "time": "Closed"}], "id": "8703200002", "name": "USPS COLLECTION BOX - BLUE BOX", "address": {"city": "MCINTOSH", "state": "NM", "street": "1820 HIGHWAY 41", "postcode": "87032"}}},
{"geometry": {"type": "Point", "coordinates": [-107.5872408082, 34.9011511609]}, "type": "Feature", "properties": {"collection_times": [{"days": "Mon-Fri", "time": "1:00pm"}, {"days": "Sat", "time": "11:00am"}, {"days": "Sun", "time": "Closed"}], "id": "8703400000", "name": "USPS COLLECTION BOX - BLUE BOX", "address": {"city": "ACOMA", "state": "NM", "street": "32 INDIAN RD", "postcode": "87034"}}},
{"geometry": {"type": "Point", "coordinates": [-107.5872408082, 34.9011511609]}, "type": "Feature", "properties": {"collection_times": [{"days": "Mon-Fri", "time": "1:00pm"}, {"days": "Sat", "time": "11:00am"}, {"days": "Sun", "time": "Closed"}], "id": "8703400001", "name": "USPS COLLECTION BOX - PO LOBBY", "address": {"city": "ACOMA", "state": "NM", "street": "32 INDIAN RD", "postcode": "87034"}}},
{"geometry": {"type": "Point", "coordinates": [-106.0505515859, 35.0048523058]}, "type": "Feature", "properties": {"collection_times": [{"days": "Mon-Fri", "time": "4:30pm"}, {"days": "Sat", "time": "12:30pm"}, {"days": "Sun", "time": "Closed"}], "id": "8703500001", "name": "USPS COLLECTION BOX - BLUE BOX", "address": {"city": "MORIARTY", "state": "NM", "street": "514 OLD HWY 66", "postcode": "87035"}}},
{"geometry": {"type": "Point", "coordinates": [-106.0505515859, 35.0048523058]}, "type": "Feature", "properties": {"collection_times": [{"days": "Mon-Fri", "time": "4:30pm"}, {"days": "Sat", "time": "12:30pm"}, {"days": "Sun", "time": "Closed"}], "id": "8703500002", "name": "USPS COLLECTION BOX - PO LOBBY", "address": {"city": "MORIARTY", "state": "NM", "street": "514 OLD HWY 66", "postcode": "87035"}}},
{"geometry": {"type": "Point", "coordinates": [-106.0505515859, 35.0048523058]}, "type": "Feature", "properties": {"collection_times": [{"days": "Mon-Fri", "time": "4:30pm"}, {"days": "Sat", "time": "12:30pm"}, {"days": "Sun", "time": "Closed"}], "id": "8703500003", "name": "USPS COLLECTION BOX - PO LOBBY", "address": {"city": "MORIARTY", "state": "NM", "street": "514 OLD HWY 66", "postcode": "87035"}}},
{"geometry": {"type": "Point", "coordinates": [-106.2360016595, 34.521164982]}, "type": "Feature", "properties": {"collection_times": [{"days": "Mon-Fri", "time": "4:30pm"}, {"days": "Sat", "time": "12:00pm"}, {"days": "Sun", "time": "Closed"}], "id": "8703600001", "name": "USPS COLLECTION BOX - BLUE BOX", "address": {"city": "MOUNTAINAIR", "state": "NM", "street": "221 W BROADWAY", "postcode": "87036"}}},
{"geometry": {"type": "Point", "coordinates": [-106.2360016595, 34.521164982]}, "type": "Feature", "properties": {"collection_times": [{"days": "Mon-Fri", "time": "4:30pm"}, {"days": "Sat", "time": "12:00pm"}, {"days": "Sun", "time": "Closed"}], "id": "8703600002", "name": "USPS COLLECTION BOX - PO LOBBY", "address": {"city": "MOUNTAINAIR", "state": "NM", "street": "221 W BROADWAY", "postcode": "87036"}}},
{"geometry": {"type": "Point", "coordinates": [-106.2360016595, 34.521164982]}, "type": "Feature", "properties": {"collection_times": [{"days": "Mon-Fri", "time": "4:30pm"}, {"days": "Sat", "time": "12:00pm"}, {"days": "Sun", "time": "Closed"}], "id": "8703600003", "name": "USPS COLLECTION BOX - PO LOBBY", "address": {"city": "MOUNTAINAIR", "state": "NM", "street": "221 W BROADWAY", "postcode": "87036"}}},
{"geometry": {"type": "Point", "coordinates": [-107.7110631203, 36.2398047188]}, "type": "Feature", "properties": {"collection_times": [{"days": "Mon-Fri", "time": "2:45pm"}, {"days": "Sat", "time": "11:45am"}, {"days": "Sun", "time": "Closed"}], "id": "8703700001", "name": "USPS COLLECTION BOX - BLUE BOX", "address": {"city": "NAGEEZI", "state": "NM", "street": "11577 US 550", "postcode": "87037"}}},
{"geometry": {"type": "Point", "coordinates": [-107.7110631203, 36.2398047188]}, "type": "Feature", "properties": {"collection_times": [{"days": "Mon-Fri", "time": "2:45pm"}, {"days": "Sat", "time": "11:45am"}, {"days": "Sun", "time": "Closed"}], "id": "8703700002", "name": "USPS COLLECTION BOX - PO LOBBY", "address": {"city": "NAGEEZI", "state": "NM", "street": "11577 US 550", "postcode": "87037"}}},
{"geometry": {"type": "Point", "coordinates": [-107.4135129, 35.046621076]}, "type": "Feature", "properties": {"collection_times": [{"days": "Mon-Fri", "time": "12:30pm"}, {"days": "Sat", "time": "11:30am"}, {"days": "Sun", "time": "Closed"}], "id": "8703800002", "name": "USPS COLLECTION BOX - PO LOBBY", "address": {"city": "NEW LAGUNA", "state": "NM", "street": "22 STATE ROAD 124", "postcode": "87038"}}},
{"geometry": {"type": "Point", "coordinates": [-107.3697882413, 35.1396540786]}, "type": "Feature", "properties": {"collection_times": [{"days": "Mon-Sat", "time": "10:45am"}, {"days": "Sun", "time": "Closed"}], "id": "8704000001", "name": "USPS COLLECTION BOX - BLUE BOX", "address": {"city": "PAGUATE", "state": "NM", "street": "31 POSTAL RD", "postcode": "87040"}}},
{"geometry": {"type": "Point", "coordinates": [-107.3697882413, 35.1396540786]}, "type": "Feature", "properties": {"collection_times": [{"days": "Mon-Sat", "time": "10:45am"}, {"days": "Sun", "time": "Closed"}], "id": "8704000002", "name": "USPS COLLECTION BOX - PO LOBBY", "address": {"city": "PAGUATE", "state": "NM", "street": "31 POSTAL RD", "postcode": "87040"}}},
{"geometry": {"type": "Point", "coordinates": [-106.330450931, 35.5900638104]}, "type": "Feature", "properties": {"collection_times": [{"days": "Mon-Fri", "time": "2:45pm"}, {"days": "Sat", "time": "11:45am"}, {"days": "Sun", "time": "Closed"}], "id": "8704100001", "name": "USPS COLLECTION BOX - BLUE BOX", "address": {"city": "PENABLANCA", "state": "NM", "street": "823 HIGHWAY 22", "postcode": "87041"}}},
{"geometry": {"type": "Point", "coordinates": [-106.330450931, 35.5900638104]}, "type": "Feature", "properties": {"collection_times": [{"days": "Mon-Fri", "time": "2:45pm"}, {"days": "Sat", "time": "11:45am"}, {"days": "Sun", "time": "Closed"}], "id": "8704100002", "name": "USPS COLLECTION BOX - PO LOBBY", "address": {"city": "PENABLANCA", "state": "NM", "street": "823 HIGHWAY 22", "postcode": "87041"}}},
{"geometry": {"type": "Point", "coordinates": [-106.5629812641, 34.8592792058]}, "type": "Feature", "properties": {"collection_times": [{"days": "Mon-Fri", "time": "5:30pm"}, {"days": "Sat", "time": "12:30pm"}, {"days": "Sun", "time": "Closed"}], "id": "8704200001", "name": "USPS COLLECTION BOX - BLUE BOX", "address": {"city": "PERALTA", "state": "NM", "street": "2470 BOSQUE FARMS BLVD", "postcode": "87042"}}},
{"geometry": {"type": "Point", "coordinates": [-106.5629812641, 34.8592792058]}, "type": "Feature", "properties": {"collection_times": [{"days": "Mon-Fri", "time": "5:30pm"}, {"days": "Sat", "time": "12:30pm"}, {"days": "Sun", "time": "Closed"}], "id": "8704200003", "name": "USPS COLLECTION BOX - PO LOBBY", "address": {"city": "PERALTA", "state": "NM", "street": "2470 BOSQUE FARMS BLVD", "postcode": "87042"}}},
{"geometry": {"type": "Point", "coordinates": [-106.5629812641, 34.8592792058]}, "type": "Feature", "properties": {"collection_times": [{"days": "Mon-Fri", "time": "5:30pm"}, {"days": "Sat", "time": "12:30pm"}, {"days": "Sun", "time": "Closed"}], "id": "8704200005", "name": "USPS COLLECTION BOX - PO LOBBY", "address": {"city": "PERALTA", "state": "NM", "street": "2470 BOSQUE FARMS BLVD", "postcode": "87042"}}},
{"geometry": {"type": "Point", "coordinates": [-106.4254659976, 35.3095876838]}, "type": "Feature", "properties": {"collection_times": [{"days": "Mon-Fri", "time": "4:00pm"}, {"days": "Sat", "time": "10:45am"}, {"days": "Sun", "time": "Closed"}], "id": "8704300001", "name": "USPS COLLECTION BOX - BLUE BOX", "address": {"city": "PLACITAS", "state": "NM", "street": "652 STATE HIGHWAY 165", "postcode": "87043"}}},
{"geometry": {"type": "Point", "coordinates": [-106.5078063108, 35.3131283633]}, "type": "Feature", "properties": {"collection_times": [{"days": "Mon-Fri", "time": "10:00am"}, {"days": "Sat-Sun", "time": "Closed"}], "id": "8704300002", "name": "USPS COLLECTION BOX - BLUE BOX", "address": {"city": "PLACITAS", "state": "NM", "street": "221 STATE HIGHWAY 165", "postcode": "87043"}}},
{"geometry": {"type": "Point", "coordinates": [-106.4254659976, 35.3095876838]}, "type": "Feature", "properties": {"collection_times": [{"days": "Mon-Fri", "time": "4:15pm"}, {"days": "Sat", "time": "10:45am"}, {"days": "Sun", "time": "Closed"}], "id": "8704300003", "name": "USPS COLLECTION BOX - PO LOBBY", "address": {"city": "PLACITAS", "state": "NM", "street": "652 STATE HIGHWAY 165", "postcode": "87043"}}},
{"geometry": {"type": "Point", "coordinates": [-106.4254659976, 35.3095876838]}, "type": "Feature", "properties": {"collection_times": [{"days": "Mon-Fri", "time": "4:15pm"}, {"days": "Sat", "time": "10:45am"}, {"days": "Sun", "time": "Closed"}], "id": "8704300005", "name": "USPS COLLECTION BOX - PO LOBBY", "address": {"city": "PLACITAS", "state": "NM", "street": "652 STATE HIGHWAY 165", "postcode": "87043"}}},
{"geometry": {"type": "Point", "coordinates": [-106.656125705, 35.680562365]}, "type": "Feature", "properties": {"collection_times": [{"days": "Mon-Sat", "time": "10:00am"}, {"days": "Sun", "time": "Closed"}], "id": "8704400001", "name": "USPS COLLECTION BOX - BLUE BOX", "address": {"city": "PONDEROSA", "state": "NM", "street": "6335B HIGHWAY 290", "postcode": "87044"}}},
{"geometry": {"type": "Point", "coordinates": [-106.656125705, 35.680562365]}, "type": "Feature", "properties": {"collection_times": [{"days": "Mon-Sat", "time": "10:00am"}, {"days": "Sun", "time": "Closed"}], "id": "8704400002", "name": "USPS COLLECTION BOX - PO LOBBY", "address": {"city": "PONDEROSA", "state": "NM", "street": "6335B HIGHWAY 290", "postcode": "87044"}}},
{"geometry": {"type": "Point", "coordinates": [-108.0413624212, 35.3636768046]}, "type": "Feature", "properties": {"collection_times": [{"days": "Mon-Fri", "time": "3:45pm"}, {"days": "Sat", "time": "11:15am"}, {"days": "Sun", "time": "Closed"}], "id": "8704500001", "name": "USPS COLLECTION BOX - BLUE BOX", "address": {"city": "PREWITT", "state": "NM", "street": "1692 STATE HIGHWAY 122", "postcode": "87045"}}},
{"geometry": {"type": "Point", "coordinates": [-108.0413624212, 35.3636768046]}, "type": "Feature", "properties": {"collection_times": [{"days": "Mon-Fri", "time": "3:45pm"}, {"days": "Sat", "time": "11:15am"}, {"days": "Sun", "time": "Closed"}], "id": "8704500002", "name": "USPS COLLECTION BOX - PO LOBBY", "address": {"city": "PREWITT", "state": "NM", "street": "1692 STATE HIGHWAY 122", "postcode": "87045"}}},
{"geometry": {"type": "Point", "coordinates": [-106.959483475, 36.1779268517]}, "type": "Feature", "properties": {"collection_times": [{"days": "Mon-Fri", "time": "12:15pm"}, {"days": "Sat", "time": "10:30am"}, {"days": "Sun", "time": "Closed"}], "id": "8704600000", "name": "USPS COLLECTION BOX - BLUE BOX", "address": {"city": "REGINA", "state": "NM", "street": "864 STATE HIGHWAY 96", "postcode": "87046"}}},
{"geometry": {"type": "Point", "coordinates": [-106.3008245932, 35.1420035252]}, "type": "Feature", "properties": {"collection_times": [{"days": "Mon-Fri", "time": "4:45pm"}, {"days": "Sat", "time": "12:00pm"}, {"days": "Sun", "time": "Closed"}], "id": "8704700001", "name": "USPS COLLECTION BOX - BLUE BOX", "address": {"city": "SANDIA PARK", "state": "NM", "street": "16 FROST RD", "postcode": "87047"}}},
{"geometry": {"type": "Point", "coordinates": [-106.3008245932, 35.1420035252]}, "type": "Feature", "properties": {"collection_times": [{"days": "Mon-Fri", "time": "4:45pm"}, {"days": "Sat", "time": "12:00pm"}, {"days": "Sun", "time": "Closed"}], "id": "8704700002", "name": "USPS COLLECTION BOX - PO LOBBY", "address": {"city": "SANDIA PARK", "state": "NM", "street": "16 FROST RD", "postcode": "87047"}}},
{"geometry": {"type": "Point", "coordinates": [-106.3008245932, 35.1420035252]}, "type": "Feature", "properties": {"collection_times": [{"days": "Mon-Fri", "time": "4:45pm"}, {"days": "Sat", "time": "12:00pm"}, {"days": "Sun", "time": "Closed"}], "id": "8704700003", "name": "USPS COLLECTION BOX - PO LOBBY", "address": {"city": "SANDIA PARK", "state": "NM", "street": "16 FROST RD", "postcode": "87047"}}},
{"geometry": {"type": "Point", "coordinates": [-106.3008245932, 35.1420035252]}, "type": "Feature", "properties": {"collection_times": [{"days": "Mon-Fri", "time": "4:45pm"}, {"days": "Sat", "time": "12:00pm"}, {"days": "Sun", "time": "Closed"}], "id": "8704700004", "name": "USPS COLLECTION BOX - BLUE BOX", "address": {"city": "SANDIA PARK", "state": "NM", "street": "16 FROST RD", "postcode": "87047"}}},
{"geometry": {"type": "Point", "coordinates": [-106.6189448579, 35.220750734]}, "type": "Feature", "properties": {"collection_times": [{"days": "Mon-Fri", "time": "5:00pm"}, {"days": "Sat", "time": "1:00pm"}, {"days": "Sun", "time": "Closed"}], "id": "8704800001", "name": "USPS COLLECTION BOX - PO LOBBY", "address": {"city": "CORRALES", "state": "NM", "street": "4101 CORRALES RD", "postcode": "87048"}}},
{"geometry": {"type": "Point", "coordinates": [-106.6185739572, 35.2208954832]}, "type": "Feature", "properties": {"collection_times": [{"days": "Mon-Fri", "time": "5:00pm"}, {"days": "Sat", "time": "1:00pm"}, {"days": "Sun", "time": "Closed"}], "id": "8704800002", "name": "USPS COLLECTION BOX - BLUE BOX", "address": {"city": "CORRALES", "state": "NM", "street": "4101 CORRALES RD", "postcode": "87048"}}},
{"geometry": {"type": "Point", "coordinates": [-106.6189448579, 35.220750734]}, "type": "Feature", "properties": {"collection_times": [{"days": "Mon-Fri", "time": "5:00pm"}, {"days": "Sat", "time": "1:00pm"}, {"days": "Sun", "time": "Closed"}], "id": "8704800003", "name": "USPS COLLECTION BOX - BLUE BOX", "address": {"city": "CORRALES", "state": "NM", "street": "4101 CORRALES RD", "postcode": "87048"}}},
{"geometry": {"type": "Point", "coordinates": [-106.6189448579, 35.220750734]}, "type": "Feature", "properties": {"collection_times": [{"days": "Mon-Fri", "time": "5:00pm"}, {"days": "Sat", "time": "1:00pm"}, {"days": "Sun", "time": "Closed"}], "id": "8704800004", "name": "USPS COLLECTION BOX - PO LOBBY", "address": {"city": "CORRALES", "state": "NM", "street": "4101 CORRALES RD", "postcode": "87048"}}},
{"geometry": {"type": "Point", "coordinates": [-107.6078322454, 35.0824546948]}, "type": "Feature", "properties": {"collection_times": [{"days": "Mon-Fri", "time": "4:30pm"}, {"days": "Sat", "time": "11:30am"}, {"days": "Sun", "time": "Closed"}], "id": "8704900001", "name": "USPS COLLECTION BOX - BLUE BOX", "address": {"city": "SAN FIDEL", "state": "NM", "street": "1094 STATE HIGHWAY 124", "postcode": "87049"}}},
{"geometry": {"type": "Point", "coordinates": [-107.6078322454, 35.0824546948]}, "type": "Feature", "properties": {"collection_times": [{"days": "Mon-Fri", "time": "4:30pm"}, {"days": "Sat", "time": "11:30am"}, {"days": "Sun", "time": "Closed"}], "id": "8704900002", "name": "USPS COLLECTION BOX - PO LOBBY", "address": {"city": "SAN FIDEL", "state": "NM", "street": "1094 STATE HIGHWAY 124", "postcode": "87049"}}},
{"geometry": {"type": "Point", "coordinates": [-107.8722673312, 35.1279553348]}, "type": "Feature", "properties": {"collection_times": [{"days": "Mon-Fri", "time": "3:00pm"}, {"days": "Sat", "time": "9:15am"}, {"days": "Sun", "time": "Closed"}], "id": "8705100003", "name": "USPS COLLECTION BOX - PO LOBBY", "address": {"city": "SAN RAFAEL", "state": "NM", "street": "116 MAIN ST", "postcode": "87051"}}},
{"geometry": {"type": "Point", "coordinates": [-107.8829820589, 35.1088487391]}, "type": "Feature", "properties": {"collection_times": [{"days": "Mon-Fri", "time": "3:00pm"}, {"days": "Sat", "time": "9:15am"}, {"days": "Sun", "time": "Closed"}], "id": "8705100004", "name": "USPS COLLECTION BOX - BLUE BOX", "address": {"city": "SAN RAFAEL", "state": "NM", "street": "116 MAIN ST", "postcode": "87051"}}},
{"geometry": {"type": "Point", "coordinates": [-106.3936023788, 35.5279702512]}, "type": "Feature", "properties": {"collection_times": [{"days": "Mon-Fri", "time": "3:00pm"}, {"days": "Sat", "time": "11:45am"}, {"days": "Sun", "time": "Closed"}], "id": "8705200005", "name": "USPS COLLECTION BOX - PO LOBBY", "address": {"city": "KEWA", "state": "NM", "street": "10 TESUQUE ST", "postcode": "87052"}}},
{"geometry": {"type": "Point", "coordinates": [-106.3936023788, 35.5279702512]}, "type": "Feature", "properties": {"collection_times": [{"days": "Mon-Fri", "time": "3:00pm"}, {"days": "Sat", "time": "11:45am"}, {"days": "Sun", "time": "Closed"}], "id": "8705200006", "name": "USPS COLLECTION BOX - BLUE BOX", "address": {"city": "KEWA", "state": "NM", "street": "10 TESUQUE ST", "postcode": "87052"}}},
{"geometry": {"type": "Point", "coordinates": [-106.7635790584, 35.4893732055]}, "type": "Feature", "properties": {"collection_times": [{"days": "Mon-Fri", "time": "4:30pm"}, {"days": "Sat", "time": "9:30am"}, {"days": "Sun", "time": "Closed"}], "id": "8705300001", "name": "USPS COLLECTION BOX - BLUE BOX", "address": {"city": "SAN YSIDRO", "state": "NM", "street": "90 BOBBY GARCIA LN", "postcode": "87053"}}},
{"geometry": {"type": "Point", "coordinates": [-106.7297664024, 35.4980079139]}, "type": "Feature", "properties": {"collection_times": [{"days": "Mon-Fri", "time": "2:15pm"}, {"days": "Sat-Sun", "time": "Closed"}], "id": "8705300002", "name": "USPS COLLECTION BOX - BLUE BOX", "address": {"city": "SAN YSIDRO", "state": "NM", "street": "135 CAPITOL SQUARE DR", "postcode": "87053"}}},
{"geometry": {"type": "Point", "coordinates": [-106.7635790584, 35.4893732055]}, "type": "Feature", "properties": {"collection_times": [{"days": "Mon-Fri", "time": "3:00pm"}, {"days": "Sat", "time": "9:30am"}, {"days": "Sun", "time": "Closed"}], "id": "8705300003", "name": "USPS COLLECTION BOX - PO LOBBY", "address": {"city": "SAN YSIDRO", "state": "NM", "street": "90 BOBBY GARCIA LN", "postcode": "87053"}}},
{"geometry": {"type": "Point", "coordinates": [-106.389058819, 35.079226639]}, "type": "Feature", "properties": {"collection_times": [{"days": "Mon-Fri", "time": "4:45pm"}, {"days": "Sat", "time": "11:00am"}, {"days": "Sun", "time": "Closed"}], "id": "8705900001", "name": "USPS COLLECTION BOX - BLUE BOX", "address": {"city": "TIJERAS", "state": "NM", "street": "499 HIGHWAY 333", "postcode": "87059"}}},
{"geometry": {"type": "Point", "coordinates": [-106.380835816, 35.0846412428]}, "type": "Feature", "properties": {"collection_times": [{"days": "Mon-Fri", "time": "4:45pm"}, {"days": "Sat", "time": "11:00am"}, {"days": "Sun", "time": "Closed"}], "id": "8705900003", "name": "USPS COLLECTION BOX - PO LOBBY", "address": {"city": "TIJERAS", "state": "NM", "street": "499 HIGHWAY 333", "postcode": "87059"}}},
{"geometry": {"type": "Point", "coordinates": [-106.7374820793, 34.7482462779]}, "type": "Feature", "properties": {"collection_times": [{"days": "Mon-Fri", "time": "4:15pm"}, {"days": "Sat", "time": "11:45am"}, {"days": "Sun", "time": "Closed"}], "id": "8706000002", "name": "USPS COLLECTION BOX - PO LOBBY", "address": {"city": "TOME", "state": "NM", "street": "2971 STATE HIGHWAY 47", "postcode": "87060"}}},
{"geometry": {"type": "Point", "coordinates": [-106.7374820793, 34.7482462779]}, "type": "Feature", "properties": {"collection_times": [{"days": "Mon-Fri", "time": "4:15pm"}, {"days": "Sat", "time": "11:45am"}, {"days": "Sun", "time": "Closed"}], "id": "8706000003", "name": "USPS COLLECTION BOX - PO LOBBY", "address": {"city": "TOME", "state": "NM", "street": "2971 STATE HIGHWAY 47", "postcode": "87060"}}},
{"geometry": {"type": "Point", "coordinates": [-106.2986612619, 34.7218253598]}, "type": "Feature", "properties": {"collection_times": [{"days": "Mon-Sat", "time": "12:00pm"}, {"days": "Sun", "time": "Closed"}], "id": "8706100001", "name": "USPS COLLECTION BOX - BLUE BOX", "address": {"city": "TORREON", "state": "NM", "street": "8563 HIGHWAY 55", "postcode": "87061"}}},
{"geometry": {"type": "Point", "coordinates": [-106.2986612619, 34.7218253598]}, "type": "Feature", "properties": {"collection_times": [{"days": "Mon-Sat", "time": "12:00pm"}, {"days": "Sun", "time": "Closed"}], "id": "8706100002", "name": "USPS COLLECTION BOX - PO LOBBY", "address": {"city": "TORREON", "state": "NM", "street": "8563 HIGHWAY 55", "postcode": "87061"}}},
{"geometry": {"type": "Point", "coordinates": [-106.7673969431, 34.5165001111]}, "type": "Feature", "properties": {"collection_times": [{"days": "Mon-Fri", "time": "1:00pm"}, {"days": "Sat", "time": "11:00am"}, {"days": "Sun", "time": "Closed"}], "id": "8706200001", "name": "USPS COLLECTION BOX - BLUE BOX", "address": {"city": "VEGUITA", "state": "NM", "street": "1351 HIGHWAY 304", "postcode": "87062"}}},
{"geometry": {"type": "Point", "coordinates": [-106.7675884662, 34.5145958857]}, "type": "Feature", "properties": {"collection_times": [{"days": "Mon-Fri", "time": "1:00pm"}, {"days": "Sat", "time": "11:00am"}, {"days": "Sun", "time": "Closed"}], "id": "8706200002", "name": "USPS COLLECTION BOX - PO LOBBY", "address": {"city": "VEGUITA", "state": "NM", "street": "1351 HIGHWAY 304", "postcode": "87062"}}},
{"geometry": {"type": "Point", "coordinates": [-106.7675884662, 34.5145958857]}, "type": "Feature", "properties": {"collection_times": [{"days": "Mon-Fri", "time": "1:00pm"}, {"days": "Sat", "time": "11:00am"}, {"days": "Sun", "time": "Closed"}], "id": "8706200003", "name": "USPS COLLECTION BOX - PO LOBBY", "address": {"city": "VEGUITA", "state": "NM", "street": "1351 HIGHWAY 304", "postcode": "87062"}}},
{"geometry": {"type": "Point", "coordinates": [-106.0324337897, 34.5950976241]}, "type": "Feature", "properties": {"collection_times": [{"days": "Mon-Fri", "time": "11:45am"}, {"days": "Sat", "time": "10:30am"}, {"days": "Sun", "time": "Closed"}], "id": "8706300000", "name": "USPS COLLECTION BOX - BLUE BOX", "address": {"city": "WILLARD", "state": "NM", "street": "712 N DUNLAVY AVE", "postcode": "87063"}}},
{"geometry": {"type": "Point", "coordinates": [-106.5589746503, 36.1892533235]}, "type": "Feature", "properties": {"collection_times": [{"days": "Mon-Sat", "time": "10:45am"}, {"days": "Sun", "time": "Closed"}], "id": "8706400001", "name": "USPS COLLECTION BOX - BLUE BOX", "address": {"city": "YOUNGSVILLE", "state": "NM", "street": "3774 STATE HIGHWAY 96", "postcode": "87064"}}},
{"geometry": {"type": "Point", "coordinates": [-106.5589746503, 36.1892533235]}, "type": "Feature", "properties": {"collection_times": [{"days": "Mon-Sat", "time": "10:45am"}, {"days": "Sun", "time": "Closed"}], "id": "8706400002", "name": "USPS COLLECTION BOX - PO LOBBY", "address": {"city": "YOUNGSVILLE", "state": "NM", "street": "3774 STATE HIGHWAY 96", "postcode": "87064"}}},
{"geometry": {"type": "Point", "coordinates": [-106.7060866083, 34.8538284395]}, "type": "Feature", "properties": {"collection_times": [{"days": "Mon-Fri", "time": "11:30am"}, {"days": "Sat-Sun", "time": "Closed"}], "id": "8706800001", "name": "USPS COLLECTION BOX - BLUE BOX", "address": {"city": "BOSQUE FARMS", "state": "NM", "street": "1455 W BOSQUE LOOP", "postcode": "87068"}}}
]}
