{"type": "FeatureCollection", "features": [
{"geometry": {"type": "Point", "coordinates": [-106.642772792, 35.093486781]}, "type": "Feature", "properties": {"collection_times": [{"days": "Mon-Fri", "time": "5:30pm"}, {"days": "Sat", "time": "6:00pm"}, {"days": "Sun", "time": "Closed"}], "id": "8710200001", "name": "USPS COLLECTION BOX - BLUE BOX", "address": {"city": "ALBUQUERQUE", "state": "NM", "street": "1135 BROADWAY BLVD NE", "postcode": "87102"}}},
{"geometry": {"type": "Point", "coordinates": [-106.6429530224, 35.0923490208]}, "type": "Feature", "properties": {"collection_times": [{"days": "Mon-Fri", "time": "7:00pm"}, {"days": "Sat", "time": "6:00pm"}, {"days": "Sun", "time": "Closed"}], "id": "8710200002", "name": "USPS COLLECTION BOX - BLUE BOX", "address": {"city": "ALBUQUERQUE", "state": "NM", "street": "1135 BROADWAY BLVD NE", "postcode": "87102"}}},
{"geometry": {"type": "Point", "coordinates": [-106.648317625, 35.0842024686]}, "type": "Feature", "properties": {"collection_times": [{"days": "Mon-Fri", "time": "2:00pm"}, {"days": "Sat-Sun", "time": "Closed"}], "id": "8710200009", "name": "USPS COLLECTION BOX - BLUE BOX", "address": {"city": "ALBUQUERQUE", "state": "NM", "street": "225 GOLD AVE SW", "postcode": "87102"}}},
{"geometry": {"type": "Point", "coordinates": [-106.6504172254, 35.0843983571]}, "type": "Feature", "properties": {"collection_times": [{"days": "Mon-Fri", "time": "11:30am"}, {"days": "Sat-Sun", "time": "Closed"}], "id": "8710200010", "name": "USPS COLLECTION BOX - BLUE BOX", "address": {"city": "ALBUQUERQUE", "state": "NM", "street": "3RD & CENTRAL SW", "postcode": "87102"}}},
{"geometry": {"type": "Point", "coordinates": [-106.63410695, 35.087037196]}, "type": "Feature", "properties": {"collection_times": [{"days": "Mon-Fri", "time": "12:30pm"}, {"days": "Sat", "time": "2:45pm"}, {"days": "Sun", "time": "Closed"}], "id": "8710200021", "name": "USPS COLLECTION BOX - BLUE BOX", "address": {"city": "ALBUQUERQUE", "state": "NM", "street": "609 ENCINO PL NE", "postcode": "87102"}}},
{"geometry": {"type": "Point", "coordinates": [-106.6262780328, 35.0940761409]}, "type": "Feature", "properties": {"collection_times": [{"days": "Mon-Fri", "time": "1:20pm"}, {"days": "Sat-Sun", "time": "Closed"}], "id": "8710200043", "name": "USPS COLLECTION BOX - BLUE BOX", "address": {"city": "ALBUQUERQUE", "state": "NM", "street": "1127 UNIVERSITY BLVD NE", "postcode": "87102"}}},
{"geometry": {"type": "Point", "coordinates": [-106.6429530224, 35.0923490208]}, "type": "Feature", "properties": {"collection_times": [{"days": "Mon-Fri", "time": "7:00pm"}, {"days": "Sat", "time": "6:00pm"}, {"days": "Sun", "time": "Closed"}], "id": "8710200053", "name": "USPS COLLECTION BOX - BLUE BOX", "address": {"city": "ALBUQUERQUE", "state": "NM", "street": "1135 BROADWAY BLVD NE", "postcode": "87102"}}},
{"geometry": {"type": "Point", "coordinates": [-106.6433411235, 35.0903950104]}, "type": "Feature", "properties": {"collection_times": [{"days": "Mon-Sat", "time": "5:00pm"}, {"days": "Sun", "time": "Closed"}], "id": "8710200057", "name": "USPS COLLECTION BOX - BLUE BOX", "address": {"city": "ALBUQUERQUE", "state": "NM", "street": "801 BROADWAY BLVD NE", "postcode": "87102"}}},
{"geometry": {"type": "Point", "coordinates": [-106.6433411235, 35.0903950104]}, "type": "Feature", "properties": {"collection_times": [{"days": "Mon-Sat", "time": "5:00pm"}, {"days": "Sun", "time": "Closed"}], "id": "8710200058", "name": "USPS COLLECTION BOX - BLUE BOX", "address": {"city": "ALBUQUERQUE", "state": "NM", "street": "801 BROADWAY BLVD NE", "postcode": "87102"}}},
{"geometry": {"type": "Point", "coordinates": [-106.6433411235, 35.0903950104]}, "type": "Feature", "properties": {"collection_times": [{"days": "Mon-Sat", "time": "5:00pm"}, {"days": "Sun", "time": "Closed"}], "id": "8710200059", "name": "USPS COLLECTION BOX - BLUE BOX", "address": {"city": "ALBUQUERQUE", "state": "NM", "street": "801 BROADWAY BLVD NE", "postcode": "87102"}}},
{"geometry": {"type": "Point", "coordinates": [-106.6433411235, 35.0903950104]}, "type": "Feature", "properties": {"collection_times": [{"days": "Mon-Sat", "time": "5:00pm"}, {"days": "Sun", "time": "Closed"}], "id": "8710200060", "name": "USPS COLLECTION BOX - BLUE BOX", "address": {"city": "ALBUQUERQUE", "state": "NM", "street": "801 BROADWAY BLVD NE", "postcode": "87102"}}},
{"geometry": {"type": "Point", "coordinates": [-106.6433411235, 35.0903950104]}, "type": "Feature", "properties": {"collection_times": [{"days": "Mon-Sat", "time": "5:00pm"}, {"days": "Sun", "time": "Closed"}], "id": "8710200061", "name": "USPS COLLECTION BOX - BLUE BOX", "address": {"city": "ALBUQUERQUE", "state": "NM", "street": "801 BROADWAY BLVD NE", "postcode": "87102"}}},
{"geometry": {"type": "Point", "coordinates": [-106.6320697999, 35.0881861882]}, "type": "Feature", "properties": {"collection_times": [{"days": "Mon-Fri", "time": "5:00pm"}, {"days": "Sat", "time": "2:20pm"}, {"days": "Sun", "time": "Closed"}], "id": "8710200062", "name": "USPS COLLECTION BOX - BLUE BOX", "address": {"city": "ALBUQUERQUE", "state": "NM", "street": "717 ENCINO PL NE", "postcode": "87102"}}},
{"geometry": {"type": "Point", "coordinates": [-106.6525136968, 35.0883683639]}, "type": "Feature", "properties": {"collection_times": [{"days": "Mon-Fri", "time": "5:00pm"}, {"days": "Sat-Sun", "time": "Closed"}], "id": "8710200065", "name": "USPS COLLECTION BOX - BLUE BOX", "address": {"city": "ALBUQUERQUE", "state": "NM", "street": "500 MARQUETTE AVE NW", "postcode": "87102"}}},
{"geometry": {"type": "Point", "coordinates": [-106.6530708454, 35.0836906352]}, "type": "Feature", "properties": {"collection_times": [{"days": "Mon-Sat", "time": "5:00pm"}, {"days": "Sun", "time": "Closed"}], "id": "8710200069", "name": "USPS COLLECTION BOX - BLUE BOX", "address": {"city": "ALBUQUERQUE", "state": "NM", "street": "201 5TH ST SW", "postcode": "87102"}}},
{"geometry": {"type": "Point", "coordinates": [-106.6530708454, 35.0836906352]}, "type": "Feature", "properties": {"collection_times": [{"days": "Mon-Sat", "time": "5:00pm"}, {"days": "Sun", "time": "Closed"}], "id": "8710200070", "name": "USPS COLLECTION BOX - BLUE BOX", "address": {"city": "ALBUQUERQUE", "state": "NM", "street": "201 5TH ST SW", "postcode": "87102"}}},
{"geometry": {"type": "Point", "coordinates": [-106.6504172254, 35.0843983571]}, "type": "Feature", "properties": {"collection_times": [{"days": "Mon-Fri", "time": "11:30am"}, {"days": "Sat-Sun", "time": "Closed"}], "id": "8710200074", "name": "USPS COLLECTION BOX - BLUE BOX", "address": {"city": "ALBUQUERQUE", "state": "NM", "street": "3RD & CENTRAL SW", "postcode": "87102"}}},
{"geometry": {"type": "Point", "coordinates": [-106.6549730684, 35.0829551437]}, "type": "Feature", "properties": {"collection_times": [{"days": "Mon-Fri", "time": "5:00pm"}, {"days": "Sat-Sun", "time": "Closed"}], "id": "8710200092", "name": "USPS COLLECTION BOX - BLUE BOX", "address": {"city": "ALBUQUERQUE", "state": "NM", "street": "625 SILVER AVE SW", "postcode": "87102"}}},
{"geometry": {"type": "Point", "coordinates": [-106.6549730684, 35.0829551437]}, "type": "Feature", "properties": {"collection_times": [{"days": "Mon-Fri", "time": "5:30pm"}, {"days": "Sat-Sun", "time": "Closed"}], "id": "8710200093", "name": "USPS COLLECTION BOX - BLUE BOX", "address": {"city": "ALBUQUERQUE", "state": "NM", "street": "625 SILVER AVE SW", "postcode": "87102"}}},
{"geometry": {"type": "Point", "coordinates": [-106.646338651, 35.085539909]}, "type": "Feature", "properties": {"collection_times": [{"days": "Mon-Fri", "time": "12:15pm"}, {"days": "Sat-Sun", "time": "Closed"}], "id": "8710200095", "name": "USPS COLLECTION BOX - BLUE BOX", "address": {"city": "ALBUQUERQUE", "state": "NM", "street": "121 TIJERAS AVE NE", "postcode": "87102"}}},
{"geometry": {"type": "Point", "coordinates": [-106.6427730273, 35.0934865307]}, "type": "Feature", "properties": {"collection_times": [{"days": "Mon-Fri", "time": "7:00pm"}, {"days": "Sat", "time": "6:00pm"}, {"days": "Sun", "time": "Closed"}], "id": "8710200096", "name": "USPS COLLECTION BOX - PO LOBBY", "address": {"city": "ALBUQUERQUE", "state": "NM", "street": "1135 BROADWAY BLVD NE", "postcode": "87102"}}},
{"geometry": {"type": "Point", "coordinates": [-106.6530708454, 35.0836906352]}, "type": "Feature", "properties": {"collection_times": [{"days": "Mon-Fri", "time": "4:30pm"}, {"days": "Sat-Sun", "time": "Closed"}], "id": "8710200099", "name": "USPS COLLECTION BOX - PO LOBBY", "address": {"city": "ALBUQUERQUE", "state": "NM", "street": "201 5TH ST SW", "postcode": "87102"}}},
{"geometry": {"type": "Point", "coordinates": [-106.6530708454, 35.0836906352]}, "type": "Feature", "properties": {"collection_times": [{"days": "Mon-Fri", "time": "4:30pm"}, {"days": "Sat-Sun", "time": "Closed"}], "id": "8710200100", "name": "USPS COLLECTION BOX - PO LOBBY", "address": {"city": "ALBUQUERQUE", "state": "NM", "street": "201 5TH ST SW", "postcode": "87102"}}},
{"geometry": {"type": "Point", "coordinates": [-106.6490400771, 35.085948786]}, "type": "Feature", "properties": {"collection_times": [{"days": "Mon-Fri", "time": "3:00pm"}, {"days": "Sat-Sun", "time": "Closed"}], "id": "8710200102", "name": "USPS COLLECTION BOX - PO LOBBY", "address": {"city": "ALBUQUERQUE", "state": "NM", "street": "40 FIRST PLAZA CTR NW STE 240", "postcode": "87102"}}},
{"geometry": {"type": "Point", "coordinates": [-106.6490400771, 35.085948786]}, "type": "Feature", "properties": {"collection_times": [{"days": "Mon-Fri", "time": "3:00pm"}, {"days": "Sat-Sun", "time": "Closed"}], "id": "8710200103", "name": "USPS COLLECTION BOX - PO LOBBY", "address": {"city": "ALBUQUERQUE", "state": "NM", "street": "40 FIRST PLAZA CTR NW STE 240", "postcode": "87102"}}},
{"geometry": {"type": "Point", "coordinates": [-106.6518587799, 35.0912713313]}, "type": "Feature", "properties": {"collection_times": [{"days": "Mon-Fri", "time": "5:00pm"}, {"days": "Sat-Sun", "time": "Closed"}], "id": "8710200104", "name": "USPS COLLECTION BOX - BLUE BOX", "address": {"city": "ALBUQUERQUE", "state": "NM", "street": "520 LOMAS BLVD NW", "postcode": "87102"}}},
{"geometry": {"type": "Point", "coordinates": [-106.6500292695, 35.0865388033]}, "type": "Feature", "properties": {"collection_times": [{"days": "Mon-Fri", "time": "3:00pm"}, {"days": "Sat", "time": "4:10pm"}, {"days": "Sun", "time": "Closed"}], "id": "8710200117", "name": "USPS COLLECTION BOX - BLUE BOX", "address": {"city": "ALBUQUERQUE", "state": "NM", "street": "3RD & TIJERAS NW", "postcode": "87102"}}},
{"geometry": {"type": "Point", "coordinates": [-106.6500292695, 35.0865388033]}, "type": "Feature", "properties": {"collection_times": [{"days": "Mon-Sat", "time": "12:00pm"}, {"days": "Sun", "time": "Closed"}], "id": "8710200118", "name": "USPS COLLECTION BOX - BLUE BOX", "address": {"city": "ALBUQUERQUE", "state": "NM", "street": "3RD & TIJERAS NW", "postcode": "87102"}}},
{"geometry": {"type": "Point", "coordinates": [-106.669689078, 35.0939909678]}, "type": "Feature", "properties": {"collection_times": [{"days": "Mon-Sat", "time": "5:00pm"}, {"days": "Sun", "time": "Closed"}], "id": "8710400002", "name": "USPS COLLECTION BOX - BLUE BOX", "address": {"city": "ALBUQUERQUE", "state": "NM", "street": "2016 CENTRAL AVE SW", "postcode": "87104"}}},
{"geometry": {"type": "Point", "coordinates": [-106.6707650824, 35.1025692982]}, "type": "Feature", "properties": {"collection_times": [{"days": "Mon-Sat", "time": "1:10pm"}, {"days": "Sun", "time": "Closed"}], "id": "8710400004", "name": "USPS COLLECTION BOX - BLUE BOX", "address": {"city": "ALBUQUERQUE", "state": "NM", "street": "901 RIO GRANDE BLVD NW", "postcode": "87104"}}},
{"geometry": {"type": "Point", "coordinates": [-106.6703397054, 35.096581648]}, "type": "Feature", "properties": {"collection_times": [{"days": "Mon-Fri", "time": "4:00pm"}, {"days": "Sat", "time": "3:00pm"}, {"days": "Sun", "time": "Closed"}], "id": "8710400006", "name": "USPS COLLECTION BOX - BLUE BOX", "address": {"city": "ALBUQUERQUE", "state": "NM", "street": "301 ROMERO ST NW", "postcode": "87104"}}},
{"geometry": {"type": "Point", "coordinates": [-106.669689078, 35.0939909678]}, "type": "Feature", "properties": {"collection_times": [{"days": "Mon-Fri", "time": "4:00pm"}, {"days": "Sat-Sun", "time": "Closed"}], "id": "8710400016", "name": "USPS COLLECTION BOX - PO LOBBY", "address": {"city": "ALBUQUERQUE", "state": "NM", "street": "2016 CENTRAL AVE SW", "postcode": "87104"}}},
{"geometry": {"type": "Point", "coordinates": [-106.669689078, 35.0939909678]}, "type": "Feature", "properties": {"collection_times": [{"days": "Mon-Fri", "time": "4:00pm"}, {"days": "Sat-Sun", "time": "Closed"}], "id": "8710400020", "name": "USPS COLLECTION BOX - PO LOBBY", "address": {"city": "ALBUQUERQUE", "state": "NM", "street": "2016 CENTRAL AVE SW", "postcode": "87104"}}},
{"geometry": {"type": "Point", "coordinates": [-106.6704075541, 35.0963494895]}, "type": "Feature", "properties": {"collection_times": [{"days": "Mon-Fri", "time": "4:00pm"}, {"days": "Sat", "time": "3:00pm"}, {"days": "Sun", "time": "Closed"}], "id": "8710400022", "name": "USPS COLLECTION BOX - PO LOBBY", "address": {"city": "ALBUQUERQUE", "state": "NM", "street": "303 ROMERO ST NW STE 108", "postcode": "87104"}}},
{"geometry": {"type": "Point", "coordinates": [-106.6704075541, 35.0963494895]}, "type": "Feature", "properties": {"collection_times": [{"days": "Mon-Fri", "time": "4:00pm"}, {"days": "Sat", "time": "3:00pm"}, {"days": "Sun", "time": "Closed"}], "id": "8710400023", "name": "USPS COLLECTION BOX - PO LOBBY", "address": {"city": "ALBUQUERQUE", "state": "NM", "street": "303 ROMERO ST NW STE 108", "postcode": "87104"}}},
{"geometry": {"type": "Point", "coordinates": [-106.6823751299, 35.0215004254]}, "type": "Feature", "properties": {"collection_times": [{"days": "Mon-Fri", "time": "5:00pm"}, {"days": "Sat", "time": "4:15pm"}, {"days": "Sun", "time": "Closed"}], "id": "8710500009", "name": "USPS COLLECTION BOX - BLUE BOX", "address": {"city": "ALBUQUERQUE", "state": "NM", "street": "3733 ISLETA BLVD SW", "postcode": "87105"}}},
{"geometry": {"type": "Point", "coordinates": [-106.6820036808, 35.026932573]}, "type": "Feature", "properties": {"collection_times": [{"days": "Mon-Fri", "time": "5:00pm"}, {"days": "Sat", "time": "4:30pm"}, {"days": "Sun", "time": "Closed"}], "id": "8710500010", "name": "USPS COLLECTION BOX - BLUE BOX", "address": {"city": "ALBUQUERQUE", "state": "NM", "street": "1625 RIO BRAVO BLVD SW", "postcode": "87105"}}},
{"geometry": {"type": "Point", "coordinates": [-106.6746137361, 35.0652320524]}, "type": "Feature", "properties": {"collection_times": [{"days": "Mon-Fri", "time": "5:30pm"}, {"days": "Sat", "time": "5:00pm"}, {"days": "Sun", "time": "Closed"}], "id": "8710500012", "name": "USPS COLLECTION BOX - BLUE BOX", "address": {"city": "ALBUQUERQUE", "state": "NM", "street": "1050 SUNSET RD SW", "postcode": "87105"}}},
{"geometry": {"type": "Point", "coordinates": [-106.6746137361, 35.0652320524]}, "type": "Feature", "properties": {"collection_times": [{"days": "Mon-Fri", "time": "5:30pm"}, {"days": "Sat", "time": "4:15pm"}, {"days": "Sun", "time": "Closed"}], "id": "8710500023", "name": "USPS COLLECTION BOX - PO LOBBY", "address": {"city": "ALBUQUERQUE", "state": "NM", "street": "1050 SUNSET RD SW", "postcode": "87105"}}},
{"geometry": {"type": "Point", "coordinates": [-106.6746137361, 35.0652320524]}, "type": "Feature", "properties": {"collection_times": [{"days": "Mon-Fri", "time": "5:30pm"}, {"days": "Sat", "time": "4:15pm"}, {"days": "Sun", "time": "Closed"}], "id": "8710500024", "name": "USPS COLLECTION BOX - PO LOBBY", "address": {"city": "ALBUQUERQUE", "state": "NM", "street": "1050 SUNSET RD SW", "postcode": "87105"}}},
{"geometry": {"type": "Point", "coordinates": [-106.704619709, 34.932951107]}, "type": "Feature", "properties": {"collection_times": [{"days": "Mon-Fri", "time": "3:45pm"}, {"days": "Sat", "time": "3:15pm"}, {"days": "Sun", "time": "Closed"}], "id": "8710500033", "name": "USPS COLLECTION BOX - BLUE BOX", "address": {"city": "ALBUQUERQUE", "state": "NM", "street": "111 COORS BLVD NW", "postcode": "87105"}}},
{"geometry": {"type": "Point", "coordinates": [-106.6047872173, 35.079745776]}, "type": "Feature", "properties": {"collection_times": [{"days": "Mon-Fri", "time": "12:55pm"}, {"days": "Sat", "time": "12:50pm"}, {"days": "Sun", "time": "Closed"}], "id": "8710600003", "name": "USPS COLLECTION BOX - BLUE BOX", "address": {"city": "ALBUQUERQUE", "state": "NM", "street": "3500 CENTRAL AVE SE", "postcode": "87106"}}},
{"geometry": {"type": "Point", "coordinates": [-106.6341316974, 35.0807737673]}, "type": "Feature", "properties": {"collection_times": [{"days": "Mon-Sat", "time": "12:15pm"}, {"days": "Sun", "time": "Closed"}], "id": "8710600007", "name": "USPS COLLECTION BOX - BLUE BOX", "address": {"city": "ALBUQUERQUE", "state": "NM", "street": "201 CEDAR ST SE", "postcode": "87106"}}},
{"geometry": {"type": "Point", "coordinates": [-106.6195493622, 35.0799433301]}, "type": "Feature", "properties": {"collection_times": [{"days": "Mon-Sat", "time": "5:00pm"}, {"days": "Sun", "time": "Closed"}], "id": "8710600011", "name": "USPS COLLECTION BOX - BLUE BOX", "address": {"city": "ALBUQUERQUE", "state": "NM", "street": "115 CORNELL DR SE", "postcode": "87106"}}},
{"geometry": {"type": "Point", "coordinates": [-106.6352555084, 35.0794228282]}, "type": "Feature", "properties": {"collection_times": [{"days": "Mon-Sat", "time": "12:15pm"}, {"days": "Sun", "time": "Closed"}], "id": "8710600012", "name": "USPS COLLECTION BOX - BLUE BOX", "address": {"city": "ALBUQUERQUE", "state": "NM", "street": "1100 LEAD AVE SE", "postcode": "87106"}}},
{"geometry": {"type": "Point", "coordinates": [-106.6341316974, 35.0807737673]}, "type": "Feature", "properties": {"collection_times": [{"days": "Mon-Sat", "time": "12:15pm"}, {"days": "Sun", "time": "Closed"}], "id": "8710600020", "name": "USPS COLLECTION BOX - BLUE BOX", "address": {"city": "ALBUQUERQUE", "state": "NM", "street": "201 CEDAR ST SE", "postcode": "87106"}}},
{"geometry": {"type": "Point", "coordinates": [-106.6220820774, 35.0759129889]}, "type": "Feature", "properties": {"collection_times": [{"days": "Mon-Fri", "time": "12:55pm"}, {"days": "Sat", "time": "12:30pm"}, {"days": "Sun", "time": "Closed"}], "id": "8710600031", "name": "USPS COLLECTION BOX - BLUE BOX", "address": {"city": "ALBUQUERQUE", "state": "NM", "street": "320 YALE BLVD SE", "postcode": "87106"}}},
{"geometry": {"type": "Point", "coordinates": [-106.6195493622, 35.0799433301]}, "type": "Feature", "properties": {"collection_times": [{"days": "Mon-Fri", "time": "5:30pm"}, {"days": "Sat", "time": "6:00am"}, {"days": "Sun", "time": "Closed"}], "id": "8710600035", "name": "USPS COLLECTION BOX - PO LOBBY", "address": {"city": "ALBUQUERQUE", "state": "NM", "street": "115 CORNELL DR SE", "postcode": "87106"}}},
{"geometry": {"type": "Point", "coordinates": [-106.6049031473, 35.0875367437]}, "type": "Feature", "properties": {"collection_times": [{"days": "Mon-Fri", "time": "1:15pm"}, {"days": "Sat", "time": "1:10pm"}, {"days": "Sun", "time": "Closed"}], "id": "8710600038", "name": "USPS COLLECTION BOX - BLUE BOX", "address": {"city": "ALBUQUERQUE", "state": "NM", "street": "3501 LOMAS BLVD NE", "postcode": "87106"}}},
{"geometry": {"type": "Point", "coordinates": [-106.6195493622, 35.0799433301]}, "type": "Feature", "properties": {"collection_times": [{"days": "Mon-Fri", "time": "5:30pm"}, {"days": "Sat", "time": "6:00am"}, {"days": "Sun", "time": "Closed"}], "id": "8710600040", "name": "USPS COLLECTION BOX - PO LOBBY", "address": {"city": "ALBUQUERQUE", "state": "NM", "street": "115 CORNELL DR SE", "postcode": "87106"}}},
{"geometry": {"type": "Point", "coordinates": [-106.6176717125, 35.0495475052]}, "type": "Feature", "properties": {"collection_times": [{"days": "Mon-Fri", "time": "4:10pm"}, {"days": "Sat-Sun", "time": "Closed"}], "id": "8710600041", "name": "USPS COLLECTION BOX - BLUE BOX", "address": {"city": "ALBUQUERQUE", "state": "NM", "street": "2200 SUNPORT BLVD SE", "postcode": "87106"}}},
{"geometry": {"type": "Point", "coordinates": [-106.6180889558, 35.0875389899]}, "type": "Feature", "properties": {"collection_times": [{"days": "Mon-Sat", "time": "1:00pm"}, {"days": "Sun", "time": "Closed"}], "id": "8710600042", "name": "USPS COLLECTION BOX - BLUE BOX", "address": {"city": "ALBUQUERQUE", "state": "NM", "street": "2211 LOMAS BLVD NE", "postcode": "87106"}}},
{"geometry": {"type": "Point", "coordinates": [-106.6297677618, 35.1117341694]}, "type": "Feature", "properties": {"collection_times": [{"days": "Mon-Fri", "time": "4:30pm"}, {"days": "Sat-Sun", "time": "Closed"}], "id": "8710700001", "name": "USPS COLLECTION BOX - BLUE BOX", "address": {"city": "ALBUQUERQUE", "state": "NM", "street": "2715 BROADBENT PKWY NE", "postcode": "87107"}}},
{"geometry": {"type": "Point", "coordinates": [-106.6398477551, 35.146135799]}, "type": "Feature", "properties": {"collection_times": [{"days": "Mon-Fri", "time": "1:15pm"}, {"days": "Sat", "time": "1:45pm"}, {"days": "Sun", "time": "Closed"}], "id": "8710700004", "name": "USPS COLLECTION BOX - BLUE BOX", "address": {"city": "ALBUQUERQUE", "state": "NM", "street": "6125 4TH ST NW", "postcode": "87107"}}},
{"geometry": {"type": "Point", "coordinates": [-106.604018294, 35.1300250809]}, "type": "Feature", "properties": {"collection_times": [{"days": "Mon-Fri", "time": "1:00pm"}, {"days": "Sat-Sun", "time": "Closed"}], "id": "8710700007", "name": "USPS COLLECTION BOX - BLUE BOX", "address": {"city": "ALBUQUERQUE", "state": "NM", "street": "4308 CARLISLE BLVD NE", "postcode": "87107"}}},
{"geometry": {"type": "Point", "coordinates": [-106.6681666098, 35.1385199092]}, "type": "Feature", "properties": {"collection_times": [{"days": "Mon-Fri", "time": "1:15pm"}, {"days": "Sat", "time": "1:25pm"}, {"days": "Sun", "time": "Closed"}], "id": "8710700019", "name": "USPS COLLECTION BOX - BLUE BOX", "address": {"city": "ALBUQUERQUE", "state": "NM", "street": "4022 RIO GRANDE BLVD NW", "postcode": "87107"}}},
{"geometry": {"type": "Point", "coordinates": [-106.6387050168, 35.1332935965]}, "type": "Feature", "properties": {"collection_times": [{"days": "Mon-Fri", "time": "1:25pm"}, {"days": "Sat-Sun", "time": "Closed"}], "id": "8710700026", "name": "USPS COLLECTION BOX - BLUE BOX", "address": {"city": "ALBUQUERQUE", "state": "NM", "street": "5100 2ND ST NW", "postcode": "87107"}}},
{"geometry": {"type": "Point", "coordinates": [-106.6456986702, 35.1215267037]}, "type": "Feature", "properties": {"collection_times": [{"days": "Mon-Sat", "time": "5:00pm"}, {"days": "Sun", "time": "Closed"}], "id": "8710700027", "name": "USPS COLLECTION BOX - BLUE BOX", "address": {"city": "ALBUQUERQUE", "state": "NM", "street": "424 VERANDA RD NW", "postcode": "87107"}}},
{"geometry": {"type": "Point", "coordinates": [-106.6297677618, 35.1117341694]}, "type": "Feature", "properties": {"collection_times": [{"days": "Mon-Fri", "time": "5:00pm"}, {"days": "Sat-Sun", "time": "Closed"}], "id": "8710700028", "name": "USPS COLLECTION BOX - BLUE BOX", "address": {"city": "ALBUQUERQUE", "state": "NM", "street": "2715 BROADBENT PKWY NE", "postcode": "87107"}}},
{"geometry": {"type": "Point", "coordinates": [-106.6456986702, 35.1215267037]}, "type": "Feature", "properties": {"collection_times": [{"days": "Mon-Fri", "time": "5:00pm"}, {"days": "Sat", "time": "12:00pm"}, {"days": "Sun", "time": "Closed"}], "id": "8710700049", "name": "USPS COLLECTION BOX - PO LOBBY", "address": {"city": "ALBUQUERQUE", "state": "NM", "street": "424 VERANDA RD NW", "postcode": "87107"}}},
{"geometry": {"type": "Point", "coordinates": [-106.6456986702, 35.1215267037]}, "type": "Feature", "properties": {"collection_times": [{"days": "Mon-Fri", "time": "5:00pm"}, {"days": "Sat", "time": "12:00pm"}, {"days": "Sun", "time": "Closed"}], "id": "8710700050", "name": "USPS COLLECTION BOX - PO LOBBY", "address": {"city": "ALBUQUERQUE", "state": "NM", "street": "424 VERANDA RD NW", "postcode": "87107"}}},
{"geometry": {"type": "Point", "coordinates": [-106.6319002808, 35.1372282842]}, "type": "Feature", "properties": {"collection_times": [{"days": "Mon-Fri", "time": "5:30pm"}, {"days": "Sat", "time": "5:00pm"}, {"days": "Sun", "time": "Closed"}], "id": "8710700051", "name": "USPS COLLECTION BOX - BLUE BOX", "address": {"city": "ALBUQUERQUE", "state": "NM", "street": "110 MONTANO RD NE", "postcode": "87107"}}},
{"geometry": {"type": "Point", "coordinates": [-106.6319002808, 35.1372282842]}, "type": "Feature", "properties": {"collection_times": [{"days": "Mon-Fri", "time": "4:00pm"}, {"days": "Sat", "time": "3:00pm"}, {"days": "Sun", "time": "Closed"}], "id": "8710700052", "name": "USPS COLLECTION BOX - PO LOBBY", "address": {"city": "ALBUQUERQUE", "state": "NM", "street": "110 MONTANO RD NE", "postcode": "87107"}}},
{"geometry": {"type": "Point", "coordinates": [-106.6319002808, 35.1372282842]}, "type": "Feature", "properties": {"collection_times": [{"days": "Mon-Fri", "time": "4:00pm"}, {"days": "Sat", "time": "3:00pm"}, {"days": "Sun", "time": "Closed"}], "id": "8710700053", "name": "USPS COLLECTION BOX - PO LOBBY", "address": {"city": "ALBUQUERQUE", "state": "NM", "street": "110 MONTANO RD NE", "postcode": "87107"}}},
{"geometry": {"type": "Point", "coordinates": [-106.6543886867, 35.1225712564]}, "type": "Feature", "properties": {"collection_times": [{"days": "Mon-Fri", "time": "1:20pm"}, {"days": "Sat", "time": "1:25pm"}, {"days": "Sun", "time": "Closed"}], "id": "8710700064", "name": "USPS COLLECTION BOX - BLUE BOX", "address": {"city": "ALBUQUERQUE", "state": "NM", "street": "1130 CANDELARIA RD NW", "postcode": "87107"}}},
{"geometry": {"type": "Point", "coordinates": [-106.5822329217, 35.0582502286]}, "type": "Feature", "properties": {"collection_times": [{"days": "Mon-Fri", "time": "11:00am"}, {"days": "Sat-Sun", "time": "Closed"}], "id": "8710800006", "name": "USPS COLLECTION BOX - BLUE BOX", "address": {"city": "ALBUQUERQUE", "state": "NM", "street": "5400 GIBSON BLVD SE", "postcode": "87108"}}},
{"geometry": {"type": "Point", "coordinates": [-106.5864911673, 35.0582054951]}, "type": "Feature", "properties": {"collection_times": [{"days": "Mon-Fri", "time": "2:30pm"}, {"days": "Sat-Sun", "time": "Closed"}], "id": "8710800010", "name": "USPS COLLECTION BOX - BLUE BOX", "address": {"city": "ALBUQUERQUE", "state": "NM", "street": "2100 RIDGECREST DR SE", "postcode": "87108"}}},
{"geometry": {"type": "Point", "coordinates": [-106.5849553444, 35.0729979684]}, "type": "Feature", "properties": {"collection_times": [{"days": "Mon-Fri", "time": "2:00pm"}, {"days": "Sat-Sun", "time": "Closed"}], "id": "8710800022", "name": "USPS COLLECTION BOX - BLUE BOX", "address": {"city": "ALBUQUERQUE", "state": "NM", "street": "5555 ZUNI RD SE", "postcode": "87108"}}},
{"geometry": {"type": "Point", "coordinates": [-106.5861248567, 35.0753984018]}, "type": "Feature", "properties": {"collection_times": [{"days": "Mon-Fri", "time": "4:20pm"}, {"days": "Sat-Sun", "time": "Closed"}], "id": "8710800024", "name": "USPS COLLECTION BOX - BLUE BOX", "address": {"city": "ALBUQUERQUE", "state": "NM", "street": "300 SAN MATEO BLVD NE", "postcode": "87108"}}},
{"geometry": {"type": "Point", "coordinates": [-106.5818836018, 35.077074831]}, "type": "Feature", "properties": {"collection_times": [{"days": "Mon-Sat", "time": "5:00pm"}, {"days": "Sun", "time": "Closed"}], "id": "8710800026", "name": "USPS COLLECTION BOX - BLUE BOX", "address": {"city": "ALBUQUERQUE", "state": "NM", "street": "111 ALVARADO DR SE", "postcode": "87108"}}},
{"geometry": {"type": "Point", "coordinates": [-106.5818836018, 35.077074831]}, "type": "Feature", "properties": {"collection_times": [{"days": "Mon-Sat", "time": "5:00pm"}, {"days": "Sun", "time": "Closed"}], "id": "8710800027", "name": "USPS COLLECTION BOX - BLUE BOX", "address": {"city": "ALBUQUERQUE", "state": "NM", "street": "111 ALVARADO DR SE", "postcode": "87108"}}},
{"geometry": {"type": "Point", "coordinates": [-106.5695622482, 35.0581295668]}, "type": "Feature", "properties": {"collection_times": [{"days": "Mon-Sat", "time": "2:55pm"}, {"days": "Sun", "time": "Closed"}], "id": "8710800033", "name": "USPS COLLECTION BOX - BLUE BOX", "address": {"city": "ALBUQUERQUE", "state": "NM", "street": "6440 GIBSON BLVD SE", "postcode": "87108"}}},
{"geometry": {"type": "Point", "coordinates": [-106.5859769829, 35.0778583181]}, "type": "Feature", "properties": {"collection_times": [{"days": "Mon-Fri", "time": "4:30pm"}, {"days": "Sat-Sun", "time": "Closed"}], "id": "8710800039", "name": "USPS COLLECTION BOX - BLUE BOX", "address": {"city": "ALBUQUERQUE", "state": "NM", "street": "5301 CENTRAL AVE NE", "postcode": "87108"}}},
{"geometry": {"type": "Point", "coordinates": [-106.5818836018, 35.077074831]}, "type": "Feature", "properties": {"collection_times": [{"days": "Mon-Fri", "time": "6:00pm"}, {"days": "Sat", "time": "3:30pm"}, {"days": "Sun", "time": "Closed"}], "id": "8710800040", "name": "USPS COLLECTION BOX - PO LOBBY", "address": {"city": "ALBUQUERQUE", "state": "NM", "street": "111 ALVARADO DR SE", "postcode": "87108"}}},
{"geometry": {"type": "Point", "coordinates": [-106.5873407293, 35.1538444128]}, "type": "Feature", "properties": {"collection_times": [{"days": "Mon-Fri", "time": "5:00pm"}, {"days": "Sat-Sun", "time": "Closed"}], "id": "8710900002", "name": "USPS COLLECTION BOX - BLUE BOX", "address": {"city": "ALBUQUERQUE", "state": "NM", "street": "6100 PAN AMERICAN NE", "postcode": "87109"}}},
{"geometry": {"type": "Point", "coordinates": [-106.593092485, 35.1644882244]}, "type": "Feature", "properties": {"collection_times": [{"days": "Mon-Sat", "time": "2:15pm"}, {"days": "Sun", "time": "Closed"}], "id": "8710900003", "name": "USPS COLLECTION BOX - BLUE BOX", "address": {"city": "ALBUQUERQUE", "state": "NM", "street": "7412 JEFFERSON ST NE", "postcode": "87109"}}},
{"geometry": {"type": "Point", "coordinates": [-106.593092485, 35.1644882244]}, "type": "Feature", "properties": {"collection_times": [{"days": "Mon-Sat", "time": "1:00pm"}, {"days": "Sun", "time": "Closed"}], "id": "8710900004", "name": "USPS COLLECTION BOX - BLUE BOX", "address": {"city": "ALBUQUERQUE", "state": "NM", "street": "7412 JEFFERSON ST NE", "postcode": "87109"}}},
{"geometry": {"type": "Point", "coordinates": [-106.5907656047, 35.1308839091]}, "type": "Feature", "properties": {"collection_times": [{"days": "Mon-Sat", "time": "2:30pm"}, {"days": "Sun", "time": "Closed"}], "id": "8710900009", "name": "USPS COLLECTION BOX - BLUE BOX", "address": {"city": "ALBUQUERQUE", "state": "NM", "street": "4700 MONTGOMERY BLVD NE", "postcode": "87109"}}},
{"geometry": {"type": "Point", "coordinates": [-106.5834111488, 35.1386157289]}, "type": "Feature", "properties": {"collection_times": [{"days": "Mon-Fri", "time": "1:45pm"}, {"days": "Sat", "time": "5:00pm"}, {"days": "Sun", "time": "Closed"}], "id": "8710900010", "name": "USPS COLLECTION BOX - BLUE BOX", "address": {"city": "ALBUQUERQUE", "state": "NM", "street": "5600 MCLEOD RD NE", "postcode": "87109"}}},
{"geometry": {"type": "Point", "coordinates": [-106.6008136582, 35.1309690821]}, "type": "Feature", "properties": {"collection_times": [{"days": "Mon-Sat", "time": "11:45am"}, {"days": "Sun", "time": "Closed"}], "id": "8710900011", "name": "USPS COLLECTION BOX - BLUE BOX", "address": {"city": "ALBUQUERQUE", "state": "NM", "street": "3901 MONTGOMERY BLVD NE", "postcode": "87109"}}},
{"geometry": {"type": "Point", "coordinates": [-106.598553412, 35.1310346417]}, "type": "Feature", "properties": {"collection_times": [{"days": "Mon-Fri", "time": "5:00pm"}, {"days": "Sat-Sun", "time": "Closed"}], "id": "8710900012", "name": "USPS COLLECTION BOX - BLUE BOX", "address": {"city": "ALBUQUERQUE", "state": "NM", "street": "4101 MONTGOMERY BLVD NE", "postcode": "87109"}}},
{"geometry": {"type": "Point", "coordinates": [-106.5654715761, 35.1306887208]}, "type": "Feature", "properties": {"collection_times": [{"days": "Mon-Sat", "time": "2:50pm"}, {"days": "Sun", "time": "Closed"}], "id": "8710900019", "name": "USPS COLLECTION BOX - BLUE BOX", "address": {"city": "ALBUQUERQUE", "state": "NM", "street": "7200 MONTGOMERY BLVD NE", "postcode": "87109"}}},
{"geometry": {"type": "Point", "coordinates": [-106.5605733684, 35.1306495721]}, "type": "Feature", "properties": {"collection_times": [{"days": "Mon-Fri", "time": "2:15pm"}, {"days": "Sat", "time": "3:15pm"}, {"days": "Sun", "time": "Closed"}], "id": "8710900020", "name": "USPS COLLECTION BOX - BLUE BOX", "address": {"city": "ALBUQUERQUE", "state": "NM", "street": "7520 MONTGOMERY BLVD NE", "postcode": "87109"}}},
{"geometry": {"type": "Point", "coordinates": [-106.5863366063, 35.1453041789]}, "type": "Feature", "properties": {"collection_times": [{"days": "Mon-Fri", "time": "4:30pm"}, {"days": "Sat", "time": "4:00pm"}, {"days": "Sun", "time": "Closed"}], "id": "8710900031", "name": "USPS COLLECTION BOX - BLUE BOX", "address": {"city": "ALBUQUERQUE", "state": "NM", "street": "6100 SAN MATEO BLVD NE", "postcode": "87109"}}},
{"geometry": {"type": "Point", "coordinates": [-106.5529026371, 35.1399855954]}, "type": "Feature", "properties": {"collection_times": [{"days": "Mon-Fri", "time": "4:00pm"}, {"days": "Sat-Sun", "time": "Closed"}], "id": "8710900034", "name": "USPS COLLECTION BOX - BLUE BOX", "address": {"city": "ALBUQUERQUE", "state": "NM", "street": "8205 SPAIN RD NE", "postcode": "87109"}}},
{"geometry": {"type": "Point", "coordinates": [-106.575230886, 35.159917946]}, "type": "Feature", "properties": {"collection_times": [{"days": "Mon-Sat", "time": "5:00pm"}, {"days": "Sun", "time": "Closed"}], "id": "8710900037", "name": "USPS COLLECTION BOX - BLUE BOX", "address": {"city": "ALBUQUERQUE", "state": "NM", "street": "6255 SAN ANTONIO DR NE", "postcode": "87109"}}},
{"geometry": {"type": "Point", "coordinates": [-106.5677440403, 35.1460943955]}, "type": "Feature", "properties": {"collection_times": [{"days": "Mon-Fri", "time": "5:00pm"}, {"days": "Sat-Sun", "time": "Closed"}], "id": "8710900043", "name": "USPS COLLECTION BOX - BLUE BOX", "address": {"city": "ALBUQUERQUE", "state": "NM", "street": "6755 ACADEMY RD NE", "postcode": "87109"}}},
{"geometry": {"type": "Point", "coordinates": [-106.5715455845, 35.1454271533]}, "type": "Feature", "properties": {"collection_times": [{"days": "Mon-Fri", "time": "5:00pm"}, {"days": "Sat-Sun", "time": "Closed"}], "id": "8710900047", "name": "USPS COLLECTION BOX - BLUE BOX", "address": {"city": "ALBUQUERQUE", "state": "NM", "street": "6755 ACADEMY RD NE", "postcode": "87109"}}},
{"geometry": {"type": "Point", "coordinates": [-106.5849277022, 35.1530040588]}, "type": "Feature", "properties": {"collection_times": [{"days": "Mon-Sat", "time": "10:30am"}, {"days": "Sun", "time": "Closed"}], "id": "8710900048", "name": "USPS COLLECTION BOX - BLUE BOX", "address": {"city": "ALBUQUERQUE", "state": "NM", "street": "5700 HARPER DR NE", "postcode": "87109"}}},
{"geometry": {"type": "Point", "coordinates": [-106.5654715761, 35.1306887208]}, "type": "Feature", "properties": {"collection_times": [{"days": "Mon-Sat", "time": "2:50pm"}, {"days": "Sun", "time": "Closed"}], "id": "8710900053", "name": "USPS COLLECTION BOX - BLUE BOX", "address": {"city": "ALBUQUERQUE", "state": "NM", "street": "7200 MONTGOMERY BLVD NE", "postcode": "87109"}}},
{"geometry": {"type": "Point", "coordinates": [-106.5825641502, 35.1448889603]}, "type": "Feature", "properties": {"collection_times": [{"days": "Mon-Fri", "time": "4:30pm"}, {"days": "Sat-Sun", "time": "Closed"}], "id": "8710900060", "name": "USPS COLLECTION BOX - BLUE BOX", "address": {"city": "ALBUQUERQUE", "state": "NM", "street": "5801 OSUNA RD NE", "postcode": "87109"}}},
{"geometry": {"type": "Point", "coordinates": [-106.5863366063, 35.1453041789]}, "type": "Feature", "properties": {"collection_times": [{"days": "Mon-Fri", "time": "5:00pm"}, {"days": "Sat", "time": "4:00pm"}, {"days": "Sun", "time": "Closed"}], "id": "8710900061", "name": "USPS COLLECTION BOX - BLUE BOX", "address": {"city": "ALBUQUERQUE", "state": "NM", "street": "6100 SAN MATEO BLVD NE", "postcode": "87109"}}},
{"geometry": {"type": "Point", "coordinates": [-106.5598146663, 35.1606400589]}, "type": "Feature", "properties": {"collection_times": [{"days": "Mon-Sat", "time": "5:00pm"}, {"days": "Sun", "time": "Closed"}], "id": "8710900071", "name": "USPS COLLECTION BOX - BLUE BOX", "address": {"city": "ALBUQUERQUE", "state": "NM", "street": "7120 WYOMING BLVD NE", "postcode": "87109"}}},
{"geometry": {"type": "Point", "coordinates": [-106.5598146663, 35.1606400589]}, "type": "Feature", "properties": {"collection_times": [{"days": "Mon-Sat", "time": "5:00pm"}, {"days": "Sun", "time": "Closed"}], "id": "8710900072", "name": "USPS COLLECTION BOX - BLUE BOX", "address": {"city": "ALBUQUERQUE", "state": "NM", "street": "7120 WYOMING BLVD NE", "postcode": "87109"}}},
{"geometry": {"type": "Point", "coordinates": [-106.5969927007, 35.1511834849]}, "type": "Feature", "properties": {"collection_times": [{"days": "Mon-Fri", "time": "2:30pm"}, {"days": "Sat-Sun", "time": "Closed"}], "id": "8710900101", "name": "USPS COLLECTION BOX - BLUE BOX", "address": {"city": "ALBUQUERQUE", "state": "NM", "street": "4101 JEFFERSON PLZ NE", "postcode": "87109"}}},
{"geometry": {"type": "Point", "coordinates": [-106.5757905272, 35.159914905]}, "type": "Feature", "properties": {"collection_times": [{"days": "Mon-Fri", "time": "6:00pm"}, {"days": "Sat", "time": "4:15pm"}, {"days": "Sun", "time": "Closed"}], "id": "8710900104", "name": "USPS COLLECTION BOX - PO LOBBY", "address": {"city": "ALBUQUERQUE", "state": "NM", "street": "6255 SAN ANTONIO DR NE", "postcode": "87109"}}},
{"geometry": {"type": "Point", "coordinates": [-106.5757905272, 35.159914905]}, "type": "Feature", "properties": {"collection_times": [{"days": "Mon-Fri", "time": "6:00pm"}, {"days": "Sat", "time": "4:15pm"}, {"days": "Sun", "time": "Closed"}], "id": "8710900120", "name": "USPS COLLECTION BOX - APC", "address": {"city": "ALBUQUERQUE", "state": "NM", "street": "6255 SAN ANTONIO DR NE", "postcode": "87109"}}},
{"geometry": {"type": "Point", "coordinates": [-106.571921783, 35.145427739]}, "type": "Feature", "properties": {"collection_times": [{"days": "Mon-Fri", "time": "5:00pm"}, {"days": "Sat-Sun", "time": "Closed"}], "id": "8710900128", "name": "USPS COLLECTION BOX - BLUE BOX", "address": {"city": "ALBUQUERQUE", "state": "NM", "street": "6707 ACADEMY RD NE", "postcode": "87109"}}},
{"geometry": {"type": "Point", "coordinates": [-106.5536017659, 35.0945741666]}, "type": "Feature", "properties": {"collection_times": [{"days": "Mon-Fri", "time": "12:30pm"}, {"days": "Sat-Sun", "time": "Closed"}], "id": "8711000004", "name": "USPS COLLECTION BOX - BLUE BOX", "address": {"city": "ALBUQUERQUE", "state": "NM", "street": "8300 CONSTITUTION AVE NE", "postcode": "87110"}}},
{"geometry": {"type": "Point", "coordinates": [-106.555124234, 35.092889633]}, "type": "Feature", "properties": {"collection_times": [{"days": "Mon-Fri", "time": "12:20pm"}, {"days": "Sat", "time": "12:15pm"}, {"days": "Sun", "time": "Closed"}], "id": "8711000005", "name": "USPS COLLECTION BOX - BLUE BOX", "address": {"city": "ALBUQUERQUE", "state": "NM", "street": "8100 CONSTITUTION PL NE", "postcode": "87110"}}},
{"geometry": {"type": "Point", "coordinates": [-106.5749222353, 35.1020208933]}, "type": "Feature", "properties": {"collection_times": [{"days": "Mon-Fri", "time": "2:35pm"}, {"days": "Sat", "time": "2:00pm"}, {"days": "Sun", "time": "Closed"}], "id": "8711000008", "name": "USPS COLLECTION BOX - BLUE BOX", "address": {"city": "ALBUQUERQUE", "state": "NM", "street": "6301 INDIAN SCHOOL RD NE", "postcode": "87110"}}},
{"geometry": {"type": "Point", "coordinates": [-106.5909526853, 35.1019757895]}, "type": "Feature", "properties": {"collection_times": [{"days": "Mon-Sat", "time": "11:00am"}, {"days": "Sun", "time": "Closed"}], "id": "8711000010", "name": "USPS COLLECTION BOX - BLUE BOX", "address": {"city": "ALBUQUERQUE", "state": "NM", "street": "4801 INDIAN SCHOOL RD NE", "postcode": "87110"}}},
{"geometry": {"type": "Point", "coordinates": [-106.568686489, 35.106290022]}, "type": "Feature", "properties": {"collection_times": [{"days": "Mon-Fri", "time": "4:15pm"}, {"days": "Sat-Sun", "time": "Closed"}], "id": "8711000019", "name": "USPS COLLECTION BOX - BLUE BOX", "address": {"city": "ALBUQUERQUE", "state": "NM", "street": "2424 LOUISIANA BLVD NE", "postcode": "87110"}}},
{"geometry": {"type": "Point", "coordinates": [-106.5777417996, 35.1087861034]}, "type": "Feature", "properties": {"collection_times": [{"days": "Mon-Fri", "time": "4:15pm"}, {"days": "Sat-Sun", "time": "Closed"}], "id": "8711000021", "name": "USPS COLLECTION BOX - BLUE BOX", "address": {"city": "ALBUQUERQUE", "state": "NM", "street": "2440#5 LOUISIANA NE", "postcode": "87110"}}},
{"geometry": {"type": "Point", "coordinates": [-106.5687341769, 35.1082219642]}, "type": "Feature", "properties": {"collection_times": [{"days": "Mon-Fri", "time": "4:30pm"}, {"days": "Sat-Sun", "time": "Closed"}], "id": "8711000022", "name": "USPS COLLECTION BOX - BLUE BOX", "address": {"city": "ALBUQUERQUE", "state": "NM", "street": "2500 LOUISIANA BLVD NE", "postcode": "87110"}}},
{"geometry": {"type": "Point", "coordinates": [-106.5571470939, 35.1059530489]}, "type": "Feature", "properties": {"collection_times": [{"days": "Mon-Fri", "time": "12:35pm"}, {"days": "Sat", "time": "12:30pm"}, {"days": "Sun", "time": "Closed"}], "id": "8711000023", "name": "USPS COLLECTION BOX - BLUE BOX", "address": {"city": "ALBUQUERQUE", "state": "NM", "street": "7805 CUTLER AVE NE", "postcode": "87110"}}},
{"geometry": {"type": "Point", "coordinates": [-106.5589901439, 35.1090890731]}, "type": "Feature", "properties": {"collection_times": [{"days": "Mon-Sat", "time": "12:30pm"}, {"days": "Sun", "time": "Closed"}], "id": "8711000042", "name": "USPS COLLECTION BOX - BLUE BOX", "address": {"city": "ALBUQUERQUE", "state": "NM", "street": "7618 MENAUL BLVD NE", "postcode": "87110"}}},
{"geometry": {"type": "Point", "coordinates": [-106.5863661803, 35.1257463183]}, "type": "Feature", "properties": {"collection_times": [{"days": "Mon-Fri", "time": "11:00am"}, {"days": "Sat-Sun", "time": "Closed"}], "id": "8711000045", "name": "USPS COLLECTION BOX - BLUE BOX", "address": {"city": "ALBUQUERQUE", "state": "NM", "street": "3900 SAN MATEO BLVD NE", "postcode": "87110"}}},
{"geometry": {"type": "Point", "coordinates": [-106.5863496189, 35.1296950353]}, "type": "Feature", "properties": {"collection_times": [{"days": "Mon-Fri", "time": "12:45pm"}, {"days": "Sat", "time": "1:30pm"}, {"days": "Sun", "time": "Closed"}], "id": "8711000046", "name": "USPS COLLECTION BOX - BLUE BOX", "address": {"city": "ALBUQUERQUE", "state": "NM", "street": "4300 SAN MATEO BLVD NE", "postcode": "87110"}}},
{"geometry": {"type": "Point", "coordinates": [-106.5775507701, 35.1077251214]}, "type": "Feature", "properties": {"collection_times": [{"days": "Mon-Fri", "time": "2:00pm"}, {"days": "Sat-Sun", "time": "Closed"}], "id": "8711000047", "name": "USPS COLLECTION BOX - BLUE BOX", "address": {"city": "ALBUQUERQUE", "state": "NM", "street": "2501 SAN PEDRO DR NE", "postcode": "87110"}}},
{"geometry": {"type": "Point", "coordinates": [-106.579196266, 35.0874018864]}, "type": "Feature", "properties": {"collection_times": [{"days": "Mon-Sat", "time": "1:00pm"}, {"days": "Sun", "time": "Closed"}], "id": "8711000051", "name": "USPS COLLECTION BOX - BLUE BOX", "address": {"city": "ALBUQUERQUE", "state": "NM", "street": "6001 LOMAS BLVD NE", "postcode": "87110"}}},
{"geometry": {"type": "Point", "coordinates": [-106.5707807641, 35.1090135282]}, "type": "Feature", "properties": {"collection_times": [{"days": "Mon-Fri", "time": "10:45am"}, {"days": "Sat-Sun", "time": "Closed"}], "id": "8711000059", "name": "USPS COLLECTION BOX - BLUE BOX", "address": {"city": "ALBUQUERQUE", "state": "NM", "street": "6600 MENAUL BLVD NE", "postcode": "87110"}}},
{"geometry": {"type": "Point", "coordinates": [-106.5749222353, 35.1020208933]}, "type": "Feature", "properties": {"collection_times": [{"days": "Mon-Fri", "time": "2:35pm"}, {"days": "Sat", "time": "2:00pm"}, {"days": "Sun", "time": "Closed"}], "id": "8711000063", "name": "USPS COLLECTION BOX - BLUE BOX", "address": {"city": "ALBUQUERQUE", "state": "NM", "street": "6301 INDIAN SCHOOL RD NE", "postcode": "87110"}}},
{"geometry": {"type": "Point", "coordinates": [-106.5687341769, 35.1082219642]}, "type": "Feature", "properties": {"collection_times": [{"days": "Mon-Fri", "time": "11:00am"}, {"days": "Sat-Sun", "time": "Closed"}], "id": "8711000069", "name": "USPS COLLECTION BOX - BLUE BOX", "address": {"city": "ALBUQUERQUE", "state": "NM", "street": "2500 LOUISIANA BLVD NE", "postcode": "87110"}}},
{"geometry": {"type": "Point", "coordinates": [-106.5687341769, 35.1082219642]}, "type": "Feature", "properties": {"collection_times": [{"days": "Mon-Fri", "time": "4:15pm"}, {"days": "Sat-Sun", "time": "Closed"}], "id": "8711000070", "name": "USPS COLLECTION BOX - BLUE BOX", "address": {"city": "ALBUQUERQUE", "state": "NM", "street": "2500 LOUISIANA BLVD NE", "postcode": "87110"}}},
{"geometry": {"type": "Point", "coordinates": [-106.5594368295, 35.0909867012]}, "type": "Feature", "properties": {"collection_times": [{"days": "Mon-Sat", "time": "10:00am"}, {"days": "Sun", "time": "Closed"}], "id": "8711000072", "name": "USPS COLLECTION BOX - BLUE BOX", "address": {"city": "ALBUQUERQUE", "state": "NM", "street": "7901 MOUNTAIN RD NE", "postcode": "87110"}}},
{"geometry": {"type": "Point", "coordinates": [-106.5593570062, 35.0909412577]}, "type": "Feature", "properties": {"collection_times": [{"days": "Mon-Fri", "time": "5:30pm"}, {"days": "Sat", "time": "12:15pm"}, {"days": "Sun", "time": "Closed"}], "id": "8711000073", "name": "USPS COLLECTION BOX - BLUE BOX", "address": {"city": "ALBUQUERQUE", "state": "NM", "street": "7901 MOUNTAIN RD NE", "postcode": "87110"}}},
{"geometry": {"type": "Point", "coordinates": [-106.5594368295, 35.0909867012]}, "type": "Feature", "properties": {"collection_times": [{"days": "Mon-Sat", "time": "10:00am"}, {"days": "Sun", "time": "Closed"}], "id": "8711000074", "name": "USPS COLLECTION BOX - BLUE BOX", "address": {"city": "ALBUQUERQUE", "state": "NM", "street": "7901 MOUNTAIN RD NE", "postcode": "87110"}}},
{"geometry": {"type": "Point", "coordinates": [-106.5863496189, 35.1296950353]}, "type": "Feature", "properties": {"collection_times": [{"days": "Mon-Fri", "time": "12:50pm"}, {"days": "Sat-Sun", "time": "Closed"}], "id": "8711000076", "name": "USPS COLLECTION BOX - BLUE BOX", "address": {"city": "ALBUQUERQUE", "state": "NM", "street": "4300 SAN MATEO BLVD NE", "postcode": "87110"}}},
{"geometry": {"type": "Point", "coordinates": [-106.5750641904, 35.1048481652]}, "type": "Feature", "properties": {"collection_times": [{"days": "Mon-Fri", "time": "2:00pm"}, {"days": "Sat-Sun", "time": "Closed"}], "id": "8711000080", "name": "USPS COLLECTION BOX - BLUE BOX", "address": {"city": "ALBUQUERQUE", "state": "NM", "street": "6100 UPTOWN BLVD NE", "postcode": "87110"}}},
{"geometry": {"type": "Point", "coordinates": [-106.596810525, 35.1075240184]}, "type": "Feature", "properties": {"collection_times": [{"days": "Mon-Fri", "time": "6:15pm"}, {"days": "Sat", "time": "4:10pm"}, {"days": "Sun", "time": "Closed"}], "id": "8711000118", "name": "USPS COLLECTION BOX - PO LOBBY", "address": {"city": "ALBUQUERQUE", "state": "NM", "street": "2505 GRACELAND DR NE", "postcode": "87110"}}},
{"geometry": {"type": "Point", "coordinates": [-106.596810525, 35.1075240184]}, "type": "Feature", "properties": {"collection_times": [{"days": "Mon-Fri", "time": "6:15pm"}, {"days": "Sat", "time": "4:10pm"}, {"days": "Sun", "time": "Closed"}], "id": "8711000131", "name": "USPS COLLECTION BOX - APC", "address": {"city": "ALBUQUERQUE", "state": "NM", "street": "2505 GRACELAND DR NE", "postcode": "87110"}}},
{"geometry": {"type": "Point", "coordinates": [-106.596810525, 35.1075240184]}, "type": "Feature", "properties": {"collection_times": [{"days": "Mon-Sat", "time": "5:00pm"}, {"days": "Sun", "time": "Closed"}], "id": "8711000133", "name": "USPS COLLECTION BOX - BLUE BOX", "address": {"city": "ALBUQUERQUE", "state": "NM", "street": "2505 GRACELAND DR NE", "postcode": "87110"}}},
{"geometry": {"type": "Point", "coordinates": [-106.5332536887, 35.1378420737]}, "type": "Feature", "properties": {"collection_times": [{"days": "Mon-Fri", "time": "2:15pm"}, {"days": "Sat-Sun", "time": "Closed"}], "id": "8711100002", "name": "USPS COLLECTION BOX - BLUE BOX", "address": {"city": "ALBUQUERQUE", "state": "NM", "street": "5200 EUBANK BLVD NE", "postcode": "87111"}}},
{"geometry": {"type": "Point", "coordinates": [-106.5502658216, 35.1375001986]}, "type": "Feature", "properties": {"collection_times": [{"days": "Mon-Fri", "time": "4:00pm"}, {"days": "Sat-Sun", "time": "Closed"}], "id": "8711100010", "name": "USPS COLLECTION BOX - BLUE BOX", "address": {"city": "ALBUQUERQUE", "state": "NM", "street": "8400 OSUNA RD NE", "postcode": "87111"}}},
{"geometry": {"type": "Point", "coordinates": [-106.532364687, 35.116260227]}, "type": "Feature", "properties": {"collection_times": [{"days": "Mon-Sat", "time": "5:00pm"}, {"days": "Sun", "time": "Closed"}], "id": "8711100037", "name": "USPS COLLECTION BOX - BLUE BOX", "address": {"city": "ALBUQUERQUE", "state": "NM", "street": "9719 CANDELARIA RD NE", "postcode": "87111"}}},
{"geometry": {"type": "Point", "coordinates": [-106.532364687, 35.116260227]}, "type": "Feature", "properties": {"collection_times": [{"days": "Mon-Sat", "time": "5:00pm"}, {"days": "Sun", "time": "Closed"}], "id": "8711100038", "name": "USPS COLLECTION BOX - BLUE BOX", "address": {"city": "ALBUQUERQUE", "state": "NM", "street": "9719 CANDELARIA RD NE", "postcode": "87111"}}},
{"geometry": {"type": "Point", "coordinates": [-106.5234576055, 35.1541893836]}, "type": "Feature", "properties": {"collection_times": [{"days": "Mon-Fri", "time": "3:15pm"}, {"days": "Sat", "time": "4:00pm"}, {"days": "Sun", "time": "Closed"}], "id": "8711100041", "name": "USPS COLLECTION BOX - BLUE BOX", "address": {"city": "ALBUQUERQUE", "state": "NM", "street": "10400 ACADEMY RD NE", "postcode": "87111"}}},
{"geometry": {"type": "Point", "coordinates": [-106.5234576055, 35.1541893836]}, "type": "Feature", "properties": {"collection_times": [{"days": "Mon-Fri", "time": "3:15pm"}, {"days": "Sat", "time": "4:00pm"}, {"days": "Sun", "time": "Closed"}], "id": "8711100042", "name": "USPS COLLECTION BOX - BLUE BOX", "address": {"city": "ALBUQUERQUE", "state": "NM", "street": "10400 ACADEMY RD NE", "postcode": "87111"}}},
{"geometry": {"type": "Point", "coordinates": [-106.5317087443, 35.1162305964]}, "type": "Feature", "properties": {"collection_times": [{"days": "Mon-Fri", "time": "6:00pm"}, {"days": "Sat", "time": "4:00pm"}, {"days": "Sun", "time": "Closed"}], "id": "8711100053", "name": "USPS COLLECTION BOX - APC", "address": {"city": "ALBUQUERQUE", "state": "NM", "street": "9719 CANDELARIA RD NE", "postcode": "87111"}}},
{"geometry": {"type": "Point", "coordinates": [-106.5403407959, 35.1307596984]}, "type": "Feature", "properties": {"collection_times": [{"days": "Mon-Fri", "time": "5:00pm"}, {"days": "Sat-Sun", "time": "Closed"}], "id": "8711100054", "name": "USPS COLLECTION BOX - BLUE BOX", "address": {"city": "ALBUQUERQUE", "state": "NM", "street": "9201 MONTGOMERY BLVD NE", "postcode": "87111"}}},
{"geometry": {"type": "Point", "coordinates": [-106.5317087443, 35.1162305964]}, "type": "Feature", "properties": {"collection_times": [{"days": "Mon-Fri", "time": "6:00pm"}, {"days": "Sat", "time": "4:00pm"}, {"days": "Sun", "time": "Closed"}], "id": "8711100055", "name": "USPS COLLECTION BOX - PO LOBBY", "address": {"city": "ALBUQUERQUE", "state": "NM", "street": "9719 CANDELARIA RD NE", "postcode": "87111"}}},
{"geometry": {"type": "Point", "coordinates": [-106.5317087443, 35.1162305964]}, "type": "Feature", "properties": {"collection_times": [{"days": "Mon-Fri", "time": "6:00pm"}, {"days": "Sat", "time": "4:00pm"}, {"days": "Sun", "time": "Closed"}], "id": "8711100056", "name": "USPS COLLECTION BOX - PO LOBBY", "address": {"city": "ALBUQUERQUE", "state": "NM", "street": "9719 CANDELARIA RD NE", "postcode": "87111"}}},
{"geometry": {"type": "Point", "coordinates": [-106.5317087443, 35.1162305964]}, "type": "Feature", "properties": {"collection_times": [{"days": "Mon-Fri", "time": "6:00pm"}, {"days": "Sat", "time": "4:00pm"}, {"days": "Sun", "time": "Closed"}], "id": "8711100057", "name": "USPS COLLECTION BOX - PO LOBBY", "address": {"city": "ALBUQUERQUE", "state": "NM", "street": "9719 CANDELARIA RD NE", "postcode": "87111"}}},
{"geometry": {"type": "Point", "coordinates": [-106.515574367, 35.1153552067]}, "type": "Feature", "properties": {"collection_times": [{"days": "Mon-Fri", "time": "2:45pm"}, {"days": "Sat", "time": "1:00pm"}, {"days": "Sun", "time": "Closed"}], "id": "8711200001", "name": "USPS COLLECTION BOX - BLUE BOX", "address": {"city": "ALBUQUERQUE", "state": "NM", "street": "2910 JUAN TABO BLVD NE", "postcode": "87112"}}},
{"geometry": {"type": "Point", "coordinates": [-106.5508182634, 35.0949361521]}, "type": "Feature", "properties": {"collection_times": [{"days": "Mon-Fri", "time": "1:45pm"}, {"days": "Sat-Sun", "time": "Closed"}], "id": "8711200004", "name": "USPS COLLECTION BOX - BLUE BOX", "address": {"city": "ALBUQUERQUE", "state": "NM", "street": "1401 WYOMING BLVD NE", "postcode": "87112"}}},
{"geometry": {"type": "Point", "coordinates": [-106.5325855436, 35.0946826917]}, "type": "Feature", "properties": {"collection_times": [{"days": "Mon-Fri", "time": "2:00pm"}, {"days": "Sat", "time": "3:30pm"}, {"days": "Sun", "time": "Closed"}], "id": "8711200005", "name": "USPS COLLECTION BOX - BLUE BOX", "address": {"city": "ALBUQUERQUE", "state": "NM", "street": "1412 EUBANK BLVD NE", "postcode": "87112"}}},
{"geometry": {"type": "Point", "coordinates": [-106.5277643566, 35.0872477997]}, "type": "Feature", "properties": {"collection_times": [{"days": "Mon-Fri", "time": "2:00pm"}, {"days": "Sat-Sun", "time": "Closed"}], "id": "8711200007", "name": "USPS COLLECTION BOX - BLUE BOX", "address": {"city": "ALBUQUERQUE", "state": "NM", "street": "10701 LOMAS BLVD NE", "postcode": "87112"}}},
{"geometry": {"type": "Point", "coordinates": [-106.5164840624, 35.0868778356]}, "type": "Feature", "properties": {"collection_times": [{"days": "Mon-Fri", "time": "2:00pm"}, {"days": "Sat", "time": "3:00pm"}, {"days": "Sun", "time": "Closed"}], "id": "8711200008", "name": "USPS COLLECTION BOX - BLUE BOX", "address": {"city": "ALBUQUERQUE", "state": "NM", "street": "11825 LOMAS BLVD NE", "postcode": "87112"}}},
{"geometry": {"type": "Point", "coordinates": [-106.5480891771, 35.1090961709]}, "type": "Feature", "properties": {"collection_times": [{"days": "Mon-Fri", "time": "4:15pm"}, {"days": "Sat-Sun", "time": "Closed"}], "id": "8711200009", "name": "USPS COLLECTION BOX - BLUE BOX", "address": {"city": "ALBUQUERQUE", "state": "NM", "street": "8500 MENAUL BLVD NE", "postcode": "87112"}}},
{"geometry": {"type": "Point", "coordinates": [-106.5429184634, 35.1070330904]}, "type": "Feature", "properties": {"collection_times": [{"days": "Mon-Sat", "time": "3:00pm"}, {"days": "Sun", "time": "Closed"}], "id": "8711200011", "name": "USPS COLLECTION BOX - BLUE BOX", "address": {"city": "ALBUQUERQUE", "state": "NM", "street": "8911 NORTHEASTERN BLVD NE", "postcode": "87112"}}},
{"geometry": {"type": "Point", "coordinates": [-106.4974874136, 35.095400664]}, "type": "Feature", "properties": {"collection_times": [{"days": "Mon-Fri", "time": "1:30pm"}, {"days": "Sat-Sun", "time": "Closed"}], "id": "8711200017", "name": "USPS COLLECTION BOX - BLUE BOX", "address": {"city": "ALBUQUERQUE", "state": "NM", "street": "1520 TRAMWAY BLVD NE", "postcode": "87112"}}},
{"geometry": {"type": "Point", "coordinates": [-106.5509779629, 35.1148477173]}, "type": "Feature", "properties": {"collection_times": [{"days": "Mon-Fri", "time": "4:30pm"}, {"days": "Sat-Sun", "time": "Closed"}], "id": "8711200020", "name": "USPS COLLECTION BOX - BLUE BOX", "address": {"city": "ALBUQUERQUE", "state": "NM", "street": "2601 WYOMING BLVD NE", "postcode": "87112"}}},
{"geometry": {"type": "Point", "coordinates": [-106.5062514674, 35.0892756934]}, "type": "Feature", "properties": {"collection_times": [{"days": "Mon-Fri", "time": "2:15pm"}, {"days": "Sat", "time": "3:00pm"}, {"days": "Sun", "time": "Closed"}], "id": "8711200021", "name": "USPS COLLECTION BOX - BLUE BOX", "address": {"city": "ALBUQUERQUE", "state": "NM", "street": "1025 CHELWOOD PARK BLVD NE", "postcode": "87112"}}},
{"geometry": {"type": "Point", "coordinates": [-106.5154501563, 35.1078954675]}, "type": "Feature", "properties": {"collection_times": [{"days": "Mon-Fri", "time": "2:30pm"}, {"days": "Sat", "time": "4:45pm"}, {"days": "Sun", "time": "Closed"}], "id": "8711200024", "name": "USPS COLLECTION BOX - BLUE BOX", "address": {"city": "ALBUQUERQUE", "state": "NM", "street": "2200 JUAN TABO BLVD NE", "postcode": "87112"}}},
{"geometry": {"type": "Point", "coordinates": [-106.5325855436, 35.0946826917]}, "type": "Feature", "properties": {"collection_times": [{"days": "Mon-Fri", "time": "2:00pm"}, {"days": "Sat", "time": "3:45pm"}, {"days": "Sun", "time": "Closed"}], "id": "8711200025", "name": "USPS COLLECTION BOX - BLUE BOX", "address": {"city": "ALBUQUERQUE", "state": "NM", "street": "1412 EUBANK BLVD NE", "postcode": "87112"}}},
{"geometry": {"type": "Point", "coordinates": [-106.5480891771, 35.1090961709]}, "type": "Feature", "properties": {"collection_times": [{"days": "Mon-Fri", "time": "4:15pm"}, {"days": "Sat", "time": "4:00pm"}, {"days": "Sun", "time": "Closed"}], "id": "8711200027", "name": "USPS COLLECTION BOX - BLUE BOX", "address": {"city": "ALBUQUERQUE", "state": "NM", "street": "8500 MENAUL BLVD NE", "postcode": "87112"}}},
{"geometry": {"type": "Point", "coordinates": [-106.5160712097, 35.0997153063]}, "type": "Feature", "properties": {"collection_times": [{"days": "Mon-Sat", "time": "5:00pm"}, {"days": "Sun", "time": "Closed"}], "id": "8711200029", "name": "USPS COLLECTION BOX - BLUE BOX", "address": {"city": "ALBUQUERQUE", "state": "NM", "street": "11600 HAINES AVE NE", "postcode": "87112"}}},
{"geometry": {"type": "Point", "coordinates": [-106.55308, 35.10911]}, "type": "Feature", "properties": {"collection_times": [{"days": "Mon-Fri", "time": "4:15pm"}, {"days": "Sat-Sun", "time": "Closed"}], "id": "8711200045", "name": "USPS COLLECTION BOX - BLUE BOX", "address": {"city": "ALBUQUERQUE", "state": "NM", "street": "8204 MENAUL BLVD NE", "postcode": "87112"}}},
{"geometry": {"type": "Point", "coordinates": [-106.5160712097, 35.0997153063]}, "type": "Feature", "properties": {"collection_times": [{"days": "Mon-Fri", "time": "5:30pm"}, {"days": "Sat", "time": "3:30pm"}, {"days": "Sun", "time": "Closed"}], "id": "8711200049", "name": "USPS COLLECTION BOX - PO LOBBY", "address": {"city": "ALBUQUERQUE", "state": "NM", "street": "11600 HAINES AVE NE", "postcode": "87112"}}},
{"geometry": {"type": "Point", "coordinates": [-106.5160712097, 35.0997153063]}, "type": "Feature", "properties": {"collection_times": [{"days": "Mon-Fri", "time": "5:30pm"}, {"days": "Sat", "time": "3:30pm"}, {"days": "Sun", "time": "Closed"}], "id": "8711200050", "name": "USPS COLLECTION BOX - PO LOBBY", "address": {"city": "ALBUQUERQUE", "state": "NM", "street": "11600 HAINES AVE NE", "postcode": "87112"}}},
{"geometry": {"type": "Point", "coordinates": [-106.5160712097, 35.0997153063]}, "type": "Feature", "properties": {"collection_times": [{"days": "Mon-Sat", "time": "5:00pm"}, {"days": "Sun", "time": "Closed"}], "id": "8711200059", "name": "USPS COLLECTION BOX - BLUE BOX", "address": {"city": "ALBUQUERQUE", "state": "NM", "street": "11600 HAINES AVE NE", "postcode": "87112"}}},
{"geometry": {"type": "Point", "coordinates": [-106.5170487153, 35.09971437]}, "type": "Feature", "properties": {"collection_times": [{"days": "Mon-Sat", "time": "5:00pm"}, {"days": "Sun", "time": "Closed"}], "id": "8711200060", "name": "USPS COLLECTION BOX - BLUE BOX", "address": {"city": "ALBUQUERQUE", "state": "NM", "street": "11600 HAINES AVE NE", "postcode": "87112"}}},
{"geometry": {"type": "Point", "coordinates": [-106.5507011505, 35.1028797215]}, "type": "Feature", "properties": {"collection_times": [{"days": "Mon-Fri", "time": "2:45pm"}, {"days": "Sat", "time": "3:30pm"}, {"days": "Sun", "time": "Closed"}], "id": "8711200061", "name": "USPS COLLECTION BOX - BLUE BOX", "address": {"city": "ALBUQUERQUE", "state": "NM", "street": "1900 WYOMING BLVD NE", "postcode": "87112"}}},
{"geometry": {"type": "Point", "coordinates": [-106.6155580475, 35.1714341368]}, "type": "Feature", "properties": {"collection_times": [{"days": "Mon-Fri", "time": "1:30pm"}, {"days": "Sat-Sun", "time": "Closed"}], "id": "8711300005", "name": "USPS COLLECTION BOX - BLUE BOX", "address": {"city": "ALBUQUERQUE", "state": "NM", "street": "8019 EDITH BLVD NE", "postcode": "87113"}}},
{"geometry": {"type": "Point", "coordinates": [-106.5864679148, 35.1907546453]}, "type": "Feature", "properties": {"collection_times": [{"days": "Mon-Fri", "time": "2:00pm"}, {"days": "Sat-Sun", "time": "Closed"}], "id": "8711300010", "name": "USPS COLLECTION BOX - BLUE BOX", "address": {"city": "ALBUQUERQUE", "state": "NM", "street": "9201 SAN MATEO BLVD NE", "postcode": "87113"}}},
{"geometry": {"type": "Point", "coordinates": [-106.645616847, 35.2054915331]}, "type": "Feature", "properties": {"collection_times": [{"days": "Mon-Sat", "time": "3:45pm"}, {"days": "Sun", "time": "Closed"}], "id": "8711400000", "name": "USPS COLLECTION BOX - BLUE BOX", "address": {"city": "ALBUQUERQUE", "state": "NM", "street": "10701 CORRALES BLVD NW", "postcode": "87114"}}},
{"geometry": {"type": "Point", "coordinates": [-106.6786842979, 35.1977175417]}, "type": "Feature", "properties": {"collection_times": [{"days": "Mon-Fri", "time": "4:30pm"}, {"days": "Sat-Sun", "time": "Closed"}], "id": "8711400002", "name": "USPS COLLECTION BOX - BLUE BOX", "address": {"city": "ALBUQUERQUE", "state": "NM", "street": "4611 GREENE ST NW", "postcode": "87114"}}},
{"geometry": {"type": "Point", "coordinates": [-106.645616847, 35.2054915331]}, "type": "Feature", "properties": {"collection_times": [{"days": "Mon-Sat", "time": "3:45pm"}, {"days": "Sun", "time": "Closed"}], "id": "8711400003", "name": "USPS COLLECTION BOX - BLUE BOX", "address": {"city": "ALBUQUERQUE", "state": "NM", "street": "10701 CORRALES BLVD NW", "postcode": "87114"}}},
{"geometry": {"type": "Point", "coordinates": [-106.6498863449, 35.2000243117]}, "type": "Feature", "properties": {"collection_times": [{"days": "Mon-Sat", "time": "3:30pm"}, {"days": "Sun", "time": "Closed"}], "id": "8711400004", "name": "USPS COLLECTION BOX - BLUE BOX", "address": {"city": "ALBUQUERQUE", "state": "NM", "street": "10131 COORS BLVD NW", "postcode": "87114"}}},
{"geometry": {"type": "Point", "coordinates": [-106.6521296305, 35.2084846924]}, "type": "Feature", "properties": {"collection_times": [{"days": "Mon-Fri", "time": "3:45pm"}, {"days": "Sat", "time": "4:00pm"}, {"days": "Sun", "time": "Closed"}], "id": "8711400021", "name": "USPS COLLECTION BOX - BLUE BOX", "address": {"city": "ALBUQUERQUE", "state": "NM", "street": "3615 HIGHWAY 528 NW", "postcode": "87114"}}},
{"geometry": {"type": "Point", "coordinates": [-106.6803226961, 35.1873193324]}, "type": "Feature", "properties": {"collection_times": [{"days": "Mon-Sat", "time": "5:00pm"}, {"days": "Sun", "time": "Closed"}], "id": "8711400023", "name": "USPS COLLECTION BOX - BLUE BOX", "address": {"city": "ALBUQUERQUE", "state": "NM", "street": "4600 PARADISE BLVD NW", "postcode": "87114"}}},
{"geometry": {"type": "Point", "coordinates": [-106.6737863782, 35.1838557626]}, "type": "Feature", "properties": {"collection_times": [{"days": "Mon-Sat", "time": "5:00pm"}, {"days": "Sun", "time": "Closed"}], "id": "8711400024", "name": "USPS COLLECTION BOX - BLUE BOX", "address": {"city": "ALBUQUERQUE", "state": "NM", "street": "4600 PARADISE BLVD NW", "postcode": "87114"}}},
{"geometry": {"type": "Point", "coordinates": [-106.6803226961, 35.1873193324]}, "type": "Feature", "properties": {"collection_times": [{"days": "Mon-Fri", "time": "6:00pm"}, {"days": "Sat", "time": "5:00pm"}, {"days": "Sun", "time": "Closed"}], "id": "8711400029", "name": "USPS COLLECTION BOX - PO LOBBY", "address": {"city": "ALBUQUERQUE", "state": "NM", "street": "4600 PARADISE BLVD NW", "postcode": "87114"}}},
{"geometry": {"type": "Point", "coordinates": [-106.620709845, 35.1854963927]}, "type": "Feature", "properties": {"collection_times": [{"days": "Mon-Fri", "time": "5:00pm"}, {"days": "Sat-Sun", "time": "Closed"}], "id": "8711400030", "name": "USPS COLLECTION BOX - PO LOBBY", "address": {"city": "ALBUQUERQUE", "state": "NM", "street": "9132 4TH ST NW", "postcode": "87114"}}},
{"geometry": {"type": "Point", "coordinates": [-106.6803226961, 35.1873193324]}, "type": "Feature", "properties": {"collection_times": [{"days": "Mon-Fri", "time": "6:00pm"}, {"days": "Sat", "time": "5:00pm"}, {"days": "Sun", "time": "Closed"}], "id": "8711400035", "name": "USPS COLLECTION BOX - PO LOBBY", "address": {"city": "ALBUQUERQUE", "state": "NM", "street": "4600 PARADISE BLVD NW", "postcode": "87114"}}},
{"geometry": {"type": "Point", "coordinates": [-106.6640437491, 35.1849839472]}, "type": "Feature", "properties": {"collection_times": [{"days": "Mon-Sat", "time": "3:15pm"}, {"days": "Sun", "time": "Closed"}], "id": "8711400037", "name": "USPS COLLECTION BOX - BLUE BOX", "address": {"city": "ALBUQUERQUE", "state": "NM", "street": "9371 COORS BLVD NW", "postcode": "87114"}}},
{"geometry": {"type": "Point", "coordinates": [-106.6803226961, 35.1873193324]}, "type": "Feature", "properties": {"collection_times": [{"days": "Mon-Fri", "time": "6:00pm"}, {"days": "Sat", "time": "5:00pm"}, {"days": "Sun", "time": "Closed"}], "id": "8711400042", "name": "USPS COLLECTION BOX - APC", "address": {"city": "ALBUQUERQUE", "state": "NM", "street": "4600 PARADISE BLVD NW", "postcode": "87114"}}},
{"geometry": {"type": "Point", "coordinates": [-106.6803226961, 35.1873193324]}, "type": "Feature", "properties": {"collection_times": [{"days": "Mon-Fri", "time": "6:00pm"}, {"days": "Sat", "time": "5:00pm"}, {"days": "Sun", "time": "Closed"}], "id": "8711400044", "name": "USPS COLLECTION BOX - PO LOBBY", "address": {"city": "ALBUQUERQUE", "state": "NM", "street": "4600 PARADISE BLVD NW", "postcode": "87114"}}},
{"geometry": {"type": "Point", "coordinates": [-106.471321443, 34.9905190226]}, "type": "Feature", "properties": {"collection_times": [{"days": "Mon-Fri", "time": "3:45pm"}, {"days": "Sat-Sun", "time": "Closed"}], "id": "8711500002", "name": "USPS COLLECTION BOX - BLUE BOX", "address": {"city": "ALBUQUERQUE", "state": "NM", "street": "4500 BIGGS AVE SE", "postcode": "87115"}}},
{"geometry": {"type": "Point", "coordinates": [-106.55748988, 35.0580981792]}, "type": "Feature", "properties": {"collection_times": [{"days": "Mon-Sat", "time": "11:15am"}, {"days": "Sun", "time": "Closed"}], "id": "8711500007", "name": "USPS COLLECTION BOX - BLUE BOX", "address": {"city": "ALBUQUERQUE", "state": "NM", "street": "8001 GIBSON SE", "postcode": "87115"}}},
{"geometry": {"type": "Point", "coordinates": [-106.5539004535, 35.0566255689]}, "type": "Feature", "properties": {"collection_times": [{"days": "Mon-Sat", "time": "5:00pm"}, {"days": "Sun", "time": "Closed"}], "id": "8711500012", "name": "USPS COLLECTION BOX - BLUE BOX", "address": {"city": "ALBUQUERQUE", "state": "NM", "street": "1400 1ST ST SE", "postcode": "87115"}}},
{"geometry": {"type": "Point", "coordinates": [-106.499743544, 34.9249379436]}, "type": "Feature", "properties": {"collection_times": [{"days": "Mon-Fri", "time": "3:00pm"}, {"days": "Sat-Sun", "time": "Closed"}], "id": "8711500019", "name": "USPS COLLECTION BOX - BLUE BOX", "address": {"city": "ALBUQUERQUE", "state": "NM", "street": "DEPT OF ENERGY SE", "postcode": "87115"}}},
{"geometry": {"type": "Point", "coordinates": [-106.5539004535, 35.0566255689]}, "type": "Feature", "properties": {"collection_times": [{"days": "Mon-Sat", "time": "5:00pm"}, {"days": "Sun", "time": "Closed"}], "id": "8711500020", "name": "USPS COLLECTION BOX - BLUE BOX", "address": {"city": "ALBUQUERQUE", "state": "NM", "street": "1400 1ST ST SE", "postcode": "87115"}}},
{"geometry": {"type": "Point", "coordinates": [-106.5724071691, 35.0503164209]}, "type": "Feature", "properties": {"collection_times": [{"days": "Mon-Fri", "time": "11:00am"}, {"days": "Sat-Sun", "time": "Closed"}], "id": "8711500022", "name": "USPS COLLECTION BOX - BLUE BOX", "address": {"city": "ALBUQUERQUE", "state": "NM", "street": "2251 AIR GUARD RD", "postcode": "87115"}}},
{"geometry": {"type": "Point", "coordinates": [-106.5539004535, 35.0566255689]}, "type": "Feature", "properties": {"collection_times": [{"days": "Mon-Sat", "time": "5:00pm"}, {"days": "Sun", "time": "Closed"}], "id": "8711500023", "name": "USPS COLLECTION BOX - BLUE BOX", "address": {"city": "ALBUQUERQUE", "state": "NM", "street": "1400 1ST ST SE", "postcode": "87115"}}},
{"geometry": {"type": "Point", "coordinates": [-106.471321443, 34.990519023]}, "type": "Feature", "properties": {"collection_times": [{"days": "Mon-Fri", "time": "11:30am"}, {"days": "Sat-Sun", "time": "Closed"}], "id": "8711500024", "name": "USPS COLLECTION BOX - BLUE BOX", "address": {"city": "ALBUQUERQUE", "state": "NM", "street": "4500 BIGGS AVE SE", "postcode": "87115"}}},
{"geometry": {"type": "Point", "coordinates": [-106.6286035936, 35.046665762]}, "type": "Feature", "properties": {"collection_times": [{"days": "Mon-Sat", "time": "5:00pm"}, {"days": "Sun", "time": "Closed"}], "id": "8711900002", "name": "USPS COLLECTION BOX - BLUE BOX", "address": {"city": "ALBUQUERQUE", "state": "NM", "street": "2100 GEORGE SE", "postcode": "87119"}}},
{"geometry": {"type": "Point", "coordinates": [-106.6286035936, 35.046665762]}, "type": "Feature", "properties": {"collection_times": [{"days": "Mon-Sat", "time": "5:00pm"}, {"days": "Sun", "time": "Closed"}], "id": "8711900003", "name": "USPS COLLECTION BOX - BLUE BOX", "address": {"city": "ALBUQUERQUE", "state": "NM", "street": "2100 GEORGE SE", "postcode": "87119"}}},
{"geometry": {"type": "Point", "coordinates": [-106.6286035936, 35.046665762]}, "type": "Feature", "properties": {"collection_times": [{"days": "Mon-Sat", "time": "5:00pm"}, {"days": "Sun", "time": "Closed"}], "id": "8711900005", "name": "USPS COLLECTION BOX - BLUE BOX", "address": {"city": "ALBUQUERQUE", "state": "NM", "street": "2100 GEORGE SE", "postcode": "87119"}}},
{"geometry": {"type": "Point", "coordinates": [-106.6286035936, 35.046665762]}, "type": "Feature", "properties": {"collection_times": [{"days": "Mon-Fri", "time": "6:00pm"}, {"days": "Sat", "time": "5:00pm"}, {"days": "Sun", "time": "Closed"}], "id": "8711900006", "name": "USPS COLLECTION BOX - PO LOBBY", "address": {"city": "ALBUQUERQUE", "state": "NM", "street": "2100 GEORGE SE", "postcode": "87119"}}},
{"geometry": {"type": "Point", "coordinates": [-106.6804056613, 35.1577843756]}, "type": "Feature", "properties": {"collection_times": [{"days": "Mon-Fri", "time": "1:45pm"}, {"days": "Sat", "time": "2:15pm"}, {"days": "Sun", "time": "Closed"}], "id": "8712000004", "name": "USPS COLLECTION BOX - BLUE BOX", "address": {"city": "ALBUQUERQUE", "state": "NM", "street": "6200 COORS BLVD NW", "postcode": "87120"}}},
{"geometry": {"type": "Point", "coordinates": [-106.7017836118, 35.1199298757]}, "type": "Feature", "properties": {"collection_times": [{"days": "Mon-Fri", "time": "2:50pm"}, {"days": "Sat", "time": "2:45pm"}, {"days": "Sun", "time": "Closed"}], "id": "8712000005", "name": "USPS COLLECTION BOX - BLUE BOX", "address": {"city": "ALBUQUERQUE", "state": "NM", "street": "3301 COORS BLVD NW", "postcode": "87120"}}},
{"geometry": {"type": "Point", "coordinates": [-106.6946506951, 35.1526124993]}, "type": "Feature", "properties": {"collection_times": [{"days": "Mon-Fri", "time": "1:45pm"}, {"days": "Sat", "time": "2:00pm"}, {"days": "Sun", "time": "Closed"}], "id": "8712000010", "name": "USPS COLLECTION BOX - BLUE BOX", "address": {"city": "ALBUQUERQUE", "state": "NM", "street": "4801 MONTANO RD NW", "postcode": "87120"}}},
{"geometry": {"type": "Point", "coordinates": [-106.7035560102, 35.121343345]}, "type": "Feature", "properties": {"collection_times": [{"days": "Mon-Sat", "time": "2:30pm"}, {"days": "Sun", "time": "Closed"}], "id": "8712000011", "name": "USPS COLLECTION BOX - BLUE BOX", "address": {"city": "ALBUQUERQUE", "state": "NM", "street": "5300 SEQUOIA RD NW", "postcode": "87120"}}},
{"geometry": {"type": "Point", "coordinates": [-106.6804056613, 35.1577843756]}, "type": "Feature", "properties": {"collection_times": [{"days": "Mon-Fri", "time": "1:45pm"}, {"days": "Sat", "time": "1:00pm"}, {"days": "Sun", "time": "Closed"}], "id": "8712000014", "name": "USPS COLLECTION BOX - BLUE BOX", "address": {"city": "ALBUQUERQUE", "state": "NM", "street": "6200 COORS BLVD NW", "postcode": "87120"}}},
{"geometry": {"type": "Point", "coordinates": [-106.6878557788, 35.1789558125]}, "type": "Feature", "properties": {"collection_times": [{"days": "Mon-Fri", "time": "2:35pm"}, {"days": "Sat", "time": "2:45pm"}, {"days": "Sun", "time": "Closed"}], "id": "8712000015", "name": "USPS COLLECTION BOX - BLUE BOX", "address": {"city": "ALBUQUERQUE", "state": "NM", "street": "8301 GOLF COURSE RD NW", "postcode": "87120"}}},
{"geometry": {"type": "Point", "coordinates": [-106.6731633081, 35.1730907671]}, "type": "Feature", "properties": {"collection_times": [{"days": "Mon-Fri", "time": "2:00pm"}, {"days": "Sat-Sun", "time": "Closed"}], "id": "8712000021", "name": "USPS COLLECTION BOX - BLUE BOX", "address": {"city": "ALBUQUERQUE", "state": "NM", "street": "6641 CAMINITO COORS NW", "postcode": "87120"}}},
{"geometry": {"type": "Point", "coordinates": [-106.7001396247, 35.0700951967]}, "type": "Feature", "properties": {"collection_times": [{"days": "Mon-Fri", "time": "2:30pm"}, {"days": "Sat-Sun", "time": "Closed"}], "id": "8712100003", "name": "USPS COLLECTION BOX - BLUE BOX", "address": {"city": "ALBUQUERQUE", "state": "NM", "street": "921 OLD COORS DR SW", "postcode": "87121"}}},
{"geometry": {"type": "Point", "coordinates": [-106.4961513637, 35.1885318654]}, "type": "Feature", "properties": {"collection_times": [{"days": "Mon-Fri", "time": "3:30pm"}, {"days": "Sat-Sun", "time": "Closed"}], "id": "8712200001", "name": "USPS COLLECTION BOX - BLUE BOX", "address": {"city": "ALBUQUERQUE", "state": "NM", "street": "9500 TRAMWAY BLVD NE", "postcode": "87122"}}},
{"geometry": {"type": "Point", "coordinates": [-106.497842995, 35.0670171375]}, "type": "Feature", "properties": {"collection_times": [{"days": "Mon-Sat", "time": "2:35pm"}, {"days": "Sun", "time": "Closed"}], "id": "8712300010", "name": "USPS COLLECTION BOX - BLUE BOX", "address": {"city": "ALBUQUERQUE", "state": "NM", "street": "200 TRAMWAY BLVD SE", "postcode": "87123"}}},
{"geometry": {"type": "Point", "coordinates": [-106.5017658442, 35.0862689281]}, "type": "Feature", "properties": {"collection_times": [{"days": "Mon-Fri", "time": "5:30pm"}, {"days": "Sat", "time": "5:00pm"}, {"days": "Sun", "time": "Closed"}], "id": "8712300017", "name": "USPS COLLECTION BOX - BLUE BOX", "address": {"city": "ALBUQUERQUE", "state": "NM", "street": "13101 LOMAS BLVD NE", "postcode": "87123"}}},
{"geometry": {"type": "Point", "coordinates": [-106.5017658442, 35.0862689281]}, "type": "Feature", "properties": {"collection_times": [{"days": "Mon-Fri", "time": "5:30pm"}, {"days": "Sat", "time": "3:30pm"}, {"days": "Sun", "time": "Closed"}], "id": "8712300019", "name": "USPS COLLECTION BOX - PO LOBBY", "address": {"city": "ALBUQUERQUE", "state": "NM", "street": "13101 LOMAS BLVD NE", "postcode": "87123"}}},
{"geometry": {"type": "Point", "coordinates": [-106.5017658442, 35.0862689281]}, "type": "Feature", "properties": {"collection_times": [{"days": "Mon-Fri", "time": "5:30pm"}, {"days": "Sat", "time": "3:30pm"}, {"days": "Sun", "time": "Closed"}], "id": "8712300020", "name": "USPS COLLECTION BOX - PO LOBBY", "address": {"city": "ALBUQUERQUE", "state": "NM", "street": "13101 LOMAS BLVD NE", "postcode": "87123"}}},
{"geometry": {"type": "Point", "coordinates": [-106.5017658442, 35.0862689281]}, "type": "Feature", "properties": {"collection_times": [{"days": "Mon-Fri", "time": "5:30pm"}, {"days": "Sat", "time": "3:30pm"}, {"days": "Sun", "time": "Closed"}], "id": "8712300021", "name": "USPS COLLECTION BOX - PO LOBBY", "address": {"city": "ALBUQUERQUE", "state": "NM", "street": "13101 LOMAS BLVD NE", "postcode": "87123"}}},
{"geometry": {"type": "Point", "coordinates": [-106.6544170777, 35.2353711256]}, "type": "Feature", "properties": {"collection_times": [{"days": "Mon-Fri", "time": "4:00pm"}, {"days": "Sat-Sun", "time": "Closed"}], "id": "8712400001", "name": "USPS COLLECTION BOX - BLUE BOX", "address": {"city": "RIO RANCHO", "state": "NM", "street": "4111 BARBARA LOOP SE", "postcode": "87124"}}},
{"geometry": {"type": "Point", "coordinates": [-106.7461488679, 35.2462229001]}, "type": "Feature", "properties": {"collection_times": [{"days": "Mon-Sat", "time": "9:30am"}, {"days": "Sun", "time": "Closed"}], "id": "8712400003", "name": "USPS COLLECTION BOX - BLUE BOX", "address": {"city": "RIO RANCHO", "state": "NM", "street": "2430 AGUA FRIA & SIERRA BLANCA NW", "postcode": "87124"}}},
{"geometry": {"type": "Point", "coordinates": [-106.6859279921, 35.2479726554]}, "type": "Feature", "properties": {"collection_times": [{"days": "Mon-Fri", "time": "1:15pm"}, {"days": "Sat", "time": "2:00pm"}, {"days": "Sun", "time": "Closed"}], "id": "8712400009", "name": "USPS COLLECTION BOX - BLUE BOX", "address": {"city": "RIO RANCHO", "state": "NM", "street": "4101 MEADOWLARK NW", "postcode": "87124"}}},
{"geometry": {"type": "Point", "coordinates": [-106.6036752301, 35.2872368554]}, "type": "Feature", "properties": {"collection_times": [{"days": "Mon-Sat", "time": "2:15pm"}, {"days": "Sun", "time": "Closed"}], "id": "8712400011", "name": "USPS COLLECTION BOX - BLUE BOX", "address": {"city": "RIO RANCHO", "state": "NM", "street": "SALT RIVER CT & RIVERSIDE DR NE", "postcode": "87124"}}},
{"geometry": {"type": "Point", "coordinates": [-106.6961778951, 35.2416550036]}, "type": "Feature", "properties": {"collection_times": [{"days": "Mon-Fri", "time": "3:00pm"}, {"days": "Sat", "time": "4:00pm"}, {"days": "Sun", "time": "Closed"}], "id": "8712400013", "name": "USPS COLLECTION BOX - BLUE BOX", "address": {"city": "RIO RANCHO", "state": "NM", "street": "2003 SOUTHERN BLVD SE", "postcode": "87124"}}},
{"geometry": {"type": "Point", "coordinates": [-106.7461488679, 35.2462229001]}, "type": "Feature", "properties": {"collection_times": [{"days": "Mon-Sat", "time": "9:30am"}, {"days": "Sun", "time": "Closed"}], "id": "8712400016", "name": "USPS COLLECTION BOX - BLUE BOX", "address": {"city": "RIO RANCHO", "state": "NM", "street": "HWY 528 & WILLOW CRK", "postcode": "87124"}}},
{"geometry": {"type": "Point", "coordinates": [-106.6547045368, 35.2436352769]}, "type": "Feature", "properties": {"collection_times": [{"days": "Mon-Fri", "time": "1:15pm"}, {"days": "Sat", "time": "2:00pm"}, {"days": "Sun", "time": "Closed"}], "id": "8712400025", "name": "USPS COLLECTION BOX - BLUE BOX", "address": {"city": "RIO RANCHO", "state": "NM", "street": "4110 SABANA GRANDE AVE SE", "postcode": "87124"}}},
{"geometry": {"type": "Point", "coordinates": [-106.6530105395, 35.2405785109]}, "type": "Feature", "properties": {"collection_times": [{"days": "Mon-Sat", "time": "9:30am"}, {"days": "Sun", "time": "Closed"}], "id": "8712400026", "name": "USPS COLLECTION BOX - BLUE BOX", "address": {"city": "RIO RANCHO", "state": "NM", "street": "4200 MEADOWLARK LN SE", "postcode": "87124"}}},
{"geometry": {"type": "Point", "coordinates": [-106.6552798264, 35.2313840003]}, "type": "Feature", "properties": {"collection_times": [{"days": "Mon-Fri", "time": "4:00pm"}, {"days": "Sat-Sun", "time": "Closed"}], "id": "8712400029", "name": "USPS COLLECTION BOX - BLUE BOX", "address": {"city": "RIO RANCHO", "state": "NM", "street": "4100 SARA RD SE", "postcode": "87124"}}},
{"geometry": {"type": "Point", "coordinates": [-106.6597975273, 35.227638489]}, "type": "Feature", "properties": {"collection_times": [{"days": "Mon-Sat", "time": "4:20pm"}, {"days": "Sun", "time": "Closed"}], "id": "8712400052", "name": "USPS COLLECTION BOX - BLUE BOX", "address": {"city": "RIO RANCHO", "state": "NM", "street": "1741 RIO RANCHO DR SE", "postcode": "87124"}}},
{"geometry": {"type": "Point", "coordinates": [-106.6859279921, 35.2479701166]}, "type": "Feature", "properties": {"collection_times": [{"days": "Mon-Fri", "time": "3:30pm"}, {"days": "Sat", "time": "3:00pm"}, {"days": "Sun", "time": "Closed"}], "id": "8712400056", "name": "USPS COLLECTION BOX - BLUE BOX", "address": {"city": "RIO RANCHO", "state": "NM", "street": "7561 MACKENZIE DR NE", "postcode": "87124"}}},
{"geometry": {"type": "Point", "coordinates": [-106.7461488679, 35.2462229001]}, "type": "Feature", "properties": {"collection_times": [{"days": "Mon-Fri", "time": "2:00pm"}, {"days": "Sat-Sun", "time": "Closed"}], "id": "8712400058", "name": "USPS COLLECTION BOX - BLUE BOX", "address": {"city": "RIO RANCHO", "state": "NM", "street": "500 QUANTUM & LASER", "postcode": "87124"}}},
{"geometry": {"type": "Point", "coordinates": [-106.6668819163, 35.242421561]}, "type": "Feature", "properties": {"collection_times": [{"days": "Mon-Fri", "time": "6:00pm"}, {"days": "Sat", "time": "4:45pm"}, {"days": "Sun", "time": "Closed"}], "id": "8712400071", "name": "USPS COLLECTION BOX - PO LOBBY", "address": {"city": "RIO RANCHO", "state": "NM", "street": "900 PINETREE RD SE", "postcode": "87124"}}},
{"geometry": {"type": "Point", "coordinates": [-106.6668819163, 35.242421561]}, "type": "Feature", "properties": {"collection_times": [{"days": "Mon-Fri", "time": "5:30pm"}, {"days": "Sat", "time": "4:45pm"}, {"days": "Sun", "time": "Closed"}], "id": "8712400072", "name": "USPS COLLECTION BOX - BLUE BOX", "address": {"city": "RIO RANCHO", "state": "NM", "street": "900 PINETREE RD SE", "postcode": "87124"}}},
{"geometry": {"type": "Point", "coordinates": [-106.6668819163, 35.242421561]}, "type": "Feature", "properties": {"collection_times": [{"days": "Mon-Fri", "time": "6:00pm"}, {"days": "Sat", "time": "4:45pm"}, {"days": "Sun", "time": "Closed"}], "id": "8712400081", "name": "USPS COLLECTION BOX - APC", "address": {"city": "RIO RANCHO", "state": "NM", "street": "900 PINETREE RD SE", "postcode": "87124"}}},
{"geometry": {"type": "Point", "coordinates": [-106.6858477343, 35.3097372145]}, "type": "Feature", "properties": {"collection_times": [{"days": "Mon-Fri", "time": "5:15pm"}, {"days": "Sat-Sun", "time": "Closed"}], "id": "8714400001", "name": "USPS COLLECTION BOX - BLUE BOX", "address": {"city": "RIO RANCHO", "state": "NM", "street": "3200 CIVIC CENTER CIR NE", "postcode": "87144"}}},
{"geometry": {"type": "Point", "coordinates": [-106.6962334844, 35.2760732885]}, "type": "Feature", "properties": {"collection_times": [{"days": "Mon-Sat", "time": "3:00pm"}, {"days": "Sun", "time": "Closed"}], "id": "8714400003", "name": "USPS COLLECTION BOX - BLUE BOX", "address": {"city": "RIO RANCHO", "state": "NM", "street": "2020 AUTUMN SAGE AVE NE", "postcode": "87144"}}}
]}
