{"type": "FeatureCollection", "features": [
{"geometry": {"type": "Point", "coordinates": [-108.7424521333, 35.5271912948]}, "type": "Feature", "properties": {"collection_times": [{"days": "Mon-Sat", "time": "3:30pm"}, {"days": "Sun", "time": "Closed"}], "id": "8730100008", "name": "USPS COLLECTION BOX - BLUE BOX", "address": {"city": "GALLUP", "state": "NM", "street": "200 W COAL AVE", "postcode": "87301"}}},
{"geometry": {"type": "Point", "coordinates": [-108.7145396234, 35.5296086656]}, "type": "Feature", "properties": {"collection_times": [{"days": "Mon-Sat", "time": "3:30pm"}, {"days": "Sun", "time": "Closed"}], "id": "8730100013", "name": "USPS COLLECTION BOX - BLUE BOX", "address": {"city": "GALLUP", "state": "NM", "street": "1900 E HIGHWAY 66", "postcode": "87301"}}},
{"geometry": {"type": "Point", "coordinates": [-108.7261761731, 35.4313881276]}, "type": "Feature", "properties": {"collection_times": [{"days": "Mon-Sat", "time": "3:30pm"}, {"days": "Sun", "time": "Closed"}], "id": "8730100017", "name": "USPS COLLECTION BOX - BLUE BOX", "address": {"city": "GALLUP", "state": "NM", "street": "1300 W I-40 FRONTAGE RD", "postcode": "87301"}}},
{"geometry": {"type": "Point", "coordinates": [-108.7587099924, 35.534671127]}, "type": "Feature", "properties": {"collection_times": [{"days": "Mon-Sat", "time": "3:30pm"}, {"days": "Sun", "time": "Closed"}], "id": "8730100018", "name": "USPS COLLECTION BOX - BLUE BOX", "address": {"city": "GALLUP", "state": "NM", "street": "806 US HIGHWAY 491", "postcode": "87301"}}},
{"geometry": {"type": "Point", "coordinates": [-108.683068486, 35.529760601]}, "type": "Feature", "properties": {"collection_times": [{"days": "Mon-Sat", "time": "8:30am"}, {"days": "Sun", "time": "Closed"}], "id": "8730100023", "name": "USPS COLLECTION BOX - BLUE BOX", "address": {"city": "GALLUP", "state": "NM", "street": "3330 E HIGHWAY 66", "postcode": "87301"}}},
{"geometry": {"type": "Point", "coordinates": [-108.7510724242, 35.5235336535]}, "type": "Feature", "properties": {"collection_times": [{"days": "Mon-Fri", "time": "5:00pm"}, {"days": "Sat", "time": "4:00pm"}, {"days": "Sun", "time": "Closed"}], "id": "8730100027", "name": "USPS COLLECTION BOX - BLUE BOX", "address": {"city": "GALLUP", "state": "NM", "street": "950 W AZTEC AVE", "postcode": "87301"}}},
{"geometry": {"type": "Point", "coordinates": [-108.7510724242, 35.5235336535]}, "type": "Feature", "properties": {"collection_times": [{"days": "Mon-Fri", "time": "5:00pm"}, {"days": "Sat", "time": "4:00pm"}, {"days": "Sun", "time": "Closed"}], "id": "8730100028", "name": "USPS COLLECTION BOX - BLUE BOX", "address": {"city": "GALLUP", "state": "NM", "street": "950 W AZTEC AVE", "postcode": "87301"}}},
{"geometry": {"type": "Point", "coordinates": [-108.7510724242, 35.5235336535]}, "type": "Feature", "properties": {"collection_times": [{"days": "Mon-Fri", "time": "5:00pm"}, {"days": "Sat", "time": "4:00pm"}, {"days": "Sun", "time": "Closed"}], "id": "8730100029", "name": "USPS COLLECTION BOX - BLUE BOX", "address": {"city": "GALLUP", "state": "NM", "street": "950 W AZTEC AVE", "postcode": "87301"}}},
{"geometry": {"type": "Point", "coordinates": [-108.741204391, 35.5244550052]}, "type": "Feature", "properties": {"collection_times": [{"days": "Mon-Fri", "time": "5:00pm"}, {"days": "Sat", "time": "4:30pm"}, {"days": "Sun", "time": "Closed"}], "id": "8730100033", "name": "USPS COLLECTION BOX - BLUE BOX", "address": {"city": "GALLUP", "state": "NM", "street": "500 S SECOND ST", "postcode": "87301"}}},
{"geometry": {"type": "Point", "coordinates": [-108.7510724242, 35.5235336535]}, "type": "Feature", "properties": {"collection_times": [{"days": "Mon-Fri", "time": "5:00pm"}, {"days": "Sat", "time": "4:00pm"}, {"days": "Sun", "time": "Closed"}], "id": "8730100034", "name": "USPS COLLECTION BOX - BLUE BOX", "address": {"city": "GALLUP", "state": "NM", "street": "950 W AZTEC AVE", "postcode": "87301"}}},
{"geometry": {"type": "Point", "coordinates": [-108.7510724242, 35.5235336535]}, "type": "Feature", "properties": {"collection_times": [{"days": "Mon-Sat", "time": "4:00pm"}, {"days": "Sun", "time": "Closed"}], "id": "8730100035", "name": "USPS COLLECTION BOX - PO LOBBY", "address": {"city": "GALLUP", "state": "NM", "street": "950 W AZTEC AVE", "postcode": "87301"}}},
{"geometry": {"type": "Point", "coordinates": [-108.7510724242, 35.5235336535]}, "type": "Feature", "properties": {"collection_times": [{"days": "Mon-Sat", "time": "4:00pm"}, {"days": "Sun", "time": "Closed"}], "id": "8730100036", "name": "USPS COLLECTION BOX - PO LOBBY", "address": {"city": "GALLUP", "state": "NM", "street": "950 W AZTEC AVE", "postcode": "87301"}}},
{"geometry": {"type": "Point", "coordinates": [-108.7510724242, 35.5235336535]}, "type": "Feature", "properties": {"collection_times": [{"days": "Mon-Sat", "time": "4:00pm"}, {"days": "Sun", "time": "Closed"}], "id": "8730100038", "name": "USPS COLLECTION BOX - PO LOBBY", "address": {"city": "GALLUP", "state": "NM", "street": "950 W AZTEC AVE", "postcode": "87301"}}},
{"geometry": {"type": "Point", "coordinates": [-108.7510724242, 35.5235336535]}, "type": "Feature", "properties": {"collection_times": [{"days": "Mon-Sat", "time": "4:00pm"}, {"days": "Sun", "time": "Closed"}], "id": "8730100042", "name": "USPS COLLECTION BOX - PO LOBBY", "address": {"city": "GALLUP", "state": "NM", "street": "950 W AZTEC AVE", "postcode": "87301"}}},
{"geometry": {"type": "Point", "coordinates": [-108.7145396234, 35.5296086656]}, "type": "Feature", "properties": {"collection_times": [{"days": "Mon-Sat", "time": "3:30pm"}, {"days": "Sun", "time": "Closed"}], "id": "8730100044", "name": "USPS COLLECTION BOX - BLUE BOX", "address": {"city": "GALLUP", "state": "NM", "street": "1900 E HIGHWAY 66", "postcode": "87301"}}},
{"geometry": {"type": "Point", "coordinates": [-108.741204391, 35.5244550052]}, "type": "Feature", "properties": {"collection_times": [{"days": "Mon-Fri", "time": "5:00pm"}, {"days": "Sat", "time": "4:30pm"}, {"days": "Sun", "time": "Closed"}], "id": "8730100046", "name": "USPS COLLECTION BOX - BLUE BOX", "address": {"city": "GALLUP", "state": "NM", "street": "500 S SECOND ST", "postcode": "87301"}}},
{"geometry": {"type": "Point", "coordinates": [-108.6065276048, 35.5335510947]}, "type": "Feature", "properties": {"collection_times": [{"days": "Mon-Fri", "time": "3:15pm"}, {"days": "Sat", "time": "12:45pm"}, {"days": "Sun", "time": "Closed"}], "id": "8731100000", "name": "USPS COLLECTION BOX - BLUE BOX", "address": {"city": "CHURCH ROCK", "state": "NM", "street": "825 OUTLAW RD", "postcode": "87311"}}},
{"geometry": {"type": "Point", "coordinates": [-108.6065276048, 35.5335510947]}, "type": "Feature", "properties": {"collection_times": [{"days": "Mon-Fri", "time": "3:15pm"}, {"days": "Sat", "time": "12:45pm"}, {"days": "Sun", "time": "Closed"}], "id": "8731100001", "name": "USPS COLLECTION BOX - PO LOBBY", "address": {"city": "CHURCH ROCK", "state": "NM", "street": "825 OUTLAW RD", "postcode": "87311"}}},
{"geometry": {"type": "Point", "coordinates": [-108.3065451769, 35.4208569418]}, "type": "Feature", "properties": {"collection_times": [{"days": "Mon-Fri", "time": "2:30pm"}, {"days": "Sat", "time": "12:00pm"}, {"days": "Sun", "time": "Closed"}], "id": "8731200000", "name": "USPS COLLECTION BOX - BLUE BOX", "address": {"city": "CONTNENTAL DV", "state": "NM", "street": "40 WRANGLER RD", "postcode": "87312"}}},
{"geometry": {"type": "Point", "coordinates": [-108.3065451769, 35.4208569418]}, "type": "Feature", "properties": {"collection_times": [{"days": "Mon-Fri", "time": "2:30pm"}, {"days": "Sat", "time": "12:00pm"}, {"days": "Sun", "time": "Closed"}], "id": "8731200001", "name": "USPS COLLECTION BOX - PO LOBBY", "address": {"city": "CONTNENTAL DV", "state": "NM", "street": "40 WRANGLER RD", "postcode": "87312"}}},
{"geometry": {"type": "Point", "coordinates": [-107.9262244836, 35.8008760572]}, "type": "Feature", "properties": {"collection_times": [{"days": "Mon-Fri", "time": "1:45pm"}, {"days": "Sat", "time": "11:45am"}, {"days": "Sun", "time": "Closed"}], "id": "8731300001", "name": "USPS COLLECTION BOX - PO LOBBY", "address": {"city": "CROWN POINT", "state": "NM", "street": "1 MAIN RD", "postcode": "87313"}}},
{"geometry": {"type": "Point", "coordinates": [-107.9262244836, 35.8008760572]}, "type": "Feature", "properties": {"collection_times": [{"days": "Mon-Fri", "time": "1:45pm"}, {"days": "Sat", "time": "11:45am"}, {"days": "Sun", "time": "Closed"}], "id": "8731300002", "name": "USPS COLLECTION BOX - PO LOBBY", "address": {"city": "CROWN POINT", "state": "NM", "street": "1 MAIN RD", "postcode": "87313"}}},
{"geometry": {"type": "Point", "coordinates": [-107.9262244836, 35.8008760572]}, "type": "Feature", "properties": {"collection_times": [{"days": "Mon-Fri", "time": "1:45pm"}, {"days": "Sat", "time": "11:45am"}, {"days": "Sun", "time": "Closed"}], "id": "8731300003", "name": "USPS COLLECTION BOX - BLUE BOX", "address": {"city": "CROWN POINT", "state": "NM", "street": "1 MAIN RD", "postcode": "87313"}}},
{"geometry": {"type": "Point", "coordinates": [-108.7801972608, 34.766055818]}, "type": "Feature", "properties": {"collection_times": [{"days": "Mon-Sat", "time": "10:45am"}, {"days": "Sun", "time": "Closed"}], "id": "8731500001", "name": "USPS COLLECTION BOX - PO LOBBY", "address": {"city": "FENCE LAKE", "state": "NM", "street": "2119 STATE HWY 36", "postcode": "87315"}}},
{"geometry": {"type": "Point", "coordinates": [-108.54278, 35.470444]}, "type": "Feature", "properties": {"collection_times": [{"days": "Mon-Fri", "time": "2:00pm"}, {"days": "Sat", "time": "11:45am"}, {"days": "Sun", "time": "Closed"}], "id": "8731600000", "name": "USPS COLLECTION BOX - BLUE BOX", "address": {"city": "FORT WINGATE", "state": "NM", "street": "286B STATE HIGHWAY 400", "postcode": "87316"}}},
{"geometry": {"type": "Point", "coordinates": [-108.54278, 35.470444]}, "type": "Feature", "properties": {"collection_times": [{"days": "Mon-Fri", "time": "2:00pm"}, {"days": "Sat", "time": "11:45am"}, {"days": "Sun", "time": "Closed"}], "id": "8731600001", "name": "USPS COLLECTION BOX - PO LOBBY", "address": {"city": "FORT WINGATE", "state": "NM", "street": "286B STATE HIGHWAY 400", "postcode": "87316"}}},
{"geometry": {"type": "Point", "coordinates": [-108.4931130193, 35.132774362]}, "type": "Feature", "properties": {"collection_times": [{"days": "Mon-Fri", "time": "3:15pm"}, {"days": "Sat", "time": "11:00am"}, {"days": "Sun", "time": "Closed"}], "id": "8732100001", "name": "USPS COLLECTION BOX - PO LOBBY", "address": {"city": "RAMAH", "state": "NM", "street": "3347 BOND ST", "postcode": "87321"}}},
{"geometry": {"type": "Point", "coordinates": [-108.4931130193, 35.132774362]}, "type": "Feature", "properties": {"collection_times": [{"days": "Mon-Fri", "time": "3:15pm"}, {"days": "Sat", "time": "11:00am"}, {"days": "Sun", "time": "Closed"}], "id": "8732100003", "name": "USPS COLLECTION BOX - BLUE BOX", "address": {"city": "RAMAH", "state": "NM", "street": "3347 BOND ST", "postcode": "87321"}}},
{"geometry": {"type": "Point", "coordinates": [-108.7282689894, 35.5035696894]}, "type": "Feature", "properties": {"collection_times": [{"days": "Mon-Fri", "time": "3:00pm"}, {"days": "Sat", "time": "9:45am"}, {"days": "Sun", "time": "Closed"}], "id": "8732200000", "name": "USPS COLLECTION BOX - BLUE BOX", "address": {"city": "REHOBOTH", "state": "NM", "street": "21 REHOBOTH DR", "postcode": "87322"}}},
{"geometry": {"type": "Point", "coordinates": [-108.7282689894, 35.5035696894]}, "type": "Feature", "properties": {"collection_times": [{"days": "Mon-Fri", "time": "3:30pm"}, {"days": "Sat", "time": "9:45am"}, {"days": "Sun", "time": "Closed"}], "id": "8732200001", "name": "USPS COLLECTION BOX - PO LOBBY", "address": {"city": "REHOBOTH", "state": "NM", "street": "21 REHOBOTH DR", "postcode": "87322"}}},
{"geometry": {"type": "Point", "coordinates": [-107.6016418851, 35.5492294573]}, "type": "Feature", "properties": {"collection_times": [{"days": "Mon-Fri", "time": "2:00pm"}, {"days": "Sat", "time": "11:45am"}, {"days": "Sun", "time": "Closed"}], "id": "8732300000", "name": "USPS COLLECTION BOX - BLUE BOX", "address": {"city": "THOREAU", "state": "NM", "street": "3 PREWITT ST", "postcode": "87323"}}},
{"geometry": {"type": "Point", "coordinates": [-107.6016418851, 35.5492294573]}, "type": "Feature", "properties": {"collection_times": [{"days": "Mon-Fri", "time": "2:00pm"}, {"days": "Sat", "time": "11:45am"}, {"days": "Sun", "time": "Closed"}], "id": "8732300001", "name": "USPS COLLECTION BOX - PO LOBBY", "address": {"city": "THOREAU", "state": "NM", "street": "3 PREWITT ST", "postcode": "87323"}}},
{"geometry": {"type": "Point", "coordinates": [-107.6016418851, 35.5492294573]}, "type": "Feature", "properties": {"collection_times": [{"days": "Mon-Fri", "time": "2:00pm"}, {"days": "Sat", "time": "11:45am"}, {"days": "Sun", "time": "Closed"}], "id": "8732300002", "name": "USPS COLLECTION BOX - PO LOBBY", "address": {"city": "THOREAU", "state": "NM", "street": "3 PREWITT ST", "postcode": "87323"}}},
{"geometry": {"type": "Point", "coordinates": [-108.4636023157, 35.8307935272]}, "type": "Feature", "properties": {"collection_times": [{"days": "Mon-Fri", "time": "2:30pm"}, {"days": "Sat", "time": "12:00pm"}, {"days": "Sun", "time": "Closed"}], "id": "8732500002", "name": "USPS COLLECTION BOX - BLUE BOX", "address": {"city": "TOHATCHI", "state": "NM", "street": "1 SAINT MARYS RD", "postcode": "87325"}}},
{"geometry": {"type": "Point", "coordinates": [-108.4636023157, 35.8307935272]}, "type": "Feature", "properties": {"collection_times": [{"days": "Mon-Fri", "time": "2:30pm"}, {"days": "Sat", "time": "12:00pm"}, {"days": "Sun", "time": "Closed"}], "id": "8732500003", "name": "USPS COLLECTION BOX - PO LOBBY", "address": {"city": "TOHATCHI", "state": "NM", "street": "1 SAINT MARYS RD", "postcode": "87325"}}},
{"geometry": {"type": "Point", "coordinates": [-108.8526030254, 35.0686629307]}, "type": "Feature", "properties": {"collection_times": [{"days": "Mon-Fri", "time": "3:55pm"}, {"days": "Sat", "time": "12:15pm"}, {"days": "Sun", "time": "Closed"}], "id": "8732700000", "name": "USPS COLLECTION BOX - BLUE BOX", "address": {"city": "ZUNI", "state": "NM", "street": "1207 HIGHWAY 53", "postcode": "87327"}}},
{"geometry": {"type": "Point", "coordinates": [-108.8526030254, 35.0686629307]}, "type": "Feature", "properties": {"collection_times": [{"days": "Mon-Fri", "time": "3:55pm"}, {"days": "Sat", "time": "12:15pm"}, {"days": "Sun", "time": "Closed"}], "id": "8732700001", "name": "USPS COLLECTION BOX - PO LOBBY", "address": {"city": "ZUNI", "state": "NM", "street": "1207 HIGHWAY 53", "postcode": "87327"}}},
{"geometry": {"type": "Point", "coordinates": [-108.4372950604, 35.4784772053]}, "type": "Feature", "properties": {"collection_times": [{"days": "Mon-Fri", "time": "2:30pm"}, {"days": "Sat", "time": "12:00pm"}, {"days": "Sun", "time": "Closed"}], "id": "8734700000", "name": "USPS COLLECTION BOX - PO LOBBY", "address": {"city": "JAMESTOWN", "state": "NM", "street": "1 REFINERY RD", "postcode": "87347"}}}
]}
