{"type": "FeatureCollection", "features": [
{"geometry": {"type": "Point", "coordinates": [-108.176704, 36.74816]}, "type": "Feature", "properties": {"collection_times": [{"days": "Mon-Fri", "time": "4:30pm"}, {"days": "Sat", "time": "4:00pm"}, {"days": "Sun", "time": "Closed"}], "id": "8740100000", "name": "USPS COLLECTION BOX - BLUE BOX", "address": {"city": "FARMINGTON", "state": "NM", "street": "2301 E 20TH ST", "postcode": "87401"}}},
{"geometry": {"type": "Point", "coordinates": [-108.176704, 36.74816]}, "type": "Feature", "properties": {"collection_times": [{"days": "Mon-Fri", "time": "4:30pm"}, {"days": "Sat", "time": "4:00pm"}, {"days": "Sun", "time": "Closed"}], "id": "8740100001", "name": "USPS COLLECTION BOX - BLUE BOX", "address": {"city": "FARMINGTON", "state": "NM", "street": "2301 E 20TH ST", "postcode": "87401"}}},
{"geometry": {"type": "Point", "coordinates": [-108.176704, 36.74816]}, "type": "Feature", "properties": {"collection_times": [{"days": "Mon-Fri", "time": "4:30pm"}, {"days": "Sat", "time": "4:00pm"}, {"days": "Sun", "time": "Closed"}], "id": "8740100002", "name": "USPS COLLECTION BOX - BLUE BOX", "address": {"city": "FARMINGTON", "state": "NM", "street": "2301 E 20TH ST", "postcode": "87401"}}},
{"geometry": {"type": "Point", "coordinates": [-108.1914984683, 36.7391020934]}, "type": "Feature", "properties": {"collection_times": [{"days": "Mon-Fri", "time": "4:30pm"}, {"days": "Sat", "time": "4:00pm"}, {"days": "Sun", "time": "Closed"}], "id": "8740100003", "name": "USPS COLLECTION BOX - BLUE BOX", "address": {"city": "FARMINGTON", "state": "NM", "street": "2301 E 20TH ST", "postcode": "87401"}}},
{"geometry": {"type": "Point", "coordinates": [-108.1914984683, 36.7391020934]}, "type": "Feature", "properties": {"collection_times": [{"days": "Mon-Fri", "time": "4:30pm"}, {"days": "Sat", "time": "4:00pm"}, {"days": "Sun", "time": "Closed"}], "id": "8740100004", "name": "USPS COLLECTION BOX - BLUE BOX", "address": {"city": "FARMINGTON", "state": "NM", "street": "2301 E 20TH ST", "postcode": "87401"}}},
{"geometry": {"type": "Point", "coordinates": [-108.176704, 36.74816]}, "type": "Feature", "properties": {"collection_times": [{"days": "Mon-Fri", "time": "4:30pm"}, {"days": "Sat", "time": "4:00pm"}, {"days": "Sun", "time": "Closed"}], "id": "8740100005", "name": "USPS COLLECTION BOX - BLUE BOX", "address": {"city": "FARMINGTON", "state": "NM", "street": "2301 E 20TH ST", "postcode": "87401"}}},
{"geometry": {"type": "Point", "coordinates": [-108.176704, 36.74816]}, "type": "Feature", "properties": {"collection_times": [{"days": "Mon-Fri", "time": "4:30pm"}, {"days": "Sat", "time": "4:00pm"}, {"days": "Sun", "time": "Closed"}], "id": "8740100006", "name": "USPS COLLECTION BOX - BLUE BOX", "address": {"city": "FARMINGTON", "state": "NM", "street": "2301 E 20TH ST", "postcode": "87401"}}},
{"geometry": {"type": "Point", "coordinates": [-108.176704, 36.74816]}, "type": "Feature", "properties": {"collection_times": [{"days": "Mon-Fri", "time": "4:30pm"}, {"days": "Sat", "time": "4:00pm"}, {"days": "Sun", "time": "Closed"}], "id": "8740100007", "name": "USPS COLLECTION BOX - BLUE BOX", "address": {"city": "FARMINGTON", "state": "NM", "street": "2301 E 20TH ST", "postcode": "87401"}}},
{"geometry": {"type": "Point", "coordinates": [-108.19636, 36.75563]}, "type": "Feature", "properties": {"collection_times": [{"days": "Mon-Fri", "time": "2:00pm"}, {"days": "Sat", "time": "1:45pm"}, {"days": "Sun", "time": "Closed"}], "id": "8740100008", "name": "USPS COLLECTION BOX - BLUE BOX", "address": {"city": "FARMINGTON", "state": "NM", "street": "710 E 30TH ST", "postcode": "87401"}}},
{"geometry": {"type": "Point", "coordinates": [-108.2066776387, 36.7290021356]}, "type": "Feature", "properties": {"collection_times": [{"days": "Mon-Fri", "time": "2:15pm"}, {"days": "Sat", "time": "2:00pm"}, {"days": "Sun", "time": "Closed"}], "id": "8740100010", "name": "USPS COLLECTION BOX - BLUE BOX", "address": {"city": "FARMINGTON", "state": "NM", "street": "203 W MAIN ST", "postcode": "87401"}}},
{"geometry": {"type": "Point", "coordinates": [-108.216419057, 36.7374147915]}, "type": "Feature", "properties": {"collection_times": [{"days": "Mon-Fri", "time": "2:00pm"}, {"days": "Sat-Sun", "time": "Closed"}], "id": "8740100011", "name": "USPS COLLECTION BOX - BLUE BOX", "address": {"city": "FARMINGTON", "state": "NM", "street": "850 MUNICIPAL DR", "postcode": "87401"}}},
{"geometry": {"type": "Point", "coordinates": [-108.1852330256, 36.7195201448]}, "type": "Feature", "properties": {"collection_times": [{"days": "Mon-Fri", "time": "2:25pm"}, {"days": "Sat", "time": "2:00pm"}, {"days": "Sun", "time": "Closed"}], "id": "8740100012", "name": "USPS COLLECTION BOX - BLUE BOX", "address": {"city": "FARMINGTON", "state": "NM", "street": "1800 E MURRAY DR", "postcode": "87401"}}},
{"geometry": {"type": "Point", "coordinates": [-108.2055828845, 36.7271398357]}, "type": "Feature", "properties": {"collection_times": [{"days": "Mon-Fri", "time": "2:15pm"}, {"days": "Sat-Sun", "time": "Closed"}], "id": "8740100021", "name": "USPS COLLECTION BOX - BLUE BOX", "address": {"city": "FARMINGTON", "state": "NM", "street": "101 W ANIMAS ST", "postcode": "87401"}}},
{"geometry": {"type": "Point", "coordinates": [-108.216419057, 36.7374147915]}, "type": "Feature", "properties": {"collection_times": [{"days": "Mon-Fri", "time": "2:00pm"}, {"days": "Sat-Sun", "time": "Closed"}], "id": "8740100041", "name": "USPS COLLECTION BOX - BLUE BOX", "address": {"city": "FARMINGTON", "state": "NM", "street": "850 MUNICIPAL DR", "postcode": "87401"}}},
{"geometry": {"type": "Point", "coordinates": [-108.176704, 36.74816]}, "type": "Feature", "properties": {"collection_times": [{"days": "Mon-Fri", "time": "5:00pm"}, {"days": "Sat", "time": "4:00pm"}, {"days": "Sun", "time": "Closed"}], "id": "8740100043", "name": "USPS COLLECTION BOX - PO LOBBY", "address": {"city": "FARMINGTON", "state": "NM", "street": "2301 E 20TH ST", "postcode": "87401"}}},
{"geometry": {"type": "Point", "coordinates": [-108.176704, 36.74816]}, "type": "Feature", "properties": {"collection_times": [{"days": "Mon-Fri", "time": "5:00pm"}, {"days": "Sat", "time": "4:00pm"}, {"days": "Sun", "time": "Closed"}], "id": "8740100044", "name": "USPS COLLECTION BOX - PO LOBBY", "address": {"city": "FARMINGTON", "state": "NM", "street": "2301 E 20TH ST", "postcode": "87401"}}},
{"geometry": {"type": "Point", "coordinates": [-108.1057403519, 36.7039712729]}, "type": "Feature", "properties": {"collection_times": [{"days": "Mon-Sat", "time": "11:30am"}, {"days": "Sun", "time": "Closed"}], "id": "8740100045", "name": "USPS COLLECTION BOX - BLUE BOX", "address": {"city": "FARMINGTON", "state": "NM", "street": "5699 HIGHWAY 64", "postcode": "87401"}}},
{"geometry": {"type": "Point", "coordinates": [-108.176704, 36.74816]}, "type": "Feature", "properties": {"collection_times": [{"days": "Mon-Fri", "time": "5:00pm"}, {"days": "Sat", "time": "4:00pm"}, {"days": "Sun", "time": "Closed"}], "id": "8740100052", "name": "USPS COLLECTION BOX - APC", "address": {"city": "FARMINGTON", "state": "NM", "street": "2301 E 20TH ST", "postcode": "87401"}}},
{"geometry": {"type": "Point", "coordinates": [-108.2081244522, 36.7303448753]}, "type": "Feature", "properties": {"collection_times": [{"days": "Mon-Fri", "time": "2:15pm"}, {"days": "Sat-Sun", "time": "Closed"}], "id": "8740100053", "name": "USPS COLLECTION BOX - BLUE BOX", "address": {"city": "FARMINGTON", "state": "NM", "street": "300 W ARRINGTON ST", "postcode": "87401"}}},
{"geometry": {"type": "Point", "coordinates": [-108.1593918491, 36.7497246677]}, "type": "Feature", "properties": {"collection_times": [{"days": "Mon-Fri", "time": "1:45pm"}, {"days": "Sat-Sun", "time": "Closed"}], "id": "8740200003", "name": "USPS COLLECTION BOX - BLUE BOX", "address": {"city": "FARMINGTON", "state": "NM", "street": "3501 E MAIN ST", "postcode": "87402"}}},
{"geometry": {"type": "Point", "coordinates": [-108.1523709123, 36.7647657371]}, "type": "Feature", "properties": {"collection_times": [{"days": "Mon-Sat", "time": "1:45pm"}, {"days": "Sun", "time": "Closed"}], "id": "8740200004", "name": "USPS COLLECTION BOX - BLUE BOX", "address": {"city": "FARMINGTON", "state": "NM", "street": "4601 E MAIN ST", "postcode": "87402"}}},
{"geometry": {"type": "Point", "coordinates": [-108.0205951279, 36.826708339]}, "type": "Feature", "properties": {"collection_times": [{"days": "Mon-Fri", "time": "3:00pm"}, {"days": "Sat-Sun", "time": "Closed"}], "id": "8741000007", "name": "USPS COLLECTION BOX - BLUE BOX", "address": {"city": "AZTEC", "state": "NM", "street": "100 S OLIVER DR", "postcode": "87410"}}},
{"geometry": {"type": "Point", "coordinates": [-107.9989825295, 36.8152354726]}, "type": "Feature", "properties": {"collection_times": [{"days": "Mon-Fri", "time": "4:00pm"}, {"days": "Sat", "time": "2:30pm"}, {"days": "Sun", "time": "Closed"}], "id": "8741000010", "name": "USPS COLLECTION BOX - BLUE BOX", "address": {"city": "AZTEC", "state": "NM", "street": "601 S RIO GRANDE AVE", "postcode": "87410"}}},
{"geometry": {"type": "Point", "coordinates": [-107.9989825295, 36.8152354726]}, "type": "Feature", "properties": {"collection_times": [{"days": "Mon-Fri", "time": "4:00pm"}, {"days": "Sat", "time": "2:30pm"}, {"days": "Sun", "time": "Closed"}], "id": "8741000011", "name": "USPS COLLECTION BOX - BLUE BOX", "address": {"city": "AZTEC", "state": "NM", "street": "601 S RIO GRANDE AVE", "postcode": "87410"}}},
{"geometry": {"type": "Point", "coordinates": [-107.9989825295, 36.8152354726]}, "type": "Feature", "properties": {"collection_times": [{"days": "Mon-Fri", "time": "4:00pm"}, {"days": "Sat", "time": "2:30pm"}, {"days": "Sun", "time": "Closed"}], "id": "8741000012", "name": "USPS COLLECTION BOX - BLUE BOX", "address": {"city": "AZTEC", "state": "NM", "street": "601 S RIO GRANDE AVE", "postcode": "87410"}}},
{"geometry": {"type": "Point", "coordinates": [-107.9989825295, 36.8152354726]}, "type": "Feature", "properties": {"collection_times": [{"days": "Mon-Fri", "time": "3:00pm"}, {"days": "Sat", "time": "2:30pm"}, {"days": "Sun", "time": "Closed"}], "id": "8741000013", "name": "USPS COLLECTION BOX - PO LOBBY", "address": {"city": "AZTEC", "state": "NM", "street": "601 S RIO GRANDE AVE", "postcode": "87410"}}},
{"geometry": {"type": "Point", "coordinates": [-107.9989825295, 36.8152354726]}, "type": "Feature", "properties": {"collection_times": [{"days": "Mon-Fri", "time": "3:00pm"}, {"days": "Sat", "time": "2:30pm"}, {"days": "Sun", "time": "Closed"}], "id": "8741000014", "name": "USPS COLLECTION BOX - PO LOBBY", "address": {"city": "AZTEC", "state": "NM", "street": "601 S RIO GRANDE AVE", "postcode": "87410"}}},
{"geometry": {"type": "Point", "coordinates": [-107.9989825295, 36.8152354726]}, "type": "Feature", "properties": {"collection_times": [{"days": "Mon-Fri", "time": "3:00pm"}, {"days": "Sat", "time": "2:30pm"}, {"days": "Sun", "time": "Closed"}], "id": "8741000015", "name": "USPS COLLECTION BOX - PO LOBBY", "address": {"city": "AZTEC", "state": "NM", "street": "601 S RIO GRANDE AVE", "postcode": "87410"}}},
{"geometry": {"type": "Point", "coordinates": [-107.9989825295, 36.8152354726]}, "type": "Feature", "properties": {"collection_times": [{"days": "Mon-Fri", "time": "3:00pm"}, {"days": "Sat", "time": "2:30pm"}, {"days": "Sun", "time": "Closed"}], "id": "8741000016", "name": "USPS COLLECTION BOX - PO LOBBY", "address": {"city": "AZTEC", "state": "NM", "street": "601 S RIO GRANDE AVE", "postcode": "87410"}}},
{"geometry": {"type": "Point", "coordinates": [-107.9989825295, 36.8152354726]}, "type": "Feature", "properties": {"collection_times": [{"days": "Mon-Fri", "time": "3:00pm"}, {"days": "Sat", "time": "2:30pm"}, {"days": "Sun", "time": "Closed"}], "id": "8741000017", "name": "USPS COLLECTION BOX - PO LOBBY", "address": {"city": "AZTEC", "state": "NM", "street": "601 S RIO GRANDE AVE", "postcode": "87410"}}},
{"geometry": {"type": "Point", "coordinates": [-107.9989825295, 36.8152354726]}, "type": "Feature", "properties": {"collection_times": [{"days": "Mon-Fri", "time": "3:00pm"}, {"days": "Sat", "time": "2:30pm"}, {"days": "Sun", "time": "Closed"}], "id": "8741000018", "name": "USPS COLLECTION BOX - PO LOBBY", "address": {"city": "AZTEC", "state": "NM", "street": "601 S RIO GRANDE AVE", "postcode": "87410"}}},
{"geometry": {"type": "Point", "coordinates": [-107.815298044, 36.7243771263]}, "type": "Feature", "properties": {"collection_times": [{"days": "Mon-Fri", "time": "3:30pm"}, {"days": "Sat", "time": "1:00pm"}, {"days": "Sun", "time": "Closed"}], "id": "8741200001", "name": "USPS COLLECTION BOX - PO LOBBY", "address": {"city": "BLANCO", "state": "NM", "street": "7367 US 64", "postcode": "87412"}}},
{"geometry": {"type": "Point", "coordinates": [-107.815298044, 36.7243771263]}, "type": "Feature", "properties": {"collection_times": [{"days": "Mon-Fri", "time": "3:30pm"}, {"days": "Sat", "time": "1:00pm"}, {"days": "Sun", "time": "Closed"}], "id": "8741200002", "name": "USPS COLLECTION BOX - BLUE BOX", "address": {"city": "BLANCO", "state": "NM", "street": "7367 US 64", "postcode": "87412"}}},
{"geometry": {"type": "Point", "coordinates": [-107.9915592095, 36.7112752633]}, "type": "Feature", "properties": {"collection_times": [{"days": "Mon-Fri", "time": "4:00pm"}, {"days": "Sat", "time": "2:00pm"}, {"days": "Sun", "time": "Closed"}], "id": "8741300000", "name": "USPS COLLECTION BOX - BLUE BOX", "address": {"city": "BLOOMFIELD", "state": "NM", "street": "1108 W BROADWAY AVE", "postcode": "87413"}}},
{"geometry": {"type": "Point", "coordinates": [-107.9915592095, 36.7112752633]}, "type": "Feature", "properties": {"collection_times": [{"days": "Mon-Fri", "time": "4:00pm"}, {"days": "Sat", "time": "2:00pm"}, {"days": "Sun", "time": "Closed"}], "id": "8741300001", "name": "USPS COLLECTION BOX - PO LOBBY", "address": {"city": "BLOOMFIELD", "state": "NM", "street": "1108 W BROADWAY AVE", "postcode": "87413"}}},
{"geometry": {"type": "Point", "coordinates": [-107.9915592095, 36.7112752633]}, "type": "Feature", "properties": {"collection_times": [{"days": "Mon-Fri", "time": "4:00pm"}, {"days": "Sat", "time": "2:00pm"}, {"days": "Sun", "time": "Closed"}], "id": "8741300003", "name": "USPS COLLECTION BOX - BLUE BOX", "address": {"city": "BLOOMFIELD", "state": "NM", "street": "1108 W BROADWAY AVE", "postcode": "87413"}}},
{"geometry": {"type": "Point", "coordinates": [-107.9915592095, 36.7112752633]}, "type": "Feature", "properties": {"collection_times": [{"days": "Mon-Fri", "time": "4:00pm"}, {"days": "Sat", "time": "2:00pm"}, {"days": "Sun", "time": "Closed"}], "id": "8741300004", "name": "USPS COLLECTION BOX - PO LOBBY", "address": {"city": "BLOOMFIELD", "state": "NM", "street": "1108 W BROADWAY AVE", "postcode": "87413"}}},
{"geometry": {"type": "Point", "coordinates": [-107.9915592095, 36.7112752633]}, "type": "Feature", "properties": {"collection_times": [{"days": "Mon-Fri", "time": "4:00pm"}, {"days": "Sat", "time": "2:00pm"}, {"days": "Sun", "time": "Closed"}], "id": "8741300005", "name": "USPS COLLECTION BOX - PO LOBBY", "address": {"city": "BLOOMFIELD", "state": "NM", "street": "1108 W BROADWAY AVE", "postcode": "87413"}}},
{"geometry": {"type": "Point", "coordinates": [-107.9915592095, 36.7112752633]}, "type": "Feature", "properties": {"collection_times": [{"days": "Mon-Fri", "time": "4:00pm"}, {"days": "Sat", "time": "2:00pm"}, {"days": "Sun", "time": "Closed"}], "id": "8741300006", "name": "USPS COLLECTION BOX - PO LOBBY", "address": {"city": "BLOOMFIELD", "state": "NM", "street": "1108 W BROADWAY AVE", "postcode": "87413"}}},
{"geometry": {"type": "Point", "coordinates": [-108.0907695075, 36.7988301325]}, "type": "Feature", "properties": {"collection_times": [{"days": "Mon-Fri", "time": "3:30pm"}, {"days": "Sat", "time": "11:00am"}, {"days": "Sun", "time": "Closed"}], "id": "8741500000", "name": "USPS COLLECTION BOX - BLUE BOX", "address": {"city": "FLORA VISTA", "state": "NM", "street": "810 NM 516", "postcode": "87415"}}},
{"geometry": {"type": "Point", "coordinates": [-108.0907695075, 36.7988301325]}, "type": "Feature", "properties": {"collection_times": [{"days": "Mon-Fri", "time": "3:30pm"}, {"days": "Sat", "time": "11:00am"}, {"days": "Sun", "time": "Closed"}], "id": "8741500001", "name": "USPS COLLECTION BOX - PO LOBBY", "address": {"city": "FLORA VISTA", "state": "NM", "street": "810 NM 516", "postcode": "87415"}}},
{"geometry": {"type": "Point", "coordinates": [-108.3957220054, 36.7402129009]}, "type": "Feature", "properties": {"collection_times": [{"days": "Mon-Fri", "time": "3:30pm"}, {"days": "Sat", "time": "11:00am"}, {"days": "Sun", "time": "Closed"}], "id": "8741600001", "name": "USPS COLLECTION BOX - PO LOBBY", "address": {"city": "FRUITLAND", "state": "NM", "street": "97 ROAD 6675", "postcode": "87416"}}},
{"geometry": {"type": "Point", "coordinates": [-108.3957220054, 36.7402129009]}, "type": "Feature", "properties": {"collection_times": [{"days": "Mon-Fri", "time": "3:30pm"}, {"days": "Sat", "time": "11:00am"}, {"days": "Sun", "time": "Closed"}], "id": "8741600002", "name": "USPS COLLECTION BOX - BLUE BOX", "address": {"city": "FRUITLAND", "state": "NM", "street": "97 ROAD 6675", "postcode": "87416"}}},
{"geometry": {"type": "Point", "coordinates": [-108.3957220054, 36.7402129009]}, "type": "Feature", "properties": {"collection_times": [{"days": "Mon-Fri", "time": "3:30pm"}, {"days": "Sat", "time": "11:00am"}, {"days": "Sun", "time": "Closed"}], "id": "8741600003", "name": "USPS COLLECTION BOX - PO LOBBY", "address": {"city": "FRUITLAND", "state": "NM", "street": "97 ROAD 6675", "postcode": "87416"}}},
{"geometry": {"type": "Point", "coordinates": [-108.3742614634, 36.7473909482]}, "type": "Feature", "properties": {"collection_times": [{"days": "Mon-Fri", "time": "3:45pm"}, {"days": "Sat", "time": "1:00pm"}, {"days": "Sun", "time": "Closed"}], "id": "8741700000", "name": "USPS COLLECTION BOX - BLUE BOX", "address": {"city": "KIRTLAND", "state": "NM", "street": "4211 HIGHWAY 64", "postcode": "87417"}}},
{"geometry": {"type": "Point", "coordinates": [-108.3742614634, 36.7473909482]}, "type": "Feature", "properties": {"collection_times": [{"days": "Mon-Fri", "time": "3:45pm"}, {"days": "Sat", "time": "1:00pm"}, {"days": "Sun", "time": "Closed"}], "id": "8741700004", "name": "USPS COLLECTION BOX - PO LOBBY", "address": {"city": "KIRTLAND", "state": "NM", "street": "4211 HIGHWAY 64", "postcode": "87417"}}},
{"geometry": {"type": "Point", "coordinates": [-108.3742614634, 36.7473909482]}, "type": "Feature", "properties": {"collection_times": [{"days": "Mon-Fri", "time": "3:45pm"}, {"days": "Sat", "time": "1:00pm"}, {"days": "Sun", "time": "Closed"}], "id": "8741700005", "name": "USPS COLLECTION BOX - PO LOBBY", "address": {"city": "KIRTLAND", "state": "NM", "street": "4211 HIGHWAY 64", "postcode": "87417"}}},
{"geometry": {"type": "Point", "coordinates": [-108.1892771064, 36.9043036823]}, "type": "Feature", "properties": {"collection_times": [{"days": "Mon-Sat", "time": "9:45am"}, {"days": "Sun", "time": "Closed"}], "id": "8741800000", "name": "USPS COLLECTION BOX - BLUE BOX", "address": {"city": "LA PLATA", "state": "NM", "street": "1239 HIGHWAY 170", "postcode": "87418"}}},
{"geometry": {"type": "Point", "coordinates": [-108.1892771064, 36.9043036823]}, "type": "Feature", "properties": {"collection_times": [{"days": "Mon-Sat", "time": "9:45am"}, {"days": "Sun", "time": "Closed"}], "id": "8741800001", "name": "USPS COLLECTION BOX - PO LOBBY", "address": {"city": "LA PLATA", "state": "NM", "street": "1239 HIGHWAY 170", "postcode": "87418"}}},
{"geometry": {"type": "Point", "coordinates": [-107.6735193989, 36.8490204182]}, "type": "Feature", "properties": {"collection_times": [{"days": "Mon-Fri", "time": "1:15pm"}, {"days": "Sat", "time": "12:00pm"}, {"days": "Sun", "time": "Closed"}], "id": "8741900000", "name": "USPS COLLECTION BOX - BLUE BOX", "address": {"city": "NAVAJO DAM", "state": "NM", "street": "1787 HIGHWAY 173", "postcode": "87419"}}},
{"geometry": {"type": "Point", "coordinates": [-107.6735193989, 36.8490204182]}, "type": "Feature", "properties": {"collection_times": [{"days": "Mon-Fri", "time": "1:30pm"}, {"days": "Sat", "time": "12:00pm"}, {"days": "Sun", "time": "Closed"}], "id": "8741900002", "name": "USPS COLLECTION BOX - PO LOBBY", "address": {"city": "NAVAJO DAM", "state": "NM", "street": "1787 HIGHWAY 173", "postcode": "87419"}}},
{"geometry": {"type": "Point", "coordinates": [-108.846976998, 36.5007774869]}, "type": "Feature", "properties": {"collection_times": [{"days": "Mon-Fri", "time": "2:30pm"}, {"days": "Sat", "time": "12:30pm"}, {"days": "Sun", "time": "Closed"}], "id": "8742000000", "name": "USPS COLLECTION BOX - BLUE BOX", "address": {"city": "SHIPROCK", "state": "NM", "street": "91 HIGHWAY 491 S", "postcode": "87420"}}},
{"geometry": {"type": "Point", "coordinates": [-108.846976998, 36.5007774869]}, "type": "Feature", "properties": {"collection_times": [{"days": "Mon-Fri", "time": "2:30pm"}, {"days": "Sat", "time": "12:30pm"}, {"days": "Sun", "time": "Closed"}], "id": "8742000003", "name": "USPS COLLECTION BOX - PO LOBBY", "address": {"city": "SHIPROCK", "state": "NM", "street": "91 HIGHWAY 491 S", "postcode": "87420"}}},
{"geometry": {"type": "Point", "coordinates": [-108.846976998, 36.5007774869]}, "type": "Feature", "properties": {"collection_times": [{"days": "Mon-Fri", "time": "2:30pm"}, {"days": "Sat", "time": "12:30pm"}, {"days": "Sun", "time": "Closed"}], "id": "8742000004", "name": "USPS COLLECTION BOX - BLUE BOX", "address": {"city": "SHIPROCK", "state": "NM", "street": "91 HIGHWAY 491 S", "postcode": "87420"}}},
{"geometry": {"type": "Point", "coordinates": [-108.4801368621, 36.7601444055]}, "type": "Feature", "properties": {"collection_times": [{"days": "Mon-Fri", "time": "3:00pm"}, {"days": "Sat", "time": "10:00am"}, {"days": "Sun", "time": "Closed"}], "id": "8742100000", "name": "USPS COLLECTION BOX - BLUE BOX", "address": {"city": "WATERFLOW", "state": "NM", "street": "3428 HIGHWAY 64", "postcode": "87421"}}},
{"geometry": {"type": "Point", "coordinates": [-108.4801368621, 36.7601444055]}, "type": "Feature", "properties": {"collection_times": [{"days": "Mon-Fri", "time": "3:00pm"}, {"days": "Sat", "time": "10:00am"}, {"days": "Sun", "time": "Closed"}], "id": "8742100001", "name": "USPS COLLECTION BOX - PO LOBBY", "address": {"city": "WATERFLOW", "state": "NM", "street": "3428 HIGHWAY 64", "postcode": "87421"}}}
]}
