{"type": "FeatureCollection", "features": [
{"geometry": {"type": "Point", "coordinates": [-105.9386274627, 35.6907238598]}, "type": "Feature", "properties": {"collection_times": [{"days": "Mon-Sat", "time": "5:15pm"}, {"days": "Sun", "time": "Closed"}], "id": "8750100037", "name": "USPS COLLECTION BOX - BLUE BOX", "address": {"city": "SANTA FE", "state": "NM", "street": "120 S FEDERAL PL", "postcode": "87501"}}},
{"geometry": {"type": "Point", "coordinates": [-105.9386274627, 35.6907238598]}, "type": "Feature", "properties": {"collection_times": [{"days": "Mon-Sat", "time": "5:15pm"}, {"days": "Sun", "time": "Closed"}], "id": "8750100040", "name": "USPS COLLECTION BOX - BLUE BOX", "address": {"city": "SANTA FE", "state": "NM", "street": "120 S FEDERAL PL", "postcode": "87501"}}},
{"geometry": {"type": "Point", "coordinates": [-105.9386274627, 35.6907238598]}, "type": "Feature", "properties": {"collection_times": [{"days": "Mon-Sat", "time": "5:15pm"}, {"days": "Sun", "time": "Closed"}], "id": "8750100041", "name": "USPS COLLECTION BOX - BLUE BOX", "address": {"city": "SANTA FE", "state": "NM", "street": "120 S FEDERAL PL", "postcode": "87501"}}},
{"geometry": {"type": "Point", "coordinates": [-105.9386274627, 35.6907238598]}, "type": "Feature", "properties": {"collection_times": [{"days": "Mon-Sat", "time": "5:15pm"}, {"days": "Sun", "time": "Closed"}], "id": "8750100067", "name": "USPS COLLECTION BOX - BLUE BOX", "address": {"city": "SANTA FE", "state": "NM", "street": "120 S FEDERAL PL", "postcode": "87501"}}},
{"geometry": {"type": "Point", "coordinates": [-105.936718133, 35.6873032541]}, "type": "Feature", "properties": {"collection_times": [{"days": "Mon-Fri", "time": "4:00pm"}, {"days": "Sat", "time": "2:15pm"}, {"days": "Sun", "time": "Closed"}], "id": "8750100076", "name": "USPS COLLECTION BOX - BLUE BOX", "address": {"city": "SANTA FE", "state": "NM", "street": "100 CATHEDRAL PL", "postcode": "87501"}}},
{"geometry": {"type": "Point", "coordinates": [-105.9409608502, 35.6902184355]}, "type": "Feature", "properties": {"collection_times": [{"days": "Mon-Fri", "time": "3:45pm"}, {"days": "Sat", "time": "2:00pm"}, {"days": "Sun", "time": "Closed"}], "id": "8750100092", "name": "USPS COLLECTION BOX - BLUE BOX", "address": {"city": "SANTA FE", "state": "NM", "street": "208 GRIFFIN ST", "postcode": "87501"}}},
{"geometry": {"type": "Point", "coordinates": [-105.9390172021, 35.6908434465]}, "type": "Feature", "properties": {"collection_times": [{"days": "Mon-Fri", "time": "4:00pm"}, {"days": "Sat", "time": "2:30pm"}, {"days": "Sun", "time": "Closed"}], "id": "8750100093", "name": "USPS COLLECTION BOX - BLUE BOX", "address": {"city": "SANTA FE", "state": "NM", "street": "98 LINCOLN AVE", "postcode": "87501"}}},
{"geometry": {"type": "Point", "coordinates": [-105.9366447493, 35.6890621973]}, "type": "Feature", "properties": {"collection_times": [{"days": "Mon-Fri", "time": "4:00pm"}, {"days": "Sat", "time": "2:15pm"}, {"days": "Sun", "time": "Closed"}], "id": "8750100096", "name": "USPS COLLECTION BOX - BLUE BOX", "address": {"city": "SANTA FE", "state": "NM", "street": "119 E MARCY ST", "postcode": "87501"}}},
{"geometry": {"type": "Point", "coordinates": [-105.9342933047, 35.6882095303]}, "type": "Feature", "properties": {"collection_times": [{"days": "Mon-Fri", "time": "4:00pm"}, {"days": "Sat", "time": "2:15pm"}, {"days": "Sun", "time": "Closed"}], "id": "8750100097", "name": "USPS COLLECTION BOX - BLUE BOX", "address": {"city": "SANTA FE", "state": "NM", "street": "224 E MARCY AVE", "postcode": "87501"}}},
{"geometry": {"type": "Point", "coordinates": [-105.9364001095, 35.6872948522]}, "type": "Feature", "properties": {"collection_times": [{"days": "Mon-Fri", "time": "4:00pm"}, {"days": "Sat", "time": "2:15pm"}, {"days": "Sun", "time": "Closed"}], "id": "8750100106", "name": "USPS COLLECTION BOX - BLUE BOX", "address": {"city": "SANTA FE", "state": "NM", "street": "141 E PALACE AVE", "postcode": "87501"}}},
{"geometry": {"type": "Point", "coordinates": [-105.9512823815, 35.6912967138]}, "type": "Feature", "properties": {"collection_times": [{"days": "Mon-Fri", "time": "4:30pm"}, {"days": "Sat", "time": "3:15pm"}, {"days": "Sun", "time": "Closed"}], "id": "8750100108", "name": "USPS COLLECTION BOX - BLUE BOX", "address": {"city": "SANTA FE", "state": "NM", "street": "193 PASEO DE PERALTA", "postcode": "87501"}}},
{"geometry": {"type": "Point", "coordinates": [-105.9380496646, 35.6868949271]}, "type": "Feature", "properties": {"collection_times": [{"days": "Mon-Fri", "time": "3:45pm"}, {"days": "Sat", "time": "2:00pm"}, {"days": "Sun", "time": "Closed"}], "id": "8750100112", "name": "USPS COLLECTION BOX - BLUE BOX", "address": {"city": "SANTA FE", "state": "NM", "street": "100 E SAN FRANCISCO ST", "postcode": "87501"}}},
{"geometry": {"type": "Point", "coordinates": [-105.9487904561, 35.6933466046]}, "type": "Feature", "properties": {"collection_times": [{"days": "Mon-Fri", "time": "5:00pm"}, {"days": "Sat", "time": "4:00pm"}, {"days": "Sun", "time": "Closed"}], "id": "8750100126", "name": "USPS COLLECTION BOX - PO LOBBY", "address": {"city": "SANTA FE", "state": "NM", "street": "534 N GUADALUPE ST", "postcode": "87501"}}},
{"geometry": {"type": "Point", "coordinates": [-105.9487904561, 35.6933466046]}, "type": "Feature", "properties": {"collection_times": [{"days": "Mon-Fri", "time": "5:00pm"}, {"days": "Sat", "time": "4:00pm"}, {"days": "Sun", "time": "Closed"}], "id": "8750100127", "name": "USPS COLLECTION BOX - PO LOBBY", "address": {"city": "SANTA FE", "state": "NM", "street": "534 N GUADALUPE ST", "postcode": "87501"}}},
{"geometry": {"type": "Point", "coordinates": [-105.9334009681, 35.6835112216]}, "type": "Feature", "properties": {"collection_times": [{"days": "Mon-Fri", "time": "2:00pm"}, {"days": "Sat", "time": "1:15pm"}, {"days": "Sun", "time": "Closed"}], "id": "8750100139", "name": "USPS COLLECTION BOX - BLUE BOX", "address": {"city": "SANTA FE", "state": "NM", "street": "225 CANYON RD", "postcode": "87501"}}},
{"geometry": {"type": "Point", "coordinates": [-105.9409507419, 35.6813515363]}, "type": "Feature", "properties": {"collection_times": [{"days": "Mon-Fri", "time": "2:00pm"}, {"days": "Sat", "time": "1:15pm"}, {"days": "Sun", "time": "Closed"}], "id": "8750100142", "name": "USPS COLLECTION BOX - BLUE BOX", "address": {"city": "SANTA FE", "state": "NM", "street": "527 DON GASPAR AVE", "postcode": "87501"}}},
{"geometry": {"type": "Point", "coordinates": [-105.9333509612, 35.6802506765]}, "type": "Feature", "properties": {"collection_times": [{"days": "Mon-Fri", "time": "2:15pm"}, {"days": "Sat", "time": "1:30pm"}, {"days": "Sun", "time": "Closed"}], "id": "8750100143", "name": "USPS COLLECTION BOX - BLUE BOX", "address": {"city": "SANTA FE", "state": "NM", "street": "376 GARCIA ST", "postcode": "87501"}}},
{"geometry": {"type": "Point", "coordinates": [-105.943309561, 35.6843949242]}, "type": "Feature", "properties": {"collection_times": [{"days": "Mon-Fri", "time": "3:30pm"}, {"days": "Sat", "time": "1:45pm"}, {"days": "Sun", "time": "Closed"}], "id": "8750100144", "name": "USPS COLLECTION BOX - BLUE BOX", "address": {"city": "SANTA FE", "state": "NM", "street": "236 MONTEZUMA AVE", "postcode": "87501"}}},
{"geometry": {"type": "Point", "coordinates": [-105.9375518667, 35.6847402235]}, "type": "Feature", "properties": {"collection_times": [{"days": "Mon-Fri", "time": "2:00pm"}, {"days": "Sat", "time": "1:45pm"}, {"days": "Sun", "time": "Closed"}], "id": "8750100147", "name": "USPS COLLECTION BOX - BLUE BOX", "address": {"city": "SANTA FE", "state": "NM", "street": "311 OLD SANTA FE TRL", "postcode": "87501"}}},
{"geometry": {"type": "Point", "coordinates": [-105.9381078057, 35.6814931116]}, "type": "Feature", "properties": {"collection_times": [{"days": "Mon-Fri", "time": "2:00pm"}, {"days": "Sat", "time": "1:15pm"}, {"days": "Sun", "time": "Closed"}], "id": "8750100148", "name": "USPS COLLECTION BOX - BLUE BOX", "address": {"city": "SANTA FE", "state": "NM", "street": "500 OLD SANTA FE TRL", "postcode": "87501"}}},
{"geometry": {"type": "Point", "coordinates": [-105.9384936874, 35.6855327239]}, "type": "Feature", "properties": {"collection_times": [{"days": "Mon-Fri", "time": "2:00pm"}, {"days": "Sat", "time": "1:45pm"}, {"days": "Sun", "time": "Closed"}], "id": "8750100149", "name": "USPS COLLECTION BOX - BLUE BOX", "address": {"city": "SANTA FE", "state": "NM", "street": "205 SHELBY ST", "postcode": "87501"}}},
{"geometry": {"type": "Point", "coordinates": [-105.9386274627, 35.6907238598]}, "type": "Feature", "properties": {"collection_times": [{"days": "Mon-Sat", "time": "5:30pm"}, {"days": "Sun", "time": "Closed"}], "id": "8750100150", "name": "USPS COLLECTION BOX - APC", "address": {"city": "SANTA FE", "state": "NM", "street": "120 S FEDERAL PL", "postcode": "87501"}}},
{"geometry": {"type": "Point", "coordinates": [-105.9395178253, 35.687222471]}, "type": "Feature", "properties": {"collection_times": [{"days": "Mon-Fri", "time": "3:45pm"}, {"days": "Sat", "time": "2:00pm"}, {"days": "Sun", "time": "Closed"}], "id": "8750100152", "name": "USPS COLLECTION BOX - BLUE BOX", "address": {"city": "SANTA FE", "state": "NM", "street": "122 W SAN FRANCISCO ST", "postcode": "87501"}}},
{"geometry": {"type": "Point", "coordinates": [-105.9301573535, 35.6822950474]}, "type": "Feature", "properties": {"collection_times": [{"days": "Mon-Fri", "time": "2:15pm"}, {"days": "Sat", "time": "1:15pm"}, {"days": "Sun", "time": "Closed"}], "id": "8750100153", "name": "USPS COLLECTION BOX - BLUE BOX", "address": {"city": "SANTA FE", "state": "NM", "street": "555 CANYON RD", "postcode": "87501"}}},
{"geometry": {"type": "Point", "coordinates": [-105.9584445068, 35.6540640579]}, "type": "Feature", "properties": {"collection_times": [{"days": "Mon-Fri", "time": "5:45pm"}, {"days": "Sat", "time": "5:30pm"}, {"days": "Sun", "time": "Closed"}], "id": "8750500026", "name": "USPS COLLECTION BOX - BLUE BOX", "address": {"city": "SANTA FE", "state": "NM", "street": "2071 S PACHECO ST", "postcode": "87505"}}},
{"geometry": {"type": "Point", "coordinates": [-105.9584445068, 35.6540640579]}, "type": "Feature", "properties": {"collection_times": [{"days": "Mon-Fri", "time": "5:45pm"}, {"days": "Sat", "time": "5:30pm"}, {"days": "Sun", "time": "Closed"}], "id": "8750500027", "name": "USPS COLLECTION BOX - BLUE BOX", "address": {"city": "SANTA FE", "state": "NM", "street": "2071 S PACHECO ST", "postcode": "87505"}}},
{"geometry": {"type": "Point", "coordinates": [-105.9584445068, 35.6540640579]}, "type": "Feature", "properties": {"collection_times": [{"days": "Mon-Fri", "time": "5:45pm"}, {"days": "Sat", "time": "5:30pm"}, {"days": "Sun", "time": "Closed"}], "id": "8750500028", "name": "USPS COLLECTION BOX - BLUE BOX", "address": {"city": "SANTA FE", "state": "NM", "street": "2071 S PACHECO ST", "postcode": "87505"}}},
{"geometry": {"type": "Point", "coordinates": [-105.9584445068, 35.6540640579]}, "type": "Feature", "properties": {"collection_times": [{"days": "Mon-Fri", "time": "5:45pm"}, {"days": "Sat", "time": "5:30pm"}, {"days": "Sun", "time": "Closed"}], "id": "8750500029", "name": "USPS COLLECTION BOX - BLUE BOX", "address": {"city": "SANTA FE", "state": "NM", "street": "2071 S PACHECO ST", "postcode": "87505"}}},
{"geometry": {"type": "Point", "coordinates": [-105.9584445068, 35.6540640579]}, "type": "Feature", "properties": {"collection_times": [{"days": "Mon-Fri", "time": "5:45pm"}, {"days": "Sat", "time": "5:30pm"}, {"days": "Sun", "time": "Closed"}], "id": "8750500037", "name": "USPS COLLECTION BOX - PO LOBBY", "address": {"city": "SANTA FE", "state": "NM", "street": "2071 S PACHECO ST", "postcode": "87505"}}},
{"geometry": {"type": "Point", "coordinates": [-105.9584445068, 35.6540640579]}, "type": "Feature", "properties": {"collection_times": [{"days": "Mon-Fri", "time": "5:45pm"}, {"days": "Sat", "time": "5:30pm"}, {"days": "Sun", "time": "Closed"}], "id": "8750500080", "name": "USPS COLLECTION BOX - PO LOBBY", "address": {"city": "SANTA FE", "state": "NM", "street": "2071 S PACHECO ST", "postcode": "87505"}}},
{"geometry": {"type": "Point", "coordinates": [-105.9544240129, 35.6708112426]}, "type": "Feature", "properties": {"collection_times": [{"days": "Mon-Sat", "time": "1:15pm"}, {"days": "Sun", "time": "Closed"}], "id": "8750500086", "name": "USPS COLLECTION BOX - BLUE BOX", "address": {"city": "SANTA FE", "state": "NM", "street": "670 ALTA VISTA ST", "postcode": "87505"}}},
{"geometry": {"type": "Point", "coordinates": [-105.94032144, 35.6571328851]}, "type": "Feature", "properties": {"collection_times": [{"days": "Mon-Sat", "time": "1:00pm"}, {"days": "Sun", "time": "Closed"}], "id": "8750500087", "name": "USPS COLLECTION BOX - BLUE BOX", "address": {"city": "SANTA FE", "state": "NM", "street": "1 CALLE MEDICO", "postcode": "87505"}}},
{"geometry": {"type": "Point", "coordinates": [-105.9788411155, 35.661655337]}, "type": "Feature", "properties": {"collection_times": [{"days": "Mon-Fri", "time": "1:00pm"}, {"days": "Sat", "time": "1:30pm"}, {"days": "Sun", "time": "Closed"}], "id": "8750500091", "name": "USPS COLLECTION BOX - BLUE BOX", "address": {"city": "SANTA FE", "state": "NM", "street": "2006 CERRILLOS RD", "postcode": "87505"}}},
{"geometry": {"type": "Point", "coordinates": [-105.9954613683, 35.6528393757]}, "type": "Feature", "properties": {"collection_times": [{"days": "Mon-Fri", "time": "1:00pm"}, {"days": "Sat", "time": "1:30pm"}, {"days": "Sun", "time": "Closed"}], "id": "8750500093", "name": "USPS COLLECTION BOX - BLUE BOX", "address": {"city": "SANTA FE", "state": "NM", "street": "3140 CERRILLOS RD", "postcode": "87505"}}},
{"geometry": {"type": "Point", "coordinates": [-106.0536414303, 35.5536948216]}, "type": "Feature", "properties": {"collection_times": [{"days": "Mon-Sat", "time": "4:15pm"}, {"days": "Sun", "time": "Closed"}], "id": "8750500094", "name": "USPS COLLECTION BOX - PO LOBBY", "address": {"city": "SANTA FE", "state": "NM", "street": "4250 CERRILLOS RD", "postcode": "87505"}}},
{"geometry": {"type": "Point", "coordinates": [-106.0536414303, 35.5536948216]}, "type": "Feature", "properties": {"collection_times": [{"days": "Mon-Sat", "time": "4:30pm"}, {"days": "Sun", "time": "Closed"}], "id": "8750500095", "name": "USPS COLLECTION BOX - BLUE BOX", "address": {"city": "SANTA FE", "state": "NM", "street": "4250 CERRILLOS RD", "postcode": "87505"}}},
{"geometry": {"type": "Point", "coordinates": [-106.0536414303, 35.5536948216]}, "type": "Feature", "properties": {"collection_times": [{"days": "Mon-Sat", "time": "4:15pm"}, {"days": "Sun", "time": "Closed"}], "id": "8750500096", "name": "USPS COLLECTION BOX - PO LOBBY", "address": {"city": "SANTA FE", "state": "NM", "street": "4250 CERRILLOS RD", "postcode": "87505"}}},
{"geometry": {"type": "Point", "coordinates": [-105.9505017707, 35.6728978203]}, "type": "Feature", "properties": {"collection_times": [{"days": "Mon-Sat", "time": "1:30pm"}, {"days": "Sun", "time": "Closed"}], "id": "8750500097", "name": "USPS COLLECTION BOX - BLUE BOX", "address": {"city": "SANTA FE", "state": "NM", "street": "511 W CORDOVA RD", "postcode": "87505"}}},
{"geometry": {"type": "Point", "coordinates": [-105.9485335111, 35.6634280517]}, "type": "Feature", "properties": {"collection_times": [{"days": "Mon-Sat", "time": "1:15pm"}, {"days": "Sun", "time": "Closed"}], "id": "8750500100", "name": "USPS COLLECTION BOX - BLUE BOX", "address": {"city": "SANTA FE", "state": "NM", "street": "1651 GALISTEO ST", "postcode": "87505"}}},
{"geometry": {"type": "Point", "coordinates": [-105.9518510248, 35.6683748856]}, "type": "Feature", "properties": {"collection_times": [{"days": "Mon-Sat", "time": "1:15pm"}, {"days": "Sun", "time": "Closed"}], "id": "8750500102", "name": "USPS COLLECTION BOX - BLUE BOX", "address": {"city": "SANTA FE", "state": "NM", "street": "1500 LUISA PL", "postcode": "87505"}}},
{"geometry": {"type": "Point", "coordinates": [-105.9585637901, 35.6533396404]}, "type": "Feature", "properties": {"collection_times": [{"days": "Mon-Sat", "time": "3:45pm"}, {"days": "Sun", "time": "Closed"}], "id": "8750500109", "name": "USPS COLLECTION BOX - BLUE BOX", "address": {"city": "SANTA FE", "state": "NM", "street": "2110 S PACHECO ST", "postcode": "87505"}}},
{"geometry": {"type": "Point", "coordinates": [-105.9987570142, 35.6572936129]}, "type": "Feature", "properties": {"collection_times": [{"days": "Mon-Sat", "time": "1:00pm"}, {"days": "Sun", "time": "Closed"}], "id": "8750500110", "name": "USPS COLLECTION BOX - BLUE BOX", "address": {"city": "SANTA FE", "state": "NM", "street": "1220 PARKWAY DR", "postcode": "87505"}}},
{"geometry": {"type": "Point", "coordinates": [-105.9827505883, 35.6384898582]}, "type": "Feature", "properties": {"collection_times": [{"days": "Mon-Fri", "time": "2:15pm"}, {"days": "Sat", "time": "3:00pm"}, {"days": "Sun", "time": "Closed"}], "id": "8750500111", "name": "USPS COLLECTION BOX - BLUE BOX", "address": {"city": "SANTA FE", "state": "NM", "street": "2801 RODEO RD", "postcode": "87505"}}},
{"geometry": {"type": "Point", "coordinates": [-105.9565835908, 35.6622211027]}, "type": "Feature", "properties": {"collection_times": [{"days": "Mon-Sat", "time": "2:00pm"}, {"days": "Sun", "time": "Closed"}], "id": "8750500112", "name": "USPS COLLECTION BOX - BLUE BOX", "address": {"city": "SANTA FE", "state": "NM", "street": "601 W SAN MATEO RD", "postcode": "87505"}}},
{"geometry": {"type": "Point", "coordinates": [-105.9538870956, 35.6739693788]}, "type": "Feature", "properties": {"collection_times": [{"days": "Mon-Sat", "time": "2:00pm"}, {"days": "Sun", "time": "Closed"}], "id": "8750500114", "name": "USPS COLLECTION BOX - BLUE BOX", "address": {"city": "SANTA FE", "state": "NM", "street": "1100 S SAINT FRANCIS DR", "postcode": "87505"}}},
{"geometry": {"type": "Point", "coordinates": [-105.9563159704, 35.6660510158]}, "type": "Feature", "properties": {"collection_times": [{"days": "Mon-Sat", "time": "2:00pm"}, {"days": "Sun", "time": "Closed"}], "id": "8750500115", "name": "USPS COLLECTION BOX - BLUE BOX", "address": {"city": "SANTA FE", "state": "NM", "street": "1444 S SAINT FRANCIS DR", "postcode": "87505"}}},
{"geometry": {"type": "Point", "coordinates": [-105.9560012235, 35.6300139271]}, "type": "Feature", "properties": {"collection_times": [{"days": "Mon-Sat", "time": "1:00pm"}, {"days": "Sun", "time": "Closed"}], "id": "8750500116", "name": "USPS COLLECTION BOX - BLUE BOX", "address": {"city": "SANTA FE", "state": "NM", "street": "3001 S SAINT FRANCIS DR", "postcode": "87505"}}},
{"geometry": {"type": "Point", "coordinates": [-105.971764691, 35.6591497706]}, "type": "Feature", "properties": {"collection_times": [{"days": "Mon-Fri", "time": "1:00pm"}, {"days": "Sat", "time": "1:30pm"}, {"days": "Sun", "time": "Closed"}], "id": "8750500119", "name": "USPS COLLECTION BOX - BLUE BOX", "address": {"city": "SANTA FE", "state": "NM", "street": "1712 SAINT MICHAELS DR", "postcode": "87505"}}},
{"geometry": {"type": "Point", "coordinates": [-106.0116973491, 35.6397136533]}, "type": "Feature", "properties": {"collection_times": [{"days": "Mon-Sat", "time": "2:45pm"}, {"days": "Sun", "time": "Closed"}], "id": "8750500122", "name": "USPS COLLECTION BOX - BLUE BOX", "address": {"city": "SANTA FE", "state": "NM", "street": "3530 ZAFARANO DR", "postcode": "87505"}}},
{"geometry": {"type": "Point", "coordinates": [-105.9584445068, 35.6540640579]}, "type": "Feature", "properties": {"collection_times": [{"days": "Mon-Fri", "time": "5:45pm"}, {"days": "Sat", "time": "5:30pm"}, {"days": "Sun", "time": "Closed"}], "id": "8750500127", "name": "USPS COLLECTION BOX - APC", "address": {"city": "SANTA FE", "state": "NM", "street": "2071 S PACHECO ST", "postcode": "87505"}}},
{"geometry": {"type": "Point", "coordinates": [-105.9456571652, 35.6574399983]}, "type": "Feature", "properties": {"collection_times": [{"days": "Mon-Sat", "time": "1:00pm"}, {"days": "Sun", "time": "Closed"}], "id": "8750500131", "name": "USPS COLLECTION BOX - BLUE BOX", "address": {"city": "SANTA FE", "state": "NM", "street": "455 SAINT MICHAELS DR", "postcode": "87505"}}},
{"geometry": {"type": "Point", "coordinates": [-106.2381926518, 36.1555537238]}, "type": "Feature", "properties": {"collection_times": [{"days": "Mon-Fri", "time": "3:30pm"}, {"days": "Sat", "time": "9:30am"}, {"days": "Sun", "time": "Closed"}], "id": "8751000001", "name": "USPS COLLECTION BOX - BLUE BOX", "address": {"city": "ABIQUIU", "state": "NM", "street": "4 COUNTY ROAD 165", "postcode": "87510"}}},
{"geometry": {"type": "Point", "coordinates": [-106.2381926518, 36.1555537238]}, "type": "Feature", "properties": {"collection_times": [{"days": "Mon-Fri", "time": "3:45pm"}, {"days": "Sat", "time": "9:45am"}, {"days": "Sun", "time": "Closed"}], "id": "8751000002", "name": "USPS COLLECTION BOX - PO LOBBY", "address": {"city": "ABIQUIU", "state": "NM", "street": "4 COUNTY ROAD 165", "postcode": "87510"}}},
{"geometry": {"type": "Point", "coordinates": [-106.2381926518, 36.1555537238]}, "type": "Feature", "properties": {"collection_times": [{"days": "Mon-Fri", "time": "3:45pm"}, {"days": "Sat", "time": "9:45am"}, {"days": "Sun", "time": "Closed"}], "id": "8751000003", "name": "USPS COLLECTION BOX - PO LOBBY", "address": {"city": "ABIQUIU", "state": "NM", "street": "4 COUNTY ROAD 165", "postcode": "87510"}}},
{"geometry": {"type": "Point", "coordinates": [-106.0468981577, 36.0943477262]}, "type": "Feature", "properties": {"collection_times": [{"days": "Mon-Fri", "time": "3:30pm"}, {"days": "Sat", "time": "10:30am"}, {"days": "Sun", "time": "Closed"}], "id": "8751100002", "name": "USPS COLLECTION BOX - PO LOBBY", "address": {"city": "ALCALDE", "state": "NM", "street": "1 COUNTY ROAD 37", "postcode": "87511"}}},
{"geometry": {"type": "Point", "coordinates": [-106.0468981577, 36.0943477262]}, "type": "Feature", "properties": {"collection_times": [{"days": "Mon-Fri", "time": "3:30pm"}, {"days": "Sat", "time": "10:30am"}, {"days": "Sun", "time": "Closed"}], "id": "8751100003", "name": "USPS COLLECTION BOX - BLUE BOX", "address": {"city": "ALCALDE", "state": "NM", "street": "1 COUNTY ROAD 37", "postcode": "87511"}}},
{"geometry": {"type": "Point", "coordinates": [-106.0468981577, 36.0943477262]}, "type": "Feature", "properties": {"collection_times": [{"days": "Mon-Fri", "time": "3:30pm"}, {"days": "Sat", "time": "10:30am"}, {"days": "Sun", "time": "Closed"}], "id": "8751100004", "name": "USPS COLLECTION BOX - PO LOBBY", "address": {"city": "ALCALDE", "state": "NM", "street": "1 COUNTY ROAD 37", "postcode": "87511"}}},
{"geometry": {"type": "Point", "coordinates": [-105.4348907512, 36.9035501469]}, "type": "Feature", "properties": {"collection_times": [{"days": "Mon-Fri", "time": "1:45pm"}, {"days": "Sat", "time": "11:30am"}, {"days": "Sun", "time": "Closed"}], "id": "8751200001", "name": "USPS COLLECTION BOX - BLUE BOX", "address": {"city": "AMALIA", "state": "NM", "street": "650 STATE HIGHWAY 196", "postcode": "87512"}}},
{"geometry": {"type": "Point", "coordinates": [-105.4348907512, 36.9035501469]}, "type": "Feature", "properties": {"collection_times": [{"days": "Mon-Fri", "time": "1:45pm"}, {"days": "Sat", "time": "11:30am"}, {"days": "Sun", "time": "Closed"}], "id": "8751200002", "name": "USPS COLLECTION BOX - PO LOBBY", "address": {"city": "AMALIA", "state": "NM", "street": "650 STATE HIGHWAY 196", "postcode": "87512"}}},
{"geometry": {"type": "Point", "coordinates": [-105.4348907512, 36.9035501469]}, "type": "Feature", "properties": {"collection_times": [{"days": "Mon-Fri", "time": "1:45pm"}, {"days": "Sat", "time": "11:30am"}, {"days": "Sun", "time": "Closed"}], "id": "8751200003", "name": "USPS COLLECTION BOX - PO LOBBY", "address": {"city": "AMALIA", "state": "NM", "street": "650 STATE HIGHWAY 196", "postcode": "87512"}}},
{"geometry": {"type": "Point", "coordinates": [-105.6273247149, 36.555463502]}, "type": "Feature", "properties": {"collection_times": [{"days": "Mon-Fri", "time": "3:15pm"}, {"days": "Sat", "time": "11:45am"}, {"days": "Sun", "time": "Closed"}], "id": "8751300001", "name": "USPS COLLECTION BOX - BLUE BOX", "address": {"city": "ARROYO HONDO", "state": "NM", "street": "12 OLD STATE ROAD 3", "postcode": "87513"}}},
{"geometry": {"type": "Point", "coordinates": [-105.6273247149, 36.555463502]}, "type": "Feature", "properties": {"collection_times": [{"days": "Mon-Fri", "time": "3:15pm"}, {"days": "Sat", "time": "11:45am"}, {"days": "Sun", "time": "Closed"}], "id": "8751300002", "name": "USPS COLLECTION BOX - PO LOBBY", "address": {"city": "ARROYO HONDO", "state": "NM", "street": "12 OLD STATE ROAD 3", "postcode": "87513"}}},
{"geometry": {"type": "Point", "coordinates": [-105.6169401972, 36.5035451761]}, "type": "Feature", "properties": {"collection_times": [{"days": "Mon-Fri", "time": "2:15pm"}, {"days": "Sat", "time": "1:15pm"}, {"days": "Sun", "time": "Closed"}], "id": "8751400001", "name": "USPS COLLECTION BOX - BLUE BOX", "address": {"city": "ARROYO SECO", "state": "NM", "street": "505 STATE ROUTE 150", "postcode": "87514"}}},
{"geometry": {"type": "Point", "coordinates": [-105.6169401972, 36.5035451761]}, "type": "Feature", "properties": {"collection_times": [{"days": "Mon-Fri", "time": "2:15pm"}, {"days": "Sat", "time": "12:30pm"}, {"days": "Sun", "time": "Closed"}], "id": "8751400002", "name": "USPS COLLECTION BOX - PO LOBBY", "address": {"city": "ARROYO SECO", "state": "NM", "street": "505 STATE ROUTE 150", "postcode": "87514"}}},
{"geometry": {"type": "Point", "coordinates": [-106.4378072629, 36.4806222307]}, "type": "Feature", "properties": {"collection_times": [{"days": "Mon-Fri", "time": "3:00pm"}, {"days": "Sat", "time": "10:45am"}, {"days": "Sun", "time": "Closed"}], "id": "8751500001", "name": "USPS COLLECTION BOX - BLUE BOX", "address": {"city": "CANJILON", "state": "NM", "street": "385 STATE ROAD 115", "postcode": "87515"}}},
{"geometry": {"type": "Point", "coordinates": [-106.4378072629, 36.4806222307]}, "type": "Feature", "properties": {"collection_times": [{"days": "Mon-Fri", "time": "3:00pm"}, {"days": "Sat", "time": "10:45am"}, {"days": "Sun", "time": "Closed"}], "id": "8751500003", "name": "USPS COLLECTION BOX - PO LOBBY", "address": {"city": "CANJILON", "state": "NM", "street": "385 STATE ROAD 115", "postcode": "87515"}}},
{"geometry": {"type": "Point", "coordinates": [-105.7655855668, 36.3644986301]}, "type": "Feature", "properties": {"collection_times": [{"days": "Mon-Sat", "time": "9:30am"}, {"days": "Sun", "time": "Closed"}], "id": "8751700000", "name": "USPS COLLECTION BOX - BLUE BOX", "address": {"city": "CARSON", "state": "NM", "street": "508 STATE HIGHWAY 567", "postcode": "87517"}}},
{"geometry": {"type": "Point", "coordinates": [-105.80715, 36.364315]}, "type": "Feature", "properties": {"collection_times": [{"days": "Mon-Sat", "time": "10:00am"}, {"days": "Sun", "time": "Closed"}], "id": "8751700001", "name": "USPS COLLECTION BOX - PO LOBBY", "address": {"city": "CARSON", "state": "NM", "street": "508 STATE HIGHWAY 567", "postcode": "87517"}}},
{"geometry": {"type": "Point", "coordinates": [-105.80715, 36.364315]}, "type": "Feature", "properties": {"collection_times": [{"days": "Mon-Sat", "time": "10:00am"}, {"days": "Sun", "time": "Closed"}], "id": "8751700002", "name": "USPS COLLECTION BOX - PO LOBBY", "address": {"city": "CARSON", "state": "NM", "street": "508 STATE HIGHWAY 567", "postcode": "87517"}}},
{"geometry": {"type": "Point", "coordinates": [-105.6036331248, 36.7418918074]}, "type": "Feature", "properties": {"collection_times": [{"days": "Mon-Fri", "time": "2:30pm"}, {"days": "Sat", "time": "11:45am"}, {"days": "Sun", "time": "Closed"}], "id": "8751900001", "name": "USPS COLLECTION BOX - BLUE BOX", "address": {"city": "CERRO", "state": "NM", "street": "122 STATE RD 378", "postcode": "87519"}}},
{"geometry": {"type": "Point", "coordinates": [-106.5803856538, 36.9031987251]}, "type": "Feature", "properties": {"collection_times": [{"days": "Mon-Fri", "time": "2:15pm"}, {"days": "Sat", "time": "12:00pm"}, {"days": "Sun", "time": "Closed"}], "id": "8752000001", "name": "USPS COLLECTION BOX - BLUE BOX", "address": {"city": "CHAMA", "state": "NM", "street": "199 5TH ST W", "postcode": "87520"}}},
{"geometry": {"type": "Point", "coordinates": [-106.5803856538, 36.9031987251]}, "type": "Feature", "properties": {"collection_times": [{"days": "Mon-Fri", "time": "2:15pm"}, {"days": "Sat", "time": "12:00pm"}, {"days": "Sun", "time": "Closed"}], "id": "8752000002", "name": "USPS COLLECTION BOX - PO LOBBY", "address": {"city": "CHAMA", "state": "NM", "street": "199 5TH ST W", "postcode": "87520"}}},
{"geometry": {"type": "Point", "coordinates": [-105.7152173096, 36.1823346195]}, "type": "Feature", "properties": {"collection_times": [{"days": "Mon-Fri", "time": "2:30pm"}, {"days": "Sat", "time": "11:00am"}, {"days": "Sun", "time": "Closed"}], "id": "8752100001", "name": "USPS COLLECTION BOX - BLUE BOX", "address": {"city": "CHAMISAL", "state": "NM", "street": "2756 STATE ROAD 76", "postcode": "87521"}}},
{"geometry": {"type": "Point", "coordinates": [-105.7152173096, 36.1823346195]}, "type": "Feature", "properties": {"collection_times": [{"days": "Mon-Fri", "time": "12:00pm"}, {"days": "Sat", "time": "11:00am"}, {"days": "Sun", "time": "Closed"}], "id": "8752100002", "name": "USPS COLLECTION BOX - PO LOBBY", "address": {"city": "CHAMISAL", "state": "NM", "street": "2756 STATE ROAD 76", "postcode": "87521"}}},
{"geometry": {"type": "Point", "coordinates": [-105.73319, 36.16923]}, "type": "Feature", "properties": {"collection_times": [{"days": "Mon-Fri", "time": "10:45am"}, {"days": "Sat-Sun", "time": "Closed"}], "id": "8752100003", "name": "USPS COLLECTION BOX - BLUE BOX", "address": {"city": "CHAMISAL", "state": "NM", "street": "2756 STATE ROAD 76", "postcode": "87521"}}},
{"geometry": {"type": "Point", "coordinates": [-105.7779719705, 36.0512524752]}, "type": "Feature", "properties": {"collection_times": [{"days": "Mon-Fri", "time": "3:45pm"}, {"days": "Sat", "time": "11:45am"}, {"days": "Sun", "time": "Closed"}], "id": "8752200001", "name": "USPS COLLECTION BOX - BLUE BOX", "address": {"city": "CHIMAYO", "state": "NM", "street": "724 STATE HIGHWAY 76", "postcode": "87522"}}},
{"geometry": {"type": "Point", "coordinates": [-105.7779719705, 36.0512524752]}, "type": "Feature", "properties": {"collection_times": [{"days": "Mon-Fri", "time": "3:45pm"}, {"days": "Sat", "time": "11:45am"}, {"days": "Sun", "time": "Closed"}], "id": "8752200002", "name": "USPS COLLECTION BOX - PO LOBBY", "address": {"city": "CHIMAYO", "state": "NM", "street": "724 STATE HIGHWAY 76", "postcode": "87522"}}},
{"geometry": {"type": "Point", "coordinates": [-105.84752508, 36.0250034721]}, "type": "Feature", "properties": {"collection_times": [{"days": "Mon-Fri", "time": "3:30pm"}, {"days": "Sat", "time": "10:00am"}, {"days": "Sun", "time": "Closed"}], "id": "8752300001", "name": "USPS COLLECTION BOX - BLUE BOX", "address": {"city": "CORDOVA", "state": "NM", "street": "74 COUNTY ROAD 80", "postcode": "87523"}}},
{"geometry": {"type": "Point", "coordinates": [-105.84752508, 36.0250034721]}, "type": "Feature", "properties": {"collection_times": [{"days": "Mon-Fri", "time": "3:30pm"}, {"days": "Sat", "time": "10:00am"}, {"days": "Sun", "time": "Closed"}], "id": "8752300002", "name": "USPS COLLECTION BOX - PO LOBBY", "address": {"city": "CORDOVA", "state": "NM", "street": "74 COUNTY ROAD 80", "postcode": "87523"}}},
{"geometry": {"type": "Point", "coordinates": [-105.4587499939, 36.9144589343]}, "type": "Feature", "properties": {"collection_times": [{"days": "Mon-Fri", "time": "2:00pm"}, {"days": "Sat", "time": "11:45am"}, {"days": "Sun", "time": "Closed"}], "id": "8752400001", "name": "USPS COLLECTION BOX - BLUE BOX", "address": {"city": "COSTILLA", "state": "NM", "street": "6 GARCIA RD", "postcode": "87524"}}},
{"geometry": {"type": "Point", "coordinates": [-105.4587499939, 36.9144589343]}, "type": "Feature", "properties": {"collection_times": [{"days": "Mon-Fri", "time": "2:00pm"}, {"days": "Sat", "time": "11:45am"}, {"days": "Sun", "time": "Closed"}], "id": "8752400002", "name": "USPS COLLECTION BOX - PO LOBBY", "address": {"city": "COSTILLA", "state": "NM", "street": "6 GARCIA RD", "postcode": "87524"}}},
{"geometry": {"type": "Point", "coordinates": [-105.9103983231, 36.2092327401]}, "type": "Feature", "properties": {"collection_times": [{"days": "Mon-Fri", "time": "4:00pm"}, {"days": "Sat", "time": "9:30am"}, {"days": "Sun", "time": "Closed"}], "id": "8752700001", "name": "USPS COLLECTION BOX - BLUE BOX", "address": {"city": "DIXON", "state": "NM", "street": "221 STATE ROAD 75", "postcode": "87527"}}},
{"geometry": {"type": "Point", "coordinates": [-105.9103983231, 36.2092327401]}, "type": "Feature", "properties": {"collection_times": [{"days": "Mon-Fri", "time": "4:00pm"}, {"days": "Sat", "time": "9:30am"}, {"days": "Sun", "time": "Closed"}], "id": "8752700002", "name": "USPS COLLECTION BOX - PO LOBBY", "address": {"city": "DIXON", "state": "NM", "street": "221 STATE ROAD 75", "postcode": "87527"}}},
{"geometry": {"type": "Point", "coordinates": [-105.9103983231, 36.2092327401]}, "type": "Feature", "properties": {"collection_times": [{"days": "Mon-Fri", "time": "4:00pm"}, {"days": "Sat", "time": "9:30am"}, {"days": "Sun", "time": "Closed"}], "id": "8752700003", "name": "USPS COLLECTION BOX - PO LOBBY", "address": {"city": "DIXON", "state": "NM", "street": "221 STATE ROAD 75", "postcode": "87527"}}},
{"geometry": {"type": "Point", "coordinates": [-107.2531872569, 36.5932748536]}, "type": "Feature", "properties": {"collection_times": [{"days": "Mon-Fri", "time": "12:45pm"}, {"days": "Sat", "time": "12:00pm"}, {"days": "Sun", "time": "Closed"}], "id": "8752800001", "name": "USPS COLLECTION BOX - BLUE BOX", "address": {"city": "DULCE", "state": "NM", "street": "10 FOOTHILLS ST", "postcode": "87528"}}},
{"geometry": {"type": "Point", "coordinates": [-107.2531872569, 36.5932748536]}, "type": "Feature", "properties": {"collection_times": [{"days": "Mon-Fri", "time": "1:00pm"}, {"days": "Sat", "time": "12:15pm"}, {"days": "Sun", "time": "Closed"}], "id": "8752800002", "name": "USPS COLLECTION BOX - PO LOBBY", "address": {"city": "DULCE", "state": "NM", "street": "10 FOOTHILLS ST", "postcode": "87528"}}},
{"geometry": {"type": "Point", "coordinates": [-107.2531872569, 36.5932748536]}, "type": "Feature", "properties": {"collection_times": [{"days": "Mon-Fri", "time": "1:00pm"}, {"days": "Sat", "time": "12:15pm"}, {"days": "Sun", "time": "Closed"}], "id": "8752800003", "name": "USPS COLLECTION BOX - PO LOBBY", "address": {"city": "DULCE", "state": "NM", "street": "10 FOOTHILLS ST", "postcode": "87528"}}},
{"geometry": {"type": "Point", "coordinates": [-107.2531872569, 36.5932748536]}, "type": "Feature", "properties": {"collection_times": [{"days": "Mon-Fri", "time": "12:45pm"}, {"days": "Sat", "time": "12:00pm"}, {"days": "Sun", "time": "Closed"}], "id": "8752800004", "name": "USPS COLLECTION BOX - BLUE BOX", "address": {"city": "DULCE", "state": "NM", "street": "10 FOOTHILLS ST", "postcode": "87528"}}},
{"geometry": {"type": "Point", "coordinates": [-105.5771923157, 36.4389662349]}, "type": "Feature", "properties": {"collection_times": [{"days": "Mon-Fri", "time": "4:45pm"}, {"days": "Sat", "time": "12:15pm"}, {"days": "Sun", "time": "Closed"}], "id": "8752900001", "name": "USPS COLLECTION BOX - BLUE BOX", "address": {"city": "EL PRADO", "state": "NM", "street": "1518 PASEO DEL PUEBLO NORTE", "postcode": "87529"}}},
{"geometry": {"type": "Point", "coordinates": [-105.5771923157, 36.4389662349]}, "type": "Feature", "properties": {"collection_times": [{"days": "Mon-Fri", "time": "4:45pm"}, {"days": "Sat", "time": "12:15pm"}, {"days": "Sun", "time": "Closed"}], "id": "8752900002", "name": "USPS COLLECTION BOX - PO LOBBY", "address": {"city": "EL PRADO", "state": "NM", "street": "1518 PASEO DEL PUEBLO NORTE", "postcode": "87529"}}},
{"geometry": {"type": "Point", "coordinates": [-106.298541916, 36.2862758904]}, "type": "Feature", "properties": {"collection_times": [{"days": "Mon-Fri", "time": "1:30pm"}, {"days": "Sat", "time": "12:00pm"}, {"days": "Sun", "time": "Closed"}], "id": "8753000000", "name": "USPS COLLECTION BOX - BLUE BOX", "address": {"city": "EL RITO", "state": "NM", "street": "1134 STATE ROAD 554", "postcode": "87530"}}},
{"geometry": {"type": "Point", "coordinates": [-106.298541916, 36.2862758904]}, "type": "Feature", "properties": {"collection_times": [{"days": "Mon-Fri", "time": "1:30pm"}, {"days": "Sat", "time": "12:00pm"}, {"days": "Sun", "time": "Closed"}], "id": "8753000001", "name": "USPS COLLECTION BOX - PO LOBBY", "address": {"city": "EL RITO", "state": "NM", "street": "1134 STATE ROAD 554", "postcode": "87530"}}},
{"geometry": {"type": "Point", "coordinates": [-106.0146022936, 36.1423134282]}, "type": "Feature", "properties": {"collection_times": [{"days": "Mon-Fri", "time": "4:00pm"}, {"days": "Sat", "time": "10:30am"}, {"days": "Sun", "time": "Closed"}], "id": "8753100001", "name": "USPS COLLECTION BOX - BLUE BOX", "address": {"city": "EMBUDO", "state": "NM", "street": "1989 EASTSIDE HIGHWAY 68", "postcode": "87531"}}},
{"geometry": {"type": "Point", "coordinates": [-106.0146022936, 36.1423134282]}, "type": "Feature", "properties": {"collection_times": [{"days": "Mon-Fri", "time": "12:00pm"}, {"days": "Sat", "time": "10:30am"}, {"days": "Sun", "time": "Closed"}], "id": "8753100002", "name": "USPS COLLECTION BOX - PO LOBBY", "address": {"city": "EMBUDO", "state": "NM", "street": "1989 EASTSIDE HIGHWAY 68", "postcode": "87531"}}},
{"geometry": {"type": "Point", "coordinates": [-106.0652615532, 35.9884287929]}, "type": "Feature", "properties": {"collection_times": [{"days": "Mon-Sat", "time": "1:20pm"}, {"days": "Sun", "time": "Closed"}], "id": "8753200002", "name": "USPS COLLECTION BOX - BLUE BOX", "address": {"city": "ESPANOLA", "state": "NM", "street": "424 S RIVERSIDE DR", "postcode": "87532"}}},
{"geometry": {"type": "Point", "coordinates": [-106.097682261, 36.0082600698]}, "type": "Feature", "properties": {"collection_times": [{"days": "Mon-Sat", "time": "1:15pm"}, {"days": "Sun", "time": "Closed"}], "id": "8753200005", "name": "USPS COLLECTION BOX - BLUE BOX", "address": {"city": "ESPANOLA", "state": "NM", "street": "1010 INDUSTRIAL PARK RD", "postcode": "87532"}}},
{"geometry": {"type": "Point", "coordinates": [-106.0642820396, 35.9973152418]}, "type": "Feature", "properties": {"collection_times": [{"days": "Mon-Sat", "time": "1:50pm"}, {"days": "Sun", "time": "Closed"}], "id": "8753200008", "name": "USPS COLLECTION BOX - BLUE BOX", "address": {"city": "ESPANOLA", "state": "NM", "street": "745 N RIVERSIDE DR", "postcode": "87532"}}},
{"geometry": {"type": "Point", "coordinates": [-106.0645873941, 36.0123973067]}, "type": "Feature", "properties": {"collection_times": [{"days": "Mon-Fri", "time": "5:00pm"}, {"days": "Sat", "time": "11:30am"}, {"days": "Sun", "time": "Closed"}], "id": "8753200009", "name": "USPS COLLECTION BOX - BLUE BOX", "address": {"city": "ESPANOLA", "state": "NM", "street": "2103 N RIVERSIDE DR", "postcode": "87532"}}},
{"geometry": {"type": "Point", "coordinates": [-106.1441025851, 35.9870912448]}, "type": "Feature", "properties": {"collection_times": [{"days": "Mon-Sat", "time": "1:05pm"}, {"days": "Sun", "time": "Closed"}], "id": "8753200011", "name": "USPS COLLECTION BOX - BLUE BOX", "address": {"city": "ESPANOLA", "state": "NM", "street": "525 N PASEO DE ONATE", "postcode": "87532"}}},
{"geometry": {"type": "Point", "coordinates": [-106.0870780644, 35.9970367898]}, "type": "Feature", "properties": {"collection_times": [{"days": "Mon-Sat", "time": "12:50pm"}, {"days": "Sun", "time": "Closed"}], "id": "8753200012", "name": "USPS COLLECTION BOX - BLUE BOX", "address": {"city": "ESPANOLA", "state": "NM", "street": "1010 SPRUCE ST", "postcode": "87532"}}},
{"geometry": {"type": "Point", "coordinates": [-106.158134, 35.97823]}, "type": "Feature", "properties": {"collection_times": [{"days": "Mon-Sat", "time": "12:55pm"}, {"days": "Sun", "time": "Closed"}], "id": "8753200014", "name": "USPS COLLECTION BOX - BLUE BOX", "address": {"city": "ESPANOLA", "state": "NM", "street": "400 LONE HILL RD", "postcode": "87532"}}},
{"geometry": {"type": "Point", "coordinates": [-106.0629541119, 36.0012615226]}, "type": "Feature", "properties": {"collection_times": [{"days": "Mon-Sat", "time": "1:10pm"}, {"days": "Sun", "time": "Closed"}], "id": "8753200015", "name": "USPS COLLECTION BOX - BLUE BOX", "address": {"city": "ESPANOLA", "state": "NM", "street": "1106 N RIVERSIDE DR", "postcode": "87532"}}},
{"geometry": {"type": "Point", "coordinates": [-106.0645873941, 36.0123973067]}, "type": "Feature", "properties": {"collection_times": [{"days": "Mon-Fri", "time": "4:00pm"}, {"days": "Sat", "time": "11:30am"}, {"days": "Sun", "time": "Closed"}], "id": "8753200016", "name": "USPS COLLECTION BOX - PO LOBBY", "address": {"city": "ESPANOLA", "state": "NM", "street": "2103 N RIVERSIDE DR", "postcode": "87532"}}},
{"geometry": {"type": "Point", "coordinates": [-106.0704789256, 35.9508184188]}, "type": "Feature", "properties": {"collection_times": [{"days": "Mon-Sat", "time": "1:35pm"}, {"days": "Sun", "time": "Closed"}], "id": "8753200017", "name": "USPS COLLECTION BOX - BLUE BOX", "address": {"city": "ESPANOLA", "state": "NM", "street": "313 STATE ROAD 399", "postcode": "87532"}}},
{"geometry": {"type": "Point", "coordinates": [-106.0645873941, 36.0123973067]}, "type": "Feature", "properties": {"collection_times": [{"days": "Mon-Fri", "time": "4:00pm"}, {"days": "Sat", "time": "11:30am"}, {"days": "Sun", "time": "Closed"}], "id": "8753200019", "name": "USPS COLLECTION BOX - PO LOBBY", "address": {"city": "ESPANOLA", "state": "NM", "street": "2103 N RIVERSIDE DR", "postcode": "87532"}}},
{"geometry": {"type": "Point", "coordinates": [-106.1441025851, 35.9870912448]}, "type": "Feature", "properties": {"collection_times": [{"days": "Mon-Fri", "time": "2:20pm"}, {"days": "Sat", "time": "2:00pm"}, {"days": "Sun", "time": "Closed"}], "id": "8753200020", "name": "USPS COLLECTION BOX - BLUE BOX", "address": {"city": "ESPANOLA", "state": "NM", "street": "1121 SANTA CLARA PEAK RD", "postcode": "87532"}}},
{"geometry": {"type": "Point", "coordinates": [-106.1441025851, 35.9870912448]}, "type": "Feature", "properties": {"collection_times": [{"days": "Mon-Fri", "time": "5:00pm"}, {"days": "Sat", "time": "4:45pm"}, {"days": "Sun", "time": "Closed"}], "id": "8753200021", "name": "USPS COLLECTION BOX - BLUE BOX", "address": {"city": "ESPANOLA", "state": "NM", "street": "1010 INDUSTRIAL PARK RD", "postcode": "87532"}}},
{"geometry": {"type": "Point", "coordinates": [-106.1441025851, 35.9870912448]}, "type": "Feature", "properties": {"collection_times": [{"days": "Mon-Fri", "time": "5:30pm"}, {"days": "Sat", "time": "4:45pm"}, {"days": "Sun", "time": "Closed"}], "id": "8753200022", "name": "USPS COLLECTION BOX - PO LOBBY", "address": {"city": "ESPANOLA", "state": "NM", "street": "1010 INDUSTRIAL PARK RD", "postcode": "87532"}}},
{"geometry": {"type": "Point", "coordinates": [-106.1441025851, 35.9870912448]}, "type": "Feature", "properties": {"collection_times": [{"days": "Mon-Fri", "time": "5:30pm"}, {"days": "Sat", "time": "4:45pm"}, {"days": "Sun", "time": "Closed"}], "id": "8753200023", "name": "USPS COLLECTION BOX - PO LOBBY", "address": {"city": "ESPANOLA", "state": "NM", "street": "1010 INDUSTRIAL PARK RD", "postcode": "87532"}}},
{"geometry": {"type": "Point", "coordinates": [-105.7523978403, 35.6099552295]}, "type": "Feature", "properties": {"collection_times": [{"days": "Mon-Fri", "time": "4:15pm"}, {"days": "Sat", "time": "10:45am"}, {"days": "Sun", "time": "Closed"}], "id": "8753500001", "name": "USPS COLLECTION BOX - BLUE BOX", "address": {"city": "GLORIETA", "state": "NM", "street": "16 CALLE LOMITA", "postcode": "87535"}}},
{"geometry": {"type": "Point", "coordinates": [-105.7523978403, 35.6099552295]}, "type": "Feature", "properties": {"collection_times": [{"days": "Mon-Fri", "time": "4:15pm"}, {"days": "Sat", "time": "10:45am"}, {"days": "Sun", "time": "Closed"}], "id": "8753500002", "name": "USPS COLLECTION BOX - PO LOBBY", "address": {"city": "GLORIETA", "state": "NM", "street": "16 CALLE LOMITA", "postcode": "87535"}}},
{"geometry": {"type": "Point", "coordinates": [-105.7523978403, 35.6099552295]}, "type": "Feature", "properties": {"collection_times": [{"days": "Mon-Fri", "time": "4:15pm"}, {"days": "Sat", "time": "10:45am"}, {"days": "Sun", "time": "Closed"}], "id": "8753500003", "name": "USPS COLLECTION BOX - PO LOBBY", "address": {"city": "GLORIETA", "state": "NM", "street": "16 CALLE LOMITA", "postcode": "87535"}}},
{"geometry": {"type": "Point", "coordinates": [-106.04094, 36.383915]}, "type": "Feature", "properties": {"collection_times": [{"days": "Mon-Fri", "time": "1:15pm"}, {"days": "Sat", "time": "12:15pm"}, {"days": "Sun", "time": "Closed"}], "id": "8753900000", "name": "USPS COLLECTION BOX - PO LOBBY", "address": {"city": "LA MADERA", "state": "NM", "street": "4 STATE ROAD 519", "postcode": "87539"}}},
{"geometry": {"type": "Point", "coordinates": [-106.04094, 36.383915]}, "type": "Feature", "properties": {"collection_times": [{"days": "Mon-Fri", "time": "1:15pm"}, {"days": "Sat", "time": "12:15pm"}, {"days": "Sun", "time": "Closed"}], "id": "8753900001", "name": "USPS COLLECTION BOX - BLUE BOX", "address": {"city": "LA MADERA", "state": "NM", "street": "4 STATE ROAD 519", "postcode": "87539"}}},
{"geometry": {"type": "Point", "coordinates": [-106.300606, 35.881977]}, "type": "Feature", "properties": {"collection_times": [{"days": "Mon-Fri", "time": "5:00pm"}, {"days": "Sat", "time": "4:00pm"}, {"days": "Sun", "time": "Closed"}], "id": "8754400001", "name": "USPS COLLECTION BOX - BLUE BOX", "address": {"city": "LOS ALAMOS", "state": "NM", "street": "199 CENTRAL PARK SQ", "postcode": "87544"}}},
{"geometry": {"type": "Point", "coordinates": [-106.2934749849, 35.881282753]}, "type": "Feature", "properties": {"collection_times": [{"days": "Mon-Sat", "time": "2:00pm"}, {"days": "Sun", "time": "Closed"}], "id": "8754400003", "name": "USPS COLLECTION BOX - BLUE BOX", "address": {"city": "LOS ALAMOS", "state": "NM", "street": "609 CENTRAL AVE", "postcode": "87544"}}},
{"geometry": {"type": "Point", "coordinates": [-106.3191124277, 35.8823237567]}, "type": "Feature", "properties": {"collection_times": [{"days": "Mon-Sat", "time": "2:00pm"}, {"days": "Sun", "time": "Closed"}], "id": "8754400006", "name": "USPS COLLECTION BOX - BLUE BOX", "address": {"city": "LOS ALAMOS", "state": "NM", "street": "3917 WEST RD", "postcode": "87544"}}},
{"geometry": {"type": "Point", "coordinates": [-106.2087819578, 35.8257988794]}, "type": "Feature", "properties": {"collection_times": [{"days": "Mon-Fri", "time": "5:00pm"}, {"days": "Sat", "time": "4:00pm"}, {"days": "Sun", "time": "Closed"}], "id": "8754400016", "name": "USPS COLLECTION BOX - BLUE BOX", "address": {"city": "LOS ALAMOS", "state": "NM", "street": "101 LONGVIEW DR", "postcode": "87544"}}},
{"geometry": {"type": "Point", "coordinates": [-106.300449353, 35.8826344998]}, "type": "Feature", "properties": {"collection_times": [{"days": "Mon-Fri", "time": "5:00pm"}, {"days": "Sat", "time": "4:00pm"}, {"days": "Sun", "time": "Closed"}], "id": "8754400018", "name": "USPS COLLECTION BOX - PO LOBBY", "address": {"city": "LOS ALAMOS", "state": "NM", "street": "199 CENTRAL PARK SQ", "postcode": "87544"}}},
{"geometry": {"type": "Point", "coordinates": [-106.300606, 35.881977]}, "type": "Feature", "properties": {"collection_times": [{"days": "Mon-Fri", "time": "5:00pm"}, {"days": "Sat", "time": "4:00pm"}, {"days": "Sun", "time": "Closed"}], "id": "8754400020", "name": "USPS COLLECTION BOX - BLUE BOX", "address": {"city": "LOS ALAMOS", "state": "NM", "street": "199 CENTRAL PARK SQ", "postcode": "87544"}}},
{"geometry": {"type": "Point", "coordinates": [-106.3191124277, 35.8823237567]}, "type": "Feature", "properties": {"collection_times": [{"days": "Mon-Sat", "time": "2:00pm"}, {"days": "Sun", "time": "Closed"}], "id": "8754400024", "name": "USPS COLLECTION BOX - BLUE BOX", "address": {"city": "LOS ALAMOS", "state": "NM", "street": "3917 WEST RD", "postcode": "87544"}}},
{"geometry": {"type": "Point", "coordinates": [-106.2087819578, 35.8257988794]}, "type": "Feature", "properties": {"collection_times": [{"days": "Mon-Fri", "time": "5:00pm"}, {"days": "Sat", "time": "4:00pm"}, {"days": "Sun", "time": "Closed"}], "id": "8754400033", "name": "USPS COLLECTION BOX - PO LOBBY", "address": {"city": "LOS ALAMOS", "state": "NM", "street": "101 LONGVIEW DR", "postcode": "87544"}}},
{"geometry": {"type": "Point", "coordinates": [-106.300606, 35.881977]}, "type": "Feature", "properties": {"collection_times": [{"days": "Mon-Fri", "time": "5:00pm"}, {"days": "Sat", "time": "4:00pm"}, {"days": "Sun", "time": "Closed"}], "id": "8754400037", "name": "USPS COLLECTION BOX - BLUE BOX", "address": {"city": "LOS ALAMOS", "state": "NM", "street": "199 CENTRAL PARK SQ", "postcode": "87544"}}},
{"geometry": {"type": "Point", "coordinates": [-106.300606, 35.881977]}, "type": "Feature", "properties": {"collection_times": [{"days": "Mon-Fri", "time": "5:00pm"}, {"days": "Sat", "time": "4:00pm"}, {"days": "Sun", "time": "Closed"}], "id": "8754400038", "name": "USPS COLLECTION BOX - BLUE BOX", "address": {"city": "LOS ALAMOS", "state": "NM", "street": "199 CENTRAL PARK SQ", "postcode": "87544"}}},
{"geometry": {"type": "Point", "coordinates": [-106.300449353, 35.8826344998]}, "type": "Feature", "properties": {"collection_times": [{"days": "Mon-Fri", "time": "5:00pm"}, {"days": "Sat", "time": "4:00pm"}, {"days": "Sun", "time": "Closed"}], "id": "8754400039", "name": "USPS COLLECTION BOX - PO LOBBY", "address": {"city": "LOS ALAMOS", "state": "NM", "street": "199 CENTRAL PARK SQ", "postcode": "87544"}}},
{"geometry": {"type": "Point", "coordinates": [-106.2094743243, 36.1753722539]}, "type": "Feature", "properties": {"collection_times": [{"days": "Mon-Fri", "time": "4:15pm"}, {"days": "Sat", "time": "10:45am"}, {"days": "Sun", "time": "Closed"}], "id": "8754800002", "name": "USPS COLLECTION BOX - PO LOBBY", "address": {"city": "MEDANALES", "state": "NM", "street": "180 COUNTY ROAD 142", "postcode": "87548"}}},
{"geometry": {"type": "Point", "coordinates": [-105.9963273403, 36.9919028584]}, "type": "Feature", "properties": {"collection_times": [{"days": "Mon-Fri", "time": "12:45pm"}, {"days": "Sat", "time": "11:45am"}, {"days": "Sun", "time": "Closed"}], "id": "8754900002", "name": "USPS COLLECTION BOX - PO LOBBY", "address": {"city": "OJO CALIENTE", "state": "NM", "street": "35286 US HIGHWAY 285", "postcode": "87549"}}},
{"geometry": {"type": "Point", "coordinates": [-105.9963273403, 36.9919028584]}, "type": "Feature", "properties": {"collection_times": [{"days": "Mon-Fri", "time": "12:45pm"}, {"days": "Sat", "time": "11:45am"}, {"days": "Sun", "time": "Closed"}], "id": "8754900003", "name": "USPS COLLECTION BOX - PO LOBBY", "address": {"city": "OJO CALIENTE", "state": "NM", "street": "35286 US HIGHWAY 285", "postcode": "87549"}}},
{"geometry": {"type": "Point", "coordinates": [-105.8381261744, 36.6429818817]}, "type": "Feature", "properties": {"collection_times": [{"days": "Mon-Fri", "time": "12:45pm"}, {"days": "Sat", "time": "11:45am"}, {"days": "Sun", "time": "Closed"}], "id": "8754900004", "name": "USPS COLLECTION BOX - BLUE BOX", "address": {"city": "OJO CALIENTE", "state": "NM", "street": "35286 HIGHWAY 285", "postcode": "87549"}}},
{"geometry": {"type": "Point", "coordinates": [-106.5888168187, 36.7553381168]}, "type": "Feature", "properties": {"collection_times": [{"days": "Mon-Fri", "time": "2:30pm"}, {"days": "Sat", "time": "10:00am"}, {"days": "Sun", "time": "Closed"}], "id": "8755100000", "name": "USPS COLLECTION BOX - BLUE BOX", "address": {"city": "LOS OJOS", "state": "NM", "street": "95 STATE ROAD 514", "postcode": "87551"}}},
{"geometry": {"type": "Point", "coordinates": [-106.5888168187, 36.7553381168]}, "type": "Feature", "properties": {"collection_times": [{"days": "Mon-Fri", "time": "2:45pm"}, {"days": "Sat", "time": "10:15am"}, {"days": "Sun", "time": "Closed"}], "id": "8755100001", "name": "USPS COLLECTION BOX - PO LOBBY", "address": {"city": "LOS OJOS", "state": "NM", "street": "95 STATE ROAD 514", "postcode": "87551"}}},
{"geometry": {"type": "Point", "coordinates": [-105.59356, 35.564533]}, "type": "Feature", "properties": {"collection_times": [{"days": "Mon-Fri", "time": "4:45pm"}, {"days": "Sat", "time": "11:45am"}, {"days": "Sun", "time": "Closed"}], "id": "8755200001", "name": "USPS COLLECTION BOX - BLUE BOX", "address": {"city": "PECOS", "state": "NM", "street": "63 S MAIN ST", "postcode": "87552"}}},
{"geometry": {"type": "Point", "coordinates": [-105.59356, 35.564533]}, "type": "Feature", "properties": {"collection_times": [{"days": "Mon-Fri", "time": "4:45pm"}, {"days": "Sat", "time": "11:45am"}, {"days": "Sun", "time": "Closed"}], "id": "8755200002", "name": "USPS COLLECTION BOX - PO LOBBY", "address": {"city": "PECOS", "state": "NM", "street": "63 S MAIN ST", "postcode": "87552"}}},
{"geometry": {"type": "Point", "coordinates": [-105.59356, 35.564533]}, "type": "Feature", "properties": {"collection_times": [{"days": "Mon-Fri", "time": "4:45pm"}, {"days": "Sat", "time": "11:45am"}, {"days": "Sun", "time": "Closed"}], "id": "8755200003", "name": "USPS COLLECTION BOX - PO LOBBY", "address": {"city": "PECOS", "state": "NM", "street": "63 S MAIN ST", "postcode": "87552"}}},
{"geometry": {"type": "Point", "coordinates": [-105.59356, 35.564533]}, "type": "Feature", "properties": {"collection_times": [{"days": "Mon-Fri", "time": "4:45pm"}, {"days": "Sat", "time": "11:45am"}, {"days": "Sun", "time": "Closed"}], "id": "8755200004", "name": "USPS COLLECTION BOX - PO LOBBY", "address": {"city": "PECOS", "state": "NM", "street": "63 S MAIN ST", "postcode": "87552"}}},
{"geometry": {"type": "Point", "coordinates": [-105.735614107, 36.2241847438]}, "type": "Feature", "properties": {"collection_times": [{"days": "Mon-Fri", "time": "1:25pm"}, {"days": "Sat", "time": "11:30am"}, {"days": "Sun", "time": "Closed"}], "id": "8755300001", "name": "USPS COLLECTION BOX - BLUE BOX", "address": {"city": "PENASCO", "state": "NM", "street": "14196 STATE ROAD 75", "postcode": "87553"}}},
{"geometry": {"type": "Point", "coordinates": [-105.735614107, 36.2241847438]}, "type": "Feature", "properties": {"collection_times": [{"days": "Mon-Fri", "time": "1:30pm"}, {"days": "Sat", "time": "11:30am"}, {"days": "Sun", "time": "Closed"}], "id": "8755300002", "name": "USPS COLLECTION BOX - PO LOBBY", "address": {"city": "PENASCO", "state": "NM", "street": "14196 STATE ROAD 75", "postcode": "87553"}}},
{"geometry": {"type": "Point", "coordinates": [-105.735614107, 36.2241847438]}, "type": "Feature", "properties": {"collection_times": [{"days": "Mon-Fri", "time": "1:30pm"}, {"days": "Sat", "time": "11:30am"}, {"days": "Sun", "time": "Closed"}], "id": "8755300003", "name": "USPS COLLECTION BOX - PO LOBBY", "address": {"city": "PENASCO", "state": "NM", "street": "14196 STATE ROAD 75", "postcode": "87553"}}},
{"geometry": {"type": "Point", "coordinates": [-105.5941680542, 36.7039964001]}, "type": "Feature", "properties": {"collection_times": [{"days": "Mon-Fri", "time": "3:15pm"}, {"days": "Sat", "time": "11:30am"}, {"days": "Sun", "time": "Closed"}], "id": "8755600001", "name": "USPS COLLECTION BOX - BLUE BOX", "address": {"city": "QUESTA", "state": "NM", "street": "43 HIGHWAY 38", "postcode": "87556"}}},
{"geometry": {"type": "Point", "coordinates": [-105.5941680542, 36.7039964001]}, "type": "Feature", "properties": {"collection_times": [{"days": "Mon-Fri", "time": "3:15pm"}, {"days": "Sat", "time": "12:00pm"}, {"days": "Sun", "time": "Closed"}], "id": "8755600002", "name": "USPS COLLECTION BOX - PO LOBBY", "address": {"city": "QUESTA", "state": "NM", "street": "43 HIGHWAY 38", "postcode": "87556"}}},
{"geometry": {"type": "Point", "coordinates": [-105.5941680542, 36.7039964001]}, "type": "Feature", "properties": {"collection_times": [{"days": "Mon-Fri", "time": "3:15pm"}, {"days": "Sat", "time": "12:00pm"}, {"days": "Sun", "time": "Closed"}], "id": "8755600003", "name": "USPS COLLECTION BOX - PO LOBBY", "address": {"city": "QUESTA", "state": "NM", "street": "43 HIGHWAY 38", "postcode": "87556"}}},
{"geometry": {"type": "Point", "coordinates": [-105.6080197558, 36.359925404]}, "type": "Feature", "properties": {"collection_times": [{"days": "Mon-Fri", "time": "4:30pm"}, {"days": "Sat", "time": "12:00pm"}, {"days": "Sun", "time": "Closed"}], "id": "8755700005", "name": "USPS COLLECTION BOX - BLUE BOX", "address": {"city": "RANCHOS DE TAOS", "state": "NM", "street": "4 SAN FRANCISCO RD", "postcode": "87557"}}},
{"geometry": {"type": "Point", "coordinates": [-105.6065001336, 36.3579273706]}, "type": "Feature", "properties": {"collection_times": [{"days": "Mon-Fri", "time": "4:30pm"}, {"days": "Sat", "time": "12:00pm"}, {"days": "Sun", "time": "Closed"}], "id": "8755700007", "name": "USPS COLLECTION BOX - PO LOBBY", "address": {"city": "RANCHOS DE TAOS", "state": "NM", "street": "4 SAN FRANCISCO RD", "postcode": "87557"}}},
{"geometry": {"type": "Point", "coordinates": [-105.6065001336, 36.3579273706]}, "type": "Feature", "properties": {"collection_times": [{"days": "Mon-Fri", "time": "4:30pm"}, {"days": "Sat", "time": "12:00pm"}, {"days": "Sun", "time": "Closed"}], "id": "8755700008", "name": "USPS COLLECTION BOX - PO LOBBY", "address": {"city": "RANCHOS DE TAOS", "state": "NM", "street": "4 SAN FRANCISCO RD", "postcode": "87557"}}},
{"geometry": {"type": "Point", "coordinates": [-105.4063087033, 36.7082625484]}, "type": "Feature", "properties": {"collection_times": [{"days": "Mon-Fri", "time": "2:15pm"}, {"days": "Sat", "time": "11:15am"}, {"days": "Sun", "time": "Closed"}], "id": "8755800001", "name": "USPS COLLECTION BOX - BLUE BOX", "address": {"city": "RED RIVER", "state": "NM", "street": "120 W MAIN ST", "postcode": "87558"}}},
{"geometry": {"type": "Point", "coordinates": [-105.4063087033, 36.7082625484]}, "type": "Feature", "properties": {"collection_times": [{"days": "Mon-Fri", "time": "2:15pm"}, {"days": "Sat", "time": "11:15am"}, {"days": "Sun", "time": "Closed"}], "id": "8755800003", "name": "USPS COLLECTION BOX - PO LOBBY", "address": {"city": "RED RIVER", "state": "NM", "street": "120 W MAIN ST", "postcode": "87558"}}},
{"geometry": {"type": "Point", "coordinates": [-105.5203211332, 35.2350754209]}, "type": "Feature", "properties": {"collection_times": [{"days": "Mon-Fri", "time": "3:45pm"}, {"days": "Sat", "time": "10:00am"}, {"days": "Sun", "time": "Closed"}], "id": "8756000001", "name": "USPS COLLECTION BOX - BLUE BOX", "address": {"city": "RIBERA", "state": "NM", "street": "169 NM HIGHWAY 3", "postcode": "87560"}}},
{"geometry": {"type": "Point", "coordinates": [-105.5203211332, 35.2350754209]}, "type": "Feature", "properties": {"collection_times": [{"days": "Mon-Fri", "time": "3:45pm"}, {"days": "Sat", "time": "10:00am"}, {"days": "Sun", "time": "Closed"}], "id": "8756000002", "name": "USPS COLLECTION BOX - PO LOBBY", "address": {"city": "RIBERA", "state": "NM", "street": "169 NM HIGHWAY 3", "postcode": "87560"}}},
{"geometry": {"type": "Point", "coordinates": [-105.6735272227, 35.4974745217]}, "type": "Feature", "properties": {"collection_times": [{"days": "Mon-Fri", "time": "4:15pm"}, {"days": "Sat", "time": "10:45am"}, {"days": "Sun", "time": "Closed"}], "id": "8756200001", "name": "USPS COLLECTION BOX - BLUE BOX", "address": {"city": "ROWE", "state": "NM", "street": "3198 FRONTAGE RD", "postcode": "87562"}}},
{"geometry": {"type": "Point", "coordinates": [-105.6735272227, 35.4974745217]}, "type": "Feature", "properties": {"collection_times": [{"days": "Mon-Fri", "time": "4:15pm"}, {"days": "Sat", "time": "10:45am"}, {"days": "Sun", "time": "Closed"}], "id": "8756200002", "name": "USPS COLLECTION BOX - PO LOBBY", "address": {"city": "ROWE", "state": "NM", "street": "3198 FRONTAGE RD", "postcode": "87562"}}},
{"geometry": {"type": "Point", "coordinates": [-105.6249520039, 36.6325169356]}, "type": "Feature", "properties": {"collection_times": [{"days": "Mon-Fri", "time": "3:15pm"}, {"days": "Sat", "time": "9:30am"}, {"days": "Sun", "time": "Closed"}], "id": "8756400001", "name": "USPS COLLECTION BOX - BLUE BOX", "address": {"city": "SAN CRISTOBAL", "state": "NM", "street": "1560 OLD STATE ROAD 3", "postcode": "87564"}}},
{"geometry": {"type": "Point", "coordinates": [-105.6249520039, 36.6325169356]}, "type": "Feature", "properties": {"collection_times": [{"days": "Mon-Fri", "time": "3:15pm"}, {"days": "Sat", "time": "9:30am"}, {"days": "Sun", "time": "Closed"}], "id": "8756400002", "name": "USPS COLLECTION BOX - PO LOBBY", "address": {"city": "SAN CRISTOBAL", "state": "NM", "street": "1560 OLD STATE ROAD 3", "postcode": "87564"}}},
{"geometry": {"type": "Point", "coordinates": [-105.6249520039, 36.6325169356]}, "type": "Feature", "properties": {"collection_times": [{"days": "Mon-Fri", "time": "3:15pm"}, {"days": "Sat", "time": "9:30am"}, {"days": "Sun", "time": "Closed"}], "id": "8756400003", "name": "USPS COLLECTION BOX - PO LOBBY", "address": {"city": "SAN CRISTOBAL", "state": "NM", "street": "1560 OLD STATE ROAD 3", "postcode": "87564"}}},
{"geometry": {"type": "Point", "coordinates": [-105.3559277826, 35.49095596]}, "type": "Feature", "properties": {"collection_times": [{"days": "Mon-Fri", "time": "4:00pm"}, {"days": "Sat", "time": "11:30am"}, {"days": "Sun", "time": "Closed"}], "id": "8756500001", "name": "USPS COLLECTION BOX - BLUE BOX", "address": {"city": "SAN JOSE", "state": "NM", "street": "16 CAMINO DE LOS PEIRDAS", "postcode": "87565"}}},
{"geometry": {"type": "Point", "coordinates": [-105.3559277826, 35.49095596]}, "type": "Feature", "properties": {"collection_times": [{"days": "Mon-Fri", "time": "12:00pm"}, {"days": "Sat", "time": "11:30am"}, {"days": "Sun", "time": "Closed"}], "id": "8756500002", "name": "USPS COLLECTION BOX - PO LOBBY", "address": {"city": "SAN JOSE", "state": "NM", "street": "16 CAMINO DE LOS PEIRDAS", "postcode": "87565"}}},
{"geometry": {"type": "Point", "coordinates": [-105.3559277826, 35.49095596]}, "type": "Feature", "properties": {"collection_times": [{"days": "Mon-Fri", "time": "11:30am"}, {"days": "Sat", "time": "11:20am"}, {"days": "Sun", "time": "Closed"}], "id": "8756500003", "name": "USPS COLLECTION BOX - BLUE BOX", "address": {"city": "SAN JOSE", "state": "NM", "street": "2 REGALIA LN", "postcode": "87565"}}},
{"geometry": {"type": "Point", "coordinates": [-106.0744770156, 36.0558899175]}, "type": "Feature", "properties": {"collection_times": [{"days": "Mon-Fri", "time": "4:15pm"}, {"days": "Sat", "time": "11:30am"}, {"days": "Sun", "time": "Closed"}], "id": "8756600001", "name": "USPS COLLECTION BOX - BLUE BOX", "address": {"city": "OHKAY OWINGEH", "state": "NM", "street": "331 MAIN ST", "postcode": "87566"}}},
{"geometry": {"type": "Point", "coordinates": [-106.0744770156, 36.0558899175]}, "type": "Feature", "properties": {"collection_times": [{"days": "Mon-Fri", "time": "4:15pm"}, {"days": "Sat", "time": "11:30am"}, {"days": "Sun", "time": "Closed"}], "id": "8756600002", "name": "USPS COLLECTION BOX - PO LOBBY", "address": {"city": "OHKAY OWINGEH", "state": "NM", "street": "331 MAIN ST", "postcode": "87566"}}},
{"geometry": {"type": "Point", "coordinates": [-106.0385794615, 35.9477397623]}, "type": "Feature", "properties": {"collection_times": [{"days": "Mon-Fri", "time": "4:15pm"}, {"days": "Sat", "time": "11:00am"}, {"days": "Sun", "time": "Closed"}], "id": "8756700006", "name": "USPS COLLECTION BOX - PO LOBBY", "address": {"city": "SANTA CRUZ", "state": "NM", "street": "1701 STATE ROAD 76", "postcode": "87567"}}},
{"geometry": {"type": "Point", "coordinates": [-106.0422892928, 35.9881200328]}, "type": "Feature", "properties": {"collection_times": [{"days": "Mon-Fri", "time": "4:15pm"}, {"days": "Sat", "time": "11:00am"}, {"days": "Sun", "time": "Closed"}], "id": "8756700007", "name": "USPS COLLECTION BOX - PO LOBBY", "address": {"city": "SANTA CRUZ", "state": "NM", "street": "1701 STATE ROAD 76", "postcode": "87567"}}},
{"geometry": {"type": "Point", "coordinates": [-105.3223901524, 35.3930624519]}, "type": "Feature", "properties": {"collection_times": [{"days": "Mon-Fri", "time": "3:15pm"}, {"days": "Sat", "time": "10:15am"}, {"days": "Sun", "time": "Closed"}], "id": "8756900001", "name": "USPS COLLECTION BOX - BLUE BOX", "address": {"city": "SERAFINA", "state": "NM", "street": "294 COUNTY ROAD B26A", "postcode": "87569"}}},
{"geometry": {"type": "Point", "coordinates": [-105.3223901524, 35.3930624519]}, "type": "Feature", "properties": {"collection_times": [{"days": "Mon-Fri", "time": "3:15pm"}, {"days": "Sat", "time": "10:15am"}, {"days": "Sun", "time": "Closed"}], "id": "8756900002", "name": "USPS COLLECTION BOX - PO LOBBY", "address": {"city": "SERAFINA", "state": "NM", "street": "294 COUNTY ROAD B26A", "postcode": "87569"}}},
{"geometry": {"type": "Point", "coordinates": [-105.5814755556, 36.3920614251]}, "type": "Feature", "properties": {"collection_times": [{"days": "Mon-Fri", "time": "3:50pm"}, {"days": "Sat", "time": "3:55pm"}, {"days": "Sun", "time": "Closed"}], "id": "8757100001", "name": "USPS COLLECTION BOX - BLUE BOX", "address": {"city": "TAOS", "state": "NM", "street": "710 PASEO DEL PUEBLO SUR", "postcode": "87571"}}},
{"geometry": {"type": "Point", "coordinates": [-105.5890223031, 36.3754454864]}, "type": "Feature", "properties": {"collection_times": [{"days": "Mon-Fri", "time": "3:55pm"}, {"days": "Sat", "time": "4:00pm"}, {"days": "Sun", "time": "Closed"}], "id": "8757100002", "name": "USPS COLLECTION BOX - BLUE BOX", "address": {"city": "TAOS", "state": "NM", "street": "1308 GUSDORF RD", "postcode": "87571"}}},
{"geometry": {"type": "Point", "coordinates": [-105.5644351788, 36.4209043194]}, "type": "Feature", "properties": {"collection_times": [{"days": "Mon-Fri", "time": "4:30pm"}, {"days": "Sat", "time": "3:30pm"}, {"days": "Sun", "time": "Closed"}], "id": "8757100003", "name": "USPS COLLECTION BOX - BLUE BOX", "address": {"city": "TAOS", "state": "NM", "street": "318 PASEO DEL PUEBLO NORTE", "postcode": "87571"}}},
{"geometry": {"type": "Point", "coordinates": [-105.5780752497, 36.397315989]}, "type": "Feature", "properties": {"collection_times": [{"days": "Mon-Fri", "time": "3:45pm"}, {"days": "Sat", "time": "3:50pm"}, {"days": "Sun", "time": "Closed"}], "id": "8757100004", "name": "USPS COLLECTION BOX - BLUE BOX", "address": {"city": "TAOS", "state": "NM", "street": "105 ALBRIGHT ST", "postcode": "87571"}}},
{"geometry": {"type": "Point", "coordinates": [-105.5737457109, 36.4073136942]}, "type": "Feature", "properties": {"collection_times": [{"days": "Mon-Fri", "time": "3:35pm"}, {"days": "Sat", "time": "3:40pm"}, {"days": "Sun", "time": "Closed"}], "id": "8757100006", "name": "USPS COLLECTION BOX - BLUE BOX", "address": {"city": "TAOS", "state": "NM", "street": "121 N PLAZA", "postcode": "87571"}}},
{"geometry": {"type": "Point", "coordinates": [-105.5730708832, 36.4083664482]}, "type": "Feature", "properties": {"collection_times": [{"days": "Mon-Fri", "time": "3:30pm"}, {"days": "Sat", "time": "3:35pm"}, {"days": "Sun", "time": "Closed"}], "id": "8757100008", "name": "USPS COLLECTION BOX - BLUE BOX", "address": {"city": "TAOS", "state": "NM", "street": "124 BENT ST", "postcode": "87571"}}},
{"geometry": {"type": "Point", "coordinates": [-105.5644351788, 36.4209043194]}, "type": "Feature", "properties": {"collection_times": [{"days": "Mon-Fri", "time": "4:00pm"}, {"days": "Sat", "time": "2:00pm"}, {"days": "Sun", "time": "Closed"}], "id": "8757100009", "name": "USPS COLLECTION BOX - PO LOBBY", "address": {"city": "TAOS", "state": "NM", "street": "318 PASEO DEL PUEBLO NORTE", "postcode": "87571"}}},
{"geometry": {"type": "Point", "coordinates": [-105.5644351788, 36.4209043194]}, "type": "Feature", "properties": {"collection_times": [{"days": "Mon-Fri", "time": "4:30pm"}, {"days": "Sat", "time": "3:30pm"}, {"days": "Sun", "time": "Closed"}], "id": "8757100014", "name": "USPS COLLECTION BOX - BLUE BOX", "address": {"city": "TAOS", "state": "NM", "street": "318 PASEO DEL PUEBLO NORTE", "postcode": "87571"}}},
{"geometry": {"type": "Point", "coordinates": [-105.5644351788, 36.4209043194]}, "type": "Feature", "properties": {"collection_times": [{"days": "Mon-Fri", "time": "4:00pm"}, {"days": "Sat", "time": "2:00pm"}, {"days": "Sun", "time": "Closed"}], "id": "8757100015", "name": "USPS COLLECTION BOX - PO LOBBY", "address": {"city": "TAOS", "state": "NM", "street": "318 PASEO DEL PUEBLO NORTE", "postcode": "87571"}}},
{"geometry": {"type": "Point", "coordinates": [-105.5715470515, 36.3954904146]}, "type": "Feature", "properties": {"collection_times": [{"days": "Mon-Fri", "time": "3:40pm"}, {"days": "Sat", "time": "3:45pm"}, {"days": "Sun", "time": "Closed"}], "id": "8757100016", "name": "USPS COLLECTION BOX - BLUE BOX", "address": {"city": "TAOS", "state": "NM", "street": "224 PASEO DEL PUEBLO SUR", "postcode": "87571"}}},
{"geometry": {"type": "Point", "coordinates": [-105.5019660117, 36.425589544]}, "type": "Feature", "properties": {"collection_times": [{"days": "Mon-Fri", "time": "5:00pm"}, {"days": "Sat", "time": "4:00pm"}, {"days": "Sun", "time": "Closed"}], "id": "8757100018", "name": "USPS COLLECTION BOX - BLUE BOX", "address": {"city": "TAOS", "state": "NM", "street": "110 BERTHA RD", "postcode": "87571"}}},
{"geometry": {"type": "Point", "coordinates": [-105.629346492, 35.7603978922]}, "type": "Feature", "properties": {"collection_times": [{"days": "Mon-Sat", "time": "11:30am"}, {"days": "Sun", "time": "Closed"}], "id": "8757300001", "name": "USPS COLLECTION BOX - BLUE BOX", "address": {"city": "TERERRO", "state": "NM", "street": "1353 STATE ROAD 63", "postcode": "87573"}}},
{"geometry": {"type": "Point", "coordinates": [-105.9342533052, 35.756602011]}, "type": "Feature", "properties": {"collection_times": [{"days": "Mon-Fri", "time": "4:00pm"}, {"days": "Sat", "time": "11:30am"}, {"days": "Sun", "time": "Closed"}], "id": "8757400001", "name": "USPS COLLECTION BOX - BLUE BOX", "address": {"city": "TESUQUE", "state": "NM", "street": "174 TESUQUE VILLAGE RD", "postcode": "87574"}}},
{"geometry": {"type": "Point", "coordinates": [-105.9342533052, 35.756602011]}, "type": "Feature", "properties": {"collection_times": [{"days": "Mon-Fri", "time": "4:00pm"}, {"days": "Sat", "time": "11:30am"}, {"days": "Sun", "time": "Closed"}], "id": "8757400003", "name": "USPS COLLECTION BOX - BLUE BOX", "address": {"city": "TESUQUE", "state": "NM", "street": "174 TESUQUE VILLAGE RD", "postcode": "87574"}}},
{"geometry": {"type": "Point", "coordinates": [-105.9342533052, 35.756602011]}, "type": "Feature", "properties": {"collection_times": [{"days": "Mon-Fri", "time": "4:00pm"}, {"days": "Sat", "time": "11:30am"}, {"days": "Sun", "time": "Closed"}], "id": "8757400004", "name": "USPS COLLECTION BOX - PO LOBBY", "address": {"city": "TESUQUE", "state": "NM", "street": "174 TESUQUE VILLAGE RD", "postcode": "87574"}}},
{"geometry": {"type": "Point", "coordinates": [-105.9342533052, 35.756602011]}, "type": "Feature", "properties": {"collection_times": [{"days": "Mon-Fri", "time": "4:00pm"}, {"days": "Sat", "time": "11:30am"}, {"days": "Sun", "time": "Closed"}], "id": "8757400005", "name": "USPS COLLECTION BOX - PO LOBBY", "address": {"city": "TESUQUE", "state": "NM", "street": "174 TESUQUE VILLAGE RD", "postcode": "87574"}}},
{"geometry": {"type": "Point", "coordinates": [-105.9342533052, 35.756602011]}, "type": "Feature", "properties": {"collection_times": [{"days": "Mon-Fri", "time": "4:00pm"}, {"days": "Sat", "time": "11:30am"}, {"days": "Sun", "time": "Closed"}], "id": "8757400006", "name": "USPS COLLECTION BOX - PO LOBBY", "address": {"city": "TESUQUE", "state": "NM", "street": "174 TESUQUE VILLAGE RD", "postcode": "87574"}}},
{"geometry": {"type": "Point", "coordinates": [-106.1084022185, 34.4213291361]}, "type": "Feature", "properties": {"collection_times": [{"days": "Mon-Fri", "time": "2:45pm"}, {"days": "Sat", "time": "12:00pm"}, {"days": "Sun", "time": "Closed"}], "id": "8757500001", "name": "USPS COLLECTION BOX - BLUE BOX", "address": {"city": "TIERRA AMARILLA", "state": "NM", "street": "17306 STATE HIGHWAY 84/64", "postcode": "87575"}}},
{"geometry": {"type": "Point", "coordinates": [-106.1084022185, 34.4213291361]}, "type": "Feature", "properties": {"collection_times": [{"days": "Mon-Fri", "time": "2:45pm"}, {"days": "Sat", "time": "12:00pm"}, {"days": "Sun", "time": "Closed"}], "id": "8757500002", "name": "USPS COLLECTION BOX - PO LOBBY", "address": {"city": "TIERRA AMARILLA", "state": "NM", "street": "17306 STATE HIGHWAY 84/64", "postcode": "87575"}}},
{"geometry": {"type": "Point", "coordinates": [-106.1084022185, 34.4213291361]}, "type": "Feature", "properties": {"collection_times": [{"days": "Mon-Fri", "time": "2:45pm"}, {"days": "Sat", "time": "12:00pm"}, {"days": "Sun", "time": "Closed"}], "id": "8757500003", "name": "USPS COLLECTION BOX - PO LOBBY", "address": {"city": "TIERRA AMARILLA", "state": "NM", "street": "17306 STATE HIGHWAY 84/64", "postcode": "87575"}}},
{"geometry": {"type": "Point", "coordinates": [-105.9674691716, 36.6452173328]}, "type": "Feature", "properties": {"collection_times": [{"days": "Mon-Fri", "time": "3:00pm"}, {"days": "Sat", "time": "10:00am"}, {"days": "Sun", "time": "Closed"}], "id": "8757700001", "name": "USPS COLLECTION BOX - BLUE BOX", "address": {"city": "TRES PIEDRAS", "state": "NM", "street": "38440 HIGHWAY 285", "postcode": "87577"}}},
{"geometry": {"type": "Point", "coordinates": [-105.9674691716, 36.6452173328]}, "type": "Feature", "properties": {"collection_times": [{"days": "Mon-Fri", "time": "12:00pm"}, {"days": "Sat", "time": "10:00am"}, {"days": "Sun", "time": "Closed"}], "id": "8757700002", "name": "USPS COLLECTION BOX - PO LOBBY", "address": {"city": "TRES PIEDRAS", "state": "NM", "street": "38440 HIGHWAY 285", "postcode": "87577"}}},
{"geometry": {"type": "Point", "coordinates": [-105.6766956432, 36.1891288446]}, "type": "Feature", "properties": {"collection_times": [{"days": "Mon-Fri", "time": "1:20pm"}, {"days": "Sat", "time": "10:00am"}, {"days": "Sun", "time": "Closed"}], "id": "8757900001", "name": "USPS COLLECTION BOX - BLUE BOX", "address": {"city": "VADITO", "state": "NM", "street": "1709 STATE ROAD 75", "postcode": "87579"}}},
{"geometry": {"type": "Point", "coordinates": [-105.6766956432, 36.1891288446]}, "type": "Feature", "properties": {"collection_times": [{"days": "Mon-Fri", "time": "1:45pm"}, {"days": "Sat", "time": "10:00am"}, {"days": "Sun", "time": "Closed"}], "id": "8757900002", "name": "USPS COLLECTION BOX - PO LOBBY", "address": {"city": "VADITO", "state": "NM", "street": "1709 STATE ROAD 75", "postcode": "87579"}}},
{"geometry": {"type": "Point", "coordinates": [-106.135109016, 36.6958157495]}, "type": "Feature", "properties": {"collection_times": [{"days": "Mon-Sat", "time": "8:30am"}, {"days": "Sun", "time": "Closed"}], "id": "8758100001", "name": "USPS COLLECTION BOX - BLUE BOX", "address": {"city": "VALLECITOS", "state": "NM", "street": "1484 STATE ROAD 111", "postcode": "87581"}}},
{"geometry": {"type": "Point", "coordinates": [-106.135109016, 36.6958157495]}, "type": "Feature", "properties": {"collection_times": [{"days": "Mon-Sat", "time": "8:30am"}, {"days": "Sun", "time": "Closed"}], "id": "8758100002", "name": "USPS COLLECTION BOX - PO LOBBY", "address": {"city": "VALLECITOS", "state": "NM", "street": "1484 STATE ROAD 111", "postcode": "87581"}}},
{"geometry": {"type": "Point", "coordinates": [-105.96728, 36.162663]}, "type": "Feature", "properties": {"collection_times": [{"days": "Mon-Fri", "time": "4:00pm"}, {"days": "Sat", "time": "10:45am"}, {"days": "Sun", "time": "Closed"}], "id": "8758200001", "name": "USPS COLLECTION BOX - BLUE BOX", "address": {"city": "VELARDE", "state": "NM", "street": "1446 US ROUTE 68", "postcode": "87582"}}},
{"geometry": {"type": "Point", "coordinates": [-105.96728, 36.162663]}, "type": "Feature", "properties": {"collection_times": [{"days": "Mon-Fri", "time": "4:00pm"}, {"days": "Sat", "time": "10:45am"}, {"days": "Sun", "time": "Closed"}], "id": "8758200002", "name": "USPS COLLECTION BOX - PO LOBBY", "address": {"city": "VELARDE", "state": "NM", "street": "1446 US ROUTE 68", "postcode": "87582"}}},
{"geometry": {"type": "Point", "coordinates": [-105.3611960534, 35.2655256852]}, "type": "Feature", "properties": {"collection_times": [{"days": "Mon-Fri", "time": "12:45pm"}, {"days": "Sat-Sun", "time": "Closed"}], "id": "8758300000", "name": "USPS COLLECTION BOX - BLUE BOX", "address": {"city": "VILLANUEVA", "state": "NM", "street": "1221 NM HIGHWAY 3", "postcode": "87583"}}},
{"geometry": {"type": "Point", "coordinates": [-105.3611960534, 35.2655256852]}, "type": "Feature", "properties": {"collection_times": [{"days": "Mon-Fri", "time": "12:45pm"}, {"days": "Sat-Sun", "time": "Closed"}], "id": "8758300001", "name": "USPS COLLECTION BOX - PO LOBBY", "address": {"city": "VILLANUEVA", "state": "NM", "street": "1221 NM HIGHWAY 3", "postcode": "87583"}}}
]}
