{"type": "FeatureCollection", "features": [
{"geometry": {"type": "Point", "coordinates": [-105.2280108419, 35.5933768716]}, "type": "Feature", "properties": {"collection_times": [{"days": "Mon-Fri", "time": "3:00pm"}, {"days": "Sat", "time": "2:45pm"}, {"days": "Sun", "time": "Closed"}], "id": "8770100010", "name": "USPS COLLECTION BOX - BLUE BOX", "address": {"city": "LAS VEGAS", "state": "NM", "street": "1900 HOT SPRINGS BLVD", "postcode": "87701"}}},
{"geometry": {"type": "Point", "coordinates": [-105.2155761179, 35.5947305004]}, "type": "Feature", "properties": {"collection_times": [{"days": "Mon-Sat", "time": "5:00pm"}, {"days": "Sun", "time": "Closed"}], "id": "8770100016", "name": "USPS COLLECTION BOX - BLUE BOX", "address": {"city": "LAS VEGAS", "state": "NM", "street": "1001 DOUGLAS AVE", "postcode": "87701"}}},
{"geometry": {"type": "Point", "coordinates": [-105.2155761179, 35.5947305004]}, "type": "Feature", "properties": {"collection_times": [{"days": "Mon-Sat", "time": "5:00pm"}, {"days": "Sun", "time": "Closed"}], "id": "8770100017", "name": "USPS COLLECTION BOX - BLUE BOX", "address": {"city": "LAS VEGAS", "state": "NM", "street": "1001 DOUGLAS AVE", "postcode": "87701"}}},
{"geometry": {"type": "Point", "coordinates": [-105.2103274074, 35.6082360051]}, "type": "Feature", "properties": {"collection_times": [{"days": "Mon-Fri", "time": "3:00pm"}, {"days": "Sat-Sun", "time": "Closed"}], "id": "8770100021", "name": "USPS COLLECTION BOX - BLUE BOX", "address": {"city": "LAS VEGAS", "state": "NM", "street": "1700 N GRAND AVE", "postcode": "87701"}}},
{"geometry": {"type": "Point", "coordinates": [-105.2155761179, 35.5947305004]}, "type": "Feature", "properties": {"collection_times": [{"days": "Mon-Sat", "time": "5:00pm"}, {"days": "Sun", "time": "Closed"}], "id": "8770100022", "name": "USPS COLLECTION BOX - PO LOBBY", "address": {"city": "LAS VEGAS", "state": "NM", "street": "1001 DOUGLAS AVE", "postcode": "87701"}}},
{"geometry": {"type": "Point", "coordinates": [-105.2280108419, 35.5933768716]}, "type": "Feature", "properties": {"collection_times": [{"days": "Mon-Fri", "time": "3:00pm"}, {"days": "Sat", "time": "2:45pm"}, {"days": "Sun", "time": "Closed"}], "id": "8770100023", "name": "USPS COLLECTION BOX - PO LOBBY", "address": {"city": "LAS VEGAS", "state": "NM", "street": "1900 HOT SPRINGS BLVD", "postcode": "87701"}}},
{"geometry": {"type": "Point", "coordinates": [-105.2299319577, 35.5913204597]}, "type": "Feature", "properties": {"collection_times": [{"days": "Mon-Fri", "time": "3:00pm"}, {"days": "Sat-Sun", "time": "Closed"}], "id": "8770100024", "name": "USPS COLLECTION BOX - BLUE BOX", "address": {"city": "LAS VEGAS", "state": "NM", "street": "500 W NATIONAL ST", "postcode": "87701"}}},
{"geometry": {"type": "Point", "coordinates": [-105.2877968789, 36.3988887313]}, "type": "Feature", "properties": {"collection_times": [{"days": "Mon-Fri", "time": "1:15pm"}, {"days": "Sat", "time": "11:45am"}, {"days": "Sun", "time": "Closed"}], "id": "8771000000", "name": "USPS COLLECTION BOX - BLUE BOX", "address": {"city": "ANGEL FIRE", "state": "NM", "street": "3469 HIGHWAY 434 STE B8", "postcode": "87710"}}},
{"geometry": {"type": "Point", "coordinates": [-105.2877968789, 36.3988887313]}, "type": "Feature", "properties": {"collection_times": [{"days": "Mon-Fri", "time": "1:15pm"}, {"days": "Sat", "time": "11:45am"}, {"days": "Sun", "time": "Closed"}], "id": "8771000001", "name": "USPS COLLECTION BOX - PO LOBBY", "address": {"city": "ANGEL FIRE", "state": "NM", "street": "3469 HIGHWAY 434 STE B8", "postcode": "87710"}}},
{"geometry": {"type": "Point", "coordinates": [-105.2877968789, 36.3988887313]}, "type": "Feature", "properties": {"collection_times": [{"days": "Mon-Fri", "time": "1:15pm"}, {"days": "Sat", "time": "11:45am"}, {"days": "Sun", "time": "Closed"}], "id": "8771000002", "name": "USPS COLLECTION BOX - PO LOBBY", "address": {"city": "ANGEL FIRE", "state": "NM", "street": "3469 HIGHWAY 434 STE B8", "postcode": "87710"}}},
{"geometry": {"type": "Point", "coordinates": [-105.1349317778, 35.0830315335]}, "type": "Feature", "properties": {"collection_times": [{"days": "Mon-Sat", "time": "12:45pm"}, {"days": "Sun", "time": "Closed"}], "id": "8771100000", "name": "USPS COLLECTION BOX - BLUE BOX", "address": {"city": "ANTON CHICO", "state": "NM", "street": "1067 STATE HIGHWAY 386", "postcode": "87711"}}},
{"geometry": {"type": "Point", "coordinates": [-105.1349317778, 35.0830315335]}, "type": "Feature", "properties": {"collection_times": [{"days": "Mon-Sat", "time": "12:45pm"}, {"days": "Sun", "time": "Closed"}], "id": "8771100001", "name": "USPS COLLECTION BOX - PO LOBBY", "address": {"city": "ANTON CHICO", "state": "NM", "street": "1067 STATE HIGHWAY 386", "postcode": "87711"}}},
{"geometry": {"type": "Point", "coordinates": [-105.2533726788, 35.9173264384]}, "type": "Feature", "properties": {"collection_times": [{"days": "Mon-Fri", "time": "3:45pm"}, {"days": "Sat", "time": "11:30am"}, {"days": "Sun", "time": "Closed"}], "id": "8771200000", "name": "USPS COLLECTION BOX - BLUE BOX", "address": {"city": "BUENA VISTA", "state": "NM", "street": "2191 STATE HIGHWAY 518", "postcode": "87712"}}},
{"geometry": {"type": "Point", "coordinates": [-105.2533726788, 35.9173264384]}, "type": "Feature", "properties": {"collection_times": [{"days": "Mon-Fri", "time": "3:45pm"}, {"days": "Sat", "time": "11:30am"}, {"days": "Sun", "time": "Closed"}], "id": "8771200001", "name": "USPS COLLECTION BOX - PO LOBBY", "address": {"city": "BUENA VISTA", "state": "NM", "street": "2191 STATE HIGHWAY 518", "postcode": "87712"}}},
{"geometry": {"type": "Point", "coordinates": [-105.2533726788, 35.9173264384]}, "type": "Feature", "properties": {"collection_times": [{"days": "Mon-Fri", "time": "3:45pm"}, {"days": "Sat", "time": "11:30am"}, {"days": "Sun", "time": "Closed"}], "id": "8771200002", "name": "USPS COLLECTION BOX - PO LOBBY", "address": {"city": "BUENA VISTA", "state": "NM", "street": "2191 STATE HIGHWAY 518", "postcode": "87712"}}},
{"geometry": {"type": "Point", "coordinates": [-105.3841403106, 36.1720120973]}, "type": "Feature", "properties": {"collection_times": [{"days": "Mon-Fri", "time": "11:00am"}, {"days": "Sat", "time": "10:15am"}, {"days": "Sun", "time": "Closed"}], "id": "8771300000", "name": "USPS COLLECTION BOX - PO LOBBY", "address": {"city": "CHACON", "state": "NM", "street": "26 STATE HIGHWAY 121", "postcode": "87713"}}},
{"geometry": {"type": "Point", "coordinates": [-105.3841403106, 36.1720120973]}, "type": "Feature", "properties": {"collection_times": [{"days": "Mon-Fri", "time": "11:00am"}, {"days": "Sat", "time": "10:00am"}, {"days": "Sun", "time": "Closed"}], "id": "8771300001", "name": "USPS COLLECTION BOX - BLUE BOX", "address": {"city": "CHACON", "state": "NM", "street": "26 STATE HIGHWAY 121", "postcode": "87713"}}},
{"geometry": {"type": "Point", "coordinates": [-104.9177496073, 36.511558047]}, "type": "Feature", "properties": {"collection_times": [{"days": "Mon-Fri", "time": "2:30pm"}, {"days": "Sat", "time": "11:00am"}, {"days": "Sun", "time": "Closed"}], "id": "8771400000", "name": "USPS COLLECTION BOX - BLUE BOX", "address": {"city": "CIMARRON", "state": "NM", "street": "210 E 9TH ST", "postcode": "87714"}}},
{"geometry": {"type": "Point", "coordinates": [-104.9177496073, 36.511558047]}, "type": "Feature", "properties": {"collection_times": [{"days": "Mon-Fri", "time": "2:30pm"}, {"days": "Sat", "time": "11:00am"}, {"days": "Sun", "time": "Closed"}], "id": "8771400001", "name": "USPS COLLECTION BOX - PO LOBBY", "address": {"city": "CIMARRON", "state": "NM", "street": "210 E 9TH ST", "postcode": "87714"}}},
{"geometry": {"type": "Point", "coordinates": [-105.0505414104, 36.5756500155]}, "type": "Feature", "properties": {"collection_times": [{"days": "Mon-Fri", "time": "9:45am"}, {"days": "Sat-Sun", "time": "Closed"}], "id": "8771400003", "name": "USPS COLLECTION BOX - BLUE BOX", "address": {"city": "CIMARRON", "state": "NM", "street": "34 ORCHARD CIR", "postcode": "87714"}}},
{"geometry": {"type": "Point", "coordinates": [-105.6313085961, 35.9252174783]}, "type": "Feature", "properties": {"collection_times": [{"days": "Mon-Fri", "time": "11:30am"}, {"days": "Sat", "time": "10:30am"}, {"days": "Sun", "time": "Closed"}], "id": "8771500000", "name": "USPS COLLECTION BOX - BLUE BOX", "address": {"city": "CLEVELAND", "state": "NM", "street": "3177 STATE HIGHWAY 518", "postcode": "87715"}}},
{"geometry": {"type": "Point", "coordinates": [-105.6313085961, 35.9252174783]}, "type": "Feature", "properties": {"collection_times": [{"days": "Mon-Fri", "time": "11:30am"}, {"days": "Sat", "time": "10:30am"}, {"days": "Sun", "time": "Closed"}], "id": "8771500001", "name": "USPS COLLECTION BOX - PO LOBBY", "address": {"city": "CLEVELAND", "state": "NM", "street": "3177 STATE HIGHWAY 518", "postcode": "87715"}}},
{"geometry": {"type": "Point", "coordinates": [-105.6313085961, 35.9252174783]}, "type": "Feature", "properties": {"collection_times": [{"days": "Mon-Fri", "time": "11:30am"}, {"days": "Sat", "time": "10:30am"}, {"days": "Sun", "time": "Closed"}], "id": "8771500002", "name": "USPS COLLECTION BOX - PO LOBBY", "address": {"city": "CLEVELAND", "state": "NM", "street": "3177 STATE HIGHWAY 518", "postcode": "87715"}}},
{"geometry": {"type": "Point", "coordinates": [-105.2772859113, 36.5894870407]}, "type": "Feature", "properties": {"collection_times": [{"days": "Mon-Fri", "time": "1:45pm"}, {"days": "Sat", "time": "10:15am"}, {"days": "Sun", "time": "Closed"}], "id": "8771800000", "name": "USPS COLLECTION BOX - BLUE BOX", "address": {"city": "EAGLE NEST", "state": "NM", "street": "152 W THERMA DR", "postcode": "87718"}}},
{"geometry": {"type": "Point", "coordinates": [-105.2772859113, 36.5894870407]}, "type": "Feature", "properties": {"collection_times": [{"days": "Mon-Fri", "time": "1:45pm"}, {"days": "Sat", "time": "10:15am"}, {"days": "Sun", "time": "Closed"}], "id": "8771800001", "name": "USPS COLLECTION BOX - PO LOBBY", "address": {"city": "EAGLE NEST", "state": "NM", "street": "152 W THERMA DR", "postcode": "87718"}}},
{"geometry": {"type": "Point", "coordinates": [-105.2772859113, 36.5894870407]}, "type": "Feature", "properties": {"collection_times": [{"days": "Mon-Fri", "time": "1:45pm"}, {"days": "Sat", "time": "10:15am"}, {"days": "Sun", "time": "Closed"}], "id": "8771800002", "name": "USPS COLLECTION BOX - PO LOBBY", "address": {"city": "EAGLE NEST", "state": "NM", "street": "152 W THERMA DR", "postcode": "87718"}}},
{"geometry": {"type": "Point", "coordinates": [-105.1367020759, 36.1188889457]}, "type": "Feature", "properties": {"collection_times": [{"days": "Mon-Fri", "time": "11:00am"}, {"days": "Sat", "time": "10:30am"}, {"days": "Sun", "time": "Closed"}], "id": "8772200000", "name": "USPS COLLECTION BOX - BLUE BOX", "address": {"city": "GUADALUPITA", "state": "NM", "street": "1447 STATE HIGHWAY 434", "postcode": "87722"}}},
{"geometry": {"type": "Point", "coordinates": [-105.1367020759, 36.1188889457]}, "type": "Feature", "properties": {"collection_times": [{"days": "Mon-Fri", "time": "11:00am"}, {"days": "Sat", "time": "10:30am"}, {"days": "Sun", "time": "Closed"}], "id": "8772200001", "name": "USPS COLLECTION BOX - PO LOBBY", "address": {"city": "GUADALUPITA", "state": "NM", "street": "1447 STATE HIGHWAY 434", "postcode": "87722"}}},
{"geometry": {"type": "Point", "coordinates": [-105.1367020759, 36.1188889457]}, "type": "Feature", "properties": {"collection_times": [{"days": "Mon-Fri", "time": "11:00am"}, {"days": "Sat", "time": "10:30am"}, {"days": "Sun", "time": "Closed"}], "id": "8772200002", "name": "USPS COLLECTION BOX - PO LOBBY", "address": {"city": "GUADALUPITA", "state": "NM", "street": "1447 STATE HIGHWAY 434", "postcode": "87722"}}},
{"geometry": {"type": "Point", "coordinates": [-105.3846503724, 36.0524729295]}, "type": "Feature", "properties": {"collection_times": [{"days": "Mon-Fri", "time": "11:30am"}, {"days": "Sat", "time": "10:45am"}, {"days": "Sun", "time": "Closed"}], "id": "8772300000", "name": "USPS COLLECTION BOX - BLUE BOX", "address": {"city": "HOLMAN", "state": "NM", "street": "3543 STATE HIGHWAY 518", "postcode": "87723"}}},
{"geometry": {"type": "Point", "coordinates": [-105.3846503724, 36.0524729295]}, "type": "Feature", "properties": {"collection_times": [{"days": "Mon-Fri", "time": "11:30am"}, {"days": "Sat", "time": "10:45am"}, {"days": "Sun", "time": "Closed"}], "id": "8772300001", "name": "USPS COLLECTION BOX - PO LOBBY", "address": {"city": "HOLMAN", "state": "NM", "street": "3543 STATE HIGHWAY 518", "postcode": "87723"}}},
{"geometry": {"type": "Point", "coordinates": [-105.3846503724, 36.0524729295]}, "type": "Feature", "properties": {"collection_times": [{"days": "Mon-Fri", "time": "11:30am"}, {"days": "Sat", "time": "10:45am"}, {"days": "Sun", "time": "Closed"}], "id": "8772300002", "name": "USPS COLLECTION BOX - PO LOBBY", "address": {"city": "HOLMAN", "state": "NM", "street": "3543 STATE HIGHWAY 518", "postcode": "87723"}}},
{"geometry": {"type": "Point", "coordinates": [-104.5421681364, 36.5400080668]}, "type": "Feature", "properties": {"collection_times": [{"days": "Mon-Fri", "time": "3:00pm"}, {"days": "Sat", "time": "8:00am"}, {"days": "Sun", "time": "Closed"}], "id": "8772800000", "name": "USPS COLLECTION BOX - BLUE BOX", "address": {"city": "MAXWELL", "state": "NM", "street": "300 MAXWELL AVE", "postcode": "87728"}}},
{"geometry": {"type": "Point", "coordinates": [-104.5421681364, 36.5400080668]}, "type": "Feature", "properties": {"collection_times": [{"days": "Mon-Fri", "time": "3:00pm"}, {"days": "Sat", "time": "8:00am"}, {"days": "Sun", "time": "Closed"}], "id": "8772800001", "name": "USPS COLLECTION BOX - PO LOBBY", "address": {"city": "MAXWELL", "state": "NM", "street": "300 MAXWELL AVE", "postcode": "87728"}}},
{"geometry": {"type": "Point", "coordinates": [-104.2724271865, 36.1413742893]}, "type": "Feature", "properties": {"collection_times": [{"days": "Mon-Fri", "time": "1:30pm"}, {"days": "Sat", "time": "11:00am"}, {"days": "Sun", "time": "Closed"}], "id": "8773000001", "name": "USPS COLLECTION BOX - PO LOBBY", "address": {"city": "MILLS", "state": "NM", "street": "100 WILSON AVE", "postcode": "87730"}}},
{"geometry": {"type": "Point", "coordinates": [-104.2724271865, 36.1413742893]}, "type": "Feature", "properties": {"collection_times": [{"days": "Mon-Fri", "time": "1:30pm"}, {"days": "Sat", "time": "11:00am"}, {"days": "Sun", "time": "Closed"}], "id": "8773000002", "name": "USPS COLLECTION BOX - BLUE BOX", "address": {"city": "MILLS", "state": "NM", "street": "100 WILSON AVE", "postcode": "87730"}}},
{"geometry": {"type": "Point", "coordinates": [-105.4148036927, 35.6711527024]}, "type": "Feature", "properties": {"collection_times": [{"days": "Mon-Fri", "time": "4:30pm"}, {"days": "Sat", "time": "11:30am"}, {"days": "Sun", "time": "Closed"}], "id": "8773100000", "name": "USPS COLLECTION BOX - BLUE BOX", "address": {"city": "MONTEZUMA", "state": "NM", "street": "4 CAMPUS DR", "postcode": "87731"}}},
{"geometry": {"type": "Point", "coordinates": [-105.4148036927, 35.6711527024]}, "type": "Feature", "properties": {"collection_times": [{"days": "Mon-Fri", "time": "4:45pm"}, {"days": "Sat", "time": "11:45am"}, {"days": "Sun", "time": "Closed"}], "id": "8773100001", "name": "USPS COLLECTION BOX - PO LOBBY", "address": {"city": "MONTEZUMA", "state": "NM", "street": "4 CAMPUS DR", "postcode": "87731"}}},
{"geometry": {"type": "Point", "coordinates": [-105.3142930986, 36.0282513866]}, "type": "Feature", "properties": {"collection_times": [{"days": "Mon-Fri", "time": "3:15pm"}, {"days": "Sat", "time": "10:45am"}, {"days": "Sun", "time": "Closed"}], "id": "8773200001", "name": "USPS COLLECTION BOX - PO LOBBY", "address": {"city": "MORA", "state": "NM", "street": "401 MAIN ST", "postcode": "87732"}}},
{"geometry": {"type": "Point", "coordinates": [-105.3142930986, 36.0282513866]}, "type": "Feature", "properties": {"collection_times": [{"days": "Mon-Fri", "time": "3:15pm"}, {"days": "Sat", "time": "10:45am"}, {"days": "Sun", "time": "Closed"}], "id": "8773200002", "name": "USPS COLLECTION BOX - BLUE BOX", "address": {"city": "MORA", "state": "NM", "street": "401 MAIN ST", "postcode": "87732"}}},
{"geometry": {"type": "Point", "coordinates": [-105.3142930986, 36.0282513866]}, "type": "Feature", "properties": {"collection_times": [{"days": "Mon-Fri", "time": "3:15pm"}, {"days": "Sat", "time": "10:45am"}, {"days": "Sun", "time": "Closed"}], "id": "8773200003", "name": "USPS COLLECTION BOX - PO LOBBY", "address": {"city": "MORA", "state": "NM", "street": "401 MAIN ST", "postcode": "87732"}}},
{"geometry": {"type": "Point", "coordinates": [-103.954790836, 35.7769208727]}, "type": "Feature", "properties": {"collection_times": [{"days": "Mon-Fri", "time": "2:15pm"}, {"days": "Sat", "time": "10:45am"}, {"days": "Sun", "time": "Closed"}], "id": "8773300000", "name": "USPS COLLECTION BOX - BLUE BOX", "address": {"city": "MOSQUERO", "state": "NM", "street": "34 MAIN ST", "postcode": "87733"}}},
{"geometry": {"type": "Point", "coordinates": [-103.954790836, 35.7769208727]}, "type": "Feature", "properties": {"collection_times": [{"days": "Mon-Fri", "time": "2:15pm"}, {"days": "Sat", "time": "10:45am"}, {"days": "Sun", "time": "Closed"}], "id": "8773300001", "name": "USPS COLLECTION BOX - PO LOBBY", "address": {"city": "MOSQUERO", "state": "NM", "street": "34 MAIN ST", "postcode": "87733"}}},
{"geometry": {"type": "Point", "coordinates": [-105.0050492951, 36.0238242205]}, "type": "Feature", "properties": {"collection_times": [{"days": "Mon-Fri", "time": "11:45am"}, {"days": "Sat", "time": "11:15am"}, {"days": "Sun", "time": "Closed"}], "id": "8773400000", "name": "USPS COLLECTION BOX - BLUE BOX", "address": {"city": "OCATE", "state": "NM", "street": "1730 STATE HIGHWAY 120", "postcode": "87734"}}},
{"geometry": {"type": "Point", "coordinates": [-105.0050492951, 36.0238242205]}, "type": "Feature", "properties": {"collection_times": [{"days": "Mon-Fri", "time": "11:45am"}, {"days": "Sat", "time": "11:15am"}, {"days": "Sun", "time": "Closed"}], "id": "8773400001", "name": "USPS COLLECTION BOX - PO LOBBY", "address": {"city": "OCATE", "state": "NM", "street": "1730 STATE HIGHWAY 120", "postcode": "87734"}}},
{"geometry": {"type": "Point", "coordinates": [-105.1258955851, 36.0677009033]}, "type": "Feature", "properties": {"collection_times": [{"days": "Mon-Fri", "time": "11:15am"}, {"days": "Sat-Sun", "time": "Closed"}], "id": "8773500000", "name": "USPS COLLECTION BOX - BLUE BOX", "address": {"city": "OJO FELIZ", "state": "NM", "street": "138 SAN ISIDRO RD", "postcode": "87735"}}},
{"geometry": {"type": "Point", "coordinates": [-105.1258955851, 36.0677009033]}, "type": "Feature", "properties": {"collection_times": [{"days": "Mon-Fri", "time": "11:15am"}, {"days": "Sat-Sun", "time": "Closed"}], "id": "8773500001", "name": "USPS COLLECTION BOX - PO LOBBY", "address": {"city": "OJO FELIZ", "state": "NM", "street": "138 SAN ISIDRO RD", "postcode": "87735"}}},
{"geometry": {"type": "Point", "coordinates": [-105.2208622761, 35.9891769572]}, "type": "Feature", "properties": {"collection_times": [{"days": "Mon-Sat", "time": "8:45am"}, {"days": "Sun", "time": "Closed"}], "id": "8773600000", "name": "USPS COLLECTION BOX - BLUE BOX", "address": {"city": "RAINSVILLE", "state": "NM", "street": "42 COUNTY ROAD A029", "postcode": "87736"}}},
{"geometry": {"type": "Point", "coordinates": [-105.2208622761, 35.9891769572]}, "type": "Feature", "properties": {"collection_times": [{"days": "Mon-Sat", "time": "8:45am"}, {"days": "Sun", "time": "Closed"}], "id": "8773600001", "name": "USPS COLLECTION BOX - PO LOBBY", "address": {"city": "RAINSVILLE", "state": "NM", "street": "42 COUNTY ROAD A029", "postcode": "87736"}}},
{"geometry": {"type": "Point", "coordinates": [-105.2208622761, 35.9891769572]}, "type": "Feature", "properties": {"collection_times": [{"days": "Mon-Sat", "time": "8:45am"}, {"days": "Sun", "time": "Closed"}], "id": "8773600002", "name": "USPS COLLECTION BOX - PO LOBBY", "address": {"city": "RAINSVILLE", "state": "NM", "street": "42 COUNTY ROAD A029", "postcode": "87736"}}},
{"geometry": {"type": "Point", "coordinates": [-104.4401675126, 36.9022905226]}, "type": "Feature", "properties": {"collection_times": [{"days": "Mon-Sat", "time": "2:30pm"}, {"days": "Sun", "time": "Closed"}], "id": "8774000000", "name": "USPS COLLECTION BOX - BLUE BOX", "address": {"city": "RATON", "state": "NM", "street": "245 PARK AVE", "postcode": "87740"}}},
{"geometry": {"type": "Point", "coordinates": [-104.4401675126, 36.9022905226]}, "type": "Feature", "properties": {"collection_times": [{"days": "Mon-Sat", "time": "2:30pm"}, {"days": "Sun", "time": "Closed"}], "id": "8774000002", "name": "USPS COLLECTION BOX - PO LOBBY", "address": {"city": "RATON", "state": "NM", "street": "245 PARK AVE", "postcode": "87740"}}},
{"geometry": {"type": "Point", "coordinates": [-104.439958224, 36.8823693423]}, "type": "Feature", "properties": {"collection_times": [{"days": "Mon-Sat", "time": "12:00pm"}, {"days": "Sun", "time": "Closed"}], "id": "8774000010", "name": "USPS COLLECTION BOX - BLUE BOX", "address": {"city": "RATON", "state": "NM", "street": "1265 S 2ND ST", "postcode": "87740"}}},
{"geometry": {"type": "Point", "coordinates": [-104.4401675126, 36.9022905226]}, "type": "Feature", "properties": {"collection_times": [{"days": "Mon-Sat", "time": "2:30pm"}, {"days": "Sun", "time": "Closed"}], "id": "8774000013", "name": "USPS COLLECTION BOX - BLUE BOX", "address": {"city": "RATON", "state": "NM", "street": "245 PARK AVE", "postcode": "87740"}}},
{"geometry": {"type": "Point", "coordinates": [-104.4401675126, 36.9022905226]}, "type": "Feature", "properties": {"collection_times": [{"days": "Mon-Sat", "time": "2:30pm"}, {"days": "Sun", "time": "Closed"}], "id": "8774000014", "name": "USPS COLLECTION BOX - PO LOBBY", "address": {"city": "RATON", "state": "NM", "street": "245 PARK AVE", "postcode": "87740"}}},
{"geometry": {"type": "Point", "coordinates": [-105.3327135763, 35.8214447618]}, "type": "Feature", "properties": {"collection_times": [{"days": "Mon-Fri", "time": "10:00am"}, {"days": "Sat", "time": "9:00am"}, {"days": "Sun", "time": "Closed"}], "id": "8774200000", "name": "USPS COLLECTION BOX - BLUE BOX", "address": {"city": "ROCIADA", "state": "NM", "street": "302 STATE HIGHWAY 105", "postcode": "87742"}}},
{"geometry": {"type": "Point", "coordinates": [-105.3327135763, 35.8214447618]}, "type": "Feature", "properties": {"collection_times": [{"days": "Mon-Fri", "time": "12:45pm"}, {"days": "Sat", "time": "10:45am"}, {"days": "Sun", "time": "Closed"}], "id": "8774200001", "name": "USPS COLLECTION BOX - PO LOBBY", "address": {"city": "ROCIADA", "state": "NM", "street": "302 STATE HIGHWAY 105", "postcode": "87742"}}},
{"geometry": {"type": "Point", "coordinates": [-104.1967741312, 35.9440722953]}, "type": "Feature", "properties": {"collection_times": [{"days": "Mon-Fri", "time": "2:45pm"}, {"days": "Sat", "time": "9:45am"}, {"days": "Sun", "time": "Closed"}], "id": "8774300000", "name": "USPS COLLECTION BOX - BLUE BOX", "address": {"city": "ROY", "state": "NM", "street": "350 RICHELIEU ST", "postcode": "87743"}}},
{"geometry": {"type": "Point", "coordinates": [-104.1967741312, 35.9440722953]}, "type": "Feature", "properties": {"collection_times": [{"days": "Mon-Fri", "time": "2:45pm"}, {"days": "Sat", "time": "9:45am"}, {"days": "Sun", "time": "Closed"}], "id": "8774300001", "name": "USPS COLLECTION BOX - PO LOBBY", "address": {"city": "ROY", "state": "NM", "street": "350 RICHELIEU ST", "postcode": "87743"}}},
{"geometry": {"type": "Point", "coordinates": [-104.0699084909, 35.8466409632]}, "type": "Feature", "properties": {"collection_times": [{"days": "Mon-Fri", "time": "12:00pm"}, {"days": "Sat", "time": "10:00am"}, {"days": "Sun", "time": "Closed"}], "id": "8774600000", "name": "USPS COLLECTION BOX - BLUE BOX", "address": {"city": "SOLANO", "state": "NM", "street": "2979 HIGHWAY 39", "postcode": "87746"}}},
{"geometry": {"type": "Point", "coordinates": [-104.0699084909, 35.8466409632]}, "type": "Feature", "properties": {"collection_times": [{"days": "Mon-Fri", "time": "12:00pm"}, {"days": "Sat", "time": "10:00am"}, {"days": "Sun", "time": "Closed"}], "id": "8774600001", "name": "USPS COLLECTION BOX - PO LOBBY", "address": {"city": "SOLANO", "state": "NM", "street": "2979 HIGHWAY 39", "postcode": "87746"}}},
{"geometry": {"type": "Point", "coordinates": [-104.5955501767, 36.362168245]}, "type": "Feature", "properties": {"collection_times": [{"days": "Mon-Fri", "time": "2:15pm"}, {"days": "Sat", "time": "9:00am"}, {"days": "Sun", "time": "Closed"}], "id": "8774700001", "name": "USPS COLLECTION BOX - BLUE BOX", "address": {"city": "SPRINGER", "state": "NM", "street": "610 5TH ST", "postcode": "87747"}}},
{"geometry": {"type": "Point", "coordinates": [-104.5955501767, 36.362168245]}, "type": "Feature", "properties": {"collection_times": [{"days": "Mon-Fri", "time": "3:00pm"}, {"days": "Sat", "time": "9:15am"}, {"days": "Sun", "time": "Closed"}], "id": "8774700002", "name": "USPS COLLECTION BOX - PO LOBBY", "address": {"city": "SPRINGER", "state": "NM", "street": "610 5TH ST", "postcode": "87747"}}},
{"geometry": {"type": "Point", "coordinates": [-105.1043536428, 36.5606706791]}, "type": "Feature", "properties": {"collection_times": [{"days": "Mon-Fri", "time": "2:15pm"}, {"days": "Sat", "time": "9:45am"}, {"days": "Sun", "time": "Closed"}], "id": "8774900000", "name": "USPS COLLECTION BOX - BLUE BOX", "address": {"city": "UTE PARK", "state": "NM", "street": "9 HUMMINGBIRD LN", "postcode": "87749"}}},
{"geometry": {"type": "Point", "coordinates": [-105.1043536428, 36.5606706791]}, "type": "Feature", "properties": {"collection_times": [{"days": "Mon-Fri", "time": "12:30pm"}, {"days": "Sat", "time": "9:45am"}, {"days": "Sun", "time": "Closed"}], "id": "8774900001", "name": "USPS COLLECTION BOX - PO LOBBY", "address": {"city": "UTE PARK", "state": "NM", "street": "9 HUMMINGBIRD LN", "postcode": "87749"}}},
{"geometry": {"type": "Point", "coordinates": [-104.6159218543, 35.9933199663]}, "type": "Feature", "properties": {"collection_times": [{"days": "Mon-Fri", "time": "4:15pm"}, {"days": "Sat", "time": "10:45am"}, {"days": "Sun", "time": "Closed"}], "id": "8775200000", "name": "USPS COLLECTION BOX - BLUE BOX", "address": {"city": "WAGON MOUND", "state": "NM", "street": "504 RAILROAD AVE", "postcode": "87752"}}},
{"geometry": {"type": "Point", "coordinates": [-104.6159218543, 35.9933199663]}, "type": "Feature", "properties": {"collection_times": [{"days": "Mon-Fri", "time": "12:30pm"}, {"days": "Sat", "time": "10:30am"}, {"days": "Sun", "time": "Closed"}], "id": "8775200001", "name": "USPS COLLECTION BOX - PO LOBBY", "address": {"city": "WAGON MOUND", "state": "NM", "street": "504 RAILROAD AVE", "postcode": "87752"}}},
{"geometry": {"type": "Point", "coordinates": [-104.9817796782, 35.7907799589]}, "type": "Feature", "properties": {"collection_times": [{"days": "Mon-Fri", "time": "4:15pm"}, {"days": "Sat", "time": "9:30am"}, {"days": "Sun", "time": "Closed"}], "id": "8775300000", "name": "USPS COLLECTION BOX - BLUE BOX", "address": {"city": "WATROUS", "state": "NM", "street": "233 BRIDGE ST", "postcode": "87753"}}},
{"geometry": {"type": "Point", "coordinates": [-104.9817796782, 35.7907799589]}, "type": "Feature", "properties": {"collection_times": [{"days": "Mon-Fri", "time": "1:00pm"}, {"days": "Sat", "time": "9:30am"}, {"days": "Sun", "time": "Closed"}], "id": "8775300001", "name": "USPS COLLECTION BOX - PO LOBBY", "address": {"city": "WATROUS", "state": "NM", "street": "233 BRIDGE ST", "postcode": "87753"}}}
]}
