{"type": "FeatureCollection", "features": [
{"geometry": {"type": "Point", "coordinates": [-106.8939966465, 34.0571447718]}, "type": "Feature", "properties": {"collection_times": [{"days": "Mon-Sat", "time": "5:00pm"}, {"days": "Sun", "time": "Closed"}], "id": "8780100000", "name": "USPS COLLECTION BOX - BLUE BOX", "address": {"city": "SOCORRO", "state": "NM", "street": "124 PLAZA AVE", "postcode": "87801"}}},
{"geometry": {"type": "Point", "coordinates": [-106.8939966465, 34.0571447718]}, "type": "Feature", "properties": {"collection_times": [{"days": "Mon-Sat", "time": "5:00pm"}, {"days": "Sun", "time": "Closed"}], "id": "8780100001", "name": "USPS COLLECTION BOX - BLUE BOX", "address": {"city": "SOCORRO", "state": "NM", "street": "124 PLAZA AVE", "postcode": "87801"}}},
{"geometry": {"type": "Point", "coordinates": [-106.8991228698, 34.0595442317]}, "type": "Feature", "properties": {"collection_times": [{"days": "Mon-Fri", "time": "1:45pm"}, {"days": "Sat", "time": "1:30pm"}, {"days": "Sun", "time": "Closed"}], "id": "8780100003", "name": "USPS COLLECTION BOX - BLUE BOX", "address": {"city": "SOCORRO", "state": "NM", "street": "214 NEEL AVE", "postcode": "87801"}}},
{"geometry": {"type": "Point", "coordinates": [-106.9023459995, 34.0687028861]}, "type": "Feature", "properties": {"collection_times": [{"days": "Mon-Sat", "time": "12:00pm"}, {"days": "Sun", "time": "Closed"}], "id": "8780100005", "name": "USPS COLLECTION BOX - BLUE BOX", "address": {"city": "SOCORRO", "state": "NM", "street": "1000 BURSUM PL", "postcode": "87801"}}},
{"geometry": {"type": "Point", "coordinates": [-106.8912995964, 34.0637805082]}, "type": "Feature", "properties": {"collection_times": [{"days": "Mon-Sat", "time": "12:00pm"}, {"days": "Sun", "time": "Closed"}], "id": "8780100007", "name": "USPS COLLECTION BOX - BLUE BOX", "address": {"city": "SOCORRO", "state": "NM", "street": "700 6TH ST N", "postcode": "87801"}}},
{"geometry": {"type": "Point", "coordinates": [-106.8939966465, 34.0571447718]}, "type": "Feature", "properties": {"collection_times": [{"days": "Mon-Sat", "time": "5:00pm"}, {"days": "Sun", "time": "Closed"}], "id": "8780100009", "name": "USPS COLLECTION BOX - PO LOBBY", "address": {"city": "SOCORRO", "state": "NM", "street": "124 PLAZA AVE", "postcode": "87801"}}},
{"geometry": {"type": "Point", "coordinates": [-106.8939966465, 34.0571447718]}, "type": "Feature", "properties": {"collection_times": [{"days": "Mon-Sat", "time": "5:00pm"}, {"days": "Sun", "time": "Closed"}], "id": "8780100011", "name": "USPS COLLECTION BOX - PO LOBBY", "address": {"city": "SOCORRO", "state": "NM", "street": "124 PLAZA AVE", "postcode": "87801"}}},
{"geometry": {"type": "Point", "coordinates": [-108.0768546898, 33.8593534466]}, "type": "Feature", "properties": {"collection_times": [{"days": "Mon-Fri", "time": "3:15pm"}, {"days": "Sat", "time": "8:30am"}, {"days": "Sun", "time": "Closed"}], "id": "8782100000", "name": "USPS COLLECTION BOX - BLUE BOX", "address": {"city": "DATIL", "state": "NM", "street": "101 W HIGHWAY 60", "postcode": "87821"}}},
{"geometry": {"type": "Point", "coordinates": [-108.0768546898, 33.8593534466]}, "type": "Feature", "properties": {"collection_times": [{"days": "Mon-Fri", "time": "3:15pm"}, {"days": "Sat", "time": "8:30am"}, {"days": "Sun", "time": "Closed"}], "id": "8782100001", "name": "USPS COLLECTION BOX - PO LOBBY", "address": {"city": "DATIL", "state": "NM", "street": "101 W HIGHWAY 60", "postcode": "87821"}}},
{"geometry": {"type": "Point", "coordinates": [-106.911637905, 34.1596973224]}, "type": "Feature", "properties": {"collection_times": [{"days": "Mon-Sat", "time": "10:30am"}, {"days": "Sun", "time": "Closed"}], "id": "8782300001", "name": "USPS COLLECTION BOX - PO LOBBY", "address": {"city": "LEMITAR", "state": "NM", "street": "5 CHAMBON RD", "postcode": "87823"}}},
{"geometry": {"type": "Point", "coordinates": [-108.9552152418, 33.8182671856]}, "type": "Feature", "properties": {"collection_times": [{"days": "Mon-Fri", "time": "11:15am"}, {"days": "Sat", "time": "11:00am"}, {"days": "Sun", "time": "Closed"}], "id": "8782400000", "name": "USPS COLLECTION BOX - BLUE BOX", "address": {"city": "LUNA", "state": "NM", "street": "747 US HIGHWAY 180", "postcode": "87824"}}},
{"geometry": {"type": "Point", "coordinates": [-108.9552152418, 33.8182671856]}, "type": "Feature", "properties": {"collection_times": [{"days": "Mon-Sat", "time": "11:30am"}, {"days": "Sun", "time": "Closed"}], "id": "8782400001", "name": "USPS COLLECTION BOX - PO LOBBY", "address": {"city": "LUNA", "state": "NM", "street": "747 US HIGHWAY 180", "postcode": "87824"}}},
{"geometry": {"type": "Point", "coordinates": [-107.2375829023, 34.1191060059]}, "type": "Feature", "properties": {"collection_times": [{"days": "Mon-Fri", "time": "4:30pm"}, {"days": "Sat", "time": "12:00pm"}, {"days": "Sun", "time": "Closed"}], "id": "8782500000", "name": "USPS COLLECTION BOX - BLUE BOX", "address": {"city": "MAGDALENA", "state": "NM", "street": "100 E 1ST ST", "postcode": "87825"}}},
{"geometry": {"type": "Point", "coordinates": [-107.2375829023, 34.1191060059]}, "type": "Feature", "properties": {"collection_times": [{"days": "Mon-Fri", "time": "4:30pm"}, {"days": "Sat", "time": "12:00pm"}, {"days": "Sun", "time": "Closed"}], "id": "8782500001", "name": "USPS COLLECTION BOX - PO LOBBY", "address": {"city": "MAGDALENA", "state": "NM", "street": "100 E 1ST ST", "postcode": "87825"}}},
{"geometry": {"type": "Point", "coordinates": [-107.2375829023, 34.1191060059]}, "type": "Feature", "properties": {"collection_times": [{"days": "Mon-Fri", "time": "4:30pm"}, {"days": "Sat", "time": "12:00pm"}, {"days": "Sun", "time": "Closed"}], "id": "8782500002", "name": "USPS COLLECTION BOX - PO LOBBY", "address": {"city": "MAGDALENA", "state": "NM", "street": "100 E 1ST ST", "postcode": "87825"}}},
{"geometry": {"type": "Point", "coordinates": [-108.2717295621, 34.3349115021]}, "type": "Feature", "properties": {"collection_times": [{"days": "Mon-Fri", "time": "12:00pm"}, {"days": "Sat", "time": "9:15am"}, {"days": "Sun", "time": "Closed"}], "id": "8782700000", "name": "USPS COLLECTION BOX - PO LOBBY", "address": {"city": "PIE TOWN", "state": "NM", "street": "17 FRONTAGE RD", "postcode": "87827"}}},
{"geometry": {"type": "Point", "coordinates": [-106.9128096628, 34.2172794924]}, "type": "Feature", "properties": {"collection_times": [{"days": "Mon-Sat", "time": "10:00am"}, {"days": "Sun", "time": "Closed"}], "id": "8782800000", "name": "USPS COLLECTION BOX - BLUE BOX", "address": {"city": "POLVADERA", "state": "NM", "street": "15 CORREO ST", "postcode": "87828"}}},
{"geometry": {"type": "Point", "coordinates": [-106.9128096628, 34.2172794924]}, "type": "Feature", "properties": {"collection_times": [{"days": "Mon-Sat", "time": "10:15am"}, {"days": "Sun", "time": "Closed"}], "id": "8782800001", "name": "USPS COLLECTION BOX - PO LOBBY", "address": {"city": "POLVADERA", "state": "NM", "street": "15 CORREO ST", "postcode": "87828"}}},
{"geometry": {"type": "Point", "coordinates": [-108.5414330827, 34.3385384223]}, "type": "Feature", "properties": {"collection_times": [{"days": "Mon-Fri", "time": "3:00pm"}, {"days": "Sat", "time": "10:45am"}, {"days": "Sun", "time": "Closed"}], "id": "8782900000", "name": "USPS COLLECTION BOX - BLUE BOX", "address": {"city": "QUEMADO", "state": "NM", "street": "3476 W HIGHWAY 60", "postcode": "87829"}}},
{"geometry": {"type": "Point", "coordinates": [-108.5414330827, 34.3385384223]}, "type": "Feature", "properties": {"collection_times": [{"days": "Mon-Fri", "time": "3:00pm"}, {"days": "Sat", "time": "10:45am"}, {"days": "Sun", "time": "Closed"}], "id": "8782900001", "name": "USPS COLLECTION BOX - PO LOBBY", "address": {"city": "QUEMADO", "state": "NM", "street": "3476 W HIGHWAY 60", "postcode": "87829"}}},
{"geometry": {"type": "Point", "coordinates": [-108.7663744434, 33.6618032361]}, "type": "Feature", "properties": {"collection_times": [{"days": "Mon-Fri", "time": "2:15pm"}, {"days": "Sat", "time": "11:15am"}, {"days": "Sun", "time": "Closed"}], "id": "8783000000", "name": "USPS COLLECTION BOX - BLUE BOX", "address": {"city": "RESERVE", "state": "NM", "street": "10 BALKE ST", "postcode": "87830"}}},
{"geometry": {"type": "Point", "coordinates": [-108.7663744434, 33.6618032361]}, "type": "Feature", "properties": {"collection_times": [{"days": "Mon-Fri", "time": "2:15pm"}, {"days": "Sat", "time": "11:15am"}, {"days": "Sun", "time": "Closed"}], "id": "8783000001", "name": "USPS COLLECTION BOX - PO LOBBY", "address": {"city": "RESERVE", "state": "NM", "street": "10 BALKE ST", "postcode": "87830"}}},
{"geometry": {"type": "Point", "coordinates": [-106.1084022185, 34.4213291361]}, "type": "Feature", "properties": {"collection_times": [{"days": "Mon-Fri", "time": "9:00am"}, {"days": "Sat-Sun", "time": "Closed"}], "id": "8783000002", "name": "USPS COLLECTION BOX - BLUE BOX", "address": {"city": "RESERVE", "state": "NM", "street": "PO BOX/2613 HIGHWAY TWELVE ARAGON", "postcode": "87830"}}},
{"geometry": {"type": "Point", "coordinates": [-106.8674753832, 33.9179665115]}, "type": "Feature", "properties": {"collection_times": [{"days": "Mon-Fri", "time": "12:00pm"}, {"days": "Sat", "time": "9:30am"}, {"days": "Sun", "time": "Closed"}], "id": "8783200001", "name": "USPS COLLECTION BOX - PO LOBBY", "address": {"city": "SAN ANTONIO", "state": "NM", "street": "65A HIGHWAY 380", "postcode": "87832"}}}
]}
