{"type": "FeatureCollection", "features": [
{"geometry": {"type": "Point", "coordinates": [-107.2507261262, 33.1290673682]}, "type": "Feature", "properties": {"collection_times": [{"days": "Mon-Sat", "time": "4:05pm"}, {"days": "Sun", "time": "Closed"}], "id": "8790100002", "name": "USPS COLLECTION BOX - BLUE BOX", "address": {"city": "T  OR  C", "state": "NM", "street": "100 N BROADWAY ST", "postcode": "87901"}}},
{"geometry": {"type": "Point", "coordinates": [-107.2502993683, 33.1333049377]}, "type": "Feature", "properties": {"collection_times": [{"days": "Mon-Sat", "time": "4:10pm"}, {"days": "Sun", "time": "Closed"}], "id": "8790100003", "name": "USPS COLLECTION BOX - BLUE BOX", "address": {"city": "T  OR  C", "state": "NM", "street": "311 N DATE ST", "postcode": "87901"}}},
{"geometry": {"type": "Point", "coordinates": [-107.2468975802, 33.133232442]}, "type": "Feature", "properties": {"collection_times": [{"days": "Mon-Sat", "time": "4:10pm"}, {"days": "Sun", "time": "Closed"}], "id": "8790100005", "name": "USPS COLLECTION BOX - BLUE BOX", "address": {"city": "T  OR  C", "state": "NM", "street": "424 E 3RD AVE", "postcode": "87901"}}},
{"geometry": {"type": "Point", "coordinates": [-107.2631718934, 33.1236494059]}, "type": "Feature", "properties": {"collection_times": [{"days": "Mon-Sat", "time": "4:05pm"}, {"days": "Sun", "time": "Closed"}], "id": "8790100009", "name": "USPS COLLECTION BOX - BLUE BOX", "address": {"city": "T  OR  C", "state": "NM", "street": "992 S BROADWAY ST", "postcode": "87901"}}},
{"geometry": {"type": "Point", "coordinates": [-107.2482070708, 33.1448476787]}, "type": "Feature", "properties": {"collection_times": [{"days": "Mon-Sat", "time": "5:00pm"}, {"days": "Sun", "time": "Closed"}], "id": "8790100013", "name": "USPS COLLECTION BOX - PO LOBBY", "address": {"city": "T  OR  C", "state": "NM", "street": "1507 N DATE ST", "postcode": "87901"}}},
{"geometry": {"type": "Point", "coordinates": [-107.2529066523, 33.1300095399]}, "type": "Feature", "properties": {"collection_times": [{"days": "Mon-Sat", "time": "3:30pm"}, {"days": "Sun", "time": "Closed"}], "id": "8790100016", "name": "USPS COLLECTION BOX - PO LOBBY", "address": {"city": "T  OR  C", "state": "NM", "street": "300 MAIN ST", "postcode": "87901"}}},
{"geometry": {"type": "Point", "coordinates": [-107.2482070708, 33.1448476787]}, "type": "Feature", "properties": {"collection_times": [{"days": "Mon-Sat", "time": "5:00pm"}, {"days": "Sun", "time": "Closed"}], "id": "8790100017", "name": "USPS COLLECTION BOX - PO LOBBY", "address": {"city": "T  OR  C", "state": "NM", "street": "1507 N DATE ST", "postcode": "87901"}}},
{"geometry": {"type": "Point", "coordinates": [-107.2482070708, 33.1448476787]}, "type": "Feature", "properties": {"collection_times": [{"days": "Mon-Sat", "time": "5:00pm"}, {"days": "Sun", "time": "Closed"}], "id": "8790100018", "name": "USPS COLLECTION BOX - BLUE BOX", "address": {"city": "T  OR  C", "state": "NM", "street": "1507 N DATE ST", "postcode": "87901"}}},
{"geometry": {"type": "Point", "coordinates": [-107.2505617675, 33.1316824935]}, "type": "Feature", "properties": {"collection_times": [{"days": "Mon-Sat", "time": "4:00pm"}, {"days": "Sun", "time": "Closed"}], "id": "8790100019", "name": "USPS COLLECTION BOX - BLUE BOX", "address": {"city": "T  OR  C", "state": "NM", "street": "100 N DATE ST", "postcode": "87901"}}},
{"geometry": {"type": "Point", "coordinates": [-107.4178406112, 32.751747812]}, "type": "Feature", "properties": {"collection_times": [{"days": "Mon-Fri", "time": "3:45pm"}, {"days": "Sat", "time": "10:15am"}, {"days": "Sun", "time": "Closed"}], "id": "8793000000", "name": "USPS COLLECTION BOX - BLUE BOX", "address": {"city": "ARREY", "state": "NM", "street": "13717 HIGHWAY 187", "postcode": "87930"}}},
{"geometry": {"type": "Point", "coordinates": [-107.4178406112, 32.751747812]}, "type": "Feature", "properties": {"collection_times": [{"days": "Mon-Fri", "time": "3:45pm"}, {"days": "Sat", "time": "10:15am"}, {"days": "Sun", "time": "Closed"}], "id": "8793000001", "name": "USPS COLLECTION BOX - PO LOBBY", "address": {"city": "ARREY", "state": "NM", "street": "13717 HIGHWAY 187", "postcode": "87930"}}},
{"geometry": {"type": "Point", "coordinates": [-107.3903327926, 32.9399251038]}, "type": "Feature", "properties": {"collection_times": [{"days": "Mon-Fri", "time": "3:30pm"}, {"days": "Sat", "time": "10:00am"}, {"days": "Sun", "time": "Closed"}], "id": "8793100000", "name": "USPS COLLECTION BOX - BLUE BOX", "address": {"city": "CABALLO", "state": "NM", "street": "14730 HIGHWAY 187", "postcode": "87931"}}},
{"geometry": {"type": "Point", "coordinates": [-107.3903327926, 32.9399251038]}, "type": "Feature", "properties": {"collection_times": [{"days": "Mon-Fri", "time": "11:45am"}, {"days": "Sat", "time": "10:00am"}, {"days": "Sun", "time": "Closed"}], "id": "8793100001", "name": "USPS COLLECTION BOX - PO LOBBY", "address": {"city": "CABALLO", "state": "NM", "street": "14730 HIGHWAY 187", "postcode": "87931"}}},
{"geometry": {"type": "Point", "coordinates": [-107.0383162563, 32.8500576102]}, "type": "Feature", "properties": {"collection_times": [{"days": "Mon-Fri", "time": "1:00pm"}, {"days": "Sat", "time": "11:00am"}, {"days": "Sun", "time": "Closed"}], "id": "8793300000", "name": "USPS COLLECTION BOX - PO LOBBY", "address": {"city": "DERRY", "state": "NM", "street": "13125 HIGHWAY 187", "postcode": "87933"}}},
{"geometry": {"type": "Point", "coordinates": [-107.0383162563, 32.8500576102]}, "type": "Feature", "properties": {"collection_times": [{"days": "Mon-Fri", "time": "3:30pm"}, {"days": "Sat", "time": "11:00am"}, {"days": "Sun", "time": "Closed"}], "id": "8793300001", "name": "USPS COLLECTION BOX - BLUE BOX", "address": {"city": "DERRY", "state": "NM", "street": "13125 HIGHWAY 187", "postcode": "87933"}}},
{"geometry": {"type": "Point", "coordinates": [-107.1893655941, 33.148712303]}, "type": "Feature", "properties": {"collection_times": [{"days": "Mon-Fri", "time": "4:00pm"}, {"days": "Sat", "time": "10:30am"}, {"days": "Sun", "time": "Closed"}], "id": "8793500000", "name": "USPS COLLECTION BOX - BLUE BOX", "address": {"city": "ELEPHANT BUTTE", "state": "NM", "street": "109 ODESSA ST", "postcode": "87935"}}},
{"geometry": {"type": "Point", "coordinates": [-107.1893655941, 33.148712303]}, "type": "Feature", "properties": {"collection_times": [{"days": "Mon-Fri", "time": "4:00pm"}, {"days": "Sat", "time": "10:30am"}, {"days": "Sun", "time": "Closed"}], "id": "8793500001", "name": "USPS COLLECTION BOX - PO LOBBY", "address": {"city": "ELEPHANT BUTTE", "state": "NM", "street": "109 ODESSA ST", "postcode": "87935"}}},
{"geometry": {"type": "Point", "coordinates": [-107.1893655941, 33.148712303]}, "type": "Feature", "properties": {"collection_times": [{"days": "Mon-Fri", "time": "4:00pm"}, {"days": "Sat", "time": "10:30am"}, {"days": "Sun", "time": "Closed"}], "id": "8793500002", "name": "USPS COLLECTION BOX - PO LOBBY", "address": {"city": "ELEPHANT BUTTE", "state": "NM", "street": "109 ODESSA ST", "postcode": "87935"}}},
{"geometry": {"type": "Point", "coordinates": [-107.26316543, 32.7535252141]}, "type": "Feature", "properties": {"collection_times": [{"days": "Mon-Fri", "time": "3:30pm"}, {"days": "Sat", "time": "9:45am"}, {"days": "Sun", "time": "Closed"}], "id": "8793600000", "name": "USPS COLLECTION BOX - BLUE BOX", "address": {"city": "GARFIELD", "state": "NM", "street": "8960 HIGHWAY 187", "postcode": "87936"}}},
{"geometry": {"type": "Point", "coordinates": [-107.26316543, 32.7535252141]}, "type": "Feature", "properties": {"collection_times": [{"days": "Mon-Fri", "time": "1:00pm"}, {"days": "Sat", "time": "9:45am"}, {"days": "Sun", "time": "Closed"}], "id": "8793600001", "name": "USPS COLLECTION BOX - PO LOBBY", "address": {"city": "GARFIELD", "state": "NM", "street": "8960 HIGHWAY 187", "postcode": "87936"}}},
{"geometry": {"type": "Point", "coordinates": [-107.1515056142, 32.6665079374]}, "type": "Feature", "properties": {"collection_times": [{"days": "Mon-Fri", "time": "3:00pm"}, {"days": "Sat", "time": "11:45am"}, {"days": "Sun", "time": "Closed"}], "id": "8793700000", "name": "USPS COLLECTION BOX - BLUE BOX", "address": {"city": "HATCH", "state": "NM", "street": "107 DAVIS ST", "postcode": "87937"}}},
{"geometry": {"type": "Point", "coordinates": [-107.1515056142, 32.6665079374]}, "type": "Feature", "properties": {"collection_times": [{"days": "Mon-Fri", "time": "3:00pm"}, {"days": "Sat", "time": "11:45am"}, {"days": "Sun", "time": "Closed"}], "id": "8793700002", "name": "USPS COLLECTION BOX - PO LOBBY", "address": {"city": "HATCH", "state": "NM", "street": "107 DAVIS ST", "postcode": "87937"}}},
{"geometry": {"type": "Point", "coordinates": [-107.1515056142, 32.6665079374]}, "type": "Feature", "properties": {"collection_times": [{"days": "Mon-Fri", "time": "3:00pm"}, {"days": "Sat", "time": "11:45am"}, {"days": "Sun", "time": "Closed"}], "id": "8793700003", "name": "USPS COLLECTION BOX - PO LOBBY", "address": {"city": "HATCH", "state": "NM", "street": "107 DAVIS ST", "postcode": "87937"}}},
{"geometry": {"type": "Point", "coordinates": [-107.4334962412, 33.3768662226]}, "type": "Feature", "properties": {"collection_times": [{"days": "Mon-Sat", "time": "9:00am"}, {"days": "Sun", "time": "Closed"}], "id": "8793900000", "name": "USPS COLLECTION BOX - BLUE BOX", "address": {"city": "MONTICELLO", "state": "NM", "street": "355 CALLE DEL NORTE RD", "postcode": "87939"}}},
{"geometry": {"type": "Point", "coordinates": [-107.4334962412, 33.3768662226]}, "type": "Feature", "properties": {"collection_times": [{"days": "Mon-Sat", "time": "9:00am"}, {"days": "Sun", "time": "Closed"}], "id": "8793900001", "name": "USPS COLLECTION BOX - PO LOBBY", "address": {"city": "MONTICELLO", "state": "NM", "street": "355 CALLE DEL NORTE RD", "postcode": "87939"}}},
{"geometry": {"type": "Point", "coordinates": [-107.0653924006, 32.6721912393]}, "type": "Feature", "properties": {"collection_times": [{"days": "Mon-Fri", "time": "3:00pm"}, {"days": "Sat", "time": "10:00am"}, {"days": "Sun", "time": "Closed"}], "id": "8794000000", "name": "USPS COLLECTION BOX - BLUE BOX", "address": {"city": "RINCON", "state": "NM", "street": "2203 RINCON RD", "postcode": "87940"}}},
{"geometry": {"type": "Point", "coordinates": [-107.2470430608, 32.7271373647]}, "type": "Feature", "properties": {"collection_times": [{"days": "Mon-Fri", "time": "3:00pm"}, {"days": "Sat", "time": "10:30am"}, {"days": "Sun", "time": "Closed"}], "id": "8794100000", "name": "USPS COLLECTION BOX - BLUE BOX", "address": {"city": "SALEM", "state": "NM", "street": "4550 HIGHWAY 187 N", "postcode": "87941"}}},
{"geometry": {"type": "Point", "coordinates": [-107.2470430608, 32.7271373647]}, "type": "Feature", "properties": {"collection_times": [{"days": "Mon-Fri", "time": "3:00pm"}, {"days": "Sat", "time": "10:30am"}, {"days": "Sun", "time": "Closed"}], "id": "8794100001", "name": "USPS COLLECTION BOX - PO LOBBY", "address": {"city": "SALEM", "state": "NM", "street": "4550 HIGHWAY 187 N", "postcode": "87941"}}},
{"geometry": {"type": "Point", "coordinates": [-107.2931634581, 33.1150152178]}, "type": "Feature", "properties": {"collection_times": [{"days": "Mon-Fri", "time": "4:00pm"}, {"days": "Sat", "time": "10:30am"}, {"days": "Sun", "time": "Closed"}], "id": "8794200001", "name": "USPS COLLECTION BOX - PO LOBBY", "address": {"city": "WILLIAMSBURG", "state": "NM", "street": "105 CENTRAL ST", "postcode": "87942"}}},
{"geometry": {"type": "Point", "coordinates": [-107.2931634581, 33.1150152178]}, "type": "Feature", "properties": {"collection_times": [{"days": "Mon-Fri", "time": "4:00pm"}, {"days": "Sat", "time": "10:30am"}, {"days": "Sun", "time": "Closed"}], "id": "8794200002", "name": "USPS COLLECTION BOX - BLUE BOX", "address": {"city": "WILLIAMSBURG", "state": "NM", "street": "105 CENTRAL ST", "postcode": "87942"}}},
{"geometry": {"type": "Point", "coordinates": [-107.6481341097, 33.3493474456]}, "type": "Feature", "properties": {"collection_times": [{"days": "Mon-Fri", "time": "11:00am"}, {"days": "Sat", "time": "9:00am"}, {"days": "Sun", "time": "Closed"}], "id": "8794300000", "name": "USPS COLLECTION BOX - PO LOBBY", "address": {"city": "WINSTON", "state": "NM", "street": "451 GRAFTON RD", "postcode": "87943"}}}
]}
