{"type": "FeatureCollection", "features": [
{"geometry": {"type": "Point", "coordinates": [-106.7765055407, 32.3074140128]}, "type": "Feature", "properties": {"collection_times": [{"days": "Mon-Fri", "time": "4:40pm"}, {"days": "Sat", "time": "12:30pm"}, {"days": "Sun", "time": "Closed"}], "id": "8800100001", "name": "USPS COLLECTION BOX - BLUE BOX", "address": {"city": "LAS CRUCES", "state": "NM", "street": "277 E AMADOR AVE", "postcode": "88001"}}},
{"geometry": {"type": "Point", "coordinates": [-106.7795350986, 32.3091541455]}, "type": "Feature", "properties": {"collection_times": [{"days": "Mon-Fri", "time": "11:20am"}, {"days": "Sat", "time": "12:25pm"}, {"days": "Sun", "time": "Closed"}], "id": "8800100006", "name": "USPS COLLECTION BOX - BLUE BOX", "address": {"city": "LAS CRUCES", "state": "NM", "street": "110 S WATER ST", "postcode": "88001"}}},
{"geometry": {"type": "Point", "coordinates": [-106.7632202347, 32.2990333114]}, "type": "Feature", "properties": {"collection_times": [{"days": "Mon-Fri", "time": "1:15pm"}, {"days": "Sat", "time": "10:00am"}, {"days": "Sun", "time": "Closed"}], "id": "8800100007", "name": "USPS COLLECTION BOX - BLUE BOX", "address": {"city": "LAS CRUCES", "state": "NM", "street": "1206 E IDAHO AVE", "postcode": "88001"}}},
{"geometry": {"type": "Point", "coordinates": [-106.7723722821, 32.3311666459]}, "type": "Feature", "properties": {"collection_times": [{"days": "Mon-Fri", "time": "10:05am"}, {"days": "Sat", "time": "8:30am"}, {"days": "Sun", "time": "Closed"}], "id": "8800100015", "name": "USPS COLLECTION BOX - BLUE BOX", "address": {"city": "LAS CRUCES", "state": "NM", "street": "2100 DESERT DR", "postcode": "88001"}}},
{"geometry": {"type": "Point", "coordinates": [-106.7779804168, 32.3114715814]}, "type": "Feature", "properties": {"collection_times": [{"days": "Mon-Fri", "time": "6:00pm"}, {"days": "Sat", "time": "2:00pm"}, {"days": "Sun", "time": "Closed"}], "id": "8800100024", "name": "USPS COLLECTION BOX - PO LOBBY", "address": {"city": "LAS CRUCES", "state": "NM", "street": "201 E LAS CRUCES AVE", "postcode": "88001"}}},
{"geometry": {"type": "Point", "coordinates": [-106.7779804168, 32.3114715814]}, "type": "Feature", "properties": {"collection_times": [{"days": "Mon-Fri", "time": "6:00pm"}, {"days": "Sat", "time": "2:00pm"}, {"days": "Sun", "time": "Closed"}], "id": "8800100025", "name": "USPS COLLECTION BOX - PO LOBBY", "address": {"city": "LAS CRUCES", "state": "NM", "street": "201 E LAS CRUCES AVE", "postcode": "88001"}}},
{"geometry": {"type": "Point", "coordinates": [-106.7779804168, 32.3114715814]}, "type": "Feature", "properties": {"collection_times": [{"days": "Mon-Fri", "time": "6:00pm"}, {"days": "Sat", "time": "2:00pm"}, {"days": "Sun", "time": "Closed"}], "id": "8800100028", "name": "USPS COLLECTION BOX - BLUE BOX", "address": {"city": "LAS CRUCES", "state": "NM", "street": "201 E LAS CRUCES AVE", "postcode": "88001"}}},
{"geometry": {"type": "Point", "coordinates": [-106.7779804168, 32.3114715814]}, "type": "Feature", "properties": {"collection_times": [{"days": "Mon-Fri", "time": "6:00pm"}, {"days": "Sat", "time": "2:00pm"}, {"days": "Sun", "time": "Closed"}], "id": "8800100029", "name": "USPS COLLECTION BOX - BLUE BOX", "address": {"city": "LAS CRUCES", "state": "NM", "street": "201 E LAS CRUCES AVE", "postcode": "88001"}}},
{"geometry": {"type": "Point", "coordinates": [-106.7774229821, 32.3058669768]}, "type": "Feature", "properties": {"collection_times": [{"days": "Mon-Fri", "time": "4:40pm"}, {"days": "Sat", "time": "12:35pm"}, {"days": "Sun", "time": "Closed"}], "id": "8800100034", "name": "USPS COLLECTION BOX - BLUE BOX", "address": {"city": "LAS CRUCES", "state": "NM", "street": "505 S MAIN ST", "postcode": "88001"}}},
{"geometry": {"type": "Point", "coordinates": [-106.74688552, 32.2860418185]}, "type": "Feature", "properties": {"collection_times": [{"days": "Mon-Fri", "time": "10:10am"}, {"days": "Sat", "time": "10:55am"}, {"days": "Sun", "time": "Closed"}], "id": "8800100036", "name": "USPS COLLECTION BOX - BLUE BOX", "address": {"city": "LAS CRUCES", "state": "NM", "street": "1715 E UNIVERSITY AVE", "postcode": "88001"}}},
{"geometry": {"type": "Point", "coordinates": [-106.7712579347, 32.3200669419]}, "type": "Feature", "properties": {"collection_times": [{"days": "Mon-Fri", "time": "12:20pm"}, {"days": "Sat-Sun", "time": "Closed"}], "id": "8800100038", "name": "USPS COLLECTION BOX - BLUE BOX", "address": {"city": "LAS CRUCES", "state": "NM", "street": "1170 N SOLANO DR", "postcode": "88001"}}},
{"geometry": {"type": "Point", "coordinates": [-106.78388773, 32.3288212896]}, "type": "Feature", "properties": {"collection_times": [{"days": "Mon-Fri", "time": "10:05am"}, {"days": "Sat", "time": "8:20am"}, {"days": "Sun", "time": "Closed"}], "id": "8800100039", "name": "USPS COLLECTION BOX - BLUE BOX", "address": {"city": "LAS CRUCES", "state": "NM", "street": "2125 N MAIN ST", "postcode": "88001"}}},
{"geometry": {"type": "Point", "coordinates": [-106.7567432018, 32.3112353206]}, "type": "Feature", "properties": {"collection_times": [{"days": "Mon-Sat", "time": "2:00pm"}, {"days": "Sun", "time": "Closed"}], "id": "8800100040", "name": "USPS COLLECTION BOX - BLUE BOX", "address": {"city": "LAS CRUCES", "state": "NM", "street": "2001 E LOHMAN AVE", "postcode": "88001"}}},
{"geometry": {"type": "Point", "coordinates": [-106.7738273216, 32.3008000893]}, "type": "Feature", "properties": {"collection_times": [{"days": "Mon-Fri", "time": "10:55am"}, {"days": "Sat-Sun", "time": "Closed"}], "id": "8800100042", "name": "USPS COLLECTION BOX - BLUE BOX", "address": {"city": "LAS CRUCES", "state": "NM", "street": "320 WYATT DR", "postcode": "88001"}}},
{"geometry": {"type": "Point", "coordinates": [-106.7503712174, 32.3109742188]}, "type": "Feature", "properties": {"collection_times": [{"days": "Mon-Sat", "time": "2:00pm"}, {"days": "Sun", "time": "Closed"}], "id": "8800100043", "name": "USPS COLLECTION BOX - BLUE BOX", "address": {"city": "LAS CRUCES", "state": "NM", "street": "571 WALTON BLVD", "postcode": "88001"}}},
{"geometry": {"type": "Point", "coordinates": [-106.7621254915, 32.284375887]}, "type": "Feature", "properties": {"collection_times": [{"days": "Mon-Fri", "time": "2:55pm"}, {"days": "Sat-Sun", "time": "Closed"}], "id": "8800100045", "name": "USPS COLLECTION BOX - BLUE BOX", "address": {"city": "LAS CRUCES", "state": "NM", "street": "2540 EL PASEO RD", "postcode": "88001"}}},
{"geometry": {"type": "Point", "coordinates": [-106.7779804168, 32.3114715814]}, "type": "Feature", "properties": {"collection_times": [{"days": "Mon-Fri", "time": "6:00pm"}, {"days": "Sat", "time": "2:00pm"}, {"days": "Sun", "time": "Closed"}], "id": "8800100048", "name": "USPS COLLECTION BOX - APC", "address": {"city": "LAS CRUCES", "state": "NM", "street": "201 E LAS CRUCES AVE", "postcode": "88001"}}},
{"geometry": {"type": "Point", "coordinates": [-106.7779804168, 32.3114715814]}, "type": "Feature", "properties": {"collection_times": [{"days": "Mon-Fri", "time": "6:00pm"}, {"days": "Sat", "time": "2:00pm"}, {"days": "Sun", "time": "Closed"}], "id": "8800100050", "name": "USPS COLLECTION BOX - BLUE BOX", "address": {"city": "LAS CRUCES", "state": "NM", "street": "201 E LAS CRUCES AVE", "postcode": "88001"}}},
{"geometry": {"type": "Point", "coordinates": [-106.4686027781, 32.2666122449]}, "type": "Feature", "properties": {"collection_times": [{"days": "Mon-Fri", "time": "3:45pm"}, {"days": "Sat", "time": "11:00am"}, {"days": "Sun", "time": "Closed"}], "id": "8800200000", "name": "USPS COLLECTION BOX - BLUE BOX", "address": {"city": "LAS CRUCES", "state": "NM", "street": "153 JOLLET", "postcode": "88002"}}},
{"geometry": {"type": "Point", "coordinates": [-106.7758667428, 32.2962965645]}, "type": "Feature", "properties": {"collection_times": [{"days": "Mon-Fri", "time": "11:50am"}, {"days": "Sat", "time": "1:20pm"}, {"days": "Sun", "time": "Closed"}], "id": "8800500004", "name": "USPS COLLECTION BOX - BLUE BOX", "address": {"city": "LAS CRUCES", "state": "NM", "street": "225 E IDAHO AVE", "postcode": "88005"}}},
{"geometry": {"type": "Point", "coordinates": [-106.7806975398, 32.3109387807]}, "type": "Feature", "properties": {"collection_times": [{"days": "Mon-Sat", "time": "11:15am"}, {"days": "Sun", "time": "Closed"}], "id": "8800500005", "name": "USPS COLLECTION BOX - BLUE BOX", "address": {"city": "LAS CRUCES", "state": "NM", "street": "200 W LAS CRUCES AVE", "postcode": "88005"}}},
{"geometry": {"type": "Point", "coordinates": [-106.8075895656, 32.309817797]}, "type": "Feature", "properties": {"collection_times": [{"days": "Mon-Fri", "time": "12:15pm"}, {"days": "Sat", "time": "11:45am"}, {"days": "Sun", "time": "Closed"}], "id": "8800500009", "name": "USPS COLLECTION BOX - BLUE BOX", "address": {"city": "LAS CRUCES", "state": "NM", "street": "2200 HOLIDAY AVE", "postcode": "88005"}}},
{"geometry": {"type": "Point", "coordinates": [-106.803883943, 32.3052160751]}, "type": "Feature", "properties": {"collection_times": [{"days": "Mon-Fri", "time": "12:10pm"}, {"days": "Sat", "time": "11:40am"}, {"days": "Sun", "time": "Closed"}], "id": "8800500010", "name": "USPS COLLECTION BOX - BLUE BOX", "address": {"city": "LAS CRUCES", "state": "NM", "street": "401 N 17TH ST", "postcode": "88005"}}},
{"geometry": {"type": "Point", "coordinates": [-106.7786916488, 32.2995461528]}, "type": "Feature", "properties": {"collection_times": [{"days": "Mon-Fri", "time": "11:45am"}, {"days": "Sat", "time": "12:40pm"}, {"days": "Sun", "time": "Closed"}], "id": "8800500014", "name": "USPS COLLECTION BOX - BLUE BOX", "address": {"city": "LAS CRUCES", "state": "NM", "street": "1065 S MAIN ST", "postcode": "88005"}}},
{"geometry": {"type": "Point", "coordinates": [-106.7810279928, 32.3185740477]}, "type": "Feature", "properties": {"collection_times": [{"days": "Mon-Fri", "time": "11:45am"}, {"days": "Sat", "time": "1:15pm"}, {"days": "Sun", "time": "Closed"}], "id": "8800500015", "name": "USPS COLLECTION BOX - BLUE BOX", "address": {"city": "LAS CRUCES", "state": "NM", "street": "1100 S MAIN ST", "postcode": "88005"}}},
{"geometry": {"type": "Point", "coordinates": [-106.7851103842, 32.3159230367]}, "type": "Feature", "properties": {"collection_times": [{"days": "Mon-Fri", "time": "12:25pm"}, {"days": "Sat", "time": "12:05pm"}, {"days": "Sun", "time": "Closed"}], "id": "8800500018", "name": "USPS COLLECTION BOX - BLUE BOX", "address": {"city": "LAS CRUCES", "state": "NM", "street": "440 W PICACHO AVE", "postcode": "88005"}}},
{"geometry": {"type": "Point", "coordinates": [-106.7758868531, 32.3428069621]}, "type": "Feature", "properties": {"collection_times": [{"days": "Mon-Fri", "time": "10:00am"}, {"days": "Sat", "time": "8:40am"}, {"days": "Sun", "time": "Closed"}], "id": "8800500020", "name": "USPS COLLECTION BOX - BLUE BOX", "address": {"city": "LAS CRUCES", "state": "NM", "street": "2701 ELKS DR", "postcode": "88005"}}},
{"geometry": {"type": "Point", "coordinates": [-106.7820469073, 32.3162929316]}, "type": "Feature", "properties": {"collection_times": [{"days": "Mon-Fri", "time": "3:30pm"}, {"days": "Sat-Sun", "time": "Closed"}], "id": "8800500021", "name": "USPS COLLECTION BOX - BLUE BOX", "address": {"city": "LAS CRUCES", "state": "NM", "street": "201 W PICACHO AVE", "postcode": "88005"}}},
{"geometry": {"type": "Point", "coordinates": [-106.7885570223, 32.2995710444]}, "type": "Feature", "properties": {"collection_times": [{"days": "Mon-Fri", "time": "11:50am"}, {"days": "Sat", "time": "1:15pm"}, {"days": "Sun", "time": "Closed"}], "id": "8800500025", "name": "USPS COLLECTION BOX - BLUE BOX", "address": {"city": "LAS CRUCES", "state": "NM", "street": "1151 MED PARK DR", "postcode": "88005"}}},
{"geometry": {"type": "Point", "coordinates": [-106.7820469073, 32.3162929316]}, "type": "Feature", "properties": {"collection_times": [{"days": "Mon-Fri", "time": "3:30pm"}, {"days": "Sat-Sun", "time": "Closed"}], "id": "8800500026", "name": "USPS COLLECTION BOX - BLUE BOX", "address": {"city": "LAS CRUCES", "state": "NM", "street": "201 W PICACHO AVE", "postcode": "88005"}}},
{"geometry": {"type": "Point", "coordinates": [-106.81507, 32.30755]}, "type": "Feature", "properties": {"collection_times": [{"days": "Mon-Fri", "time": "3:30pm"}, {"days": "Sat-Sun", "time": "Closed"}], "id": "8800500030", "name": "USPS COLLECTION BOX - BLUE BOX", "address": {"city": "LAS CRUCES", "state": "NM", "street": "845 N MOTEL BLVD", "postcode": "88005"}}},
{"geometry": {"type": "Point", "coordinates": [-106.762916891, 32.3486460476]}, "type": "Feature", "properties": {"collection_times": [{"days": "Mon-Fri", "time": "5:30pm"}, {"days": "Sat", "time": "2:00pm"}, {"days": "Sun", "time": "Closed"}], "id": "8801100029", "name": "USPS COLLECTION BOX - BLUE BOX", "address": {"city": "LAS CRUCES", "state": "NM", "street": "1180 COMMERCE DR", "postcode": "88011"}}},
{"geometry": {"type": "Point", "coordinates": [-106.762916891, 32.3486460476]}, "type": "Feature", "properties": {"collection_times": [{"days": "Mon-Fri", "time": "5:30pm"}, {"days": "Sat", "time": "2:00pm"}, {"days": "Sun", "time": "Closed"}], "id": "8801100030", "name": "USPS COLLECTION BOX - BLUE BOX", "address": {"city": "LAS CRUCES", "state": "NM", "street": "1180 COMMERCE DR", "postcode": "88011"}}},
{"geometry": {"type": "Point", "coordinates": [-106.762916891, 32.3486460476]}, "type": "Feature", "properties": {"collection_times": [{"days": "Mon-Fri", "time": "5:30pm"}, {"days": "Sat", "time": "2:00pm"}, {"days": "Sun", "time": "Closed"}], "id": "8801100031", "name": "USPS COLLECTION BOX - BLUE BOX", "address": {"city": "LAS CRUCES", "state": "NM", "street": "1180 COMMERCE DR", "postcode": "88011"}}},
{"geometry": {"type": "Point", "coordinates": [-106.762916891, 32.3486460476]}, "type": "Feature", "properties": {"collection_times": [{"days": "Mon-Fri", "time": "5:30pm"}, {"days": "Sat", "time": "2:00pm"}, {"days": "Sun", "time": "Closed"}], "id": "8801100032", "name": "USPS COLLECTION BOX - BLUE BOX", "address": {"city": "LAS CRUCES", "state": "NM", "street": "1180 COMMERCE DR", "postcode": "88011"}}},
{"geometry": {"type": "Point", "coordinates": [-106.762916891, 32.3486460476]}, "type": "Feature", "properties": {"collection_times": [{"days": "Mon-Fri", "time": "5:30pm"}, {"days": "Sat", "time": "2:00pm"}, {"days": "Sun", "time": "Closed"}], "id": "8801100033", "name": "USPS COLLECTION BOX - BLUE BOX", "address": {"city": "LAS CRUCES", "state": "NM", "street": "1180 COMMERCE DR", "postcode": "88011"}}},
{"geometry": {"type": "Point", "coordinates": [-106.762916891, 32.3486460476]}, "type": "Feature", "properties": {"collection_times": [{"days": "Mon-Fri", "time": "5:30pm"}, {"days": "Sat", "time": "2:00pm"}, {"days": "Sun", "time": "Closed"}], "id": "8801100034", "name": "USPS COLLECTION BOX - PO LOBBY", "address": {"city": "LAS CRUCES", "state": "NM", "street": "1180 COMMERCE DR", "postcode": "88011"}}},
{"geometry": {"type": "Point", "coordinates": [-106.762916891, 32.3486460476]}, "type": "Feature", "properties": {"collection_times": [{"days": "Mon-Fri", "time": "5:30pm"}, {"days": "Sat", "time": "2:00pm"}, {"days": "Sun", "time": "Closed"}], "id": "8801100035", "name": "USPS COLLECTION BOX - PO LOBBY", "address": {"city": "LAS CRUCES", "state": "NM", "street": "1180 COMMERCE DR", "postcode": "88011"}}},
{"geometry": {"type": "Point", "coordinates": [-106.7344351768, 32.2905709658]}, "type": "Feature", "properties": {"collection_times": [{"days": "Mon-Fri", "time": "2:15pm"}, {"days": "Sat", "time": "11:00am"}, {"days": "Sun", "time": "Closed"}], "id": "8801100036", "name": "USPS COLLECTION BOX - BLUE BOX", "address": {"city": "LAS CRUCES", "state": "NM", "street": "2525 S TELSHOR BLVD", "postcode": "88011"}}},
{"geometry": {"type": "Point", "coordinates": [-106.7421160531, 32.3130702267]}, "type": "Feature", "properties": {"collection_times": [{"days": "Mon-Fri", "time": "1:40pm"}, {"days": "Sat", "time": "10:00am"}, {"days": "Sun", "time": "Closed"}], "id": "8801100037", "name": "USPS COLLECTION BOX - BLUE BOX", "address": {"city": "LAS CRUCES", "state": "NM", "street": "755 S TELSHOR BLVD", "postcode": "88011"}}},
{"geometry": {"type": "Point", "coordinates": [-106.7348426731, 32.2921282226]}, "type": "Feature", "properties": {"collection_times": [{"days": "Mon-Fri", "time": "2:20pm"}, {"days": "Sat", "time": "11:05am"}, {"days": "Sun", "time": "Closed"}], "id": "8801100038", "name": "USPS COLLECTION BOX - BLUE BOX", "address": {"city": "LAS CRUCES", "state": "NM", "street": "2415 S TELSHOR BLVD", "postcode": "88011"}}},
{"geometry": {"type": "Point", "coordinates": [-106.7656425844, 32.3439902226]}, "type": "Feature", "properties": {"collection_times": [{"days": "Mon-Fri", "time": "1:55pm"}, {"days": "Sat", "time": "9:00am"}, {"days": "Sun", "time": "Closed"}], "id": "8801100039", "name": "USPS COLLECTION BOX - BLUE BOX", "address": {"city": "LAS CRUCES", "state": "NM", "street": "2507 N TELSHOR BLVD", "postcode": "88011"}}},
{"geometry": {"type": "Point", "coordinates": [-106.737492737, 32.2997744638]}, "type": "Feature", "properties": {"collection_times": [{"days": "Mon-Fri", "time": "1:25pm"}, {"days": "Sat", "time": "10:00am"}, {"days": "Sun", "time": "Closed"}], "id": "8801100040", "name": "USPS COLLECTION BOX - BLUE BOX", "address": {"city": "LAS CRUCES", "state": "NM", "street": "2801 MISSOURI AVE", "postcode": "88011"}}},
{"geometry": {"type": "Point", "coordinates": [-106.7279666946, 32.3228734886]}, "type": "Feature", "properties": {"collection_times": [{"days": "Mon-Fri", "time": "1:50pm"}, {"days": "Sat", "time": "9:45am"}, {"days": "Sun", "time": "Closed"}], "id": "8801100041", "name": "USPS COLLECTION BOX - BLUE BOX", "address": {"city": "LAS CRUCES", "state": "NM", "street": "4351 E LOHMAN AVE", "postcode": "88011"}}},
{"geometry": {"type": "Point", "coordinates": [-106.6042873263, 32.0153059185]}, "type": "Feature", "properties": {"collection_times": [{"days": "Mon-Fri", "time": "4:00pm"}, {"days": "Sat", "time": "12:30pm"}, {"days": "Sun", "time": "Closed"}], "id": "8802100000", "name": "USPS COLLECTION BOX - BLUE BOX", "address": {"city": "ANTHONY", "state": "NM", "street": "1190 ANTHONY DR", "postcode": "88021"}}},
{"geometry": {"type": "Point", "coordinates": [-106.6042873263, 32.0153059185]}, "type": "Feature", "properties": {"collection_times": [{"days": "Mon-Fri", "time": "4:00pm"}, {"days": "Sat", "time": "12:30pm"}, {"days": "Sun", "time": "Closed"}], "id": "8802100001", "name": "USPS COLLECTION BOX - BLUE BOX", "address": {"city": "ANTHONY", "state": "NM", "street": "1190 ANTHONY DR", "postcode": "88021"}}},
{"geometry": {"type": "Point", "coordinates": [-106.6042873263, 32.0153059185]}, "type": "Feature", "properties": {"collection_times": [{"days": "Mon-Fri", "time": "4:00pm"}, {"days": "Sat", "time": "12:30pm"}, {"days": "Sun", "time": "Closed"}], "id": "8802100002", "name": "USPS COLLECTION BOX - PO LOBBY", "address": {"city": "ANTHONY", "state": "NM", "street": "1190 ANTHONY DR", "postcode": "88021"}}},
{"geometry": {"type": "Point", "coordinates": [-106.1084022185, 34.4213291361]}, "type": "Feature", "properties": {"collection_times": [{"days": "Mon-Sat", "time": "12:00pm"}, {"days": "Sun", "time": "Closed"}], "id": "8802100003", "name": "USPS COLLECTION BOX - BLUE BOX", "address": {"city": "ANTHONY", "state": "NM", "street": "PO BOX/FLYING J TRUKSTOP/ANTHONY TEXAS", "postcode": "88021"}}},
{"geometry": {"type": "Point", "coordinates": [-106.6042873263, 32.0153059185]}, "type": "Feature", "properties": {"collection_times": [{"days": "Mon-Fri", "time": "4:00pm"}, {"days": "Sat", "time": "12:30pm"}, {"days": "Sun", "time": "Closed"}], "id": "8802100004", "name": "USPS COLLECTION BOX - BLUE BOX", "address": {"city": "ANTHONY", "state": "NM", "street": "1190 ANTHONY DR", "postcode": "88021"}}},
{"geometry": {"type": "Point", "coordinates": [-106.6042873263, 32.0153059185]}, "type": "Feature", "properties": {"collection_times": [{"days": "Mon-Fri", "time": "4:00pm"}, {"days": "Sat", "time": "12:30pm"}, {"days": "Sun", "time": "Closed"}], "id": "8802100005", "name": "USPS COLLECTION BOX - PO LOBBY", "address": {"city": "ANTHONY", "state": "NM", "street": "1190 ANTHONY DR", "postcode": "88021"}}},
{"geometry": {"type": "Point", "coordinates": [-106.6042873263, 32.0153059185]}, "type": "Feature", "properties": {"collection_times": [{"days": "Mon-Fri", "time": "4:00pm"}, {"days": "Sat", "time": "12:30pm"}, {"days": "Sun", "time": "Closed"}], "id": "8802100006", "name": "USPS COLLECTION BOX - PO LOBBY", "address": {"city": "ANTHONY", "state": "NM", "street": "1190 ANTHONY DR", "postcode": "88021"}}},
{"geometry": {"type": "Point", "coordinates": [-108.1389621387, 32.7580193072]}, "type": "Feature", "properties": {"collection_times": [{"days": "Mon-Fri", "time": "3:15pm"}, {"days": "Sat", "time": "12:30pm"}, {"days": "Sun", "time": "Closed"}], "id": "8802300002", "name": "USPS COLLECTION BOX - PO LOBBY", "address": {"city": "BAYARD", "state": "NM", "street": "810 CENTRAL AVE", "postcode": "88023"}}},
{"geometry": {"type": "Point", "coordinates": [-108.1389621387, 32.7580193072]}, "type": "Feature", "properties": {"collection_times": [{"days": "Mon-Fri", "time": "3:15pm"}, {"days": "Sat", "time": "12:30pm"}, {"days": "Sun", "time": "Closed"}], "id": "8802300003", "name": "USPS COLLECTION BOX - PO LOBBY", "address": {"city": "BAYARD", "state": "NM", "street": "810 CENTRAL AVE", "postcode": "88023"}}},
{"geometry": {"type": "Point", "coordinates": [-108.6221439961, 32.9708828914]}, "type": "Feature", "properties": {"collection_times": [{"days": "Mon-Fri", "time": "3:00pm"}, {"days": "Sat", "time": "11:15am"}, {"days": "Sun", "time": "Closed"}], "id": "8802500000", "name": "USPS COLLECTION BOX - BLUE BOX", "address": {"city": "BUCKHORN", "state": "NM", "street": "7658 HIGHWAY 180 W", "postcode": "88025"}}},
{"geometry": {"type": "Point", "coordinates": [-108.6221439961, 32.9708828914]}, "type": "Feature", "properties": {"collection_times": [{"days": "Mon-Fri", "time": "3:00pm"}, {"days": "Sat", "time": "11:15am"}, {"days": "Sun", "time": "Closed"}], "id": "8802500001", "name": "USPS COLLECTION BOX - PO LOBBY", "address": {"city": "BUCKHORN", "state": "NM", "street": "7658 HIGHWAY 180 W", "postcode": "88025"}}},
{"geometry": {"type": "Point", "coordinates": [-108.1528796924, 32.7762396774]}, "type": "Feature", "properties": {"collection_times": [{"days": "Mon-Fri", "time": "3:30pm"}, {"days": "Sat", "time": "10:30am"}, {"days": "Sun", "time": "Closed"}], "id": "8802600000", "name": "USPS COLLECTION BOX - PO LOBBY", "address": {"city": "SANTA CLARA", "state": "NM", "street": "106 N BAYARD ST", "postcode": "88026"}}},
{"geometry": {"type": "Point", "coordinates": [-106.6744688432, 32.0451161237]}, "type": "Feature", "properties": {"collection_times": [{"days": "Mon-Fri", "time": "4:30pm"}, {"days": "Sat", "time": "9:45am"}, {"days": "Sun", "time": "Closed"}], "id": "8802700000", "name": "USPS COLLECTION BOX - PO LOBBY", "address": {"city": "CHAMBERINO", "state": "NM", "street": "9620 STATE HIGHWAY 28 S", "postcode": "88027"}}},
{"geometry": {"type": "Point", "coordinates": [-108.6134695604, 32.9633666357]}, "type": "Feature", "properties": {"collection_times": [{"days": "Mon-Fri", "time": "2:00pm"}, {"days": "Sat", "time": "12:00pm"}, {"days": "Sun", "time": "Closed"}], "id": "8802800001", "name": "USPS COLLECTION BOX - PO LOBBY", "address": {"city": "CLIFF", "state": "NM", "street": "8427 FRONTAGE RD", "postcode": "88028"}}},
{"geometry": {"type": "Point", "coordinates": [-107.641982234, 31.8335683393]}, "type": "Feature", "properties": {"collection_times": [{"days": "Mon-Fri", "time": "4:00pm"}, {"days": "Sat", "time": "11:30am"}, {"days": "Sun", "time": "Closed"}], "id": "8802900001", "name": "USPS COLLECTION BOX - PO LOBBY", "address": {"city": "COLUMBUS", "state": "NM", "street": "201 S MAIN ST", "postcode": "88029"}}},
{"geometry": {"type": "Point", "coordinates": [-107.641982234, 31.8335683393]}, "type": "Feature", "properties": {"collection_times": [{"days": "Mon-Fri", "time": "4:00pm"}, {"days": "Sat", "time": "11:30am"}, {"days": "Sun", "time": "Closed"}], "id": "8802900002", "name": "USPS COLLECTION BOX - PO LOBBY", "address": {"city": "COLUMBUS", "state": "NM", "street": "201 S MAIN ST", "postcode": "88029"}}},
{"geometry": {"type": "Point", "coordinates": [-107.7598696794, 32.2675099553]}, "type": "Feature", "properties": {"collection_times": [{"days": "Mon-Fri", "time": "5:00pm"}, {"days": "Sat", "time": "4:30pm"}, {"days": "Sun", "time": "Closed"}], "id": "8803000000", "name": "USPS COLLECTION BOX - BLUE BOX", "address": {"city": "DEMING", "state": "NM", "street": "201 W SPRUCE ST", "postcode": "88030"}}},
{"geometry": {"type": "Point", "coordinates": [-107.7598696795, 32.2675099556]}, "type": "Feature", "properties": {"collection_times": [{"days": "Mon-Fri", "time": "5:00pm"}, {"days": "Sat", "time": "4:30pm"}, {"days": "Sun", "time": "Closed"}], "id": "8803000002", "name": "USPS COLLECTION BOX - PO LOBBY", "address": {"city": "DEMING", "state": "NM", "street": "201 W SPRUCE ST", "postcode": "88030"}}},
{"geometry": {"type": "Point", "coordinates": [-107.7598696795, 32.2675099556]}, "type": "Feature", "properties": {"collection_times": [{"days": "Mon-Fri", "time": "5:00pm"}, {"days": "Sat", "time": "4:30pm"}, {"days": "Sun", "time": "Closed"}], "id": "8803000003", "name": "USPS COLLECTION BOX - PO LOBBY", "address": {"city": "DEMING", "state": "NM", "street": "201 W SPRUCE ST", "postcode": "88030"}}},
{"geometry": {"type": "Point", "coordinates": [-107.752586959, 32.2692893894]}, "type": "Feature", "properties": {"collection_times": [{"days": "Mon-Sat", "time": "4:15pm"}, {"days": "Sun", "time": "Closed"}], "id": "8803000005", "name": "USPS COLLECTION BOX - BLUE BOX", "address": {"city": "DEMING", "state": "NM", "street": "618 E PINE ST", "postcode": "88030"}}},
{"geometry": {"type": "Point", "coordinates": [-107.7574971839, 32.2684782514]}, "type": "Feature", "properties": {"collection_times": [{"days": "Mon-Sat", "time": "4:15pm"}, {"days": "Sun", "time": "Closed"}], "id": "8803000007", "name": "USPS COLLECTION BOX - BLUE BOX", "address": {"city": "DEMING", "state": "NM", "street": "124 S SILVER AVE", "postcode": "88030"}}},
{"geometry": {"type": "Point", "coordinates": [-107.7580377174, 32.2635654668]}, "type": "Feature", "properties": {"collection_times": [{"days": "Mon-Sat", "time": "4:20pm"}, {"days": "Sun", "time": "Closed"}], "id": "8803000008", "name": "USPS COLLECTION BOX - BLUE BOX", "address": {"city": "DEMING", "state": "NM", "street": "600 S GOLD AVE", "postcode": "88030"}}},
{"geometry": {"type": "Point", "coordinates": [-107.7524111986, 32.2549746748]}, "type": "Feature", "properties": {"collection_times": [{"days": "Mon-Sat", "time": "4:30pm"}, {"days": "Sun", "time": "Closed"}], "id": "8803000012", "name": "USPS COLLECTION BOX - BLUE BOX", "address": {"city": "DEMING", "state": "NM", "street": "1400 S RUBY ST", "postcode": "88030"}}},
{"geometry": {"type": "Point", "coordinates": [-107.7491722854, 32.2540492764]}, "type": "Feature", "properties": {"collection_times": [{"days": "Mon-Sat", "time": "4:30pm"}, {"days": "Sun", "time": "Closed"}], "id": "8803000020", "name": "USPS COLLECTION BOX - BLUE BOX", "address": {"city": "DEMING", "state": "NM", "street": "812 E FLORIDA ST", "postcode": "88030"}}},
{"geometry": {"type": "Point", "coordinates": [-107.7584826311, 32.2665964788]}, "type": "Feature", "properties": {"collection_times": [{"days": "Mon-Sat", "time": "4:15pm"}, {"days": "Sun", "time": "Closed"}], "id": "8803000022", "name": "USPS COLLECTION BOX - BLUE BOX", "address": {"city": "DEMING", "state": "NM", "street": "300 S GOLD AVE", "postcode": "88030"}}},
{"geometry": {"type": "Point", "coordinates": [-107.7566827068, 32.2633337819]}, "type": "Feature", "properties": {"collection_times": [{"days": "Mon-Sat", "time": "4:20pm"}, {"days": "Sun", "time": "Closed"}], "id": "8803000023", "name": "USPS COLLECTION BOX - BLUE BOX", "address": {"city": "DEMING", "state": "NM", "street": "700 S SILVER AVE", "postcode": "88030"}}},
{"geometry": {"type": "Point", "coordinates": [-107.7534601114, 32.2591642472]}, "type": "Feature", "properties": {"collection_times": [{"days": "Mon-Sat", "time": "4:20pm"}, {"days": "Sun", "time": "Closed"}], "id": "8803000024", "name": "USPS COLLECTION BOX - BLUE BOX", "address": {"city": "DEMING", "state": "NM", "street": "1001 S DIAMOND AVE", "postcode": "88030"}}},
{"geometry": {"type": "Point", "coordinates": [-106.8142920187, 32.3893736961]}, "type": "Feature", "properties": {"collection_times": [{"days": "Mon-Fri", "time": "4:30pm"}, {"days": "Sat", "time": "9:00am"}, {"days": "Sun", "time": "Closed"}], "id": "8803200001", "name": "USPS COLLECTION BOX - PO LOBBY", "address": {"city": "DONA ANA", "state": "NM", "street": "5480 LEDESMA", "postcode": "88032"}}},
{"geometry": {"type": "Point", "coordinates": [-106.8395171758, 32.30696396]}, "type": "Feature", "properties": {"collection_times": [{"days": "Mon-Fri", "time": "4:30pm"}, {"days": "Sat", "time": "10:30am"}, {"days": "Sun", "time": "Closed"}], "id": "8803300000", "name": "USPS COLLECTION BOX - BLUE BOX", "address": {"city": "FAIRACRES", "state": "NM", "street": "3800 W PICACHO AVE", "postcode": "88033"}}},
{"geometry": {"type": "Point", "coordinates": [-106.8395171758, 32.30696396]}, "type": "Feature", "properties": {"collection_times": [{"days": "Mon-Fri", "time": "4:30pm"}, {"days": "Sat", "time": "10:30am"}, {"days": "Sun", "time": "Closed"}], "id": "8803300001", "name": "USPS COLLECTION BOX - PO LOBBY", "address": {"city": "FAIRACRES", "state": "NM", "street": "3800 W PICACHO AVE", "postcode": "88033"}}},
{"geometry": {"type": "Point", "coordinates": [-106.8395171758, 32.30696396]}, "type": "Feature", "properties": {"collection_times": [{"days": "Mon-Fri", "time": "4:30pm"}, {"days": "Sat", "time": "10:30am"}, {"days": "Sun", "time": "Closed"}], "id": "8803300002", "name": "USPS COLLECTION BOX - PO LOBBY", "address": {"city": "FAIRACRES", "state": "NM", "street": "3800 W PICACHO AVE", "postcode": "88033"}}},
{"geometry": {"type": "Point", "coordinates": [-107.8808645013, 32.6175489845]}, "type": "Feature", "properties": {"collection_times": [{"days": "Mon-Fri", "time": "12:00pm"}, {"days": "Sat", "time": "11:30am"}, {"days": "Sun", "time": "Closed"}], "id": "8803400001", "name": "USPS COLLECTION BOX - PO LOBBY", "address": {"city": "FAYWOOD", "state": "NM", "street": "1123 HIGHWAY 61", "postcode": "88034"}}},
{"geometry": {"type": "Point", "coordinates": [-108.5775038086, 32.9640500333]}, "type": "Feature", "properties": {"collection_times": [{"days": "Mon-Fri", "time": "1:00pm"}, {"days": "Sat", "time": "12:00pm"}, {"days": "Sun", "time": "Closed"}], "id": "8803800001", "name": "USPS COLLECTION BOX - PO LOBBY", "address": {"city": "GILA", "state": "NM", "street": "407 STATE HIGHWAY 211", "postcode": "88038"}}},
{"geometry": {"type": "Point", "coordinates": [-108.6701006302, 33.3052401878]}, "type": "Feature", "properties": {"collection_times": [{"days": "Mon-Fri", "time": "2:15pm"}, {"days": "Sat", "time": "12:00pm"}, {"days": "Sun", "time": "Closed"}], "id": "8803900000", "name": "USPS COLLECTION BOX - BLUE BOX", "address": {"city": "GLENWOOD", "state": "NM", "street": "5109 HIGHWAY 180", "postcode": "88039"}}},
{"geometry": {"type": "Point", "coordinates": [-108.6701006302, 33.3052401878]}, "type": "Feature", "properties": {"collection_times": [{"days": "Mon-Fri", "time": "2:15pm"}, {"days": "Sat", "time": "12:00pm"}, {"days": "Sun", "time": "Closed"}], "id": "8803900001", "name": "USPS COLLECTION BOX - PO LOBBY", "address": {"city": "GLENWOOD", "state": "NM", "street": "5109 HIGHWAY 180", "postcode": "88039"}}},
{"geometry": {"type": "Point", "coordinates": [-108.3217255659, 31.9181732452]}, "type": "Feature", "properties": {"collection_times": [{"days": "Mon-Fri", "time": "12:00pm"}, {"days": "Sat", "time": "11:30am"}, {"days": "Sun", "time": "Closed"}], "id": "8804000001", "name": "USPS COLLECTION BOX - PO LOBBY", "address": {"city": "HACHITA", "state": "NM", "street": "26 B ST", "postcode": "88040"}}},
{"geometry": {"type": "Point", "coordinates": [-108.0834116126, 32.8852447718]}, "type": "Feature", "properties": {"collection_times": [{"days": "Mon-Fri", "time": "3:00pm"}, {"days": "Sat", "time": "10:15am"}, {"days": "Sun", "time": "Closed"}], "id": "8804100000", "name": "USPS COLLECTION BOX - BLUE BOX", "address": {"city": "HANOVER", "state": "NM", "street": "70 FIERRO RD", "postcode": "88041"}}},
{"geometry": {"type": "Point", "coordinates": [-108.0834116126, 32.8852447718]}, "type": "Feature", "properties": {"collection_times": [{"days": "Mon-Fri", "time": "3:00pm"}, {"days": "Sat", "time": "10:15am"}, {"days": "Sun", "time": "Closed"}], "id": "8804100001", "name": "USPS COLLECTION BOX - PO LOBBY", "address": {"city": "HANOVER", "state": "NM", "street": "70 FIERRO RD", "postcode": "88041"}}},
{"geometry": {"type": "Point", "coordinates": [-107.5712989106, 32.9199159368]}, "type": "Feature", "properties": {"collection_times": [{"days": "Mon-Sat", "time": "12:00pm"}, {"days": "Sun", "time": "Closed"}], "id": "8804200001", "name": "USPS COLLECTION BOX - PO LOBBY", "address": {"city": "HILLSBORO", "state": "NM", "street": "300 MAIN ST", "postcode": "88042"}}},
{"geometry": {"type": "Point", "coordinates": [-108.1319966269, 32.6989722473]}, "type": "Feature", "properties": {"collection_times": [{"days": "Mon-Fri", "time": "3:30pm"}, {"days": "Sat", "time": "12:00pm"}, {"days": "Sun", "time": "Closed"}], "id": "8804300000", "name": "USPS COLLECTION BOX - PO LOBBY", "address": {"city": "HURLEY", "state": "NM", "street": "16 CORTEZ AVE", "postcode": "88043"}}},
{"geometry": {"type": "Point", "coordinates": [-106.7058532394, 32.1192719468]}, "type": "Feature", "properties": {"collection_times": [{"days": "Mon-Fri", "time": "4:30pm"}, {"days": "Sat", "time": "9:00am"}, {"days": "Sun", "time": "Closed"}], "id": "8804400001", "name": "USPS COLLECTION BOX - PO LOBBY", "address": {"city": "LA MESA", "state": "NM", "street": "16140 S HIGHWAY 28", "postcode": "88044"}}},
{"geometry": {"type": "Point", "coordinates": [-108.7299358951, 32.3742225839]}, "type": "Feature", "properties": {"collection_times": [{"days": "Mon-Fri", "time": "3:25pm"}, {"days": "Sat", "time": "1:00pm"}, {"days": "Sun", "time": "Closed"}], "id": "8804500000", "name": "USPS COLLECTION BOX - BLUE BOX", "address": {"city": "LORDSBURG", "state": "NM", "street": "400 SHAKESPEARE ST", "postcode": "88045"}}},
{"geometry": {"type": "Point", "coordinates": [-108.7084913188, 32.3477352522]}, "type": "Feature", "properties": {"collection_times": [{"days": "Mon-Fri", "time": "4:30pm"}, {"days": "Sat", "time": "1:00pm"}, {"days": "Sun", "time": "Closed"}], "id": "8804500001", "name": "USPS COLLECTION BOX - PO LOBBY", "address": {"city": "LORDSBURG", "state": "NM", "street": "401 SHAKESPEARE ST", "postcode": "88045"}}},
{"geometry": {"type": "Point", "coordinates": [-108.7105961578, 32.3448161019]}, "type": "Feature", "properties": {"collection_times": [{"days": "Mon-Fri", "time": "3:20pm"}, {"days": "Sat", "time": "12:45pm"}, {"days": "Sun", "time": "Closed"}], "id": "8804500006", "name": "USPS COLLECTION BOX - BLUE BOX", "address": {"city": "LORDSBURG", "state": "NM", "street": "810 MAIN ST", "postcode": "88045"}}},
{"geometry": {"type": "Point", "coordinates": [-108.6781874666, 32.3422537779]}, "type": "Feature", "properties": {"collection_times": [{"days": "Mon-Fri", "time": "1:00pm"}, {"days": "Sat", "time": "12:00pm"}, {"days": "Sun", "time": "Closed"}], "id": "8804500012", "name": "USPS COLLECTION BOX - BLUE BOX", "address": {"city": "LORDSBURG", "state": "NM", "street": "11 OLD HIGHWAY 70", "postcode": "88045"}}},
{"geometry": {"type": "Point", "coordinates": [-108.735471503, 32.3546883013]}, "type": "Feature", "properties": {"collection_times": [{"days": "Mon-Fri", "time": "3:10pm"}, {"days": "Sat", "time": "12:55pm"}, {"days": "Sun", "time": "Closed"}], "id": "8804500013", "name": "USPS COLLECTION BOX - BLUE BOX", "address": {"city": "LORDSBURG", "state": "NM", "street": "980 W MOTEL DR", "postcode": "88045"}}},
{"geometry": {"type": "Point", "coordinates": [-106.7964137344, 32.2731596175]}, "type": "Feature", "properties": {"collection_times": [{"days": "Mon-Fri", "time": "5:00pm"}, {"days": "Sat", "time": "9:00am"}, {"days": "Sun", "time": "Closed"}], "id": "8804600000", "name": "USPS COLLECTION BOX - PO LOBBY", "address": {"city": "MESILLA", "state": "NM", "street": "2253 CALLE DE PARIAN", "postcode": "88046"}}},
{"geometry": {"type": "Point", "coordinates": [-106.7188271721, 32.2176519933]}, "type": "Feature", "properties": {"collection_times": [{"days": "Mon-Fri", "time": "4:30pm"}, {"days": "Sat", "time": "11:30am"}, {"days": "Sun", "time": "Closed"}], "id": "8804700000", "name": "USPS COLLECTION BOX - BLUE BOX", "address": {"city": "MESILLA PARK", "state": "NM", "street": "310 E UNION AVE", "postcode": "88047"}}},
{"geometry": {"type": "Point", "coordinates": [-106.7188271721, 32.2176519933]}, "type": "Feature", "properties": {"collection_times": [{"days": "Mon-Fri", "time": "5:00pm"}, {"days": "Sat", "time": "12:00pm"}, {"days": "Sun", "time": "Closed"}], "id": "8804700001", "name": "USPS COLLECTION BOX - PO LOBBY", "address": {"city": "MESILLA PARK", "state": "NM", "street": "310 E UNION AVE", "postcode": "88047"}}},
{"geometry": {"type": "Point", "coordinates": [-106.7188271721, 32.2176519933]}, "type": "Feature", "properties": {"collection_times": [{"days": "Mon-Fri", "time": "4:30pm"}, {"days": "Sat", "time": "11:30am"}, {"days": "Sun", "time": "Closed"}], "id": "8804700002", "name": "USPS COLLECTION BOX - BLUE BOX", "address": {"city": "MESILLA PARK", "state": "NM", "street": "310 E UNION AVE", "postcode": "88047"}}},
{"geometry": {"type": "Point", "coordinates": [-106.7188271721, 32.2176519933]}, "type": "Feature", "properties": {"collection_times": [{"days": "Mon-Fri", "time": "5:00pm"}, {"days": "Sat", "time": "12:00pm"}, {"days": "Sun", "time": "Closed"}], "id": "8804700003", "name": "USPS COLLECTION BOX - PO LOBBY", "address": {"city": "MESILLA PARK", "state": "NM", "street": "310 E UNION AVE", "postcode": "88047"}}},
{"geometry": {"type": "Point", "coordinates": [-106.5762244012, 32.1228728459]}, "type": "Feature", "properties": {"collection_times": [{"days": "Mon-Fri", "time": "4:30pm"}, {"days": "Sat", "time": "11:45am"}, {"days": "Sun", "time": "Closed"}], "id": "8804800000", "name": "USPS COLLECTION BOX - BLUE BOX", "address": {"city": "MESQUITE", "state": "NM", "street": "395 HIGHWAY 228", "postcode": "88048"}}},
{"geometry": {"type": "Point", "coordinates": [-106.5762244012, 32.1228728459]}, "type": "Feature", "properties": {"collection_times": [{"days": "Mon-Fri", "time": "4:30pm"}, {"days": "Sat", "time": "11:45am"}, {"days": "Sun", "time": "Closed"}], "id": "8804800003", "name": "USPS COLLECTION BOX - PO LOBBY", "address": {"city": "MESQUITE", "state": "NM", "street": "395 HIGHWAY 228", "postcode": "88048"}}},
{"geometry": {"type": "Point", "coordinates": [-108.00259588, 32.9041670442]}, "type": "Feature", "properties": {"collection_times": [{"days": "Mon-Fri", "time": "2:00pm"}, {"days": "Sat", "time": "12:00pm"}, {"days": "Sun", "time": "Closed"}], "id": "8804900001", "name": "USPS COLLECTION BOX - PO LOBBY", "address": {"city": "MIMBRES", "state": "NM", "street": "3084 HIGHWAY 35 N", "postcode": "88049"}}},
{"geometry": {"type": "Point", "coordinates": [-108.956390231, 33.1222615484]}, "type": "Feature", "properties": {"collection_times": [{"days": "Mon-Sat", "time": "10:30am"}, {"days": "Sun", "time": "Closed"}], "id": "8805100000", "name": "USPS COLLECTION BOX - PO LOBBY", "address": {"city": "MULE CREEK", "state": "NM", "street": "5 BRUSHY MOUNTAIN RD", "postcode": "88051"}}},
{"geometry": {"type": "Point", "coordinates": [-106.6035903274, 32.4260530648]}, "type": "Feature", "properties": {"collection_times": [{"days": "Mon-Fri", "time": "3:45pm"}, {"days": "Sat", "time": "9:15am"}, {"days": "Sun", "time": "Closed"}], "id": "8805200001", "name": "USPS COLLECTION BOX - PO LOBBY", "address": {"city": "ORGAN", "state": "NM", "street": "15770 PADRE LA RUE ST", "postcode": "88052"}}},
{"geometry": {"type": "Point", "coordinates": [-106.9136217465, 32.4874823545]}, "type": "Feature", "properties": {"collection_times": [{"days": "Mon-Fri", "time": "3:30pm"}, {"days": "Sat", "time": "1:30pm"}, {"days": "Sun", "time": "Closed"}], "id": "8805400000", "name": "USPS COLLECTION BOX - PO LOBBY", "address": {"city": "RADIUM SPRINGS", "state": "NM", "street": "1145 FORT SELDEN RD", "postcode": "88054"}}},
{"geometry": {"type": "Point", "coordinates": [-109.0299130138, 31.8373618353]}, "type": "Feature", "properties": {"collection_times": [{"days": "Mon-Fri", "time": "2:30pm"}, {"days": "Sat", "time": "11:45am"}, {"days": "Sun", "time": "Closed"}], "id": "8805600000", "name": "USPS COLLECTION BOX - BLUE BOX", "address": {"city": "RODEO", "state": "NM", "street": "16 CUSTIE AVE", "postcode": "88056"}}},
{"geometry": {"type": "Point", "coordinates": [-109.0299130138, 31.8373618353]}, "type": "Feature", "properties": {"collection_times": [{"days": "Mon-Fri", "time": "2:30pm"}, {"days": "Sat", "time": "11:45am"}, {"days": "Sun", "time": "Closed"}], "id": "8805600001", "name": "USPS COLLECTION BOX - PO LOBBY", "address": {"city": "RODEO", "state": "NM", "street": "16 CUSTIE AVE", "postcode": "88056"}}},
{"geometry": {"type": "Point", "coordinates": [-106.73493, 32.155502]}, "type": "Feature", "properties": {"collection_times": [{"days": "Mon-Fri", "time": "4:30pm"}, {"days": "Sat", "time": "9:45am"}, {"days": "Sun", "time": "Closed"}], "id": "8805800001", "name": "USPS COLLECTION BOX - PO LOBBY", "address": {"city": "SAN MIGUEL", "state": "NM", "street": "19003 STATE HIGHWAY 28", "postcode": "88058"}}},
{"geometry": {"type": "Point", "coordinates": [-108.2744897568, 32.7727064431]}, "type": "Feature", "properties": {"collection_times": [{"days": "Mon-Fri", "time": "5:00pm"}, {"days": "Sat", "time": "3:00pm"}, {"days": "Sun", "time": "Closed"}], "id": "8806100000", "name": "USPS COLLECTION BOX - BLUE BOX", "address": {"city": "SILVER CITY", "state": "NM", "street": "500 N HUDSON ST", "postcode": "88061"}}},
{"geometry": {"type": "Point", "coordinates": [-108.2744897568, 32.7727064431]}, "type": "Feature", "properties": {"collection_times": [{"days": "Mon-Fri", "time": "5:00pm"}, {"days": "Sat", "time": "3:00pm"}, {"days": "Sun", "time": "Closed"}], "id": "8806100001", "name": "USPS COLLECTION BOX - BLUE BOX", "address": {"city": "SILVER CITY", "state": "NM", "street": "500 N HUDSON ST", "postcode": "88061"}}},
{"geometry": {"type": "Point", "coordinates": [-108.2517064847, 32.7874440262]}, "type": "Feature", "properties": {"collection_times": [{"days": "Mon-Sat", "time": "1:00pm"}, {"days": "Sun", "time": "Closed"}], "id": "8806100004", "name": "USPS COLLECTION BOX - BLUE BOX", "address": {"city": "SILVER CITY", "state": "NM", "street": "1940 HIGHWAY 180 E", "postcode": "88061"}}},
{"geometry": {"type": "Point", "coordinates": [-108.2699701896, 32.7891439626]}, "type": "Feature", "properties": {"collection_times": [{"days": "Mon-Sat", "time": "1:05pm"}, {"days": "Sun", "time": "Closed"}], "id": "8806100006", "name": "USPS COLLECTION BOX - BLUE BOX", "address": {"city": "SILVER CITY", "state": "NM", "street": "2417 N CACTUS ST", "postcode": "88061"}}},
{"geometry": {"type": "Point", "coordinates": [-108.275869785, 32.7782038153]}, "type": "Feature", "properties": {"collection_times": [{"days": "Mon-Sat", "time": "1:05pm"}, {"days": "Sun", "time": "Closed"}], "id": "8806100008", "name": "USPS COLLECTION BOX - BLUE BOX", "address": {"city": "SILVER CITY", "state": "NM", "street": "1313 E 32ND ST", "postcode": "88061"}}},
{"geometry": {"type": "Point", "coordinates": [-108.2729313806, 32.7815874839]}, "type": "Feature", "properties": {"collection_times": [{"days": "Mon-Sat", "time": "1:15pm"}, {"days": "Sun", "time": "Closed"}], "id": "8806100009", "name": "USPS COLLECTION BOX - BLUE BOX", "address": {"city": "SILVER CITY", "state": "NM", "street": "1617 SILVER HEIGHTS BLVD", "postcode": "88061"}}},
{"geometry": {"type": "Point", "coordinates": [-108.275869785, 32.7782038153]}, "type": "Feature", "properties": {"collection_times": [{"days": "Mon-Sat", "time": "1:15pm"}, {"days": "Sun", "time": "Closed"}], "id": "8806100011", "name": "USPS COLLECTION BOX - BLUE BOX", "address": {"city": "SILVER CITY", "state": "NM", "street": "332 HIGHWAY 180 W", "postcode": "88061"}}},
{"geometry": {"type": "Point", "coordinates": [-108.2761595625, 32.7723987254]}, "type": "Feature", "properties": {"collection_times": [{"days": "Mon-Sat", "time": "1:35pm"}, {"days": "Sun", "time": "Closed"}], "id": "8806100017", "name": "USPS COLLECTION BOX - BLUE BOX", "address": {"city": "SILVER CITY", "state": "NM", "street": "401 N BULLARD ST", "postcode": "88061"}}},
{"geometry": {"type": "Point", "coordinates": [-108.2765273029, 32.7697251713]}, "type": "Feature", "properties": {"collection_times": [{"days": "Mon-Sat", "time": "1:35pm"}, {"days": "Sun", "time": "Closed"}], "id": "8806100018", "name": "USPS COLLECTION BOX - BLUE BOX", "address": {"city": "SILVER CITY", "state": "NM", "street": "101 W BROADWAY ST", "postcode": "88061"}}},
{"geometry": {"type": "Point", "coordinates": [-108.2491260883, 32.7875826065]}, "type": "Feature", "properties": {"collection_times": [{"days": "Mon-Sat", "time": "1:00pm"}, {"days": "Sun", "time": "Closed"}], "id": "8806100019", "name": "USPS COLLECTION BOX - BLUE BOX", "address": {"city": "SILVER CITY", "state": "NM", "street": "2501 HIGHWAY 180 E", "postcode": "88061"}}},
{"geometry": {"type": "Point", "coordinates": [-108.2744897568, 32.7727064431]}, "type": "Feature", "properties": {"collection_times": [{"days": "Mon-Fri", "time": "4:30pm"}, {"days": "Sat", "time": "3:00pm"}, {"days": "Sun", "time": "Closed"}], "id": "8806100020", "name": "USPS COLLECTION BOX - PO LOBBY", "address": {"city": "SILVER CITY", "state": "NM", "street": "500 N HUDSON ST", "postcode": "88061"}}},
{"geometry": {"type": "Point", "coordinates": [-108.2744897568, 32.7727064431]}, "type": "Feature", "properties": {"collection_times": [{"days": "Mon-Fri", "time": "4:30pm"}, {"days": "Sat", "time": "3:00pm"}, {"days": "Sun", "time": "Closed"}], "id": "8806100021", "name": "USPS COLLECTION BOX - PO LOBBY", "address": {"city": "SILVER CITY", "state": "NM", "street": "500 N HUDSON ST", "postcode": "88061"}}},
{"geometry": {"type": "Point", "coordinates": [-108.2744897568, 32.7727064431]}, "type": "Feature", "properties": {"collection_times": [{"days": "Mon-Fri", "time": "4:30pm"}, {"days": "Sat", "time": "3:00pm"}, {"days": "Sun", "time": "Closed"}], "id": "8806100022", "name": "USPS COLLECTION BOX - PO LOBBY", "address": {"city": "SILVER CITY", "state": "NM", "street": "500 N HUDSON ST", "postcode": "88061"}}},
{"geometry": {"type": "Point", "coordinates": [-108.2758784752, 32.7782124596]}, "type": "Feature", "properties": {"collection_times": [{"days": "Mon-Sat", "time": "1:30pm"}, {"days": "Sun", "time": "Closed"}], "id": "8806100025", "name": "USPS COLLECTION BOX - BLUE BOX", "address": {"city": "SILVER CITY", "state": "NM", "street": "1000 W COLLEGE AVE", "postcode": "88061"}}},
{"geometry": {"type": "Point", "coordinates": [-106.5918871046, 31.8107707271]}, "type": "Feature", "properties": {"collection_times": [{"days": "Mon-Fri", "time": "4:10pm"}, {"days": "Sat", "time": "10:45am"}, {"days": "Sun", "time": "Closed"}], "id": "8806300000", "name": "USPS COLLECTION BOX - BLUE BOX", "address": {"city": "SANTA TERESA", "state": "NM", "street": "3500 MCNUTT RD", "postcode": "88063"}}},
{"geometry": {"type": "Point", "coordinates": [-106.5918871046, 31.8107707271]}, "type": "Feature", "properties": {"collection_times": [{"days": "Mon-Fri", "time": "4:15pm"}, {"days": "Sat", "time": "10:45am"}, {"days": "Sun", "time": "Closed"}], "id": "8806300002", "name": "USPS COLLECTION BOX - PO LOBBY", "address": {"city": "SANTA TERESA", "state": "NM", "street": "3500 MCNUTT RD", "postcode": "88063"}}},
{"geometry": {"type": "Point", "coordinates": [-106.5918871046, 31.8107707271]}, "type": "Feature", "properties": {"collection_times": [{"days": "Mon-Fri", "time": "4:15pm"}, {"days": "Sat", "time": "10:45am"}, {"days": "Sun", "time": "Closed"}], "id": "8806300003", "name": "USPS COLLECTION BOX - PO LOBBY", "address": {"city": "SANTA TERESA", "state": "NM", "street": "3500 MCNUTT RD", "postcode": "88063"}}},
{"geometry": {"type": "Point", "coordinates": [-106.5918871046, 31.8107707271]}, "type": "Feature", "properties": {"collection_times": [{"days": "Mon-Fri", "time": "4:10pm"}, {"days": "Sat", "time": "10:45am"}, {"days": "Sun", "time": "Closed"}], "id": "8806300004", "name": "USPS COLLECTION BOX - BLUE BOX", "address": {"city": "SANTA TERESA", "state": "NM", "street": "3500 MCNUTT RD", "postcode": "88063"}}},
{"geometry": {"type": "Point", "coordinates": [-108.2971559307, 32.7130115295]}, "type": "Feature", "properties": {"collection_times": [{"days": "Mon-Fri", "time": "3:30pm"}, {"days": "Sat", "time": "9:00am"}, {"days": "Sun", "time": "Closed"}], "id": "8806500000", "name": "USPS COLLECTION BOX - BLUE BOX", "address": {"city": "TYRONE", "state": "NM", "street": "210 TURQUOISE ST", "postcode": "88065"}}},
{"geometry": {"type": "Point", "coordinates": [-108.2971559307, 32.7130115295]}, "type": "Feature", "properties": {"collection_times": [{"days": "Mon-Fri", "time": "4:00pm"}, {"days": "Sat", "time": "9:30am"}, {"days": "Sun", "time": "Closed"}], "id": "8806500001", "name": "USPS COLLECTION BOX - PO LOBBY", "address": {"city": "TYRONE", "state": "NM", "street": "210 TURQUOISE ST", "postcode": "88065"}}},
{"geometry": {"type": "Point", "coordinates": [-108.2971559307, 32.7130115295]}, "type": "Feature", "properties": {"collection_times": [{"days": "Mon-Fri", "time": "4:00pm"}, {"days": "Sat", "time": "9:30am"}, {"days": "Sun", "time": "Closed"}], "id": "8806500002", "name": "USPS COLLECTION BOX - PO LOBBY", "address": {"city": "TYRONE", "state": "NM", "street": "210 TURQUOISE ST", "postcode": "88065"}}}
]}
