{"type": "FeatureCollection", "features": [
{"geometry": {"type": "Point", "coordinates": [-103.2026808992, 34.4020322386]}, "type": "Feature", "properties": {"collection_times": [{"days": "Mon-Fri", "time": "4:30pm"}, {"days": "Sat", "time": "3:10pm"}, {"days": "Sun", "time": "Closed"}], "id": "8810100000", "name": "USPS COLLECTION BOX - BLUE BOX", "address": {"city": "CLOVIS", "state": "NM", "street": "417 GIDDING ST", "postcode": "88101"}}},
{"geometry": {"type": "Point", "coordinates": [-103.2026808992, 34.4020322386]}, "type": "Feature", "properties": {"collection_times": [{"days": "Mon-Fri", "time": "4:30pm"}, {"days": "Sat", "time": "3:10pm"}, {"days": "Sun", "time": "Closed"}], "id": "8810100001", "name": "USPS COLLECTION BOX - BLUE BOX", "address": {"city": "CLOVIS", "state": "NM", "street": "417 GIDDING ST", "postcode": "88101"}}},
{"geometry": {"type": "Point", "coordinates": [-103.2054310844, 34.4047795393]}, "type": "Feature", "properties": {"collection_times": [{"days": "Mon-Sat", "time": "3:05pm"}, {"days": "Sun", "time": "Closed"}], "id": "8810100008", "name": "USPS COLLECTION BOX - BLUE BOX", "address": {"city": "CLOVIS", "state": "NM", "street": "700 N MAIN ST", "postcode": "88101"}}},
{"geometry": {"type": "Point", "coordinates": [-103.2054310844, 34.4047795393]}, "type": "Feature", "properties": {"collection_times": [{"days": "Mon-Sat", "time": "3:05pm"}, {"days": "Sun", "time": "Closed"}], "id": "8810100009", "name": "USPS COLLECTION BOX - BLUE BOX", "address": {"city": "CLOVIS", "state": "NM", "street": "700 N MAIN ST", "postcode": "88101"}}},
{"geometry": {"type": "Point", "coordinates": [-103.2142554346, 34.4176331402]}, "type": "Feature", "properties": {"collection_times": [{"days": "Mon-Sat", "time": "2:35pm"}, {"days": "Sun", "time": "Closed"}], "id": "8810100010", "name": "USPS COLLECTION BOX - BLUE BOX", "address": {"city": "CLOVIS", "state": "NM", "street": "1900 N THORNTON ST", "postcode": "88101"}}},
{"geometry": {"type": "Point", "coordinates": [-103.21417, 34.42059]}, "type": "Feature", "properties": {"collection_times": [{"days": "Mon-Sat", "time": "2:35pm"}, {"days": "Sun", "time": "Closed"}], "id": "8810100011", "name": "USPS COLLECTION BOX - BLUE BOX", "address": {"city": "CLOVIS", "state": "NM", "street": "2112 N THORNTON ST", "postcode": "88101"}}},
{"geometry": {"type": "Point", "coordinates": [-103.2054712275, 34.4205989792]}, "type": "Feature", "properties": {"collection_times": [{"days": "Mon-Sat", "time": "2:40pm"}, {"days": "Sun", "time": "Closed"}], "id": "8810100013", "name": "USPS COLLECTION BOX - BLUE BOX", "address": {"city": "CLOVIS", "state": "NM", "street": "2200 N MAIN ST", "postcode": "88101"}}},
{"geometry": {"type": "Point", "coordinates": [-103.1964475988, 34.4180839908]}, "type": "Feature", "properties": {"collection_times": [{"days": "Mon-Sat", "time": "3:00pm"}, {"days": "Sun", "time": "Closed"}], "id": "8810100016", "name": "USPS COLLECTION BOX - BLUE BOX", "address": {"city": "CLOVIS", "state": "NM", "street": "2001 N PRINCE ST", "postcode": "88101"}}},
{"geometry": {"type": "Point", "coordinates": [-103.1964055783, 34.4276278179]}, "type": "Feature", "properties": {"collection_times": [{"days": "Mon-Sat", "time": "2:55pm"}, {"days": "Sun", "time": "Closed"}], "id": "8810100019", "name": "USPS COLLECTION BOX - BLUE BOX", "address": {"city": "CLOVIS", "state": "NM", "street": "2809 N PRINCE ST", "postcode": "88101"}}},
{"geometry": {"type": "Point", "coordinates": [-103.1963764638, 34.4425526445]}, "type": "Feature", "properties": {"collection_times": [{"days": "Mon-Sat", "time": "2:50pm"}, {"days": "Sun", "time": "Closed"}], "id": "8810100021", "name": "USPS COLLECTION BOX - BLUE BOX", "address": {"city": "CLOVIS", "state": "NM", "street": "4301 N PRINCE ST", "postcode": "88101"}}},
{"geometry": {"type": "Point", "coordinates": [-103.2071347213, 34.4271835634]}, "type": "Feature", "properties": {"collection_times": [{"days": "Mon-Sat", "time": "2:45pm"}, {"days": "Sun", "time": "Closed"}], "id": "8810100022", "name": "USPS COLLECTION BOX - BLUE BOX", "address": {"city": "CLOVIS", "state": "NM", "street": "100 E MANANA BLVD", "postcode": "88101"}}},
{"geometry": {"type": "Point", "coordinates": [-103.2492992648, 34.419161949]}, "type": "Feature", "properties": {"collection_times": [{"days": "Mon-Sat", "time": "2:30pm"}, {"days": "Sun", "time": "Closed"}], "id": "8810100029", "name": "USPS COLLECTION BOX - BLUE BOX", "address": {"city": "CLOVIS", "state": "NM", "street": "2101 W 21ST ST", "postcode": "88101"}}},
{"geometry": {"type": "Point", "coordinates": [-103.2217728786, 34.3988882839]}, "type": "Feature", "properties": {"collection_times": [{"days": "Mon-Sat", "time": "2:00pm"}, {"days": "Sun", "time": "Closed"}], "id": "8810100031", "name": "USPS COLLECTION BOX - BLUE BOX", "address": {"city": "CLOVIS", "state": "NM", "street": "102 W OCTAGON ST", "postcode": "88101"}}},
{"geometry": {"type": "Point", "coordinates": [-103.209808333, 34.41876411]}, "type": "Feature", "properties": {"collection_times": [{"days": "Mon-Sat", "time": "2:00pm"}, {"days": "Sun", "time": "Closed"}], "id": "8810100032", "name": "USPS COLLECTION BOX - BLUE BOX", "address": {"city": "CLOVIS", "state": "NM", "street": "199 W EUREKA AVE", "postcode": "88101"}}},
{"geometry": {"type": "Point", "coordinates": [-103.21989358, 34.4193630145]}, "type": "Feature", "properties": {"collection_times": [{"days": "Mon-Sat", "time": "5:00pm"}, {"days": "Sun", "time": "Closed"}], "id": "8810100041", "name": "USPS COLLECTION BOX - BLUE BOX", "address": {"city": "CLOVIS", "state": "NM", "street": "1224 W 21ST ST", "postcode": "88101"}}},
{"geometry": {"type": "Point", "coordinates": [-103.2026808992, 34.4020322386]}, "type": "Feature", "properties": {"collection_times": [{"days": "Mon-Fri", "time": "4:15pm"}, {"days": "Sat", "time": "3:15pm"}, {"days": "Sun", "time": "Closed"}], "id": "8810100044", "name": "USPS COLLECTION BOX - PO LOBBY", "address": {"city": "CLOVIS", "state": "NM", "street": "417 GIDDING ST", "postcode": "88101"}}},
{"geometry": {"type": "Point", "coordinates": [-103.21989358, 34.4193630145]}, "type": "Feature", "properties": {"collection_times": [{"days": "Mon-Sat", "time": "5:00pm"}, {"days": "Sun", "time": "Closed"}], "id": "8810100046", "name": "USPS COLLECTION BOX - PO LOBBY", "address": {"city": "CLOVIS", "state": "NM", "street": "1224 W 21ST ST", "postcode": "88101"}}},
{"geometry": {"type": "Point", "coordinates": [-103.21989358, 34.4193630145]}, "type": "Feature", "properties": {"collection_times": [{"days": "Mon-Sat", "time": "5:00pm"}, {"days": "Sun", "time": "Closed"}], "id": "8810100047", "name": "USPS COLLECTION BOX - PO LOBBY", "address": {"city": "CLOVIS", "state": "NM", "street": "1224 W 21ST ST", "postcode": "88101"}}},
{"geometry": {"type": "Point", "coordinates": [-103.21989358, 34.4193630145]}, "type": "Feature", "properties": {"collection_times": [{"days": "Mon-Sat", "time": "5:00pm"}, {"days": "Sun", "time": "Closed"}], "id": "8810100053", "name": "USPS COLLECTION BOX - BLUE BOX", "address": {"city": "CLOVIS", "state": "NM", "street": "1224 W 21ST ST", "postcode": "88101"}}},
{"geometry": {"type": "Point", "coordinates": [-103.1964475988, 34.4180839908]}, "type": "Feature", "properties": {"collection_times": [{"days": "Mon-Sat", "time": "3:00pm"}, {"days": "Sun", "time": "Closed"}], "id": "8810100055", "name": "USPS COLLECTION BOX - BLUE BOX", "address": {"city": "CLOVIS", "state": "NM", "street": "2001 N PRINCE ST", "postcode": "88101"}}},
{"geometry": {"type": "Point", "coordinates": [-103.08292, 33.83599]}, "type": "Feature", "properties": {"collection_times": [{"days": "Mon-Sat", "time": "12:45pm"}, {"days": "Sun", "time": "Closed"}], "id": "8811300000", "name": "USPS COLLECTION BOX - BLUE BOX", "address": {"city": "CAUSEY", "state": "NM", "street": "122 CAUSEY MAIN ST", "postcode": "88113"}}},
{"geometry": {"type": "Point", "coordinates": [-103.08292, 33.83599]}, "type": "Feature", "properties": {"collection_times": [{"days": "Mon-Sat", "time": "12:45pm"}, {"days": "Sun", "time": "Closed"}], "id": "8811300001", "name": "USPS COLLECTION BOX - PO LOBBY", "address": {"city": "CAUSEY", "state": "NM", "street": "122 CAUSEY MAIN ST", "postcode": "88113"}}},
{"geometry": {"type": "Point", "coordinates": [-103.336522, 33.9385153251]}, "type": "Feature", "properties": {"collection_times": [{"days": "Mon-Sat", "time": "11:00am"}, {"days": "Sun", "time": "Closed"}], "id": "8811500000", "name": "USPS COLLECTION BOX - BLUE BOX", "address": {"city": "DORA", "state": "NM", "street": "130 DORA MAIN ST", "postcode": "88115"}}},
{"geometry": {"type": "Point", "coordinates": [-103.336522, 33.9385153251]}, "type": "Feature", "properties": {"collection_times": [{"days": "Mon-Sat", "time": "11:00am"}, {"days": "Sun", "time": "Closed"}], "id": "8811500001", "name": "USPS COLLECTION BOX - PO LOBBY", "address": {"city": "DORA", "state": "NM", "street": "130 DORA MAIN ST", "postcode": "88115"}}},
{"geometry": {"type": "Point", "coordinates": [-103.6555369642, 33.946836009]}, "type": "Feature", "properties": {"collection_times": [{"days": "Mon-Fri", "time": "4:15pm"}, {"days": "Sat", "time": "9:15am"}, {"days": "Sun", "time": "Closed"}], "id": "8811600000", "name": "USPS COLLECTION BOX - PO LOBBY", "address": {"city": "ELIDA", "state": "NM", "street": "101 N CENTER ST", "postcode": "88116"}}},
{"geometry": {"type": "Point", "coordinates": [-103.6555369642, 33.946836009]}, "type": "Feature", "properties": {"collection_times": [{"days": "Mon-Fri", "time": "4:15pm"}, {"days": "Sat", "time": "9:15am"}, {"days": "Sun", "time": "Closed"}], "id": "8811600002", "name": "USPS COLLECTION BOX - BLUE BOX", "address": {"city": "ELIDA", "state": "NM", "street": "101 N CENTER ST", "postcode": "88116"}}},
{"geometry": {"type": "Point", "coordinates": [-103.6555369642, 33.946836009]}, "type": "Feature", "properties": {"collection_times": [{"days": "Mon-Fri", "time": "4:15pm"}, {"days": "Sat", "time": "9:15am"}, {"days": "Sun", "time": "Closed"}], "id": "8811600003", "name": "USPS COLLECTION BOX - PO LOBBY", "address": {"city": "ELIDA", "state": "NM", "street": "101 N CENTER ST", "postcode": "88116"}}},
{"geometry": {"type": "Point", "coordinates": [-103.5943220546, 34.2144788905]}, "type": "Feature", "properties": {"collection_times": [{"days": "Mon-Fri", "time": "11:30am"}, {"days": "Sat-Sun", "time": "Closed"}], "id": "8811800000", "name": "USPS COLLECTION BOX - BLUE BOX", "address": {"city": "FLOYD", "state": "NM", "street": "1561 NEW MEXICO 267", "postcode": "88118"}}},
{"geometry": {"type": "Point", "coordinates": [-103.5943220546, 34.2144788905]}, "type": "Feature", "properties": {"collection_times": [{"days": "Mon-Fri", "time": "11:30am"}, {"days": "Sat-Sun", "time": "Closed"}], "id": "8811800001", "name": "USPS COLLECTION BOX - PO LOBBY", "address": {"city": "FLOYD", "state": "NM", "street": "1561 NEW MEXICO 267", "postcode": "88118"}}},
{"geometry": {"type": "Point", "coordinates": [-103.3187731471, 34.8215535022]}, "type": "Feature", "properties": {"collection_times": [{"days": "Mon-Fri", "time": "3:00pm"}, {"days": "Sat", "time": "11:00am"}, {"days": "Sun", "time": "Closed"}], "id": "8812000000", "name": "USPS COLLECTION BOX - BLUE BOX", "address": {"city": "GRADY", "state": "NM", "street": "406 W MAIN ST", "postcode": "88120"}}},
{"geometry": {"type": "Point", "coordinates": [-103.3187731471, 34.8215535022]}, "type": "Feature", "properties": {"collection_times": [{"days": "Mon-Fri", "time": "3:00pm"}, {"days": "Sat", "time": "11:00am"}, {"days": "Sun", "time": "Closed"}], "id": "8812000001", "name": "USPS COLLECTION BOX - PO LOBBY", "address": {"city": "GRADY", "state": "NM", "street": "406 W MAIN ST", "postcode": "88120"}}},
{"geometry": {"type": "Point", "coordinates": [-103.9057086603, 34.6454935613]}, "type": "Feature", "properties": {"collection_times": [{"days": "Mon-Sat", "time": "8:30am"}, {"days": "Sun", "time": "Closed"}], "id": "8812100000", "name": "USPS COLLECTION BOX - BLUE BOX", "address": {"city": "HOUSE", "state": "NM", "street": "105 N APPLE ST", "postcode": "88121"}}},
{"geometry": {"type": "Point", "coordinates": [-103.9057086603, 34.6454935613]}, "type": "Feature", "properties": {"collection_times": [{"days": "Mon-Sat", "time": "9:30am"}, {"days": "Sun", "time": "Closed"}], "id": "8812100001", "name": "USPS COLLECTION BOX - PO LOBBY", "address": {"city": "HOUSE", "state": "NM", "street": "105 N APPLE ST", "postcode": "88121"}}},
{"geometry": {"type": "Point", "coordinates": [-103.6273802645, 34.4289121802]}, "type": "Feature", "properties": {"collection_times": [{"days": "Mon-Fri", "time": "3:00pm"}, {"days": "Sat", "time": "10:00am"}, {"days": "Sun", "time": "Closed"}], "id": "8812400000", "name": "USPS COLLECTION BOX - BLUE BOX", "address": {"city": "MELROSE", "state": "NM", "street": "501 N 5TH ST", "postcode": "88124"}}},
{"geometry": {"type": "Point", "coordinates": [-103.6273802645, 34.4289121802]}, "type": "Feature", "properties": {"collection_times": [{"days": "Mon-Fri", "time": "3:30pm"}, {"days": "Sat", "time": "10:00am"}, {"days": "Sun", "time": "Closed"}], "id": "8812400001", "name": "USPS COLLECTION BOX - PO LOBBY", "address": {"city": "MELROSE", "state": "NM", "street": "501 N 5TH ST", "postcode": "88124"}}},
{"geometry": {"type": "Point", "coordinates": [-103.6273802645, 34.4289121802]}, "type": "Feature", "properties": {"collection_times": [{"days": "Mon-Fri", "time": "3:30pm"}, {"days": "Sat", "time": "10:00am"}, {"days": "Sun", "time": "Closed"}], "id": "8812400002", "name": "USPS COLLECTION BOX - PO LOBBY", "address": {"city": "MELROSE", "state": "NM", "street": "501 N 5TH ST", "postcode": "88124"}}},
{"geometry": {"type": "Point", "coordinates": [-103.3400510487, 33.6429601713]}, "type": "Feature", "properties": {"collection_times": [{"days": "Mon-Sat", "time": "10:45am"}, {"days": "Sun", "time": "Closed"}], "id": "8812500000", "name": "USPS COLLECTION BOX - PO LOBBY", "address": {"city": "MILNESAND", "state": "NM", "street": "4610 NM 206", "postcode": "88125"}}},
{"geometry": {"type": "Point", "coordinates": [-103.3400510487, 33.6429601713]}, "type": "Feature", "properties": {"collection_times": [{"days": "Mon-Sat", "time": "10:45am"}, {"days": "Sun", "time": "Closed"}], "id": "8812500001", "name": "USPS COLLECTION BOX - BLUE BOX", "address": {"city": "MILNESAND", "state": "NM", "street": "4610 NM 206", "postcode": "88125"}}},
{"geometry": {"type": "Point", "coordinates": [-103.336, 33.836353]}, "type": "Feature", "properties": {"collection_times": [{"days": "Mon-Sat", "time": "10:30am"}, {"days": "Sun", "time": "Closed"}], "id": "8812600000", "name": "USPS COLLECTION BOX - BLUE BOX", "address": {"city": "PEP", "state": "NM", "street": "5950 NEW MEXICO 206", "postcode": "88126"}}},
{"geometry": {"type": "Point", "coordinates": [-103.3360239866, 33.8366328712]}, "type": "Feature", "properties": {"collection_times": [{"days": "Mon-Sat", "time": "10:30am"}, {"days": "Sun", "time": "Closed"}], "id": "8812600001", "name": "USPS COLLECTION BOX - PO LOBBY", "address": {"city": "PEP", "state": "NM", "street": "5950 HWY 206", "postcode": "88126"}}},
{"geometry": {"type": "Point", "coordinates": [-103.3374847365, 34.1866136615]}, "type": "Feature", "properties": {"collection_times": [{"days": "Mon-Fri", "time": "5:15pm"}, {"days": "Sat", "time": "5:00pm"}, {"days": "Sun", "time": "Closed"}], "id": "8813000000", "name": "USPS COLLECTION BOX - PO LOBBY", "address": {"city": "PORTALES", "state": "NM", "street": "116 W 1ST ST", "postcode": "88130"}}},
{"geometry": {"type": "Point", "coordinates": [-103.2969446127, 34.1479489815]}, "type": "Feature", "properties": {"collection_times": [{"days": "Mon-Sat", "time": "2:10pm"}, {"days": "Sun", "time": "Closed"}], "id": "8813000008", "name": "USPS COLLECTION BOX - BLUE BOX", "address": {"city": "PORTALES", "state": "NM", "street": "700 WYLIE COX CIR", "postcode": "88130"}}},
{"geometry": {"type": "Point", "coordinates": [-103.3350555726, 34.1713356497]}, "type": "Feature", "properties": {"collection_times": [{"days": "Mon-Sat", "time": "2:15pm"}, {"days": "Sun", "time": "Closed"}], "id": "8813000009", "name": "USPS COLLECTION BOX - BLUE BOX", "address": {"city": "PORTALES", "state": "NM", "street": "505 W 18TH ST", "postcode": "88130"}}},
{"geometry": {"type": "Point", "coordinates": [-103.3469458792, 34.1759253838]}, "type": "Feature", "properties": {"collection_times": [{"days": "Mon-Sat", "time": "2:05pm"}, {"days": "Sun", "time": "Closed"}], "id": "8813000014", "name": "USPS COLLECTION BOX - BLUE BOX", "address": {"city": "PORTALES", "state": "NM", "street": "1500 S AVENUE K", "postcode": "88130"}}},
{"geometry": {"type": "Point", "coordinates": [-103.3435989316, 34.167611531]}, "type": "Feature", "properties": {"collection_times": [{"days": "Mon-Sat", "time": "2:05pm"}, {"days": "Sun", "time": "Closed"}], "id": "8813000015", "name": "USPS COLLECTION BOX - BLUE BOX", "address": {"city": "PORTALES", "state": "NM", "street": "1901 S AVENUE I", "postcode": "88130"}}},
{"geometry": {"type": "Point", "coordinates": [-103.3563783591, 34.1746044273]}, "type": "Feature", "properties": {"collection_times": [{"days": "Mon-Sat", "time": "2:00pm"}, {"days": "Sun", "time": "Closed"}], "id": "8813000016", "name": "USPS COLLECTION BOX - BLUE BOX", "address": {"city": "PORTALES", "state": "NM", "street": "1904 W 2ND ST", "postcode": "88130"}}},
{"geometry": {"type": "Point", "coordinates": [-103.3374847365, 34.1866136615]}, "type": "Feature", "properties": {"collection_times": [{"days": "Mon-Fri", "time": "5:15pm"}, {"days": "Sat", "time": "5:00pm"}, {"days": "Sun", "time": "Closed"}], "id": "8813000019", "name": "USPS COLLECTION BOX - PO LOBBY", "address": {"city": "PORTALES", "state": "NM", "street": "116 W 1ST ST", "postcode": "88130"}}},
{"geometry": {"type": "Point", "coordinates": [-103.3374847365, 34.1866136615]}, "type": "Feature", "properties": {"collection_times": [{"days": "Mon-Fri", "time": "5:00pm"}, {"days": "Sat", "time": "4:30pm"}, {"days": "Sun", "time": "Closed"}], "id": "8813000020", "name": "USPS COLLECTION BOX - BLUE BOX", "address": {"city": "PORTALES", "state": "NM", "street": "116 W 1ST ST", "postcode": "88130"}}},
{"geometry": {"type": "Point", "coordinates": [-103.3374847365, 34.1866136615]}, "type": "Feature", "properties": {"collection_times": [{"days": "Mon-Fri", "time": "5:00pm"}, {"days": "Sat", "time": "4:30pm"}, {"days": "Sun", "time": "Closed"}], "id": "8813000021", "name": "USPS COLLECTION BOX - BLUE BOX", "address": {"city": "PORTALES", "state": "NM", "street": "116 W 1ST ST", "postcode": "88130"}}},
{"geometry": {"type": "Point", "coordinates": [-103.2312145673, 33.9817231241]}, "type": "Feature", "properties": {"collection_times": [{"days": "Mon-Sat", "time": "1:45pm"}, {"days": "Sun", "time": "Closed"}], "id": "8813200000", "name": "USPS COLLECTION BOX - PO LOBBY", "address": {"city": "ROGERS", "state": "NM", "street": "597 NM 235", "postcode": "88132"}}},
{"geometry": {"type": "Point", "coordinates": [-103.2312145673, 33.9817231241]}, "type": "Feature", "properties": {"collection_times": [{"days": "Mon-Sat", "time": "1:45pm"}, {"days": "Sun", "time": "Closed"}], "id": "8813200001", "name": "USPS COLLECTION BOX - BLUE BOX", "address": {"city": "ROGERS", "state": "NM", "street": "597 NM 235", "postcode": "88132"}}},
{"geometry": {"type": "Point", "coordinates": [-104.0434762065, 34.385713091]}, "type": "Feature", "properties": {"collection_times": [{"days": "Mon-Sat", "time": "11:30am"}, {"days": "Sun", "time": "Closed"}], "id": "8813400000", "name": "USPS COLLECTION BOX - BLUE BOX", "address": {"city": "TAIBAN", "state": "NM", "street": "32610 US HWY 60", "postcode": "88134"}}},
{"geometry": {"type": "Point", "coordinates": [-104.0434762065, 34.385713091]}, "type": "Feature", "properties": {"collection_times": [{"days": "Mon-Sat", "time": "11:30am"}, {"days": "Sun", "time": "Closed"}], "id": "8813400001", "name": "USPS COLLECTION BOX - PO LOBBY", "address": {"city": "TAIBAN", "state": "NM", "street": "32610 US HWY 60", "postcode": "88134"}}},
{"geometry": {"type": "Point", "coordinates": [-103.0444093713, 34.3898430239]}, "type": "Feature", "properties": {"collection_times": [{"days": "Mon-Fri", "time": "3:00pm"}, {"days": "Sat", "time": "9:45am"}, {"days": "Sun", "time": "Closed"}], "id": "8813500000", "name": "USPS COLLECTION BOX - BLUE BOX", "address": {"city": "TEXICO", "state": "NM", "street": "212 N STATE ST", "postcode": "88135"}}},
{"geometry": {"type": "Point", "coordinates": [-103.0444093713, 34.3898430239]}, "type": "Feature", "properties": {"collection_times": [{"days": "Mon-Fri", "time": "3:00pm"}, {"days": "Sat", "time": "9:45am"}, {"days": "Sun", "time": "Closed"}], "id": "8813500001", "name": "USPS COLLECTION BOX - PO LOBBY", "address": {"city": "TEXICO", "state": "NM", "street": "212 N STATE ST", "postcode": "88135"}}},
{"geometry": {"type": "Point", "coordinates": [-103.0444093713, 34.3898430239]}, "type": "Feature", "properties": {"collection_times": [{"days": "Mon-Fri", "time": "3:00pm"}, {"days": "Sat", "time": "9:45am"}, {"days": "Sun", "time": "Closed"}], "id": "8813500002", "name": "USPS COLLECTION BOX - PO LOBBY", "address": {"city": "TEXICO", "state": "NM", "street": "212 N STATE ST", "postcode": "88135"}}},
{"geometry": {"type": "Point", "coordinates": [-104.6005446981, 34.3543393163]}, "type": "Feature", "properties": {"collection_times": [{"days": "Mon-Sat", "time": "11:30am"}, {"days": "Sun", "time": "Closed"}], "id": "8813600000", "name": "USPS COLLECTION BOX - BLUE BOX", "address": {"city": "YESO", "state": "NM", "street": "13520 US HWY 60", "postcode": "88136"}}},
{"geometry": {"type": "Point", "coordinates": [-104.6005446981, 34.3543393163]}, "type": "Feature", "properties": {"collection_times": [{"days": "Mon-Sat", "time": "11:30am"}, {"days": "Sun", "time": "Closed"}], "id": "8813600001", "name": "USPS COLLECTION BOX - PO LOBBY", "address": {"city": "YESO", "state": "NM", "street": "13520 US HWY 60", "postcode": "88136"}}}
]}
