{"type": "FeatureCollection", "features": [
{"geometry": {"type": "Point", "coordinates": [-104.5259623695, 33.3966511821]}, "type": "Feature", "properties": {"collection_times": [{"days": "Mon-Fri", "time": "5:00pm"}, {"days": "Sat", "time": "1:30pm"}, {"days": "Sun", "time": "Closed"}], "id": "8820100001", "name": "USPS COLLECTION BOX - BLUE BOX", "address": {"city": "ROSWELL", "state": "NM", "street": "415 N PENNSYLVANIA AVE", "postcode": "88201"}}},
{"geometry": {"type": "Point", "coordinates": [-104.5259623695, 33.3966511821]}, "type": "Feature", "properties": {"collection_times": [{"days": "Mon-Fri", "time": "5:00pm"}, {"days": "Sat", "time": "1:30pm"}, {"days": "Sun", "time": "Closed"}], "id": "8820100002", "name": "USPS COLLECTION BOX - BLUE BOX", "address": {"city": "ROSWELL", "state": "NM", "street": "415 N PENNSYLVANIA AVE", "postcode": "88201"}}},
{"geometry": {"type": "Point", "coordinates": [-104.5259623695, 33.3966511821]}, "type": "Feature", "properties": {"collection_times": [{"days": "Mon-Fri", "time": "4:30pm"}, {"days": "Sat", "time": "1:30pm"}, {"days": "Sun", "time": "Closed"}], "id": "8820100005", "name": "USPS COLLECTION BOX - PO LOBBY", "address": {"city": "ROSWELL", "state": "NM", "street": "415 N PENNSYLVANIA AVE", "postcode": "88201"}}},
{"geometry": {"type": "Point", "coordinates": [-104.5259623695, 33.3966511821]}, "type": "Feature", "properties": {"collection_times": [{"days": "Mon-Fri", "time": "4:30pm"}, {"days": "Sat", "time": "1:30pm"}, {"days": "Sun", "time": "Closed"}], "id": "8820100006", "name": "USPS COLLECTION BOX - PO LOBBY", "address": {"city": "ROSWELL", "state": "NM", "street": "415 N PENNSYLVANIA AVE", "postcode": "88201"}}},
{"geometry": {"type": "Point", "coordinates": [-104.526107776, 33.4233525918]}, "type": "Feature", "properties": {"collection_times": [{"days": "Mon-Fri", "time": "4:00pm"}, {"days": "Sat-Sun", "time": "Closed"}], "id": "8820100027", "name": "USPS COLLECTION BOX - BLUE BOX", "address": {"city": "ROSWELL", "state": "NM", "street": "315 W COUNTRY CLUB RD", "postcode": "88201"}}},
{"geometry": {"type": "Point", "coordinates": [-104.5228475497, 33.3977295321]}, "type": "Feature", "properties": {"collection_times": [{"days": "Mon-Fri", "time": "4:00pm"}, {"days": "Sat", "time": "1:30pm"}, {"days": "Sun", "time": "Closed"}], "id": "8820100033", "name": "USPS COLLECTION BOX - BLUE BOX", "address": {"city": "ROSWELL", "state": "NM", "street": "500 N MAIN ST", "postcode": "88201"}}},
{"geometry": {"type": "Point", "coordinates": [-104.5229074967, 33.4252013958]}, "type": "Feature", "properties": {"collection_times": [{"days": "Mon-Fri", "time": "4:00pm"}, {"days": "Sat", "time": "1:10pm"}, {"days": "Sun", "time": "Closed"}], "id": "8820100050", "name": "USPS COLLECTION BOX - BLUE BOX", "address": {"city": "ROSWELL", "state": "NM", "street": "2601 N MAIN ST", "postcode": "88201"}}},
{"geometry": {"type": "Point", "coordinates": [-104.5228139485, 33.4023816648]}, "type": "Feature", "properties": {"collection_times": [{"days": "Mon-Fri", "time": "4:00pm"}, {"days": "Sat", "time": "1:30pm"}, {"days": "Sun", "time": "Closed"}], "id": "8820100062", "name": "USPS COLLECTION BOX - BLUE BOX", "address": {"city": "ROSWELL", "state": "NM", "street": "912 N MAIN ST", "postcode": "88201"}}},
{"geometry": {"type": "Point", "coordinates": [-104.5259623695, 33.3966511821]}, "type": "Feature", "properties": {"collection_times": [{"days": "Mon-Fri", "time": "4:00pm"}, {"days": "Sat", "time": "1:30pm"}, {"days": "Sun", "time": "Closed"}], "id": "8820100080", "name": "USPS COLLECTION BOX - PO LOBBY", "address": {"city": "ROSWELL", "state": "NM", "street": "415 N PENNSYLVANIA AVE", "postcode": "88201"}}},
{"geometry": {"type": "Point", "coordinates": [-104.5274601084, 33.423356912]}, "type": "Feature", "properties": {"collection_times": [{"days": "Mon-Fri", "time": "4:00pm"}, {"days": "Sat", "time": "1:20pm"}, {"days": "Sun", "time": "Closed"}], "id": "8820100083", "name": "USPS COLLECTION BOX - BLUE BOX", "address": {"city": "ROSWELL", "state": "NM", "street": "405 W COUNTRY CLUB RD", "postcode": "88201"}}},
{"geometry": {"type": "Point", "coordinates": [-104.5259623695, 33.3966511821]}, "type": "Feature", "properties": {"collection_times": [{"days": "Mon-Fri", "time": "4:30pm"}, {"days": "Sat", "time": "1:30pm"}, {"days": "Sun", "time": "Closed"}], "id": "8820100088", "name": "USPS COLLECTION BOX - APC", "address": {"city": "ROSWELL", "state": "NM", "street": "415 N PENNSYLVANIA AVE", "postcode": "88201"}}},
{"geometry": {"type": "Point", "coordinates": [-104.5211712729, 33.3965058779]}, "type": "Feature", "properties": {"collection_times": [{"days": "Mon-Fri", "time": "4:00pm"}, {"days": "Sat-Sun", "time": "Closed"}], "id": "8820100089", "name": "USPS COLLECTION BOX - BLUE BOX", "address": {"city": "ROSWELL", "state": "NM", "street": "400 N VIRGINIA AVE", "postcode": "88201"}}},
{"geometry": {"type": "Point", "coordinates": [-104.5411116751, 33.3941309744]}, "type": "Feature", "properties": {"collection_times": [{"days": "Mon-Fri", "time": "4:00pm"}, {"days": "Sat", "time": "1:40pm"}, {"days": "Sun", "time": "Closed"}], "id": "8820100092", "name": "USPS COLLECTION BOX - BLUE BOX", "address": {"city": "ROSWELL", "state": "NM", "street": "1400 W 2ND ST", "postcode": "88201"}}},
{"geometry": {"type": "Point", "coordinates": [-104.5228139485, 33.4023816648]}, "type": "Feature", "properties": {"collection_times": [{"days": "Mon-Fri", "time": "4:00pm"}, {"days": "Sat", "time": "1:30pm"}, {"days": "Sun", "time": "Closed"}], "id": "8820100095", "name": "USPS COLLECTION BOX - BLUE BOX", "address": {"city": "ROSWELL", "state": "NM", "street": "912 N MAIN ST", "postcode": "88201"}}},
{"geometry": {"type": "Point", "coordinates": [-104.5228640299, 33.4251581104]}, "type": "Feature", "properties": {"collection_times": [{"days": "Mon-Fri", "time": "4:00pm"}, {"days": "Sat", "time": "1:10pm"}, {"days": "Sun", "time": "Closed"}], "id": "8820100096", "name": "USPS COLLECTION BOX - BLUE BOX", "address": {"city": "ROSWELL", "state": "NM", "street": "2601 N MAIN ST", "postcode": "88201"}}},
{"geometry": {"type": "Point", "coordinates": [-104.5233536201, 33.3242241729]}, "type": "Feature", "properties": {"collection_times": [{"days": "Mon-Fri", "time": "4:30pm"}, {"days": "Sat-Sun", "time": "Closed"}], "id": "8820300005", "name": "USPS COLLECTION BOX - PO LOBBY", "address": {"city": "ROSWELL", "state": "NM", "street": "5904 S MAIN ST", "postcode": "88203"}}},
{"geometry": {"type": "Point", "coordinates": [-104.5295816373, 33.3507795421]}, "type": "Feature", "properties": {"collection_times": [{"days": "Mon-Fri", "time": "5:00pm"}, {"days": "Sat", "time": "2:00pm"}, {"days": "Sun", "time": "Closed"}], "id": "8820300006", "name": "USPS COLLECTION BOX - BLUE BOX", "address": {"city": "ROSWELL", "state": "NM", "street": "497 W BRASHER RD", "postcode": "88203"}}},
{"geometry": {"type": "Point", "coordinates": [-104.5295816373, 33.3507795421]}, "type": "Feature", "properties": {"collection_times": [{"days": "Mon-Fri", "time": "5:00pm"}, {"days": "Sat", "time": "2:00pm"}, {"days": "Sun", "time": "Closed"}], "id": "8820300008", "name": "USPS COLLECTION BOX - PO LOBBY", "address": {"city": "ROSWELL", "state": "NM", "street": "497 W BRASHER RD", "postcode": "88203"}}},
{"geometry": {"type": "Point", "coordinates": [-104.5295816373, 33.3507795421]}, "type": "Feature", "properties": {"collection_times": [{"days": "Mon-Fri", "time": "5:00pm"}, {"days": "Sat", "time": "2:00pm"}, {"days": "Sun", "time": "Closed"}], "id": "8820300009", "name": "USPS COLLECTION BOX - PO LOBBY", "address": {"city": "ROSWELL", "state": "NM", "street": "497 W BRASHER RD", "postcode": "88203"}}},
{"geometry": {"type": "Point", "coordinates": [-104.5225614628, 33.3764619208]}, "type": "Feature", "properties": {"collection_times": [{"days": "Mon-Fri", "time": "4:00pm"}, {"days": "Sat", "time": "1:00pm"}, {"days": "Sun", "time": "Closed"}], "id": "8820300014", "name": "USPS COLLECTION BOX - BLUE BOX", "address": {"city": "ROSWELL", "state": "NM", "street": "1 SAINT MARYS PL", "postcode": "88203"}}},
{"geometry": {"type": "Point", "coordinates": [-104.4011366836, 32.8433481283]}, "type": "Feature", "properties": {"collection_times": [{"days": "Mon-Fri", "time": "5:00pm"}, {"days": "Sat", "time": "4:15pm"}, {"days": "Sun", "time": "Closed"}], "id": "8821000000", "name": "USPS COLLECTION BOX - BLUE BOX", "address": {"city": "ARTESIA", "state": "NM", "street": "201 N 4TH ST", "postcode": "88210"}}},
{"geometry": {"type": "Point", "coordinates": [-104.4010108111, 32.8420957496]}, "type": "Feature", "properties": {"collection_times": [{"days": "Mon-Fri", "time": "4:30pm"}, {"days": "Sat-Sun", "time": "Closed"}], "id": "8821000001", "name": "USPS COLLECTION BOX - BLUE BOX", "address": {"city": "ARTESIA", "state": "NM", "street": "105 S 4TH ST", "postcode": "88210"}}},
{"geometry": {"type": "Point", "coordinates": [-104.4099841293, 32.8411499432]}, "type": "Feature", "properties": {"collection_times": [{"days": "Mon-Fri", "time": "4:30pm"}, {"days": "Sat-Sun", "time": "Closed"}], "id": "8821000013", "name": "USPS COLLECTION BOX - BLUE BOX", "address": {"city": "ARTESIA", "state": "NM", "street": "1106 W QUAY AVE", "postcode": "88210"}}},
{"geometry": {"type": "Point", "coordinates": [-104.4256457755, 32.8425908247]}, "type": "Feature", "properties": {"collection_times": [{"days": "Mon-Fri", "time": "4:15pm"}, {"days": "Sat", "time": "4:00pm"}, {"days": "Sun", "time": "Closed"}], "id": "8821000017", "name": "USPS COLLECTION BOX - BLUE BOX", "address": {"city": "ARTESIA", "state": "NM", "street": "2307 W MAIN ST", "postcode": "88210"}}},
{"geometry": {"type": "Point", "coordinates": [-104.4011366836, 32.8433481283]}, "type": "Feature", "properties": {"collection_times": [{"days": "Mon-Fri", "time": "5:00pm"}, {"days": "Sat", "time": "4:15pm"}, {"days": "Sun", "time": "Closed"}], "id": "8821000022", "name": "USPS COLLECTION BOX - BLUE BOX", "address": {"city": "ARTESIA", "state": "NM", "street": "201 N 4TH ST", "postcode": "88210"}}},
{"geometry": {"type": "Point", "coordinates": [-104.4011366836, 32.8433481283]}, "type": "Feature", "properties": {"collection_times": [{"days": "Mon-Fri", "time": "5:00pm"}, {"days": "Sat", "time": "4:15pm"}, {"days": "Sun", "time": "Closed"}], "id": "8821000023", "name": "USPS COLLECTION BOX - BLUE BOX", "address": {"city": "ARTESIA", "state": "NM", "street": "201 N 4TH ST", "postcode": "88210"}}},
{"geometry": {"type": "Point", "coordinates": [-104.4011366836, 32.8433481283]}, "type": "Feature", "properties": {"collection_times": [{"days": "Mon-Fri", "time": "4:45pm"}, {"days": "Sat", "time": "4:15pm"}, {"days": "Sun", "time": "Closed"}], "id": "8821000025", "name": "USPS COLLECTION BOX - PO LOBBY", "address": {"city": "ARTESIA", "state": "NM", "street": "201 N 4TH ST", "postcode": "88210"}}},
{"geometry": {"type": "Point", "coordinates": [-104.4011366836, 32.8433481283]}, "type": "Feature", "properties": {"collection_times": [{"days": "Mon-Fri", "time": "4:45pm"}, {"days": "Sat", "time": "4:15pm"}, {"days": "Sun", "time": "Closed"}], "id": "8821000026", "name": "USPS COLLECTION BOX - PO LOBBY", "address": {"city": "ARTESIA", "state": "NM", "street": "201 N 4TH ST", "postcode": "88210"}}},
{"geometry": {"type": "Point", "coordinates": [-104.4011366836, 32.8433481283]}, "type": "Feature", "properties": {"collection_times": [{"days": "Mon-Fri", "time": "4:45pm"}, {"days": "Sat", "time": "4:15pm"}, {"days": "Sun", "time": "Closed"}], "id": "8821000027", "name": "USPS COLLECTION BOX - PO LOBBY", "address": {"city": "ARTESIA", "state": "NM", "street": "201 N 4TH ST", "postcode": "88210"}}},
{"geometry": {"type": "Point", "coordinates": [-104.4011366836, 32.8433481283]}, "type": "Feature", "properties": {"collection_times": [{"days": "Mon-Fri", "time": "4:45pm"}, {"days": "Sat", "time": "4:15pm"}, {"days": "Sun", "time": "Closed"}], "id": "8821000028", "name": "USPS COLLECTION BOX - PO LOBBY", "address": {"city": "ARTESIA", "state": "NM", "street": "201 N 4TH ST", "postcode": "88210"}}},
{"geometry": {"type": "Point", "coordinates": [-104.4139284686, 32.8316487008]}, "type": "Feature", "properties": {"collection_times": [{"days": "Mon-Sat", "time": "3:45pm"}, {"days": "Sun", "time": "Closed"}], "id": "8821000029", "name": "USPS COLLECTION BOX - BLUE BOX", "address": {"city": "ARTESIA", "state": "NM", "street": "1401 W CENTRE AVE", "postcode": "88210"}}},
{"geometry": {"type": "Point", "coordinates": [-104.4172551731, 32.8422469087]}, "type": "Feature", "properties": {"collection_times": [{"days": "Mon-Fri", "time": "4:15pm"}, {"days": "Sat", "time": "4:00pm"}, {"days": "Sun", "time": "Closed"}], "id": "8821000030", "name": "USPS COLLECTION BOX - BLUE BOX", "address": {"city": "ARTESIA", "state": "NM", "street": "1700 W MAIN ST", "postcode": "88210"}}},
{"geometry": {"type": "Point", "coordinates": [-104.2276252146, 32.42273426]}, "type": "Feature", "properties": {"collection_times": [{"days": "Mon-Fri", "time": "4:20pm"}, {"days": "Sat", "time": "2:45pm"}, {"days": "Sun", "time": "Closed"}], "id": "8822000002", "name": "USPS COLLECTION BOX - BLUE BOX", "address": {"city": "CARLSBAD", "state": "NM", "street": "301 N CANYON ST", "postcode": "88220"}}},
{"geometry": {"type": "Point", "coordinates": [-104.2379271121, 32.4358261175]}, "type": "Feature", "properties": {"collection_times": [{"days": "Mon-Fri", "time": "2:05pm"}, {"days": "Sat", "time": "2:00pm"}, {"days": "Sun", "time": "Closed"}], "id": "8822000003", "name": "USPS COLLECTION BOX - BLUE BOX", "address": {"city": "CARLSBAD", "state": "NM", "street": "1008 W PIERCE ST", "postcode": "88220"}}},
{"geometry": {"type": "Point", "coordinates": [-104.2277864124, 32.4203818173]}, "type": "Feature", "properties": {"collection_times": [{"days": "Mon-Fri", "time": "2:40pm"}, {"days": "Sat", "time": "2:30pm"}, {"days": "Sun", "time": "Closed"}], "id": "8822000005", "name": "USPS COLLECTION BOX - BLUE BOX", "address": {"city": "CARLSBAD", "state": "NM", "street": "102 N CANYON ST", "postcode": "88220"}}},
{"geometry": {"type": "Point", "coordinates": [-104.2277136371, 32.4229812415]}, "type": "Feature", "properties": {"collection_times": [{"days": "Mon-Fri", "time": "4:20pm"}, {"days": "Sat", "time": "2:45pm"}, {"days": "Sun", "time": "Closed"}], "id": "8822000007", "name": "USPS COLLECTION BOX - BLUE BOX", "address": {"city": "CARLSBAD", "state": "NM", "street": "301 N CANYON ST", "postcode": "88220"}}},
{"geometry": {"type": "Point", "coordinates": [-104.2278006264, 32.4191134029]}, "type": "Feature", "properties": {"collection_times": [{"days": "Mon-Fri", "time": "2:35pm"}, {"days": "Sat", "time": "2:30pm"}, {"days": "Sun", "time": "Closed"}], "id": "8822000023", "name": "USPS COLLECTION BOX - BLUE BOX", "address": {"city": "CARLSBAD", "state": "NM", "street": "201 S CANYON ST", "postcode": "88220"}}},
{"geometry": {"type": "Point", "coordinates": [-104.2292053041, 32.4192284123]}, "type": "Feature", "properties": {"collection_times": [{"days": "Mon-Fri", "time": "2:30pm"}, {"days": "Sat", "time": "2:00pm"}, {"days": "Sun", "time": "Closed"}], "id": "8822000025", "name": "USPS COLLECTION BOX - BLUE BOX", "address": {"city": "CARLSBAD", "state": "NM", "street": "308 W FOX ST", "postcode": "88220"}}},
{"geometry": {"type": "Point", "coordinates": [-104.2563706778, 32.4401770203]}, "type": "Feature", "properties": {"collection_times": [{"days": "Mon-Fri", "time": "2:10pm"}, {"days": "Sat", "time": "2:00pm"}, {"days": "Sun", "time": "Closed"}], "id": "8822000029", "name": "USPS COLLECTION BOX - BLUE BOX", "address": {"city": "CARLSBAD", "state": "NM", "street": "2302 W PIERCE ST", "postcode": "88220"}}},
{"geometry": {"type": "Point", "coordinates": [-104.2509073143, 32.4373957542]}, "type": "Feature", "properties": {"collection_times": [{"days": "Mon-Fri", "time": "2:20pm"}, {"days": "Sat", "time": "2:00pm"}, {"days": "Sun", "time": "Closed"}], "id": "8822000031", "name": "USPS COLLECTION BOX - BLUE BOX", "address": {"city": "CARLSBAD", "state": "NM", "street": "1705 W PIERCE ST", "postcode": "88220"}}},
{"geometry": {"type": "Point", "coordinates": [-104.2276252146, 32.42273426]}, "type": "Feature", "properties": {"collection_times": [{"days": "Mon-Fri", "time": "3:00pm"}, {"days": "Sat", "time": "2:45pm"}, {"days": "Sun", "time": "Closed"}], "id": "8822000035", "name": "USPS COLLECTION BOX - PO LOBBY", "address": {"city": "CARLSBAD", "state": "NM", "street": "301 N CANYON ST", "postcode": "88220"}}},
{"geometry": {"type": "Point", "coordinates": [-104.2570835287, 32.4406666969]}, "type": "Feature", "properties": {"collection_times": [{"days": "Mon-Fri", "time": "2:15pm"}, {"days": "Sat", "time": "2:00pm"}, {"days": "Sun", "time": "Closed"}], "id": "8822000037", "name": "USPS COLLECTION BOX - BLUE BOX", "address": {"city": "CARLSBAD", "state": "NM", "street": "2402 W PIERCE ST", "postcode": "88220"}}},
{"geometry": {"type": "Point", "coordinates": [-104.2276252146, 32.42273426]}, "type": "Feature", "properties": {"collection_times": [{"days": "Mon-Fri", "time": "3:00pm"}, {"days": "Sat", "time": "2:45pm"}, {"days": "Sun", "time": "Closed"}], "id": "8822000038", "name": "USPS COLLECTION BOX - PO LOBBY", "address": {"city": "CARLSBAD", "state": "NM", "street": "301 N CANYON ST", "postcode": "88220"}}},
{"geometry": {"type": "Point", "coordinates": [-104.2257862059, 32.3802480379]}, "type": "Feature", "properties": {"collection_times": [{"days": "Mon-Fri", "time": "2:00pm"}, {"days": "Sat", "time": "2:25pm"}, {"days": "Sun", "time": "Closed"}], "id": "8822000043", "name": "USPS COLLECTION BOX - BLUE BOX", "address": {"city": "CARLSBAD", "state": "NM", "street": "3624 NATIONAL PARKS HWY", "postcode": "88220"}}},
{"geometry": {"type": "Point", "coordinates": [-104.2319411494, 32.4204405748]}, "type": "Feature", "properties": {"collection_times": [{"days": "Mon-Fri", "time": "2:25pm"}, {"days": "Sat-Sun", "time": "Closed"}], "id": "8822000044", "name": "USPS COLLECTION BOX - BLUE BOX", "address": {"city": "CARLSBAD", "state": "NM", "street": "522 W MERMOD ST", "postcode": "88220"}}},
{"geometry": {"type": "Point", "coordinates": [-104.37104, 33.195255]}, "type": "Feature", "properties": {"collection_times": [{"days": "Mon-Fri", "time": "3:45pm"}, {"days": "Sat", "time": "10:00am"}, {"days": "Sun", "time": "Closed"}], "id": "8823000000", "name": "USPS COLLECTION BOX - BLUE BOX", "address": {"city": "DEXTER", "state": "NM", "street": "302 S LINCOLN AVE", "postcode": "88230"}}},
{"geometry": {"type": "Point", "coordinates": [-104.3711207149, 33.1953572215]}, "type": "Feature", "properties": {"collection_times": [{"days": "Mon-Fri", "time": "4:00pm"}, {"days": "Sat", "time": "10:00am"}, {"days": "Sun", "time": "Closed"}], "id": "8823000001", "name": "USPS COLLECTION BOX - PO LOBBY", "address": {"city": "DEXTER", "state": "NM", "street": "302 S LINCOLN AVE", "postcode": "88230"}}},
{"geometry": {"type": "Point", "coordinates": [-104.3711207149, 33.1953572215]}, "type": "Feature", "properties": {"collection_times": [{"days": "Mon-Fri", "time": "4:00pm"}, {"days": "Sat", "time": "10:00am"}, {"days": "Sun", "time": "Closed"}], "id": "8823000002", "name": "USPS COLLECTION BOX - PO LOBBY", "address": {"city": "DEXTER", "state": "NM", "street": "302 S LINCOLN AVE", "postcode": "88230"}}},
{"geometry": {"type": "Point", "coordinates": [-103.1582215766, 32.4383372405]}, "type": "Feature", "properties": {"collection_times": [{"days": "Mon-Fri", "time": "3:15pm"}, {"days": "Sat-Sun", "time": "Closed"}], "id": "8823100000", "name": "USPS COLLECTION BOX - BLUE BOX", "address": {"city": "EUNICE", "state": "NM", "street": "1201 AVENUE K", "postcode": "88231"}}},
{"geometry": {"type": "Point", "coordinates": [-103.1582215766, 32.4383372405]}, "type": "Feature", "properties": {"collection_times": [{"days": "Mon-Fri", "time": "3:15pm"}, {"days": "Sat-Sun", "time": "Closed"}], "id": "8823100002", "name": "USPS COLLECTION BOX - PO LOBBY", "address": {"city": "EUNICE", "state": "NM", "street": "1201 AVENUE K", "postcode": "88231"}}},
{"geometry": {"type": "Point", "coordinates": [-104.3273588118, 33.1139665557]}, "type": "Feature", "properties": {"collection_times": [{"days": "Mon-Fri", "time": "2:00pm"}, {"days": "Sat", "time": "9:45am"}, {"days": "Sun", "time": "Closed"}], "id": "8823200001", "name": "USPS COLLECTION BOX - PO LOBBY", "address": {"city": "HAGERMAN", "state": "NM", "street": "108 E ARGYLE ST", "postcode": "88232"}}},
{"geometry": {"type": "Point", "coordinates": [-104.3273588118, 33.1139665557]}, "type": "Feature", "properties": {"collection_times": [{"days": "Mon-Fri", "time": "2:00pm"}, {"days": "Sat", "time": "9:45am"}, {"days": "Sun", "time": "Closed"}], "id": "8823200002", "name": "USPS COLLECTION BOX - PO LOBBY", "address": {"city": "HAGERMAN", "state": "NM", "street": "108 E ARGYLE ST", "postcode": "88232"}}},
{"geometry": {"type": "Point", "coordinates": [-104.3273588118, 33.1139665557]}, "type": "Feature", "properties": {"collection_times": [{"days": "Mon-Sat", "time": "4:15pm"}, {"days": "Sun", "time": "Closed"}], "id": "8823200003", "name": "USPS COLLECTION BOX - BLUE BOX", "address": {"city": "HAGERMAN", "state": "NM", "street": "108 E ARGYLE ST", "postcode": "88232"}}},
{"geometry": {"type": "Point", "coordinates": [-103.1291720586, 32.724371906]}, "type": "Feature", "properties": {"collection_times": [{"days": "Mon-Fri", "time": "5:00pm"}, {"days": "Sat", "time": "4:45pm"}, {"days": "Sun", "time": "Closed"}], "id": "8824000000", "name": "USPS COLLECTION BOX - PO LOBBY", "address": {"city": "HOBBS", "state": "NM", "street": "2200 N ALTO DR", "postcode": "88240"}}},
{"geometry": {"type": "Point", "coordinates": [-103.1291720586, 32.724371906]}, "type": "Feature", "properties": {"collection_times": [{"days": "Mon-Fri", "time": "5:00pm"}, {"days": "Sat", "time": "4:15pm"}, {"days": "Sun", "time": "Closed"}], "id": "8824000007", "name": "USPS COLLECTION BOX - BLUE BOX", "address": {"city": "HOBBS", "state": "NM", "street": "2200 N ALTO DR", "postcode": "88240"}}},
{"geometry": {"type": "Point", "coordinates": [-103.1291720586, 32.724371906]}, "type": "Feature", "properties": {"collection_times": [{"days": "Mon-Fri", "time": "5:00pm"}, {"days": "Sat", "time": "4:15pm"}, {"days": "Sun", "time": "Closed"}], "id": "8824000008", "name": "USPS COLLECTION BOX - BLUE BOX", "address": {"city": "HOBBS", "state": "NM", "street": "2200 N ALTO DR", "postcode": "88240"}}},
{"geometry": {"type": "Point", "coordinates": [-103.1291720586, 32.724371906]}, "type": "Feature", "properties": {"collection_times": [{"days": "Mon-Fri", "time": "5:00pm"}, {"days": "Sat", "time": "4:15pm"}, {"days": "Sun", "time": "Closed"}], "id": "8824000014", "name": "USPS COLLECTION BOX - BLUE BOX", "address": {"city": "HOBBS", "state": "NM", "street": "2200 N ALTO DR", "postcode": "88240"}}},
{"geometry": {"type": "Point", "coordinates": [-103.1291720586, 32.724371906]}, "type": "Feature", "properties": {"collection_times": [{"days": "Mon-Fri", "time": "5:00pm"}, {"days": "Sat", "time": "4:15pm"}, {"days": "Sun", "time": "Closed"}], "id": "8824000015", "name": "USPS COLLECTION BOX - BLUE BOX", "address": {"city": "HOBBS", "state": "NM", "street": "2200 N ALTO DR", "postcode": "88240"}}},
{"geometry": {"type": "Point", "coordinates": [-103.1291720586, 32.724371906]}, "type": "Feature", "properties": {"collection_times": [{"days": "Mon-Fri", "time": "5:00pm"}, {"days": "Sat", "time": "4:45pm"}, {"days": "Sun", "time": "Closed"}], "id": "8824000029", "name": "USPS COLLECTION BOX - PO LOBBY", "address": {"city": "HOBBS", "state": "NM", "street": "2200 N ALTO DR", "postcode": "88240"}}},
{"geometry": {"type": "Point", "coordinates": [-103.1291720586, 32.724371906]}, "type": "Feature", "properties": {"collection_times": [{"days": "Mon-Fri", "time": "5:00pm"}, {"days": "Sat", "time": "4:45pm"}, {"days": "Sun", "time": "Closed"}], "id": "8824000030", "name": "USPS COLLECTION BOX - PO LOBBY", "address": {"city": "HOBBS", "state": "NM", "street": "2200 N ALTO DR", "postcode": "88240"}}},
{"geometry": {"type": "Point", "coordinates": [-104.7325217693, 32.8105204026]}, "type": "Feature", "properties": {"collection_times": [{"days": "Mon-Fri", "time": "2:00pm"}, {"days": "Sat", "time": "11:45am"}, {"days": "Sun", "time": "Closed"}], "id": "8825000000", "name": "USPS COLLECTION BOX - BLUE BOX", "address": {"city": "HOPE", "state": "NM", "street": "810 MAIN ST", "postcode": "88250"}}},
{"geometry": {"type": "Point", "coordinates": [-103.1945874188, 32.115471823]}, "type": "Feature", "properties": {"collection_times": [{"days": "Mon-Fri", "time": "3:00pm"}, {"days": "Sat", "time": "12:00pm"}, {"days": "Sun", "time": "Closed"}], "id": "8825200000", "name": "USPS COLLECTION BOX - BLUE BOX", "address": {"city": "JAL", "state": "NM", "street": "111 S 4TH ST", "postcode": "88252"}}},
{"geometry": {"type": "Point", "coordinates": [-103.1945874188, 32.115471823]}, "type": "Feature", "properties": {"collection_times": [{"days": "Mon-Fri", "time": "3:00pm"}, {"days": "Sat", "time": "12:00pm"}, {"days": "Sun", "time": "Closed"}], "id": "8825200001", "name": "USPS COLLECTION BOX - PO LOBBY", "address": {"city": "JAL", "state": "NM", "street": "111 S 4TH ST", "postcode": "88252"}}},
{"geometry": {"type": "Point", "coordinates": [-103.1945874188, 32.115471823]}, "type": "Feature", "properties": {"collection_times": [{"days": "Mon-Fri", "time": "3:00pm"}, {"days": "Sat", "time": "12:00pm"}, {"days": "Sun", "time": "Closed"}], "id": "8825200002", "name": "USPS COLLECTION BOX - PO LOBBY", "address": {"city": "JAL", "state": "NM", "street": "111 S 4TH ST", "postcode": "88252"}}},
{"geometry": {"type": "Point", "coordinates": [-104.3645995195, 33.002228598]}, "type": "Feature", "properties": {"collection_times": [{"days": "Mon-Fri", "time": "3:30pm"}, {"days": "Sat", "time": "9:15am"}, {"days": "Sun", "time": "Closed"}], "id": "8825300000", "name": "USPS COLLECTION BOX - BLUE BOX", "address": {"city": "LAKE ARTHUR", "state": "NM", "street": "506 N NEVADA RD", "postcode": "88253"}}},
{"geometry": {"type": "Point", "coordinates": [-104.3645995195, 33.002228598]}, "type": "Feature", "properties": {"collection_times": [{"days": "Mon-Fri", "time": "12:00pm"}, {"days": "Sat", "time": "9:15am"}, {"days": "Sun", "time": "Closed"}], "id": "8825300001", "name": "USPS COLLECTION BOX - PO LOBBY", "address": {"city": "LAKE ARTHUR", "state": "NM", "street": "506 N NEVADA RD", "postcode": "88253"}}},
{"geometry": {"type": "Point", "coordinates": [-104.3699305629, 32.6323877207]}, "type": "Feature", "properties": {"collection_times": [{"days": "Mon-Fri", "time": "3:00pm"}, {"days": "Sat", "time": "9:00am"}, {"days": "Sun", "time": "Closed"}], "id": "8825400002", "name": "USPS COLLECTION BOX - BLUE BOX", "address": {"city": "LAKEWOOD", "state": "NM", "street": "194 LAKEWOOD RD", "postcode": "88254"}}},
{"geometry": {"type": "Point", "coordinates": [-104.3699305629, 32.6323877207]}, "type": "Feature", "properties": {"collection_times": [{"days": "Mon-Fri", "time": "12:00pm"}, {"days": "Sat", "time": "9:00am"}, {"days": "Sun", "time": "Closed"}], "id": "8825400003", "name": "USPS COLLECTION BOX - PO LOBBY", "address": {"city": "LAKEWOOD", "state": "NM", "street": "194 LAKEWOOD RD", "postcode": "88254"}}},
{"geometry": {"type": "Point", "coordinates": [-103.986664697, 32.8191072295]}, "type": "Feature", "properties": {"collection_times": [{"days": "Mon-Fri", "time": "12:00pm"}, {"days": "Sat", "time": "10:00am"}, {"days": "Sun", "time": "Closed"}], "id": "8825500001", "name": "USPS COLLECTION BOX - PO LOBBY", "address": {"city": "LOCO HILLS", "state": "NM", "street": "3 GOAT ROPER RD", "postcode": "88255"}}},
{"geometry": {"type": "Point", "coordinates": [-104.0958896231, 32.2848333077]}, "type": "Feature", "properties": {"collection_times": [{"days": "Mon-Fri", "time": "3:45pm"}, {"days": "Sat", "time": "1:00pm"}, {"days": "Sun", "time": "Closed"}], "id": "8825600000", "name": "USPS COLLECTION BOX - BLUE BOX", "address": {"city": "LOVING", "state": "NM", "street": "402 W BEECH ST", "postcode": "88256"}}},
{"geometry": {"type": "Point", "coordinates": [-104.0958896231, 32.2848333077]}, "type": "Feature", "properties": {"collection_times": [{"days": "Mon-Fri", "time": "3:45pm"}, {"days": "Sat", "time": "1:00pm"}, {"days": "Sun", "time": "Closed"}], "id": "8825600001", "name": "USPS COLLECTION BOX - PO LOBBY", "address": {"city": "LOVING", "state": "NM", "street": "402 W BEECH ST", "postcode": "88256"}}},
{"geometry": {"type": "Point", "coordinates": [-103.3473448438, 32.9440202936]}, "type": "Feature", "properties": {"collection_times": [{"days": "Mon-Fri", "time": "5:00pm"}, {"days": "Sat", "time": "12:00pm"}, {"days": "Sun", "time": "Closed"}], "id": "8826000000", "name": "USPS COLLECTION BOX - PO LOBBY", "address": {"city": "LOVINGTON", "state": "NM", "street": "203 E AVENUE D", "postcode": "88260"}}},
{"geometry": {"type": "Point", "coordinates": [-103.3473448438, 32.9440202936]}, "type": "Feature", "properties": {"collection_times": [{"days": "Mon-Fri", "time": "5:00pm"}, {"days": "Sat", "time": "12:00pm"}, {"days": "Sun", "time": "Closed"}], "id": "8826000001", "name": "USPS COLLECTION BOX - BLUE BOX", "address": {"city": "LOVINGTON", "state": "NM", "street": "203 E AVENUE D", "postcode": "88260"}}},
{"geometry": {"type": "Point", "coordinates": [-103.3473448438, 32.9440202936]}, "type": "Feature", "properties": {"collection_times": [{"days": "Mon-Fri", "time": "5:00pm"}, {"days": "Sat", "time": "12:00pm"}, {"days": "Sun", "time": "Closed"}], "id": "8826000002", "name": "USPS COLLECTION BOX - BLUE BOX", "address": {"city": "LOVINGTON", "state": "NM", "street": "203 E AVENUE D", "postcode": "88260"}}},
{"geometry": {"type": "Point", "coordinates": [-103.3473448438, 32.9440202936]}, "type": "Feature", "properties": {"collection_times": [{"days": "Mon-Fri", "time": "5:00pm"}, {"days": "Sat", "time": "12:00pm"}, {"days": "Sun", "time": "Closed"}], "id": "8826000004", "name": "USPS COLLECTION BOX - PO LOBBY", "address": {"city": "LOVINGTON", "state": "NM", "street": "203 E AVENUE D", "postcode": "88260"}}},
{"geometry": {"type": "Point", "coordinates": [-103.3599012412, 32.9440331335]}, "type": "Feature", "properties": {"collection_times": [{"days": "Mon-Fri", "time": "2:30pm"}, {"days": "Sat", "time": "12:00pm"}, {"days": "Sun", "time": "Closed"}], "id": "8826000005", "name": "USPS COLLECTION BOX - BLUE BOX", "address": {"city": "LOVINGTON", "state": "NM", "street": "900 W AVENUE D", "postcode": "88260"}}},
{"geometry": {"type": "Point", "coordinates": [-104.0721831677, 32.2255430332]}, "type": "Feature", "properties": {"collection_times": [{"days": "Mon-Fri", "time": "2:30pm"}, {"days": "Sat", "time": "11:45am"}, {"days": "Sun", "time": "Closed"}], "id": "8826300000", "name": "USPS COLLECTION BOX - BLUE BOX", "address": {"city": "MALAGA", "state": "NM", "street": "1623 PECOS HWY", "postcode": "88263"}}},
{"geometry": {"type": "Point", "coordinates": [-104.0721831677, 32.2255430332]}, "type": "Feature", "properties": {"collection_times": [{"days": "Mon-Fri", "time": "2:30pm"}, {"days": "Sat", "time": "11:45am"}, {"days": "Sun", "time": "Closed"}], "id": "8826300001", "name": "USPS COLLECTION BOX - PO LOBBY", "address": {"city": "MALAGA", "state": "NM", "street": "1623 PECOS HWY", "postcode": "88263"}}},
{"geometry": {"type": "Point", "coordinates": [-104.0721831677, 32.2255430332]}, "type": "Feature", "properties": {"collection_times": [{"days": "Mon-Fri", "time": "2:30pm"}, {"days": "Sat", "time": "11:45am"}, {"days": "Sun", "time": "Closed"}], "id": "8826300002", "name": "USPS COLLECTION BOX - PO LOBBY", "address": {"city": "MALAGA", "state": "NM", "street": "1623 PECOS HWY", "postcode": "88263"}}},
{"geometry": {"type": "Point", "coordinates": [-103.7239487611, 32.8236509]}, "type": "Feature", "properties": {"collection_times": [{"days": "Mon-Fri", "time": "11:30am"}, {"days": "Sat", "time": "11:00am"}, {"days": "Sun", "time": "Closed"}], "id": "8826400000", "name": "USPS COLLECTION BOX - BLUE BOX", "address": {"city": "MALJAMAR", "state": "NM", "street": "11036 HIGHWAY 82", "postcode": "88264"}}},
{"geometry": {"type": "Point", "coordinates": [-103.7239487611, 32.8236509]}, "type": "Feature", "properties": {"collection_times": [{"days": "Mon-Fri", "time": "11:30am"}, {"days": "Sat", "time": "11:00am"}, {"days": "Sun", "time": "Closed"}], "id": "8826400001", "name": "USPS COLLECTION BOX - PO LOBBY", "address": {"city": "MALJAMAR", "state": "NM", "street": "11036 HIGHWAY 82", "postcode": "88264"}}},
{"geometry": {"type": "Point", "coordinates": [-103.2765464022, 32.6203109905]}, "type": "Feature", "properties": {"collection_times": [{"days": "Mon-Sat", "time": "11:15am"}, {"days": "Sun", "time": "Closed"}], "id": "8826500000", "name": "USPS COLLECTION BOX - BLUE BOX", "address": {"city": "MONUMENT", "state": "NM", "street": "9921 W NM HIGHWAY 322", "postcode": "88265"}}},
{"geometry": {"type": "Point", "coordinates": [-103.2765464022, 32.6203109905]}, "type": "Feature", "properties": {"collection_times": [{"days": "Mon-Sat", "time": "11:15am"}, {"days": "Sun", "time": "Closed"}], "id": "8826500001", "name": "USPS COLLECTION BOX - PO LOBBY", "address": {"city": "MONUMENT", "state": "NM", "street": "9921 W NM HIGHWAY 322", "postcode": "88265"}}},
{"geometry": {"type": "Point", "coordinates": [-103.3189829952, 33.2557560409]}, "type": "Feature", "properties": {"collection_times": [{"days": "Mon-Fri", "time": "4:15pm"}, {"days": "Sat-Sun", "time": "Closed"}], "id": "8826700000", "name": "USPS COLLECTION BOX - BLUE BOX", "address": {"city": "TATUM", "state": "NM", "street": "114 S AVENUE A", "postcode": "88267"}}},
{"geometry": {"type": "Point", "coordinates": [-103.3189829952, 33.2557560409]}, "type": "Feature", "properties": {"collection_times": [{"days": "Mon-Fri", "time": "4:15pm"}, {"days": "Sat-Sun", "time": "Closed"}], "id": "8826700001", "name": "USPS COLLECTION BOX - PO LOBBY", "address": {"city": "TATUM", "state": "NM", "street": "114 S AVENUE A", "postcode": "88267"}}},
{"geometry": {"type": "Point", "coordinates": [-103.31892, 33.255707]}, "type": "Feature", "properties": {"collection_times": [{"days": "Mon-Fri", "time": "4:15pm"}, {"days": "Sat-Sun", "time": "Closed"}], "id": "8826700002", "name": "USPS COLLECTION BOX - BLUE BOX", "address": {"city": "TATUM", "state": "NM", "street": "114 S AVENUE A", "postcode": "88267"}}},
{"geometry": {"type": "Point", "coordinates": [-104.3770878937, 32.1758752308]}, "type": "Feature", "properties": {"collection_times": [{"days": "Mon-Fri", "time": "2:30pm"}, {"days": "Sat", "time": "12:30pm"}, {"days": "Sun", "time": "Closed"}], "id": "8826800000", "name": "USPS COLLECTION BOX - BLUE BOX", "address": {"city": "WHITES CITY", "state": "NM", "street": "23 CARLSBAD CAVERNS HWY", "postcode": "88268"}}},
{"geometry": {"type": "Point", "coordinates": [-104.3770878937, 32.1758752308]}, "type": "Feature", "properties": {"collection_times": [{"days": "Mon-Fri", "time": "2:30pm"}, {"days": "Sat", "time": "12:30pm"}, {"days": "Sun", "time": "Closed"}], "id": "8826800001", "name": "USPS COLLECTION BOX - PO LOBBY", "address": {"city": "WHITES CITY", "state": "NM", "street": "23 CARLSBAD CAVERNS HWY", "postcode": "88268"}}}
]}
