{"type": "FeatureCollection", "features": [
{"geometry": {"type": "Point", "coordinates": [-105.876498309, 33.6418346994]}, "type": "Feature", "properties": {"collection_times": [{"days": "Mon-Fri", "time": "2:30pm"}, {"days": "Sat", "time": "11:30am"}, {"days": "Sun", "time": "Closed"}], "id": "8830100000", "name": "USPS COLLECTION BOX - PO LOBBY", "address": {"city": "CARRIZOZO", "state": "NM", "street": "509 12TH ST", "postcode": "88301"}}},
{"geometry": {"type": "Point", "coordinates": [-105.876498309, 33.6418346994]}, "type": "Feature", "properties": {"collection_times": [{"days": "Mon-Fri", "time": "2:30pm"}, {"days": "Sat", "time": "11:30am"}, {"days": "Sun", "time": "Closed"}], "id": "8830100001", "name": "USPS COLLECTION BOX - BLUE BOX", "address": {"city": "CARRIZOZO", "state": "NM", "street": "509 12TH ST", "postcode": "88301"}}},
{"geometry": {"type": "Point", "coordinates": [-105.9509249731, 32.9017973678]}, "type": "Feature", "properties": {"collection_times": [{"days": "Mon-Sat", "time": "5:00pm"}, {"days": "Sun", "time": "Closed"}], "id": "8831000000", "name": "USPS COLLECTION BOX - BLUE BOX", "address": {"city": "ALAMOGORDO", "state": "NM", "street": "930 12TH ST", "postcode": "88310"}}},
{"geometry": {"type": "Point", "coordinates": [-105.9509249731, 32.9017973678]}, "type": "Feature", "properties": {"collection_times": [{"days": "Mon-Sat", "time": "5:00pm"}, {"days": "Sun", "time": "Closed"}], "id": "8831000002", "name": "USPS COLLECTION BOX - BLUE BOX", "address": {"city": "ALAMOGORDO", "state": "NM", "street": "930 12TH ST", "postcode": "88310"}}},
{"geometry": {"type": "Point", "coordinates": [-105.9509249731, 32.9017973678]}, "type": "Feature", "properties": {"collection_times": [{"days": "Mon-Sat", "time": "5:00pm"}, {"days": "Sun", "time": "Closed"}], "id": "8831000003", "name": "USPS COLLECTION BOX - BLUE BOX", "address": {"city": "ALAMOGORDO", "state": "NM", "street": "930 12TH ST", "postcode": "88310"}}},
{"geometry": {"type": "Point", "coordinates": [-105.9605324983, 32.903351936]}, "type": "Feature", "properties": {"collection_times": [{"days": "Mon-Fri", "time": "3:30pm"}, {"days": "Sat", "time": "2:45pm"}, {"days": "Sun", "time": "Closed"}], "id": "8831000008", "name": "USPS COLLECTION BOX - BLUE BOX", "address": {"city": "ALAMOGORDO", "state": "NM", "street": "1301 N WHITE SANDS BLVD", "postcode": "88310"}}},
{"geometry": {"type": "Point", "coordinates": [-105.9590963475, 32.9007080214]}, "type": "Feature", "properties": {"collection_times": [{"days": "Mon-Fri", "time": "3:45pm"}, {"days": "Sat-Sun", "time": "Closed"}], "id": "8831000010", "name": "USPS COLLECTION BOX - BLUE BOX", "address": {"city": "ALAMOGORDO", "state": "NM", "street": "1101 NEW YORK AVE", "postcode": "88310"}}},
{"geometry": {"type": "Point", "coordinates": [-105.9434565228, 32.8999541206]}, "type": "Feature", "properties": {"collection_times": [{"days": "Mon-Fri", "time": "3:15pm"}, {"days": "Sat-Sun", "time": "Closed"}], "id": "8831000015", "name": "USPS COLLECTION BOX - BLUE BOX", "address": {"city": "ALAMOGORDO", "state": "NM", "street": "1401 10TH ST", "postcode": "88310"}}},
{"geometry": {"type": "Point", "coordinates": [-105.9808052456, 32.8664602441]}, "type": "Feature", "properties": {"collection_times": [{"days": "Mon-Fri", "time": "2:45pm"}, {"days": "Sat-Sun", "time": "Closed"}], "id": "8831000026", "name": "USPS COLLECTION BOX - BLUE BOX", "address": {"city": "ALAMOGORDO", "state": "NM", "street": "901 HIGHWAY 70 W", "postcode": "88310"}}},
{"geometry": {"type": "Point", "coordinates": [-105.9610432659, 32.9263757763]}, "type": "Feature", "properties": {"collection_times": [{"days": "Mon-Fri", "time": "3:30pm"}, {"days": "Sat-Sun", "time": "Closed"}], "id": "8831000035", "name": "USPS COLLECTION BOX - BLUE BOX", "address": {"city": "ALAMOGORDO", "state": "NM", "street": "3197 N WHITE SANDS BLVD", "postcode": "88310"}}},
{"geometry": {"type": "Point", "coordinates": [-105.9300222872, 32.8970728663]}, "type": "Feature", "properties": {"collection_times": [{"days": "Mon-Fri", "time": "3:15pm"}, {"days": "Sat", "time": "2:50pm"}, {"days": "Sun", "time": "Closed"}], "id": "8831000047", "name": "USPS COLLECTION BOX - BLUE BOX", "address": {"city": "ALAMOGORDO", "state": "NM", "street": "822 SCENIC DR", "postcode": "88310"}}},
{"geometry": {"type": "Point", "coordinates": [-105.9546677641, 32.8998628593]}, "type": "Feature", "properties": {"collection_times": [{"days": "Mon-Fri", "time": "3:45pm"}, {"days": "Sat", "time": "2:45pm"}, {"days": "Sun", "time": "Closed"}], "id": "8831000049", "name": "USPS COLLECTION BOX - BLUE BOX", "address": {"city": "ALAMOGORDO", "state": "NM", "street": "675 10TH ST", "postcode": "88310"}}},
{"geometry": {"type": "Point", "coordinates": [-105.9449970275, 32.8987796837]}, "type": "Feature", "properties": {"collection_times": [{"days": "Mon-Fri", "time": "3:00pm"}, {"days": "Sat-Sun", "time": "Closed"}], "id": "8831000051", "name": "USPS COLLECTION BOX - BLUE BOX", "address": {"city": "ALAMOGORDO", "state": "NM", "street": "1376 9TH ST", "postcode": "88310"}}},
{"geometry": {"type": "Point", "coordinates": [-105.9629740239, 32.8571891337]}, "type": "Feature", "properties": {"collection_times": [{"days": "Mon-Fri", "time": "2:45pm"}, {"days": "Sat", "time": "2:30pm"}, {"days": "Sun", "time": "Closed"}], "id": "8831000054", "name": "USPS COLLECTION BOX - BLUE BOX", "address": {"city": "ALAMOGORDO", "state": "NM", "street": "2640 HAMILTON RD", "postcode": "88310"}}},
{"geometry": {"type": "Point", "coordinates": [-105.9481106975, 32.9164025237]}, "type": "Feature", "properties": {"collection_times": [{"days": "Mon-Fri", "time": "3:30pm"}, {"days": "Sat-Sun", "time": "Closed"}], "id": "8831000058", "name": "USPS COLLECTION BOX - BLUE BOX", "address": {"city": "ALAMOGORDO", "state": "NM", "street": "2201 PUERTO RICO AVE", "postcode": "88310"}}},
{"geometry": {"type": "Point", "coordinates": [-105.9600035312, 32.8760031543]}, "type": "Feature", "properties": {"collection_times": [{"days": "Mon-Fri", "time": "2:45pm"}, {"days": "Sat-Sun", "time": "Closed"}], "id": "8831000059", "name": "USPS COLLECTION BOX - BLUE BOX", "address": {"city": "ALAMOGORDO", "state": "NM", "street": "301 PANORAMA BLVD", "postcode": "88310"}}},
{"geometry": {"type": "Point", "coordinates": [-105.9509249731, 32.9017973678]}, "type": "Feature", "properties": {"collection_times": [{"days": "Mon-Sat", "time": "5:00pm"}, {"days": "Sun", "time": "Closed"}], "id": "8831000060", "name": "USPS COLLECTION BOX - PO LOBBY", "address": {"city": "ALAMOGORDO", "state": "NM", "street": "930 12TH ST", "postcode": "88310"}}},
{"geometry": {"type": "Point", "coordinates": [-105.9509249731, 32.9017973678]}, "type": "Feature", "properties": {"collection_times": [{"days": "Mon-Sat", "time": "5:00pm"}, {"days": "Sun", "time": "Closed"}], "id": "8831000061", "name": "USPS COLLECTION BOX - PO LOBBY", "address": {"city": "ALAMOGORDO", "state": "NM", "street": "930 12TH ST", "postcode": "88310"}}},
{"geometry": {"type": "Point", "coordinates": [-105.9509249731, 32.9017973678]}, "type": "Feature", "properties": {"collection_times": [{"days": "Mon-Sat", "time": "5:00pm"}, {"days": "Sun", "time": "Closed"}], "id": "8831000062", "name": "USPS COLLECTION BOX - PO LOBBY", "address": {"city": "ALAMOGORDO", "state": "NM", "street": "930 12TH ST", "postcode": "88310"}}},
{"geometry": {"type": "Point", "coordinates": [-105.9568728456, 32.8986899658]}, "type": "Feature", "properties": {"collection_times": [{"days": "Mon-Fri", "time": "3:00pm"}, {"days": "Sat-Sun", "time": "Closed"}], "id": "8831000067", "name": "USPS COLLECTION BOX - BLUE BOX", "address": {"city": "ALAMOGORDO", "state": "NM", "street": "500 9TH ST", "postcode": "88310"}}},
{"geometry": {"type": "Point", "coordinates": [-105.9590963475, 32.9007080214]}, "type": "Feature", "properties": {"collection_times": [{"days": "Mon-Fri", "time": "3:45pm"}, {"days": "Sat-Sun", "time": "Closed"}], "id": "8831000072", "name": "USPS COLLECTION BOX - BLUE BOX", "address": {"city": "ALAMOGORDO", "state": "NM", "street": "1101 NEW YORK AVE", "postcode": "88310"}}},
{"geometry": {"type": "Point", "coordinates": [-105.9602212605, 32.8979491066]}, "type": "Feature", "properties": {"collection_times": [{"days": "Mon-Fri", "time": "3:00pm"}, {"days": "Sat", "time": "2:30pm"}, {"days": "Sun", "time": "Closed"}], "id": "8831000073", "name": "USPS COLLECTION BOX - BLUE BOX", "address": {"city": "ALAMOGORDO", "state": "NM", "street": "818 N WHITE SANDS BLVD", "postcode": "88310"}}},
{"geometry": {"type": "Point", "coordinates": [-105.9326756454, 32.9255788915]}, "type": "Feature", "properties": {"collection_times": [{"days": "Mon-Fri", "time": "3:15pm"}, {"days": "Sat-Sun", "time": "Closed"}], "id": "8831000074", "name": "USPS COLLECTION BOX - BLUE BOX", "address": {"city": "ALAMOGORDO", "state": "NM", "street": "2669 SCENIC DR", "postcode": "88310"}}},
{"geometry": {"type": "Point", "coordinates": [-105.9524161185, 32.9189983603]}, "type": "Feature", "properties": {"collection_times": [{"days": "Mon-Fri", "time": "3:30pm"}, {"days": "Sat-Sun", "time": "Closed"}], "id": "8831000075", "name": "USPS COLLECTION BOX - BLUE BOX", "address": {"city": "ALAMOGORDO", "state": "NM", "street": "2395 N FLORIDA AVE", "postcode": "88310"}}},
{"geometry": {"type": "Point", "coordinates": [-105.6860812791, 33.4205994061]}, "type": "Feature", "properties": {"collection_times": [{"days": "Mon-Fri", "time": "3:00pm"}, {"days": "Sat", "time": "10:00am"}, {"days": "Sun", "time": "Closed"}], "id": "8831200000", "name": "USPS COLLECTION BOX - BLUE BOX", "address": {"city": "ALTO", "state": "NM", "street": "100 SUN VALLEY RD", "postcode": "88312"}}},
{"geometry": {"type": "Point", "coordinates": [-105.6860812791, 33.4205994061]}, "type": "Feature", "properties": {"collection_times": [{"days": "Mon-Fri", "time": "3:00pm"}, {"days": "Sat", "time": "10:00am"}, {"days": "Sun", "time": "Closed"}], "id": "8831200001", "name": "USPS COLLECTION BOX - PO LOBBY", "address": {"city": "ALTO", "state": "NM", "street": "100 SUN VALLEY RD", "postcode": "88312"}}},
{"geometry": {"type": "Point", "coordinates": [-105.6860812791, 33.4205994061]}, "type": "Feature", "properties": {"collection_times": [{"days": "Mon-Fri", "time": "3:00pm"}, {"days": "Sat", "time": "10:00am"}, {"days": "Sun", "time": "Closed"}], "id": "8831200002", "name": "USPS COLLECTION BOX - PO LOBBY", "address": {"city": "ALTO", "state": "NM", "street": "100 SUN VALLEY RD", "postcode": "88312"}}},
{"geometry": {"type": "Point", "coordinates": [-105.8555420795, 33.1583967978]}, "type": "Feature", "properties": {"collection_times": [{"days": "Mon-Fri", "time": "2:15pm"}, {"days": "Sat", "time": "9:45am"}, {"days": "Sun", "time": "Closed"}], "id": "8831400000", "name": "USPS COLLECTION BOX - BLUE BOX", "address": {"city": "BENT", "state": "NM", "street": "21 BENT RD", "postcode": "88314"}}},
{"geometry": {"type": "Point", "coordinates": [-105.8555420795, 33.1583967978]}, "type": "Feature", "properties": {"collection_times": [{"days": "Mon-Fri", "time": "2:15pm"}, {"days": "Sat", "time": "9:45am"}, {"days": "Sun", "time": "Closed"}], "id": "8831400001", "name": "USPS COLLECTION BOX - PO LOBBY", "address": {"city": "BENT", "state": "NM", "street": "21 BENT RD", "postcode": "88314"}}},
{"geometry": {"type": "Point", "coordinates": [-105.5709421538, 33.5456508377]}, "type": "Feature", "properties": {"collection_times": [{"days": "Mon-Fri", "time": "2:30pm"}, {"days": "Sat", "time": "11:30am"}, {"days": "Sun", "time": "Closed"}], "id": "8831600000", "name": "USPS COLLECTION BOX - BLUE BOX", "address": {"city": "CAPITAN", "state": "NM", "street": "226 E SMOKEY BEAR BLVD", "postcode": "88316"}}},
{"geometry": {"type": "Point", "coordinates": [-105.5709421538, 33.5456508377]}, "type": "Feature", "properties": {"collection_times": [{"days": "Mon-Fri", "time": "2:30pm"}, {"days": "Sat", "time": "11:30am"}, {"days": "Sun", "time": "Closed"}], "id": "8831600001", "name": "USPS COLLECTION BOX - PO LOBBY", "address": {"city": "CAPITAN", "state": "NM", "street": "226 E SMOKEY BEAR BLVD", "postcode": "88316"}}},
{"geometry": {"type": "Point", "coordinates": [-105.5709421538, 33.5456508377]}, "type": "Feature", "properties": {"collection_times": [{"days": "Mon-Fri", "time": "2:30pm"}, {"days": "Sat", "time": "11:30am"}, {"days": "Sun", "time": "Closed"}], "id": "8831600002", "name": "USPS COLLECTION BOX - PO LOBBY", "address": {"city": "CAPITAN", "state": "NM", "street": "226 E SMOKEY BEAR BLVD", "postcode": "88316"}}},
{"geometry": {"type": "Point", "coordinates": [-105.7443620269, 32.958165688]}, "type": "Feature", "properties": {"collection_times": [{"days": "Mon-Fri", "time": "3:15pm"}, {"days": "Sat", "time": "11:30am"}, {"days": "Sun", "time": "Closed"}], "id": "8831700000", "name": "USPS COLLECTION BOX - BLUE BOX", "address": {"city": "CLOUDCROFT", "state": "NM", "street": "20 CURLEW PL", "postcode": "88317"}}},
{"geometry": {"type": "Point", "coordinates": [-105.7443620269, 32.958165688]}, "type": "Feature", "properties": {"collection_times": [{"days": "Mon-Fri", "time": "3:15pm"}, {"days": "Sat", "time": "11:30am"}, {"days": "Sun", "time": "Closed"}], "id": "8831700001", "name": "USPS COLLECTION BOX - PO LOBBY", "address": {"city": "CLOUDCROFT", "state": "NM", "street": "20 CURLEW PL", "postcode": "88317"}}},
{"geometry": {"type": "Point", "coordinates": [-105.7443620269, 32.958165688]}, "type": "Feature", "properties": {"collection_times": [{"days": "Mon-Fri", "time": "3:15pm"}, {"days": "Sat", "time": "11:30am"}, {"days": "Sun", "time": "Closed"}], "id": "8831700002", "name": "USPS COLLECTION BOX - PO LOBBY", "address": {"city": "CLOUDCROFT", "state": "NM", "street": "20 CURLEW PL", "postcode": "88317"}}},
{"geometry": {"type": "Point", "coordinates": [-105.5948644682, 34.2498941047]}, "type": "Feature", "properties": {"collection_times": [{"days": "Mon-Fri", "time": "2:15pm"}, {"days": "Sat", "time": "10:45am"}, {"days": "Sun", "time": "Closed"}], "id": "8831800001", "name": "USPS COLLECTION BOX - PO LOBBY", "address": {"city": "CORONA", "state": "NM", "street": "601 MAIN ST", "postcode": "88318"}}},
{"geometry": {"type": "Point", "coordinates": [-105.5948644682, 34.2498941047]}, "type": "Feature", "properties": {"collection_times": [{"days": "Mon-Fri", "time": "2:15pm"}, {"days": "Sat", "time": "10:45am"}, {"days": "Sun", "time": "Closed"}], "id": "8831800002", "name": "USPS COLLECTION BOX - PO LOBBY", "address": {"city": "CORONA", "state": "NM", "street": "601 MAIN ST", "postcode": "88318"}}},
{"geometry": {"type": "Point", "coordinates": [-105.5022558518, 34.6682262452]}, "type": "Feature", "properties": {"collection_times": [{"days": "Mon-Fri", "time": "1:30pm"}, {"days": "Sat", "time": "9:45am"}, {"days": "Sun", "time": "Closed"}], "id": "8832100000", "name": "USPS COLLECTION BOX - BLUE BOX", "address": {"city": "ENCINO", "state": "NM", "street": "122 US HIGHWAY 285", "postcode": "88321"}}},
{"geometry": {"type": "Point", "coordinates": [-105.5022558518, 34.6682262452]}, "type": "Feature", "properties": {"collection_times": [{"days": "Mon-Fri", "time": "1:30pm"}, {"days": "Sat", "time": "9:45am"}, {"days": "Sun", "time": "Closed"}], "id": "8832100001", "name": "USPS COLLECTION BOX - PO LOBBY", "address": {"city": "ENCINO", "state": "NM", "street": "122 US HIGHWAY 285", "postcode": "88321"}}},
{"geometry": {"type": "Point", "coordinates": [-105.5245536518, 33.4958683337]}, "type": "Feature", "properties": {"collection_times": [{"days": "Mon-Sat", "time": "11:30am"}, {"days": "Sun", "time": "Closed"}], "id": "8832300000", "name": "USPS COLLECTION BOX - BLUE BOX", "address": {"city": "FORT STANTON", "state": "NM", "street": "100 BLACK JACK PERSHING RD", "postcode": "88323"}}},
{"geometry": {"type": "Point", "coordinates": [-105.5245536518, 33.4958683337]}, "type": "Feature", "properties": {"collection_times": [{"days": "Mon-Sat", "time": "11:30am"}, {"days": "Sun", "time": "Closed"}], "id": "8832300001", "name": "USPS COLLECTION BOX - PO LOBBY", "address": {"city": "FORT STANTON", "state": "NM", "street": "100 BLACK JACK PERSHING RD", "postcode": "88323"}}},
{"geometry": {"type": "Point", "coordinates": [-105.4998035769, 33.4272600462]}, "type": "Feature", "properties": {"collection_times": [{"days": "Mon-Fri", "time": "2:15pm"}, {"days": "Sat", "time": "10:00am"}, {"days": "Sun", "time": "Closed"}], "id": "8832400000", "name": "USPS COLLECTION BOX - BLUE BOX", "address": {"city": "GLENCOE", "state": "NM", "street": "27489 US HIGHWAY 70", "postcode": "88324"}}},
{"geometry": {"type": "Point", "coordinates": [-105.4998035769, 33.4272600462]}, "type": "Feature", "properties": {"collection_times": [{"days": "Mon-Fri", "time": "2:15pm"}, {"days": "Sat", "time": "10:00am"}, {"days": "Sun", "time": "Closed"}], "id": "8832400001", "name": "USPS COLLECTION BOX - PO LOBBY", "address": {"city": "GLENCOE", "state": "NM", "street": "27489 US HIGHWAY 70", "postcode": "88324"}}},
{"geometry": {"type": "Point", "coordinates": [-105.8301474586, 32.9478502426]}, "type": "Feature", "properties": {"collection_times": [{"days": "Mon-Fri", "time": "3:30pm"}, {"days": "Sat", "time": "10:30am"}, {"days": "Sun", "time": "Closed"}], "id": "8832500001", "name": "USPS COLLECTION BOX - PO LOBBY", "address": {"city": "HI RLS MTN PK", "state": "NM", "street": "4 CHERRY BLOSSOM", "postcode": "88325"}}},
{"geometry": {"type": "Point", "coordinates": [-106.0822113003, 32.8381986195]}, "type": "Feature", "properties": {"collection_times": [{"days": "Mon-Fri", "time": "4:45pm"}, {"days": "Sat", "time": "12:00pm"}, {"days": "Sun", "time": "Closed"}], "id": "8833000000", "name": "USPS COLLECTION BOX - BLUE BOX", "address": {"city": "HOLLOMAN AFB", "state": "NM", "street": "721 NEW MEXICO AVE", "postcode": "88330"}}},
{"geometry": {"type": "Point", "coordinates": [-106.0822113003, 32.8381986195]}, "type": "Feature", "properties": {"collection_times": [{"days": "Mon-Fri", "time": "4:45pm"}, {"days": "Sat", "time": "12:00pm"}, {"days": "Sun", "time": "Closed"}], "id": "8833000002", "name": "USPS COLLECTION BOX - PO LOBBY", "address": {"city": "HOLLOMAN AFB", "state": "NM", "street": "721 NEW MEXICO AVE", "postcode": "88330"}}},
{"geometry": {"type": "Point", "coordinates": [-106.0822113003, 32.8381986195]}, "type": "Feature", "properties": {"collection_times": [{"days": "Mon-Fri", "time": "4:45pm"}, {"days": "Sat", "time": "12:00pm"}, {"days": "Sun", "time": "Closed"}], "id": "8833000015", "name": "USPS COLLECTION BOX - PO LOBBY", "address": {"city": "HOLLOMAN AFB", "state": "NM", "street": "721 NEW MEXICO AVE", "postcode": "88330"}}},
{"geometry": {"type": "Point", "coordinates": [-105.3236560718, 33.4319131172]}, "type": "Feature", "properties": {"collection_times": [{"days": "Mon-Fri", "time": "2:00pm"}, {"days": "Sat", "time": "11:00am"}, {"days": "Sun", "time": "Closed"}], "id": "8833600000", "name": "USPS COLLECTION BOX - BLUE BOX", "address": {"city": "HONDO", "state": "NM", "street": "28633 US HIGHWAY 70", "postcode": "88336"}}},
{"geometry": {"type": "Point", "coordinates": [-105.3236560718, 33.4319131172]}, "type": "Feature", "properties": {"collection_times": [{"days": "Mon-Fri", "time": "2:00pm"}, {"days": "Sat", "time": "11:00am"}, {"days": "Sun", "time": "Closed"}], "id": "8833600001", "name": "USPS COLLECTION BOX - PO LOBBY", "address": {"city": "HONDO", "state": "NM", "street": "28633 US HIGHWAY 70", "postcode": "88336"}}},
{"geometry": {"type": "Point", "coordinates": [-105.9429777458, 32.9785450776]}, "type": "Feature", "properties": {"collection_times": [{"days": "Mon-Fri", "time": "4:00pm"}, {"days": "Sat", "time": "11:30am"}, {"days": "Sun", "time": "Closed"}], "id": "8833700001", "name": "USPS COLLECTION BOX - PO LOBBY", "address": {"city": "LA LUZ", "state": "NM", "street": "12 MAIN ST", "postcode": "88337"}}},
{"geometry": {"type": "Point", "coordinates": [-105.9468584818, 32.9769006395]}, "type": "Feature", "properties": {"collection_times": [{"days": "Mon-Fri", "time": "11:00am"}, {"days": "Sat-Sun", "time": "Closed"}], "id": "8833700002", "name": "USPS COLLECTION BOX - BLUE BOX", "address": {"city": "LA LUZ", "state": "NM", "street": "27 ALAMO ST", "postcode": "88337"}}},
{"geometry": {"type": "Point", "coordinates": [-105.389147157, 33.4772475253]}, "type": "Feature", "properties": {"collection_times": [{"days": "Mon-Fri", "time": "2:00pm"}, {"days": "Sat", "time": "10:00am"}, {"days": "Sun", "time": "Closed"}], "id": "8833800001", "name": "USPS COLLECTION BOX - PO LOBBY", "address": {"city": "LINCOLN", "state": "NM", "street": "859 CALLE LA PLACITA", "postcode": "88338"}}},
{"geometry": {"type": "Point", "coordinates": [-105.521392523, 32.9085773357]}, "type": "Feature", "properties": {"collection_times": [{"days": "Mon-Fri", "time": "12:00pm"}, {"days": "Sat", "time": "11:00am"}, {"days": "Sun", "time": "Closed"}], "id": "8833900000", "name": "USPS COLLECTION BOX - PO LOBBY", "address": {"city": "MAYHILL", "state": "NM", "street": "3495 US HIGHWAY 82", "postcode": "88339"}}},
{"geometry": {"type": "Point", "coordinates": [-105.521392523, 32.9085773357]}, "type": "Feature", "properties": {"collection_times": [{"days": "Mon-Fri", "time": "2:30pm"}, {"days": "Sat", "time": "11:00am"}, {"days": "Sun", "time": "Closed"}], "id": "8833900001", "name": "USPS COLLECTION BOX - BLUE BOX", "address": {"city": "MAYHILL", "state": "NM", "street": "3495 US HIGHWAY 82", "postcode": "88339"}}},
{"geometry": {"type": "Point", "coordinates": [-105.4780730711, 32.8902361271]}, "type": "Feature", "properties": {"collection_times": [{"days": "Mon-Fri", "time": "12:00pm"}, {"days": "Sat", "time": "11:00am"}, {"days": "Sun", "time": "Closed"}], "id": "8833900002", "name": "USPS COLLECTION BOX - PO LOBBY", "address": {"city": "MAYHILL", "state": "NM", "street": "3495 US HIGHWAY 82", "postcode": "88339"}}},
{"geometry": {"type": "Point", "coordinates": [-105.778408977, 33.1569400856]}, "type": "Feature", "properties": {"collection_times": [{"days": "Mon-Fri", "time": "2:45pm"}, {"days": "Sat", "time": "11:30am"}, {"days": "Sun", "time": "Closed"}], "id": "8834000000", "name": "USPS COLLECTION BOX - BLUE BOX", "address": {"city": "MESCALERO", "state": "NM", "street": "102 CHIRICAHUA PLZ", "postcode": "88340"}}},
{"geometry": {"type": "Point", "coordinates": [-105.778408977, 33.1569400856]}, "type": "Feature", "properties": {"collection_times": [{"days": "Mon-Fri", "time": "2:45pm"}, {"days": "Sat", "time": "11:30am"}, {"days": "Sun", "time": "Closed"}], "id": "8834000001", "name": "USPS COLLECTION BOX - PO LOBBY", "address": {"city": "MESCALERO", "state": "NM", "street": "102 CHIRICAHUA PLZ", "postcode": "88340"}}},
{"geometry": {"type": "Point", "coordinates": [-105.778408977, 33.1569400856]}, "type": "Feature", "properties": {"collection_times": [{"days": "Mon-Fri", "time": "2:45pm"}, {"days": "Sat", "time": "11:30am"}, {"days": "Sun", "time": "Closed"}], "id": "8834000002", "name": "USPS COLLECTION BOX - PO LOBBY", "address": {"city": "MESCALERO", "state": "NM", "street": "102 CHIRICAHUA PLZ", "postcode": "88340"}}},
{"geometry": {"type": "Point", "coordinates": [-105.7404362513, 33.4962817821]}, "type": "Feature", "properties": {"collection_times": [{"days": "Mon-Fri", "time": "3:00pm"}, {"days": "Sat", "time": "11:30am"}, {"days": "Sun", "time": "Closed"}], "id": "8834100000", "name": "USPS COLLECTION BOX - BLUE BOX", "address": {"city": "NOGAL", "state": "NM", "street": "1108 STATE HIGHWAY 37", "postcode": "88341"}}},
{"geometry": {"type": "Point", "coordinates": [-105.7404362513, 33.4962817821]}, "type": "Feature", "properties": {"collection_times": [{"days": "Mon-Fri", "time": "12:00pm"}, {"days": "Sat", "time": "11:30am"}, {"days": "Sun", "time": "Closed"}], "id": "8834100001", "name": "USPS COLLECTION BOX - PO LOBBY", "address": {"city": "NOGAL", "state": "NM", "street": "1108 STATE HIGHWAY 37", "postcode": "88341"}}},
{"geometry": {"type": "Point", "coordinates": [-106.091782177, 32.3772459322]}, "type": "Feature", "properties": {"collection_times": [{"days": "Mon-Sat", "time": "11:30am"}, {"days": "Sun", "time": "Closed"}], "id": "8834200000", "name": "USPS COLLECTION BOX - BLUE BOX", "address": {"city": "OROGRANDE", "state": "NM", "street": "1271 MAIN ST", "postcode": "88342"}}},
{"geometry": {"type": "Point", "coordinates": [-106.091782177, 32.3772459322]}, "type": "Feature", "properties": {"collection_times": [{"days": "Mon-Sat", "time": "11:30am"}, {"days": "Sun", "time": "Closed"}], "id": "8834200001", "name": "USPS COLLECTION BOX - PO LOBBY", "address": {"city": "OROGRANDE", "state": "NM", "street": "1271 MAIN ST", "postcode": "88342"}}},
{"geometry": {"type": "Point", "coordinates": [-104.970288369, 33.414671891]}, "type": "Feature", "properties": {"collection_times": [{"days": "Mon-Fri", "time": "1:30pm"}, {"days": "Sat", "time": "11:45am"}, {"days": "Sun", "time": "Closed"}], "id": "8834300000", "name": "USPS COLLECTION BOX - BLUE BOX", "address": {"city": "PICACHO", "state": "NM", "street": "29340 US HIGHWAY 70", "postcode": "88343"}}},
{"geometry": {"type": "Point", "coordinates": [-104.970288369, 33.414671891]}, "type": "Feature", "properties": {"collection_times": [{"days": "Mon-Fri", "time": "1:30pm"}, {"days": "Sat", "time": "11:45am"}, {"days": "Sun", "time": "Closed"}], "id": "8834300001", "name": "USPS COLLECTION BOX - PO LOBBY", "address": {"city": "PICACHO", "state": "NM", "street": "29340 US HIGHWAY 70", "postcode": "88343"}}},
{"geometry": {"type": "Point", "coordinates": [-105.1127902642, 32.6353272673]}, "type": "Feature", "properties": {"collection_times": [{"days": "Mon-Fri", "time": "12:30pm"}, {"days": "Sat", "time": "11:30am"}, {"days": "Sun", "time": "Closed"}], "id": "8834400000", "name": "USPS COLLECTION BOX - PO LOBBY", "address": {"city": "PINON", "state": "NM", "street": "2332 HIGHWAY 24", "postcode": "88344"}}},
{"geometry": {"type": "Point", "coordinates": [-105.6654169594, 33.3670486483]}, "type": "Feature", "properties": {"collection_times": [{"days": "Mon-Fri", "time": "4:00pm"}, {"days": "Sat", "time": "1:00pm"}, {"days": "Sun", "time": "Closed"}], "id": "8834500001", "name": "USPS COLLECTION BOX - BLUE BOX", "address": {"city": "RUIDOSO", "state": "NM", "street": "1090 MECHEM DR", "postcode": "88345"}}},
{"geometry": {"type": "Point", "coordinates": [-105.6654169594, 33.3670486483]}, "type": "Feature", "properties": {"collection_times": [{"days": "Mon-Fri", "time": "4:00pm"}, {"days": "Sat", "time": "1:00pm"}, {"days": "Sun", "time": "Closed"}], "id": "8834500002", "name": "USPS COLLECTION BOX - BLUE BOX", "address": {"city": "RUIDOSO", "state": "NM", "street": "1090 MECHEM DR", "postcode": "88345"}}},
{"geometry": {"type": "Point", "coordinates": [-105.6280973543, 33.3236745571]}, "type": "Feature", "properties": {"collection_times": [{"days": "Mon-Fri", "time": "2:25pm"}, {"days": "Sat", "time": "12:05pm"}, {"days": "Sun", "time": "Closed"}], "id": "8834500003", "name": "USPS COLLECTION BOX - BLUE BOX", "address": {"city": "RUIDOSO", "state": "NM", "street": "138 SUDDERTH DR", "postcode": "88345"}}},
{"geometry": {"type": "Point", "coordinates": [-105.6316079953, 33.3179704937]}, "type": "Feature", "properties": {"collection_times": [{"days": "Mon-Fri", "time": "2:15pm"}, {"days": "Sat", "time": "12:00pm"}, {"days": "Sun", "time": "Closed"}], "id": "8834500004", "name": "USPS COLLECTION BOX - BLUE BOX", "address": {"city": "RUIDOSO", "state": "NM", "street": "410 HIGHWAY 70", "postcode": "88345"}}},
{"geometry": {"type": "Point", "coordinates": [-105.666144979, 33.3298634346]}, "type": "Feature", "properties": {"collection_times": [{"days": "Mon-Fri", "time": "2:30pm"}, {"days": "Sat", "time": "12:10pm"}, {"days": "Sun", "time": "Closed"}], "id": "8834500006", "name": "USPS COLLECTION BOX - BLUE BOX", "address": {"city": "RUIDOSO", "state": "NM", "street": "1800 SUDDERTH DR", "postcode": "88345"}}},
{"geometry": {"type": "Point", "coordinates": [-105.6656998996, 33.3672404189]}, "type": "Feature", "properties": {"collection_times": [{"days": "Mon-Fri", "time": "2:50pm"}, {"days": "Sat-Sun", "time": "Closed"}], "id": "8834500008", "name": "USPS COLLECTION BOX - BLUE BOX", "address": {"city": "RUIDOSO", "state": "NM", "street": "1096 MECHEM DR", "postcode": "88345"}}},
{"geometry": {"type": "Point", "coordinates": [-105.669139188, 33.3709303608]}, "type": "Feature", "properties": {"collection_times": [{"days": "Mon-Fri", "time": "2:00pm"}, {"days": "Sat-Sun", "time": "Closed"}], "id": "8834500009", "name": "USPS COLLECTION BOX - BLUE BOX", "address": {"city": "RUIDOSO", "state": "NM", "street": "1221 MECHEM DR", "postcode": "88345"}}},
{"geometry": {"type": "Point", "coordinates": [-105.6639752344, 33.3654667048]}, "type": "Feature", "properties": {"collection_times": [{"days": "Mon-Fri", "time": "2:15pm"}, {"days": "Sat-Sun", "time": "Closed"}], "id": "8834500011", "name": "USPS COLLECTION BOX - BLUE BOX", "address": {"city": "RUIDOSO", "state": "NM", "street": "1009 MECHEM DR", "postcode": "88345"}}},
{"geometry": {"type": "Point", "coordinates": [-105.6655024408, 33.3585306579]}, "type": "Feature", "properties": {"collection_times": [{"days": "Mon-Fri", "time": "9:00am"}, {"days": "Sat-Sun", "time": "Closed"}], "id": "8834500012", "name": "USPS COLLECTION BOX - BLUE BOX", "address": {"city": "RUIDOSO", "state": "NM", "street": "707 MECHEM DR", "postcode": "88345"}}},
{"geometry": {"type": "Point", "coordinates": [-105.6654169594, 33.3670486483]}, "type": "Feature", "properties": {"collection_times": [{"days": "Mon-Fri", "time": "3:00pm"}, {"days": "Sat", "time": "1:00pm"}, {"days": "Sun", "time": "Closed"}], "id": "8834500014", "name": "USPS COLLECTION BOX - PO LOBBY", "address": {"city": "RUIDOSO", "state": "NM", "street": "1090 MECHEM DR", "postcode": "88345"}}},
{"geometry": {"type": "Point", "coordinates": [-105.6316079953, 33.3179704937]}, "type": "Feature", "properties": {"collection_times": [{"days": "Mon-Fri", "time": "2:15pm"}, {"days": "Sat", "time": "12:00pm"}, {"days": "Sun", "time": "Closed"}], "id": "8834500015", "name": "USPS COLLECTION BOX - PO LOBBY", "address": {"city": "RUIDOSO", "state": "NM", "street": "410 HIGHWAY 70", "postcode": "88345"}}},
{"geometry": {"type": "Point", "coordinates": [-105.6684000051, 33.3544826293]}, "type": "Feature", "properties": {"collection_times": [{"days": "Mon-Fri", "time": "2:45pm"}, {"days": "Sat-Sun", "time": "Closed"}], "id": "8834500016", "name": "USPS COLLECTION BOX - BLUE BOX", "address": {"city": "RUIDOSO", "state": "NM", "street": "508 MECHEM DR", "postcode": "88345"}}},
{"geometry": {"type": "Point", "coordinates": [-105.6656998996, 33.3672404189]}, "type": "Feature", "properties": {"collection_times": [{"days": "Mon-Fri", "time": "2:50pm"}, {"days": "Sat-Sun", "time": "Closed"}], "id": "8834500017", "name": "USPS COLLECTION BOX - BLUE BOX", "address": {"city": "RUIDOSO", "state": "NM", "street": "1096 MECHEM DR", "postcode": "88345"}}},
{"geometry": {"type": "Point", "coordinates": [-105.6851558603, 33.3336117528]}, "type": "Feature", "properties": {"collection_times": [{"days": "Mon-Sat", "time": "11:30am"}, {"days": "Sun", "time": "Closed"}], "id": "8834500018", "name": "USPS COLLECTION BOX - BLUE BOX", "address": {"city": "RUIDOSO", "state": "NM", "street": "101 VISION DR", "postcode": "88345"}}},
{"geometry": {"type": "Point", "coordinates": [-105.6316079953, 33.3179704937]}, "type": "Feature", "properties": {"collection_times": [{"days": "Mon-Fri", "time": "2:15pm"}, {"days": "Sat", "time": "12:00pm"}, {"days": "Sun", "time": "Closed"}], "id": "8834500019", "name": "USPS COLLECTION BOX - PO LOBBY", "address": {"city": "RUIDOSO", "state": "NM", "street": "410 HIGHWAY 70", "postcode": "88345"}}},
{"geometry": {"type": "Point", "coordinates": [-105.6654169594, 33.3670486483]}, "type": "Feature", "properties": {"collection_times": [{"days": "Mon-Fri", "time": "3:00pm"}, {"days": "Sat", "time": "1:00pm"}, {"days": "Sun", "time": "Closed"}], "id": "8834500020", "name": "USPS COLLECTION BOX - PO LOBBY", "address": {"city": "RUIDOSO", "state": "NM", "street": "1090 MECHEM DR", "postcode": "88345"}}},
{"geometry": {"type": "Point", "coordinates": [-105.6654169594, 33.3670486483]}, "type": "Feature", "properties": {"collection_times": [{"days": "Mon-Fri", "time": "3:00pm"}, {"days": "Sat", "time": "1:00pm"}, {"days": "Sun", "time": "Closed"}], "id": "8834500021", "name": "USPS COLLECTION BOX - PO LOBBY", "address": {"city": "RUIDOSO", "state": "NM", "street": "1090 MECHEM DR", "postcode": "88345"}}},
{"geometry": {"type": "Point", "coordinates": [-105.4821105411, 33.3474744431]}, "type": "Feature", "properties": {"collection_times": [{"days": "Mon-Fri", "time": "3:00pm"}, {"days": "Sat", "time": "11:30am"}, {"days": "Sun", "time": "Closed"}], "id": "8834600000", "name": "USPS COLLECTION BOX - BLUE BOX", "address": {"city": "RUIDOSO DOWNS", "state": "NM", "street": "26336 US HIGHWAY 70 E", "postcode": "88346"}}},
{"geometry": {"type": "Point", "coordinates": [-105.4821105411, 33.3474744431]}, "type": "Feature", "properties": {"collection_times": [{"days": "Mon-Fri", "time": "3:00pm"}, {"days": "Sat", "time": "11:45am"}, {"days": "Sun", "time": "Closed"}], "id": "8834600001", "name": "USPS COLLECTION BOX - PO LOBBY", "address": {"city": "RUIDOSO DOWNS", "state": "NM", "street": "26336 US HIGHWAY 70 E", "postcode": "88346"}}},
{"geometry": {"type": "Point", "coordinates": [-105.4821105411, 33.3474744431]}, "type": "Feature", "properties": {"collection_times": [{"days": "Mon-Fri", "time": "3:00pm"}, {"days": "Sat", "time": "11:45am"}, {"days": "Sun", "time": "Closed"}], "id": "8834600002", "name": "USPS COLLECTION BOX - PO LOBBY", "address": {"city": "RUIDOSO DOWNS", "state": "NM", "street": "26336 US HIGHWAY 70 E", "postcode": "88346"}}},
{"geometry": {"type": "Point", "coordinates": [-105.5625104602, 32.7934724589]}, "type": "Feature", "properties": {"collection_times": [{"days": "Mon-Fri", "time": "11:30am"}, {"days": "Sat", "time": "10:30am"}, {"days": "Sun", "time": "Closed"}], "id": "8834700000", "name": "USPS COLLECTION BOX - PO LOBBY", "address": {"city": "SACRAMENTO", "state": "NM", "street": "16 ASSEMBLY RD", "postcode": "88347"}}},
{"geometry": {"type": "Point", "coordinates": [-105.3586599522, 33.3739351431]}, "type": "Feature", "properties": {"collection_times": [{"days": "Mon-Fri", "time": "12:00pm"}, {"days": "Sat", "time": "11:30am"}, {"days": "Sun", "time": "Closed"}], "id": "8834800000", "name": "USPS COLLECTION BOX - BLUE BOX", "address": {"city": "SAN PATRICIO", "state": "NM", "street": "28100 PETER HURD LOOP", "postcode": "88348"}}},
{"geometry": {"type": "Point", "coordinates": [-105.3586599522, 33.3739351431]}, "type": "Feature", "properties": {"collection_times": [{"days": "Mon-Fri", "time": "12:00pm"}, {"days": "Sat", "time": "11:30am"}, {"days": "Sun", "time": "Closed"}], "id": "8834800001", "name": "USPS COLLECTION BOX - PO LOBBY", "address": {"city": "SAN PATRICIO", "state": "NM", "street": "28100 PETER HURD LOOP", "postcode": "88348"}}},
{"geometry": {"type": "Point", "coordinates": [-105.8064388191, 32.7880375028]}, "type": "Feature", "properties": {"collection_times": [{"days": "Mon-Sat", "time": "11:30am"}, {"days": "Sun", "time": "Closed"}], "id": "8834900000", "name": "USPS COLLECTION BOX - PO LOBBY", "address": {"city": "SUNSPOT", "state": "NM", "street": "1 MAIN ST", "postcode": "88349"}}},
{"geometry": {"type": "Point", "coordinates": [-105.152450057, 33.2432058726]}, "type": "Feature", "properties": {"collection_times": [{"days": "Mon-Fri", "time": "1:45pm"}, {"days": "Sat", "time": "11:15am"}, {"days": "Sun", "time": "Closed"}], "id": "8835100000", "name": "USPS COLLECTION BOX - BLUE BOX", "address": {"city": "TINNIE", "state": "NM", "street": "28801 US HIGHWAY 70", "postcode": "88351"}}},
{"geometry": {"type": "Point", "coordinates": [-105.152450057, 33.2432058726]}, "type": "Feature", "properties": {"collection_times": [{"days": "Mon-Fri", "time": "1:45pm"}, {"days": "Sat", "time": "11:15am"}, {"days": "Sun", "time": "Closed"}], "id": "8835100001", "name": "USPS COLLECTION BOX - PO LOBBY", "address": {"city": "TINNIE", "state": "NM", "street": "28801 US HIGHWAY 70", "postcode": "88351"}}},
{"geometry": {"type": "Point", "coordinates": [-106.0141755476, 33.0792790029]}, "type": "Feature", "properties": {"collection_times": [{"days": "Mon-Fri", "time": "5:00pm"}, {"days": "Sat", "time": "3:00pm"}, {"days": "Sun", "time": "Closed"}], "id": "8835200000", "name": "USPS COLLECTION BOX - PO LOBBY", "address": {"city": "TULAROSA", "state": "NM", "street": "360 CENTRAL AVE", "postcode": "88352"}}},
{"geometry": {"type": "Point", "coordinates": [-106.0141755476, 33.0792790029]}, "type": "Feature", "properties": {"collection_times": [{"days": "Mon-Fri", "time": "5:00pm"}, {"days": "Sat", "time": "3:00pm"}, {"days": "Sun", "time": "Closed"}], "id": "8835200007", "name": "USPS COLLECTION BOX - BLUE BOX", "address": {"city": "TULAROSA", "state": "NM", "street": "360 CENTRAL AVE", "postcode": "88352"}}},
{"geometry": {"type": "Point", "coordinates": [-106.0141755476, 33.0792790029]}, "type": "Feature", "properties": {"collection_times": [{"days": "Mon-Fri", "time": "5:00pm"}, {"days": "Sat", "time": "3:00pm"}, {"days": "Sun", "time": "Closed"}], "id": "8835200008", "name": "USPS COLLECTION BOX - BLUE BOX", "address": {"city": "TULAROSA", "state": "NM", "street": "360 CENTRAL AVE", "postcode": "88352"}}},
{"geometry": {"type": "Point", "coordinates": [-106.0141755476, 33.0792790029]}, "type": "Feature", "properties": {"collection_times": [{"days": "Mon-Fri", "time": "5:00pm"}, {"days": "Sat", "time": "3:00pm"}, {"days": "Sun", "time": "Closed"}], "id": "8835200009", "name": "USPS COLLECTION BOX - PO LOBBY", "address": {"city": "TULAROSA", "state": "NM", "street": "360 CENTRAL AVE", "postcode": "88352"}}},
{"geometry": {"type": "Point", "coordinates": [-105.2230797589, 34.5982525272]}, "type": "Feature", "properties": {"collection_times": [{"days": "Mon-Fri", "time": "1:15pm"}, {"days": "Sat", "time": "11:30am"}, {"days": "Sun", "time": "Closed"}], "id": "8835300000", "name": "USPS COLLECTION BOX - BLUE BOX", "address": {"city": "VAUGHN", "state": "NM", "street": "800 W 8TH ST", "postcode": "88353"}}},
{"geometry": {"type": "Point", "coordinates": [-105.2230797589, 34.5982525272]}, "type": "Feature", "properties": {"collection_times": [{"days": "Mon-Fri", "time": "1:15pm"}, {"days": "Sat", "time": "11:30am"}, {"days": "Sun", "time": "Closed"}], "id": "8835300001", "name": "USPS COLLECTION BOX - PO LOBBY", "address": {"city": "VAUGHN", "state": "NM", "street": "800 W 8TH ST", "postcode": "88353"}}},
{"geometry": {"type": "Point", "coordinates": [-105.5173753032, 32.8003674798]}, "type": "Feature", "properties": {"collection_times": [{"days": "Mon-Fri", "time": "12:00pm"}, {"days": "Sat", "time": "11:00am"}, {"days": "Sun", "time": "Closed"}], "id": "8835400000", "name": "USPS COLLECTION BOX - PO LOBBY", "address": {"city": "WEED", "state": "NM", "street": "21 WEED RD", "postcode": "88354"}}},
{"geometry": {"type": "Point", "coordinates": [-105.5173753032, 32.8003674798]}, "type": "Feature", "properties": {"collection_times": [{"days": "Mon-Fri", "time": "12:00pm"}, {"days": "Sat", "time": "11:00am"}, {"days": "Sun", "time": "Closed"}], "id": "8835400001", "name": "USPS COLLECTION BOX - BLUE BOX", "address": {"city": "WEED", "state": "NM", "street": "21 WEED RD", "postcode": "88354"}}}
]}
