{"type": "FeatureCollection", "features": [
{"geometry": {"type": "Point", "coordinates": [-103.7261935008, 35.1780257462]}, "type": "Feature", "properties": {"collection_times": [{"days": "Mon-Fri", "time": "4:25pm"}, {"days": "Sat", "time": "3:25pm"}, {"days": "Sun", "time": "Closed"}], "id": "8840100003", "name": "USPS COLLECTION BOX - BLUE BOX", "address": {"city": "TUCUMCARI", "state": "NM", "street": "201 S 2ND ST", "postcode": "88401"}}},
{"geometry": {"type": "Point", "coordinates": [-103.7336164453, 35.1667977653]}, "type": "Feature", "properties": {"collection_times": [{"days": "Mon-Sat", "time": "8:15am"}, {"days": "Sun", "time": "Closed"}], "id": "8840100009", "name": "USPS COLLECTION BOX - BLUE BOX", "address": {"city": "TUCUMCARI", "state": "NM", "street": "702 S SUNSET AVE", "postcode": "88401"}}},
{"geometry": {"type": "Point", "coordinates": [-103.7249197143, 35.1479437451]}, "type": "Feature", "properties": {"collection_times": [{"days": "Mon-Sat", "time": "8:35am"}, {"days": "Sun", "time": "Closed"}], "id": "8840100010", "name": "USPS COLLECTION BOX - BLUE BOX", "address": {"city": "TUCUMCARI", "state": "NM", "street": "1900 MOUNTAIN RD", "postcode": "88401"}}},
{"geometry": {"type": "Point", "coordinates": [-103.7339448677, 35.1747803851]}, "type": "Feature", "properties": {"collection_times": [{"days": "Mon-Sat", "time": "12:00pm"}, {"days": "Sun", "time": "Closed"}], "id": "8840100012", "name": "USPS COLLECTION BOX - BLUE BOX", "address": {"city": "TUCUMCARI", "state": "NM", "street": "714 W HANCOCK AVE", "postcode": "88401"}}},
{"geometry": {"type": "Point", "coordinates": [-103.7247785891, 35.1778366568]}, "type": "Feature", "properties": {"collection_times": [{"days": "Mon-Fri", "time": "4:30pm"}, {"days": "Sat", "time": "3:30pm"}, {"days": "Sun", "time": "Closed"}], "id": "8840100013", "name": "USPS COLLECTION BOX - PO LOBBY", "address": {"city": "TUCUMCARI", "state": "NM", "street": "220 S 1ST ST", "postcode": "88401"}}},
{"geometry": {"type": "Point", "coordinates": [-103.7274731748, 35.1769950566]}, "type": "Feature", "properties": {"collection_times": [{"days": "Mon-Fri", "time": "4:25pm"}, {"days": "Sat", "time": "3:25pm"}, {"days": "Sun", "time": "Closed"}], "id": "8840100014", "name": "USPS COLLECTION BOX - BLUE BOX", "address": {"city": "TUCUMCARI", "state": "NM", "street": "301 S 3RD ST", "postcode": "88401"}}},
{"geometry": {"type": "Point", "coordinates": [-103.7247785891, 35.1778366568]}, "type": "Feature", "properties": {"collection_times": [{"days": "Mon-Fri", "time": "4:30pm"}, {"days": "Sat", "time": "3:30pm"}, {"days": "Sun", "time": "Closed"}], "id": "8840100015", "name": "USPS COLLECTION BOX - PO LOBBY", "address": {"city": "TUCUMCARI", "state": "NM", "street": "220 S 1ST ST", "postcode": "88401"}}},
{"geometry": {"type": "Point", "coordinates": [-103.6998683354, 35.1352844202]}, "type": "Feature", "properties": {"collection_times": [{"days": "Mon-Sat", "time": "8:30am"}, {"days": "Sun", "time": "Closed"}], "id": "8840100020", "name": "USPS COLLECTION BOX - BLUE BOX", "address": {"city": "TUCUMCARI", "state": "NM", "street": "2021 MOUNTAIN RD", "postcode": "88401"}}},
{"geometry": {"type": "Point", "coordinates": [-103.7235991094, 35.1778144349]}, "type": "Feature", "properties": {"collection_times": [{"days": "Mon-Fri", "time": "4:30pm"}, {"days": "Sat", "time": "3:30pm"}, {"days": "Sun", "time": "Closed"}], "id": "8840100021", "name": "USPS COLLECTION BOX - BLUE BOX", "address": {"city": "TUCUMCARI", "state": "NM", "street": "221 S ADAMS ST", "postcode": "88401"}}},
{"geometry": {"type": "Point", "coordinates": [-103.7235991094, 35.1778144349]}, "type": "Feature", "properties": {"collection_times": [{"days": "Mon-Fri", "time": "4:30pm"}, {"days": "Sat", "time": "3:30pm"}, {"days": "Sun", "time": "Closed"}], "id": "8840100022", "name": "USPS COLLECTION BOX - BLUE BOX", "address": {"city": "TUCUMCARI", "state": "NM", "street": "221 S ADAMS ST", "postcode": "88401"}}},
{"geometry": {"type": "Point", "coordinates": [-103.2155606264, 35.8947245904]}, "type": "Feature", "properties": {"collection_times": [{"days": "Mon-Sat", "time": "1:30pm"}, {"days": "Sun", "time": "Closed"}], "id": "8841000000", "name": "USPS COLLECTION BOX - BLUE BOX", "address": {"city": "AMISTAD", "state": "NM", "street": "21 AMISTAD RD", "postcode": "88410"}}},
{"geometry": {"type": "Point", "coordinates": [-103.2155606264, 35.8947245904]}, "type": "Feature", "properties": {"collection_times": [{"days": "Mon-Sat", "time": "1:30pm"}, {"days": "Sun", "time": "Closed"}], "id": "8841000001", "name": "USPS COLLECTION BOX - PO LOBBY", "address": {"city": "AMISTAD", "state": "NM", "street": "21 AMISTAD RD", "postcode": "88410"}}},
{"geometry": {"type": "Point", "coordinates": [-103.1848592136, 36.4502922232]}, "type": "Feature", "properties": {"collection_times": [{"days": "Mon-Fri", "time": "5:00pm"}, {"days": "Sat", "time": "2:45pm"}, {"days": "Sun", "time": "Closed"}], "id": "8841500000", "name": "USPS COLLECTION BOX - BLUE BOX", "address": {"city": "CLAYTON", "state": "NM", "street": "1 WALNUT ST", "postcode": "88415"}}},
{"geometry": {"type": "Point", "coordinates": [-103.1848096552, 36.4505759565]}, "type": "Feature", "properties": {"collection_times": [{"days": "Mon-Fri", "time": "5:00pm"}, {"days": "Sat", "time": "2:45pm"}, {"days": "Sun", "time": "Closed"}], "id": "8841500005", "name": "USPS COLLECTION BOX - BLUE BOX", "address": {"city": "CLAYTON", "state": "NM", "street": "1 WALNUT ST", "postcode": "88415"}}},
{"geometry": {"type": "Point", "coordinates": [-103.1848592136, 36.4502922232]}, "type": "Feature", "properties": {"collection_times": [{"days": "Mon-Fri", "time": "4:45pm"}, {"days": "Sat", "time": "2:45pm"}, {"days": "Sun", "time": "Closed"}], "id": "8841500008", "name": "USPS COLLECTION BOX - PO LOBBY", "address": {"city": "CLAYTON", "state": "NM", "street": "1 WALNUT ST", "postcode": "88415"}}},
{"geometry": {"type": "Point", "coordinates": [-103.1848592136, 36.4502922232]}, "type": "Feature", "properties": {"collection_times": [{"days": "Mon-Fri", "time": "4:45pm"}, {"days": "Sat", "time": "2:45pm"}, {"days": "Sun", "time": "Closed"}], "id": "8841500009", "name": "USPS COLLECTION BOX - PO LOBBY", "address": {"city": "CLAYTON", "state": "NM", "street": "1 WALNUT ST", "postcode": "88415"}}},
{"geometry": {"type": "Point", "coordinates": [-106.1084022185, 34.4213291361]}, "type": "Feature", "properties": {"collection_times": [{"days": "Mon-Sat", "time": "11:25am"}, {"days": "Sun", "time": "Closed"}], "id": "8841500010", "name": "USPS COLLECTION BOX - BLUE BOX", "address": {"city": "CLAYTON", "state": "NM", "street": "PO BOX/SACRED HEART CHRCH/NEW MEXICO 102", "postcode": "88415"}}},
{"geometry": {"type": "Point", "coordinates": [-103.8335609648, 36.761005599]}, "type": "Feature", "properties": {"collection_times": [{"days": "Mon-Fri", "time": "2:45pm"}, {"days": "Sat", "time": "11:30am"}, {"days": "Sun", "time": "Closed"}], "id": "8841800000", "name": "USPS COLLECTION BOX - BLUE BOX", "address": {"city": "DES MOINES", "state": "NM", "street": "720 BROADWAY AVE", "postcode": "88418"}}},
{"geometry": {"type": "Point", "coordinates": [-103.8335609648, 36.761005599]}, "type": "Feature", "properties": {"collection_times": [{"days": "Mon-Fri", "time": "2:45pm"}, {"days": "Sat", "time": "11:30am"}, {"days": "Sun", "time": "Closed"}], "id": "8841800001", "name": "USPS COLLECTION BOX - PO LOBBY", "address": {"city": "DES MOINES", "state": "NM", "street": "720 BROADWAY AVE", "postcode": "88418"}}},
{"geometry": {"type": "Point", "coordinates": [-103.8335609648, 36.761005599]}, "type": "Feature", "properties": {"collection_times": [{"days": "Mon-Fri", "time": "2:45pm"}, {"days": "Sat", "time": "11:30am"}, {"days": "Sun", "time": "Closed"}], "id": "8841800002", "name": "USPS COLLECTION BOX - PO LOBBY", "address": {"city": "DES MOINES", "state": "NM", "street": "720 BROADWAY AVE", "postcode": "88418"}}},
{"geometry": {"type": "Point", "coordinates": [-103.7382219673, 36.9036382356]}, "type": "Feature", "properties": {"collection_times": [{"days": "Mon-Fri", "time": "2:45pm"}, {"days": "Sat", "time": "11:15am"}, {"days": "Sun", "time": "Closed"}], "id": "8841900000", "name": "USPS COLLECTION BOX - BLUE BOX", "address": {"city": "FOLSOM", "state": "NM", "street": "53 GRAND AVE", "postcode": "88419"}}},
{"geometry": {"type": "Point", "coordinates": [-103.7382219673, 36.9036382356]}, "type": "Feature", "properties": {"collection_times": [{"days": "Mon-Fri", "time": "2:45pm"}, {"days": "Sat", "time": "11:15am"}, {"days": "Sun", "time": "Closed"}], "id": "8841900001", "name": "USPS COLLECTION BOX - PO LOBBY", "address": {"city": "FOLSOM", "state": "NM", "street": "53 GRAND AVE", "postcode": "88419"}}},
{"geometry": {"type": "Point", "coordinates": [-104.5170352174, 35.347335907]}, "type": "Feature", "properties": {"collection_times": [{"days": "Mon-Sat", "time": "11:15am"}, {"days": "Sun", "time": "Closed"}], "id": "8842100000", "name": "USPS COLLECTION BOX - BLUE BOX", "address": {"city": "GARITA", "state": "NM", "street": "5120 NM HWY 104", "postcode": "88421"}}},
{"geometry": {"type": "Point", "coordinates": [-104.5170352174, 35.347335907]}, "type": "Feature", "properties": {"collection_times": [{"days": "Mon-Sat", "time": "11:15am"}, {"days": "Sun", "time": "Closed"}], "id": "8842100001", "name": "USPS COLLECTION BOX - PO LOBBY", "address": {"city": "GARITA", "state": "NM", "street": "5120 NM HWY 104", "postcode": "88421"}}},
{"geometry": {"type": "Point", "coordinates": [-103.6187802517, 36.5951605177]}, "type": "Feature", "properties": {"collection_times": [{"days": "Mon-Fri", "time": "2:00pm"}, {"days": "Sat", "time": "12:30pm"}, {"days": "Sun", "time": "Closed"}], "id": "8842400000", "name": "USPS COLLECTION BOX - BLUE BOX", "address": {"city": "GRENVILLE", "state": "NM", "street": "16 5TH AVE", "postcode": "88424"}}},
{"geometry": {"type": "Point", "coordinates": [-103.6187802517, 36.5951605177]}, "type": "Feature", "properties": {"collection_times": [{"days": "Mon-Fri", "time": "2:00pm"}, {"days": "Sat", "time": "12:30pm"}, {"days": "Sun", "time": "Closed"}], "id": "8842400001", "name": "USPS COLLECTION BOX - PO LOBBY", "address": {"city": "GRENVILLE", "state": "NM", "street": "16 5TH AVE", "postcode": "88424"}}},
{"geometry": {"type": "Point", "coordinates": [-103.263713872, 35.4401444256]}, "type": "Feature", "properties": {"collection_times": [{"days": "Mon-Fri", "time": "3:30pm"}, {"days": "Sat", "time": "10:15am"}, {"days": "Sun", "time": "Closed"}], "id": "8842600000", "name": "USPS COLLECTION BOX - BLUE BOX", "address": {"city": "LOGAN", "state": "NM", "street": "1003 MARTINEZ ST", "postcode": "88426"}}},
{"geometry": {"type": "Point", "coordinates": [-103.263713872, 35.4401444256]}, "type": "Feature", "properties": {"collection_times": [{"days": "Mon-Fri", "time": "3:30pm"}, {"days": "Sat", "time": "10:15am"}, {"days": "Sun", "time": "Closed"}], "id": "8842600001", "name": "USPS COLLECTION BOX - PO LOBBY", "address": {"city": "LOGAN", "state": "NM", "street": "1003 MARTINEZ ST", "postcode": "88426"}}},
{"geometry": {"type": "Point", "coordinates": [-103.7771539983, 34.6925686837]}, "type": "Feature", "properties": {"collection_times": [{"days": "Mon-Sat", "time": "9:00am"}, {"days": "Sun", "time": "Closed"}], "id": "8842700000", "name": "USPS COLLECTION BOX - BLUE BOX", "address": {"city": "MCALISTER", "state": "NM", "street": "3209 STATE HIGHWAY 252", "postcode": "88427"}}},
{"geometry": {"type": "Point", "coordinates": [-103.7771539983, 34.6925686837]}, "type": "Feature", "properties": {"collection_times": [{"days": "Mon-Sat", "time": "9:00am"}, {"days": "Sun", "time": "Closed"}], "id": "8842700001", "name": "USPS COLLECTION BOX - PO LOBBY", "address": {"city": "MCALISTER", "state": "NM", "street": "3209 STATE HIGHWAY 252", "postcode": "88427"}}},
{"geometry": {"type": "Point", "coordinates": [-103.2163463205, 35.6386408789]}, "type": "Feature", "properties": {"collection_times": [{"days": "Mon-Fri", "time": "4:00pm"}, {"days": "Sat", "time": "9:30am"}, {"days": "Sun", "time": "Closed"}], "id": "8843000000", "name": "USPS COLLECTION BOX - BLUE BOX", "address": {"city": "NARA VISA", "state": "NM", "street": "460 BELL ST", "postcode": "88430"}}},
{"geometry": {"type": "Point", "coordinates": [-103.1838883196, 35.6068805602]}, "type": "Feature", "properties": {"collection_times": [{"days": "Mon-Fri", "time": "12:00pm"}, {"days": "Sat", "time": "9:30am"}, {"days": "Sun", "time": "Closed"}], "id": "8843000001", "name": "USPS COLLECTION BOX - PO LOBBY", "address": {"city": "NARA VISA", "state": "NM", "street": "460 BELL ST", "postcode": "88430"}}},
{"geometry": {"type": "Point", "coordinates": [-104.2362497378, 35.1380826904]}, "type": "Feature", "properties": {"collection_times": [{"days": "Mon-Sat", "time": "12:30pm"}, {"days": "Sun", "time": "Closed"}], "id": "8843100000", "name": "USPS COLLECTION BOX - BLUE BOX", "address": {"city": "NEWKIRK", "state": "NM", "street": "1006 EMERALD RD", "postcode": "88431"}}},
{"geometry": {"type": "Point", "coordinates": [-104.2362497378, 35.1380826904]}, "type": "Feature", "properties": {"collection_times": [{"days": "Mon-Sat", "time": "12:30pm"}, {"days": "Sun", "time": "Closed"}], "id": "8843100001", "name": "USPS COLLECTION BOX - PO LOBBY", "address": {"city": "NEWKIRK", "state": "NM", "street": "1006 EMERALD RD", "postcode": "88431"}}},
{"geometry": {"type": "Point", "coordinates": [-103.0960963032, 35.1466503816]}, "type": "Feature", "properties": {"collection_times": [{"days": "Mon-Fri", "time": "4:00pm"}, {"days": "Sat", "time": "11:00am"}, {"days": "Sun", "time": "Closed"}], "id": "8843400000", "name": "USPS COLLECTION BOX - BLUE BOX", "address": {"city": "SAN JON", "state": "NM", "street": "402 ROUTE 66", "postcode": "88434"}}},
{"geometry": {"type": "Point", "coordinates": [-103.0960963032, 35.1466503816]}, "type": "Feature", "properties": {"collection_times": [{"days": "Mon-Fri", "time": "2:30pm"}, {"days": "Sat", "time": "11:00am"}, {"days": "Sun", "time": "Closed"}], "id": "8843400005", "name": "USPS COLLECTION BOX - PO LOBBY", "address": {"city": "SAN JON", "state": "NM", "street": "402 ROUTE 66", "postcode": "88434"}}},
{"geometry": {"type": "Point", "coordinates": [-103.431865199, 35.0496715014]}, "type": "Feature", "properties": {"collection_times": [{"days": "Mon-Fri", "time": "11:00am"}, {"days": "Sat-Sun", "time": "Closed"}], "id": "8843400007", "name": "USPS COLLECTION BOX - BLUE BOX", "address": {"city": "SAN JON", "state": "NM", "street": "1383 FRONTAGE RD 4132", "postcode": "88434"}}},
{"geometry": {"type": "Point", "coordinates": [-104.6861575308, 34.9422839735]}, "type": "Feature", "properties": {"collection_times": [{"days": "Mon-Fri", "time": "5:00pm"}, {"days": "Sat", "time": "11:45am"}, {"days": "Sun", "time": "Closed"}], "id": "8843500000", "name": "USPS COLLECTION BOX - BLUE BOX", "address": {"city": "SANTA ROSA", "state": "NM", "street": "120 S 5TH ST", "postcode": "88435"}}},
{"geometry": {"type": "Point", "coordinates": [-104.6861575308, 34.9422839735]}, "type": "Feature", "properties": {"collection_times": [{"days": "Mon-Fri", "time": "4:30pm"}, {"days": "Sat", "time": "11:45am"}, {"days": "Sun", "time": "Closed"}], "id": "8843500003", "name": "USPS COLLECTION BOX - PO LOBBY", "address": {"city": "SANTA ROSA", "state": "NM", "street": "120 S 5TH ST", "postcode": "88435"}}},
{"geometry": {"type": "Point", "coordinates": [-104.6861575308, 34.9422839735]}, "type": "Feature", "properties": {"collection_times": [{"days": "Mon-Fri", "time": "4:30pm"}, {"days": "Sat", "time": "11:45am"}, {"days": "Sun", "time": "Closed"}], "id": "8843500004", "name": "USPS COLLECTION BOX - PO LOBBY", "address": {"city": "SANTA ROSA", "state": "NM", "street": "120 S 5TH ST", "postcode": "88435"}}},
{"geometry": {"type": "Point", "coordinates": [-104.7226284919, 34.8963418037]}, "type": "Feature", "properties": {"collection_times": [{"days": "Mon-Sat", "time": "9:20am"}, {"days": "Sun", "time": "Closed"}], "id": "8843500008", "name": "USPS COLLECTION BOX - BLUE BOX", "address": {"city": "SANTA ROSA", "state": "NM", "street": "2634 HISTORIC ROUTE 66", "postcode": "88435"}}},
{"geometry": {"type": "Point", "coordinates": [-103.1465715685, 36.2502774605]}, "type": "Feature", "properties": {"collection_times": [{"days": "Mon-Fri", "time": "1:45pm"}, {"days": "Sat", "time": "12:15pm"}, {"days": "Sun", "time": "Closed"}], "id": "8843600000", "name": "USPS COLLECTION BOX - BLUE BOX", "address": {"city": "SEDAN", "state": "NM", "street": "508 CALLIS RD", "postcode": "88436"}}},
{"geometry": {"type": "Point", "coordinates": [-103.1465715685, 36.2502774605]}, "type": "Feature", "properties": {"collection_times": [{"days": "Mon-Fri", "time": "1:45pm"}, {"days": "Sat", "time": "12:15pm"}, {"days": "Sun", "time": "Closed"}], "id": "8843600001", "name": "USPS COLLECTION BOX - PO LOBBY", "address": {"city": "SEDAN", "state": "NM", "street": "508 CALLIS RD", "postcode": "88436"}}},
{"geometry": {"type": "Point", "coordinates": [-104.573251418, 35.5978487205]}, "type": "Feature", "properties": {"collection_times": [{"days": "Mon-Sat", "time": "10:00am"}, {"days": "Sun", "time": "Closed"}], "id": "8843900000", "name": "USPS COLLECTION BOX - BLUE BOX", "address": {"city": "TREMENTINA", "state": "NM", "street": "26 POST OFFICE LN", "postcode": "88439"}}}
]}
