{"type": "FeatureCollection", "features": [
{"geometry": {"type": "Point", "coordinates": [-87.9529393108, 43.6190674711]}, "type": "Feature", "properties": {"collection_times": [{"days": "Mon-Fri", "time": "4:30pm"}, {"days": "Sat", "time": "9:30am"}, {"days": "Sun", "time": "Closed"}], "id": "5300100001", "name": "USPS COLLECTION BOX - BLUE BOX", "address": {"city": "ADELL", "state": "WI", "street": "611 MAINE AVE", "postcode": "53001"}}},
{"geometry": {"type": "Point", "coordinates": [-87.9529393108, 43.6190674711]}, "type": "Feature", "properties": {"collection_times": [{"days": "Mon-Fri", "time": "1:15pm"}, {"days": "Sat", "time": "9:30am"}, {"days": "Sun", "time": "Closed"}], "id": "5300100002", "name": "USPS COLLECTION BOX - PO LOBBY", "address": {"city": "ADELL", "state": "WI", "street": "611 MAINE AVE", "postcode": "53001"}}},
{"geometry": {"type": "Point", "coordinates": [-88.340323114, 43.4205256384]}, "type": "Feature", "properties": {"collection_times": [{"days": "Mon-Fri", "time": "4:15pm"}, {"days": "Sat", "time": "9:45am"}, {"days": "Sun", "time": "Closed"}], "id": "5300200001", "name": "USPS COLLECTION BOX - BLUE BOX", "address": {"city": "ALLENTON", "state": "WI", "street": "330 1ST ST", "postcode": "53002"}}},
{"geometry": {"type": "Point", "coordinates": [-88.340323114, 43.4205256384]}, "type": "Feature", "properties": {"collection_times": [{"days": "Mon-Fri", "time": "4:30pm"}, {"days": "Sat", "time": "9:45am"}, {"days": "Sun", "time": "Closed"}], "id": "5300200002", "name": "USPS COLLECTION BOX - PO LOBBY", "address": {"city": "ALLENTON", "state": "WI", "street": "330 1ST ST", "postcode": "53002"}}},
{"geometry": {"type": "Point", "coordinates": [-88.5157153841, 43.2106151481]}, "type": "Feature", "properties": {"collection_times": [{"days": "Mon-Fri", "time": "4:30pm"}, {"days": "Sat", "time": "9:15am"}, {"days": "Sun", "time": "Closed"}], "id": "5300300001", "name": "USPS COLLECTION BOX - BLUE BOX", "address": {"city": "ASHIPPUN", "state": "WI", "street": "N546 STATE ROAD 67", "postcode": "53003"}}},
{"geometry": {"type": "Point", "coordinates": [-88.5157153841, 43.2106151481]}, "type": "Feature", "properties": {"collection_times": [{"days": "Mon-Fri", "time": "12:00pm"}, {"days": "Sat", "time": "9:15am"}, {"days": "Sun", "time": "Closed"}], "id": "5300300002", "name": "USPS COLLECTION BOX - PO LOBBY", "address": {"city": "ASHIPPUN", "state": "WI", "street": "N546 STATE ROAD 67", "postcode": "53003"}}},
{"geometry": {"type": "Point", "coordinates": [-87.8456222393, 43.4994278908]}, "type": "Feature", "properties": {"collection_times": [{"days": "Mon-Fri", "time": "4:15pm"}, {"days": "Sat", "time": "11:00am"}, {"days": "Sun", "time": "Closed"}], "id": "5300400001", "name": "USPS COLLECTION BOX - BLUE BOX", "address": {"city": "BELGIUM", "state": "WI", "street": "543 MAIN ST", "postcode": "53004"}}},
{"geometry": {"type": "Point", "coordinates": [-87.8456222393, 43.4994278908]}, "type": "Feature", "properties": {"collection_times": [{"days": "Mon-Fri", "time": "4:15pm"}, {"days": "Sat", "time": "11:00am"}, {"days": "Sun", "time": "Closed"}], "id": "5300400004", "name": "USPS COLLECTION BOX - PO LOBBY", "address": {"city": "BELGIUM", "state": "WI", "street": "543 MAIN ST", "postcode": "53004"}}},
{"geometry": {"type": "Point", "coordinates": [-88.1201898291, 43.0366850282]}, "type": "Feature", "properties": {"collection_times": [{"days": "Mon-Fri", "time": "2:00pm"}, {"days": "Sat", "time": "10:00am"}, {"days": "Sun", "time": "Closed"}], "id": "5300500007", "name": "USPS COLLECTION BOX - BLUE BOX", "address": {"city": "BROOKFIELD", "state": "WI", "street": "16655 W BLUEMOUND RD", "postcode": "53005"}}},
{"geometry": {"type": "Point", "coordinates": [-88.1259941646, 43.0359385292]}, "type": "Feature", "properties": {"collection_times": [{"days": "Mon-Sat", "time": "10:00am"}, {"days": "Sun", "time": "Closed"}], "id": "5300500009", "name": "USPS COLLECTION BOX - BLUE BOX", "address": {"city": "BROOKFIELD", "state": "WI", "street": "17125 W BLUEMOUND RD", "postcode": "53005"}}},
{"geometry": {"type": "Point", "coordinates": [-88.0668667708, 43.0638197409]}, "type": "Feature", "properties": {"collection_times": [{"days": "Mon-Fri", "time": "2:00pm"}, {"days": "Sat", "time": "10:00am"}, {"days": "Sun", "time": "Closed"}], "id": "5300500019", "name": "USPS COLLECTION BOX - BLUE BOX", "address": {"city": "BROOKFIELD", "state": "WI", "street": "2505 N 124TH ST", "postcode": "53005"}}},
{"geometry": {"type": "Point", "coordinates": [-88.0668667708, 43.0638197409]}, "type": "Feature", "properties": {"collection_times": [{"days": "Mon-Fri", "time": "2:00pm"}, {"days": "Sat", "time": "10:00am"}, {"days": "Sun", "time": "Closed"}], "id": "5300500020", "name": "USPS COLLECTION BOX - BLUE BOX", "address": {"city": "BROOKFIELD", "state": "WI", "street": "2505 N 124TH ST", "postcode": "53005"}}},
{"geometry": {"type": "Point", "coordinates": [-88.0696663716, 43.0919981024]}, "type": "Feature", "properties": {"collection_times": [{"days": "Mon-Fri", "time": "12:00pm"}, {"days": "Sat", "time": "10:00am"}, {"days": "Sun", "time": "Closed"}], "id": "5300500025", "name": "USPS COLLECTION BOX - BLUE BOX", "address": {"city": "BROOKFIELD", "state": "WI", "street": "4100 N 127TH ST", "postcode": "53005"}}},
{"geometry": {"type": "Point", "coordinates": [-88.0704818934, 43.0890203158]}, "type": "Feature", "properties": {"collection_times": [{"days": "Mon-Sat", "time": "10:00am"}, {"days": "Sun", "time": "Closed"}], "id": "5300500027", "name": "USPS COLLECTION BOX - BLUE BOX", "address": {"city": "BROOKFIELD", "state": "WI", "street": "12735 W CAPITOL DR", "postcode": "53005"}}},
{"geometry": {"type": "Point", "coordinates": [-88.0676451765, 43.0838658858]}, "type": "Feature", "properties": {"collection_times": [{"days": "Mon-Fri", "time": "2:00pm"}, {"days": "Sat", "time": "10:00am"}, {"days": "Sun", "time": "Closed"}], "id": "5300500028", "name": "USPS COLLECTION BOX - BLUE BOX", "address": {"city": "BROOKFIELD", "state": "WI", "street": "12500 WIRTH ST", "postcode": "53005"}}},
{"geometry": {"type": "Point", "coordinates": [-88.0667276142, 43.0752391193]}, "type": "Feature", "properties": {"collection_times": [{"days": "Mon-Fri", "time": "2:00pm"}, {"days": "Sat", "time": "10:00am"}, {"days": "Sun", "time": "Closed"}], "id": "5300500030", "name": "USPS COLLECTION BOX - BLUE BOX", "address": {"city": "BROOKFIELD", "state": "WI", "street": "3155 N 124TH ST", "postcode": "53005"}}},
{"geometry": {"type": "Point", "coordinates": [-88.0793505368, 43.0329042913]}, "type": "Feature", "properties": {"collection_times": [{"days": "Mon-Fri", "time": "2:00pm"}, {"days": "Sat", "time": "10:00am"}, {"days": "Sun", "time": "Closed"}], "id": "5300500041", "name": "USPS COLLECTION BOX - BLUE BOX", "address": {"city": "BROOKFIELD", "state": "WI", "street": "250 BISHOPS WAY", "postcode": "53005"}}},
{"geometry": {"type": "Point", "coordinates": [-88.1143897813, 43.02956953]}, "type": "Feature", "properties": {"collection_times": [{"days": "Mon-Fri", "time": "2:00pm"}, {"days": "Sat", "time": "10:00am"}, {"days": "Sun", "time": "Closed"}], "id": "5300500053", "name": "USPS COLLECTION BOX - BLUE BOX", "address": {"city": "BROOKFIELD", "state": "WI", "street": "250 S EXECUTIVE DR", "postcode": "53005"}}},
{"geometry": {"type": "Point", "coordinates": [-88.107266656, 43.0211435602]}, "type": "Feature", "properties": {"collection_times": [{"days": "Mon-Fri", "time": "12:00pm"}, {"days": "Sat", "time": "10:00am"}, {"days": "Sun", "time": "Closed"}], "id": "5300500060", "name": "USPS COLLECTION BOX - BLUE BOX", "address": {"city": "BROOKFIELD", "state": "WI", "street": "1025 S MOORLAND RD", "postcode": "53005"}}},
{"geometry": {"type": "Point", "coordinates": [-88.1068697112, 43.0341440323]}, "type": "Feature", "properties": {"collection_times": [{"days": "Mon-Fri", "time": "12:00pm"}, {"days": "Sat", "time": "10:00am"}, {"days": "Sun", "time": "Closed"}], "id": "5300500064", "name": "USPS COLLECTION BOX - BLUE BOX", "address": {"city": "BROOKFIELD", "state": "WI", "street": "205 N MOORLAND RD", "postcode": "53005"}}},
{"geometry": {"type": "Point", "coordinates": [-88.1068910044, 43.0326073686]}, "type": "Feature", "properties": {"collection_times": [{"days": "Mon-Fri", "time": "12:00pm"}, {"days": "Sat", "time": "10:00am"}, {"days": "Sun", "time": "Closed"}], "id": "5300500067", "name": "USPS COLLECTION BOX - BLUE BOX", "address": {"city": "BROOKFIELD", "state": "WI", "street": "95 N MOORLAND RD", "postcode": "53005"}}},
{"geometry": {"type": "Point", "coordinates": [-88.1143897813, 43.02956953]}, "type": "Feature", "properties": {"collection_times": [{"days": "Mon-Fri", "time": "2:00pm"}, {"days": "Sat", "time": "10:00am"}, {"days": "Sun", "time": "Closed"}], "id": "5300500068", "name": "USPS COLLECTION BOX - BLUE BOX", "address": {"city": "BROOKFIELD", "state": "WI", "street": "250 S EXECUTIVE DR", "postcode": "53005"}}},
{"geometry": {"type": "Point", "coordinates": [-88.0793410731, 43.0342765237]}, "type": "Feature", "properties": {"collection_times": [{"days": "Mon-Fri", "time": "2:00pm"}, {"days": "Sat", "time": "10:00am"}, {"days": "Sun", "time": "Closed"}], "id": "5300500087", "name": "USPS COLLECTION BOX - BLUE BOX", "address": {"city": "BROOKFIELD", "state": "WI", "street": "13400 BISHOPS LN", "postcode": "53005"}}},
{"geometry": {"type": "Point", "coordinates": [-88.0793410731, 43.0342765237]}, "type": "Feature", "properties": {"collection_times": [{"days": "Mon-Fri", "time": "2:00pm"}, {"days": "Sat", "time": "10:00am"}, {"days": "Sun", "time": "Closed"}], "id": "5300500088", "name": "USPS COLLECTION BOX - BLUE BOX", "address": {"city": "BROOKFIELD", "state": "WI", "street": "13400 BISHOPS LN", "postcode": "53005"}}},
{"geometry": {"type": "Point", "coordinates": [-88.0868883513, 43.0328711685]}, "type": "Feature", "properties": {"collection_times": [{"days": "Mon-Fri", "time": "2:00pm"}, {"days": "Sat", "time": "10:00am"}, {"days": "Sun", "time": "Closed"}], "id": "5300500090", "name": "USPS COLLECTION BOX - BLUE BOX", "address": {"city": "BROOKFIELD", "state": "WI", "street": "250 N SUNNY SLOPE RD", "postcode": "53005"}}},
{"geometry": {"type": "Point", "coordinates": [-88.1029971947, 43.0898194093]}, "type": "Feature", "properties": {"collection_times": [{"days": "Mon-Sat", "time": "10:00am"}, {"days": "Sun", "time": "Closed"}], "id": "5300500091", "name": "USPS COLLECTION BOX - BLUE BOX", "address": {"city": "BROOKFIELD", "state": "WI", "street": "15400 W CAPITOL DR", "postcode": "53005"}}},
{"geometry": {"type": "Point", "coordinates": [-88.4986574397, 43.6162414673]}, "type": "Feature", "properties": {"collection_times": [{"days": "Mon-Fri", "time": "4:15pm"}, {"days": "Sat", "time": "9:45am"}, {"days": "Sun", "time": "Closed"}], "id": "5300600001", "name": "USPS COLLECTION BOX - BLUE BOX", "address": {"city": "BROWNSVILLE", "state": "WI", "street": "860 W MAIN ST", "postcode": "53006"}}},
{"geometry": {"type": "Point", "coordinates": [-88.4986574397, 43.6162414673]}, "type": "Feature", "properties": {"collection_times": [{"days": "Mon-Fri", "time": "4:15pm"}, {"days": "Sat", "time": "9:45am"}, {"days": "Sun", "time": "Closed"}], "id": "5300600003", "name": "USPS COLLECTION BOX - PO LOBBY", "address": {"city": "BROWNSVILLE", "state": "WI", "street": "860 W MAIN ST", "postcode": "53006"}}},
{"geometry": {"type": "Point", "coordinates": [-88.0663425074, 43.104874783]}, "type": "Feature", "properties": {"collection_times": [{"days": "Mon-Fri", "time": "5:00pm"}, {"days": "Sat", "time": "1:00pm"}, {"days": "Sun", "time": "Closed"}], "id": "5300700001", "name": "USPS COLLECTION BOX - BLUE BOX", "address": {"city": "BUTLER", "state": "WI", "street": "12420 W HAMPTON AVE", "postcode": "53007"}}},
{"geometry": {"type": "Point", "coordinates": [-88.0665911414, 43.1046720458]}, "type": "Feature", "properties": {"collection_times": [{"days": "Mon-Fri", "time": "2:00pm"}, {"days": "Sat", "time": "1:00pm"}, {"days": "Sun", "time": "Closed"}], "id": "5300700007", "name": "USPS COLLECTION BOX - BLUE BOX", "address": {"city": "BUTLER", "state": "WI", "street": "12621 W HAMPTON AVE", "postcode": "53007"}}},
{"geometry": {"type": "Point", "coordinates": [-88.0665911414, 43.1046720458]}, "type": "Feature", "properties": {"collection_times": [{"days": "Mon-Fri", "time": "2:00pm"}, {"days": "Sat", "time": "1:00pm"}, {"days": "Sun", "time": "Closed"}], "id": "5300700008", "name": "USPS COLLECTION BOX - BLUE BOX", "address": {"city": "BUTLER", "state": "WI", "street": "12621 W HAMPTON AVE", "postcode": "53007"}}},
{"geometry": {"type": "Point", "coordinates": [-88.0663425074, 43.104874783]}, "type": "Feature", "properties": {"collection_times": [{"days": "Mon-Fri", "time": "5:00pm"}, {"days": "Sat", "time": "1:00pm"}, {"days": "Sun", "time": "Closed"}], "id": "5300700009", "name": "USPS COLLECTION BOX - PO LOBBY", "address": {"city": "BUTLER", "state": "WI", "street": "12420 W HAMPTON AVE", "postcode": "53007"}}},
{"geometry": {"type": "Point", "coordinates": [-88.0663425074, 43.104874783]}, "type": "Feature", "properties": {"collection_times": [{"days": "Mon-Fri", "time": "5:00pm"}, {"days": "Sat", "time": "1:00pm"}, {"days": "Sun", "time": "Closed"}], "id": "5300700010", "name": "USPS COLLECTION BOX - PO LOBBY", "address": {"city": "BUTLER", "state": "WI", "street": "12420 W HAMPTON AVE", "postcode": "53007"}}},
{"geometry": {"type": "Point", "coordinates": [-88.276354608, 43.6004300378]}, "type": "Feature", "properties": {"collection_times": [{"days": "Mon-Fri", "time": "4:30pm"}, {"days": "Sat", "time": "11:30am"}, {"days": "Sun", "time": "Closed"}], "id": "5301000001", "name": "USPS COLLECTION BOX - BLUE BOX", "address": {"city": "CAMPBELLSPORT", "state": "WI", "street": "324 N HELENA ST", "postcode": "53010"}}},
{"geometry": {"type": "Point", "coordinates": [-88.2853521939, 43.59846396]}, "type": "Feature", "properties": {"collection_times": [{"days": "Mon-Sat", "time": "1:00pm"}, {"days": "Sun", "time": "Closed"}], "id": "5301000004", "name": "USPS COLLECTION BOX - BLUE BOX", "address": {"city": "CAMPBELLSPORT", "state": "WI", "street": "114 N FOND DU LAC AVE", "postcode": "53010"}}},
{"geometry": {"type": "Point", "coordinates": [-88.276354608, 43.6004300378]}, "type": "Feature", "properties": {"collection_times": [{"days": "Mon-Fri", "time": "4:30pm"}, {"days": "Sat", "time": "11:30am"}, {"days": "Sun", "time": "Closed"}], "id": "5301000005", "name": "USPS COLLECTION BOX - PO LOBBY", "address": {"city": "CAMPBELLSPORT", "state": "WI", "street": "324 N HELENA ST", "postcode": "53010"}}},
{"geometry": {"type": "Point", "coordinates": [-88.276354608, 43.6004300378]}, "type": "Feature", "properties": {"collection_times": [{"days": "Mon-Fri", "time": "4:30pm"}, {"days": "Sat", "time": "11:30am"}, {"days": "Sun", "time": "Closed"}], "id": "5301000006", "name": "USPS COLLECTION BOX - PO LOBBY", "address": {"city": "CAMPBELLSPORT", "state": "WI", "street": "324 N HELENA ST", "postcode": "53010"}}},
{"geometry": {"type": "Point", "coordinates": [-88.0082622657, 43.6552984846]}, "type": "Feature", "properties": {"collection_times": [{"days": "Mon-Fri", "time": "4:30pm"}, {"days": "Sat", "time": "10:30am"}, {"days": "Sun", "time": "Closed"}], "id": "5301100001", "name": "USPS COLLECTION BOX - BLUE BOX", "address": {"city": "CASCADE", "state": "WI", "street": "205 LAKE ST", "postcode": "53011"}}},
{"geometry": {"type": "Point", "coordinates": [-88.0082622657, 43.6552984846]}, "type": "Feature", "properties": {"collection_times": [{"days": "Mon-Fri", "time": "3:30pm"}, {"days": "Sat", "time": "10:00am"}, {"days": "Sun", "time": "Closed"}], "id": "5301100002", "name": "USPS COLLECTION BOX - PO LOBBY", "address": {"city": "CASCADE", "state": "WI", "street": "205 LAKE ST", "postcode": "53011"}}},
{"geometry": {"type": "Point", "coordinates": [-88.0082622657, 43.6552984846]}, "type": "Feature", "properties": {"collection_times": [{"days": "Mon-Fri", "time": "3:30pm"}, {"days": "Sat", "time": "10:00am"}, {"days": "Sun", "time": "Closed"}], "id": "5301100003", "name": "USPS COLLECTION BOX - PO LOBBY", "address": {"city": "CASCADE", "state": "WI", "street": "205 LAKE ST", "postcode": "53011"}}},
{"geometry": {"type": "Point", "coordinates": [-87.9890220286, 43.2964317726]}, "type": "Feature", "properties": {"collection_times": [{"days": "Mon-Fri", "time": "5:00pm"}, {"days": "Sat", "time": "4:00pm"}, {"days": "Sun", "time": "Closed"}], "id": "5301200000", "name": "USPS COLLECTION BOX - BLUE BOX", "address": {"city": "CEDARBURG", "state": "WI", "street": "W63N605 HANOVER AVE", "postcode": "53012"}}},
{"geometry": {"type": "Point", "coordinates": [-87.9890220286, 43.2964317726]}, "type": "Feature", "properties": {"collection_times": [{"days": "Mon-Fri", "time": "5:00pm"}, {"days": "Sat", "time": "4:00pm"}, {"days": "Sun", "time": "Closed"}], "id": "5301200001", "name": "USPS COLLECTION BOX - BLUE BOX", "address": {"city": "CEDARBURG", "state": "WI", "street": "W63N605 HANOVER AVE", "postcode": "53012"}}},
{"geometry": {"type": "Point", "coordinates": [-87.9866792278, 43.2941842134]}, "type": "Feature", "properties": {"collection_times": [{"days": "Mon-Sat", "time": "10:00am"}, {"days": "Sun", "time": "Closed"}], "id": "5301200006", "name": "USPS COLLECTION BOX - BLUE BOX", "address": {"city": "CEDARBURG", "state": "WI", "street": "W61N529 WASHINGTON AVE", "postcode": "53012"}}},
{"geometry": {"type": "Point", "coordinates": [-87.9915388596, 43.282792973]}, "type": "Feature", "properties": {"collection_times": [{"days": "Mon-Sat", "time": "11:00am"}, {"days": "Sun", "time": "Closed"}], "id": "5301200012", "name": "USPS COLLECTION BOX - BLUE BOX", "address": {"city": "CEDARBURG", "state": "WI", "street": "W66N222 COMMERCE CT", "postcode": "53012"}}},
{"geometry": {"type": "Point", "coordinates": [-87.9773534761, 43.3005783918]}, "type": "Feature", "properties": {"collection_times": [{"days": "Mon-Sat", "time": "2:30pm"}, {"days": "Sun", "time": "Closed"}], "id": "5301200014", "name": "USPS COLLECTION BOX - BLUE BOX", "address": {"city": "CEDARBURG", "state": "WI", "street": "N69W5269 COLUMBIA RD", "postcode": "53012"}}},
{"geometry": {"type": "Point", "coordinates": [-87.9787660692, 43.2834718384]}, "type": "Feature", "properties": {"collection_times": [{"days": "Mon-Sat", "time": "12:00pm"}, {"days": "Sun", "time": "Closed"}], "id": "5301200015", "name": "USPS COLLECTION BOX - BLUE BOX", "address": {"city": "CEDARBURG", "state": "WI", "street": "W55N191 WOODMERE CT", "postcode": "53012"}}},
{"geometry": {"type": "Point", "coordinates": [-87.9880198924, 43.2801320935]}, "type": "Feature", "properties": {"collection_times": [{"days": "Mon-Sat", "time": "10:00am"}, {"days": "Sun", "time": "Closed"}], "id": "5301200016", "name": "USPS COLLECTION BOX - BLUE BOX", "address": {"city": "CEDARBURG", "state": "WI", "street": "W63N150 WASHINGTON AVE", "postcode": "53012"}}},
{"geometry": {"type": "Point", "coordinates": [-87.98936465, 43.297416864]}, "type": "Feature", "properties": {"collection_times": [{"days": "Mon-Fri", "time": "5:00pm"}, {"days": "Sat", "time": "4:00pm"}, {"days": "Sun", "time": "Closed"}], "id": "5301200024", "name": "USPS COLLECTION BOX - PO LOBBY", "address": {"city": "CEDARBURG", "state": "WI", "street": "W63N605 HANOVER AVE", "postcode": "53012"}}},
{"geometry": {"type": "Point", "coordinates": [-87.98936465, 43.297416864]}, "type": "Feature", "properties": {"collection_times": [{"days": "Mon-Fri", "time": "5:00pm"}, {"days": "Sat", "time": "4:00pm"}, {"days": "Sun", "time": "Closed"}], "id": "5301200025", "name": "USPS COLLECTION BOX - PO LOBBY", "address": {"city": "CEDARBURG", "state": "WI", "street": "W63N605 HANOVER AVE", "postcode": "53012"}}},
{"geometry": {"type": "Point", "coordinates": [-87.9890220286, 43.2964317726]}, "type": "Feature", "properties": {"collection_times": [{"days": "Mon-Fri", "time": "5:00pm"}, {"days": "Sat", "time": "4:00pm"}, {"days": "Sun", "time": "Closed"}], "id": "5301200027", "name": "USPS COLLECTION BOX - BLUE BOX", "address": {"city": "CEDARBURG", "state": "WI", "street": "W63N605 HANOVER AVE", "postcode": "53012"}}},
{"geometry": {"type": "Point", "coordinates": [-88.0060400661, 43.3223186684]}, "type": "Feature", "properties": {"collection_times": [{"days": "Mon-Sat", "time": "1:00pm"}, {"days": "Sun", "time": "Closed"}], "id": "5301200028", "name": "USPS COLLECTION BOX - BLUE BOX", "address": {"city": "CEDARBURG", "state": "WI", "street": "1293 WASHINGTON AVE", "postcode": "53012"}}},
{"geometry": {"type": "Point", "coordinates": [-87.9890220286, 43.2964317726]}, "type": "Feature", "properties": {"collection_times": [{"days": "Mon-Fri", "time": "5:00pm"}, {"days": "Sat", "time": "4:00pm"}, {"days": "Sun", "time": "Closed"}], "id": "5301200029", "name": "USPS COLLECTION BOX - BLUE BOX", "address": {"city": "CEDARBURG", "state": "WI", "street": "W63N605 HANOVER AVE", "postcode": "53012"}}},
{"geometry": {"type": "Point", "coordinates": [-87.9890220286, 43.2964317726]}, "type": "Feature", "properties": {"collection_times": [{"days": "Mon-Fri", "time": "5:00pm"}, {"days": "Sat", "time": "4:00pm"}, {"days": "Sun", "time": "Closed"}], "id": "5301200030", "name": "USPS COLLECTION BOX - BLUE BOX", "address": {"city": "CEDARBURG", "state": "WI", "street": "W63N605 HANOVER AVE", "postcode": "53012"}}},
{"geometry": {"type": "Point", "coordinates": [-87.8221901718, 43.5675797704]}, "type": "Feature", "properties": {"collection_times": [{"days": "Mon-Fri", "time": "4:45pm"}, {"days": "Sat", "time": "10:30am"}, {"days": "Sun", "time": "Closed"}], "id": "5301300001", "name": "USPS COLLECTION BOX - BLUE BOX", "address": {"city": "CEDAR GROVE", "state": "WI", "street": "103 W WISCONSIN AVE", "postcode": "53013"}}},
{"geometry": {"type": "Point", "coordinates": [-87.8221901718, 43.5675797704]}, "type": "Feature", "properties": {"collection_times": [{"days": "Mon-Fri", "time": "4:30pm"}, {"days": "Sat", "time": "10:30am"}, {"days": "Sun", "time": "Closed"}], "id": "5301300002", "name": "USPS COLLECTION BOX - PO LOBBY", "address": {"city": "CEDAR GROVE", "state": "WI", "street": "103 W WISCONSIN AVE", "postcode": "53013"}}},
{"geometry": {"type": "Point", "coordinates": [-87.8221901718, 43.5675797704]}, "type": "Feature", "properties": {"collection_times": [{"days": "Mon-Fri", "time": "4:30pm"}, {"days": "Sat", "time": "10:30am"}, {"days": "Sun", "time": "Closed"}], "id": "5301300003", "name": "USPS COLLECTION BOX - PO LOBBY", "address": {"city": "CEDAR GROVE", "state": "WI", "street": "103 W WISCONSIN AVE", "postcode": "53013"}}},
{"geometry": {"type": "Point", "coordinates": [-88.1613503738, 44.0293260666]}, "type": "Feature", "properties": {"collection_times": [{"days": "Mon-Fri", "time": "4:00pm"}, {"days": "Sat", "time": "3:30pm"}, {"days": "Sun", "time": "Closed"}], "id": "5301400007", "name": "USPS COLLECTION BOX - BLUE BOX", "address": {"city": "CHILTON", "state": "WI", "street": "57 E MAIN ST", "postcode": "53014"}}},
{"geometry": {"type": "Point", "coordinates": [-88.1629969703, 44.034680459]}, "type": "Feature", "properties": {"collection_times": [{"days": "Mon-Fri", "time": "1:00pm"}, {"days": "Sat", "time": "12:30pm"}, {"days": "Sun", "time": "Closed"}], "id": "5301400008", "name": "USPS COLLECTION BOX - BLUE BOX", "address": {"city": "CHILTON", "state": "WI", "street": "511 N MADISON ST", "postcode": "53014"}}},
{"geometry": {"type": "Point", "coordinates": [-88.1570288639, 44.0238861284]}, "type": "Feature", "properties": {"collection_times": [{"days": "Mon-Sat", "time": "9:00am"}, {"days": "Sun", "time": "Closed"}], "id": "5301400009", "name": "USPS COLLECTION BOX - BLUE BOX", "address": {"city": "CHILTON", "state": "WI", "street": "1041 E CHESTNUT ST", "postcode": "53014"}}},
{"geometry": {"type": "Point", "coordinates": [-88.1613503738, 44.0293260666]}, "type": "Feature", "properties": {"collection_times": [{"days": "Mon-Fri", "time": "4:00pm"}, {"days": "Sat", "time": "3:30pm"}, {"days": "Sun", "time": "Closed"}], "id": "5301400011", "name": "USPS COLLECTION BOX - PO LOBBY", "address": {"city": "CHILTON", "state": "WI", "street": "57 E MAIN ST", "postcode": "53014"}}},
{"geometry": {"type": "Point", "coordinates": [-88.1427436769, 44.0240419871]}, "type": "Feature", "properties": {"collection_times": [{"days": "Mon-Sat", "time": "9:00am"}, {"days": "Sun", "time": "Closed"}], "id": "5301400014", "name": "USPS COLLECTION BOX - BLUE BOX", "address": {"city": "CHILTON", "state": "WI", "street": "810 S IRISH RD", "postcode": "53014"}}},
{"geometry": {"type": "Point", "coordinates": [-87.7474170577, 43.9146704353]}, "type": "Feature", "properties": {"collection_times": [{"days": "Mon-Fri", "time": "4:15pm"}, {"days": "Sat", "time": "10:30am"}, {"days": "Sun", "time": "Closed"}], "id": "5301500000", "name": "USPS COLLECTION BOX - BLUE BOX", "address": {"city": "CLEVELAND", "state": "WI", "street": "1029 HEMLOCK ST", "postcode": "53015"}}},
{"geometry": {"type": "Point", "coordinates": [-87.7474170577, 43.9146704353]}, "type": "Feature", "properties": {"collection_times": [{"days": "Mon-Fri", "time": "4:15pm"}, {"days": "Sat", "time": "10:30am"}, {"days": "Sun", "time": "Closed"}], "id": "5301500004", "name": "USPS COLLECTION BOX - PO LOBBY", "address": {"city": "CLEVELAND", "state": "WI", "street": "1029 HEMLOCK ST", "postcode": "53015"}}},
{"geometry": {"type": "Point", "coordinates": [-88.7201988202, 43.311291886]}, "type": "Feature", "properties": {"collection_times": [{"days": "Mon-Fri", "time": "4:00pm"}, {"days": "Sat", "time": "9:30am"}, {"days": "Sun", "time": "Closed"}], "id": "5301600001", "name": "USPS COLLECTION BOX - BLUE BOX", "address": {"city": "CLYMAN", "state": "WI", "street": "703 KLATT ST", "postcode": "53016"}}},
{"geometry": {"type": "Point", "coordinates": [-88.7201287628, 43.3128484165]}, "type": "Feature", "properties": {"collection_times": [{"days": "Mon-Fri", "time": "4:15pm"}, {"days": "Sat", "time": "9:45am"}, {"days": "Sun", "time": "Closed"}], "id": "5301600002", "name": "USPS COLLECTION BOX - PO LOBBY", "address": {"city": "CLYMAN", "state": "WI", "street": "900 MAIN ST", "postcode": "53016"}}},
{"geometry": {"type": "Point", "coordinates": [-88.2058529795, 43.1929890434]}, "type": "Feature", "properties": {"collection_times": [{"days": "Mon-Fri", "time": "4:15pm"}, {"days": "Sat", "time": "10:30am"}, {"days": "Sun", "time": "Closed"}], "id": "5301700001", "name": "USPS COLLECTION BOX - BLUE BOX", "address": {"city": "COLGATE", "state": "WI", "street": "3392 COUNTY LINE RD", "postcode": "53017"}}},
{"geometry": {"type": "Point", "coordinates": [-88.2058529795, 43.1929890434]}, "type": "Feature", "properties": {"collection_times": [{"days": "Mon-Fri", "time": "3:30pm"}, {"days": "Sat", "time": "10:30am"}, {"days": "Sun", "time": "Closed"}], "id": "5301700003", "name": "USPS COLLECTION BOX - PO LOBBY", "address": {"city": "COLGATE", "state": "WI", "street": "3392 COUNTY LINE RD", "postcode": "53017"}}},
{"geometry": {"type": "Point", "coordinates": [-88.4041697652, 43.0638497515]}, "type": "Feature", "properties": {"collection_times": [{"days": "Mon-Fri", "time": "5:00pm"}, {"days": "Sat", "time": "12:00pm"}, {"days": "Sun", "time": "Closed"}], "id": "5301800000", "name": "USPS COLLECTION BOX - BLUE BOX", "address": {"city": "DELAFIELD", "state": "WI", "street": "925 GENESEE ST", "postcode": "53018"}}},
{"geometry": {"type": "Point", "coordinates": [-88.4041697652, 43.0638497515]}, "type": "Feature", "properties": {"collection_times": [{"days": "Mon-Fri", "time": "5:00pm"}, {"days": "Sat", "time": "12:00pm"}, {"days": "Sun", "time": "Closed"}], "id": "5301800001", "name": "USPS COLLECTION BOX - BLUE BOX", "address": {"city": "DELAFIELD", "state": "WI", "street": "925 GENESEE ST", "postcode": "53018"}}},
{"geometry": {"type": "Point", "coordinates": [-88.377865005, 43.0501176553]}, "type": "Feature", "properties": {"collection_times": [{"days": "Mon-Sat", "time": "10:00am"}, {"days": "Sun", "time": "Closed"}], "id": "5301800003", "name": "USPS COLLECTION BOX - BLUE BOX", "address": {"city": "DELAFIELD", "state": "WI", "street": "375 WILLIAMSTOWNE", "postcode": "53018"}}},
{"geometry": {"type": "Point", "coordinates": [-88.3724418926, 43.0502268978]}, "type": "Feature", "properties": {"collection_times": [{"days": "Mon-Sat", "time": "10:30am"}, {"days": "Sun", "time": "Closed"}], "id": "5301800004", "name": "USPS COLLECTION BOX - BLUE BOX", "address": {"city": "DELAFIELD", "state": "WI", "street": "2777 HERITAGE DR", "postcode": "53018"}}},
{"geometry": {"type": "Point", "coordinates": [-88.3645856024, 43.0530808394]}, "type": "Feature", "properties": {"collection_times": [{"days": "Mon-Sat", "time": "11:00am"}, {"days": "Sun", "time": "Closed"}], "id": "5301800007", "name": "USPS COLLECTION BOX - BLUE BOX", "address": {"city": "DELAFIELD", "state": "WI", "street": "3255 GOLF RD", "postcode": "53018"}}},
{"geometry": {"type": "Point", "coordinates": [-88.4041697652, 43.0638497515]}, "type": "Feature", "properties": {"collection_times": [{"days": "Mon-Fri", "time": "5:00pm"}, {"days": "Sat", "time": "12:00pm"}, {"days": "Sun", "time": "Closed"}], "id": "5301800008", "name": "USPS COLLECTION BOX - PO LOBBY", "address": {"city": "DELAFIELD", "state": "WI", "street": "925 GENESEE ST", "postcode": "53018"}}},
{"geometry": {"type": "Point", "coordinates": [-88.4041697652, 43.0638497515]}, "type": "Feature", "properties": {"collection_times": [{"days": "Mon-Fri", "time": "5:00pm"}, {"days": "Sat", "time": "12:00pm"}, {"days": "Sun", "time": "Closed"}], "id": "5301800009", "name": "USPS COLLECTION BOX - PO LOBBY", "address": {"city": "DELAFIELD", "state": "WI", "street": "925 GENESEE ST", "postcode": "53018"}}},
{"geometry": {"type": "Point", "coordinates": [-88.3763967958, 43.0499025893]}, "type": "Feature", "properties": {"collection_times": [{"days": "Mon-Sat", "time": "10:00am"}, {"days": "Sun", "time": "Closed"}], "id": "5301800010", "name": "USPS COLLECTION BOX - BLUE BOX", "address": {"city": "DELAFIELD", "state": "WI", "street": "2566 SUN VALLEY DR", "postcode": "53018"}}},
{"geometry": {"type": "Point", "coordinates": [-88.3618186614, 43.693596337]}, "type": "Feature", "properties": {"collection_times": [{"days": "Mon-Fri", "time": "4:00pm"}, {"days": "Sat", "time": "10:30am"}, {"days": "Sun", "time": "Closed"}], "id": "5301900001", "name": "USPS COLLECTION BOX - BLUE BOX", "address": {"city": "EDEN", "state": "WI", "street": "115 SHERIDAN ST", "postcode": "53019"}}},
{"geometry": {"type": "Point", "coordinates": [-88.3616719745, 43.6936093495]}, "type": "Feature", "properties": {"collection_times": [{"days": "Mon-Fri", "time": "4:00pm"}, {"days": "Sat", "time": "10:45am"}, {"days": "Sun", "time": "Closed"}], "id": "5301900003", "name": "USPS COLLECTION BOX - PO LOBBY", "address": {"city": "EDEN", "state": "WI", "street": "117 SHERIDAN ST", "postcode": "53019"}}},
{"geometry": {"type": "Point", "coordinates": [-88.3657948202, 43.6923481117]}, "type": "Feature", "properties": {"collection_times": [{"days": "Mon-Sat", "time": "9:30am"}, {"days": "Sun", "time": "Closed"}], "id": "5301900005", "name": "USPS COLLECTION BOX - BLUE BOX", "address": {"city": "EDEN", "state": "WI", "street": "301 W MAIN ST", "postcode": "53019"}}},
{"geometry": {"type": "Point", "coordinates": [-88.016333334, 43.8330834521]}, "type": "Feature", "properties": {"collection_times": [{"days": "Mon-Fri", "time": "3:45pm"}, {"days": "Sat", "time": "10:45am"}, {"days": "Sun", "time": "Closed"}], "id": "5302000001", "name": "USPS COLLECTION BOX - BLUE BOX", "address": {"city": "ELKHART LAKE", "state": "WI", "street": "146 E RHINE ST", "postcode": "53020"}}},
{"geometry": {"type": "Point", "coordinates": [-88.016333334, 43.8330834521]}, "type": "Feature", "properties": {"collection_times": [{"days": "Mon-Fri", "time": "4:00pm"}, {"days": "Sat", "time": "10:45am"}, {"days": "Sun", "time": "Closed"}], "id": "5302000003", "name": "USPS COLLECTION BOX - PO LOBBY", "address": {"city": "ELKHART LAKE", "state": "WI", "street": "146 E RHINE ST", "postcode": "53020"}}},
{"geometry": {"type": "Point", "coordinates": [-87.9976291815, 43.8546438654]}, "type": "Feature", "properties": {"collection_times": [{"days": "Mon-Sat", "time": "10:30am"}, {"days": "Sun", "time": "Closed"}], "id": "5302000005", "name": "USPS COLLECTION BOX - BLUE BOX", "address": {"city": "ELKHART LAKE", "state": "WI", "street": "510 E RHINE ST", "postcode": "53020"}}},
{"geometry": {"type": "Point", "coordinates": [-87.9442984111, 43.4708285987]}, "type": "Feature", "properties": {"collection_times": [{"days": "Mon-Fri", "time": "4:30pm"}, {"days": "Sat", "time": "11:00am"}, {"days": "Sun", "time": "Closed"}], "id": "5302100001", "name": "USPS COLLECTION BOX - BLUE BOX", "address": {"city": "FREDONIA", "state": "WI", "street": "207 REGAL DR", "postcode": "53021"}}},
{"geometry": {"type": "Point", "coordinates": [-87.9442984111, 43.4708285987]}, "type": "Feature", "properties": {"collection_times": [{"days": "Mon-Fri", "time": "4:30pm"}, {"days": "Sat", "time": "11:00am"}, {"days": "Sun", "time": "Closed"}], "id": "5302100004", "name": "USPS COLLECTION BOX - PO LOBBY", "address": {"city": "FREDONIA", "state": "WI", "street": "207 REGAL DR", "postcode": "53021"}}},
{"geometry": {"type": "Point", "coordinates": [-87.9442984111, 43.4708285987]}, "type": "Feature", "properties": {"collection_times": [{"days": "Mon-Fri", "time": "4:30pm"}, {"days": "Sat", "time": "11:00am"}, {"days": "Sun", "time": "Closed"}], "id": "5302100005", "name": "USPS COLLECTION BOX - PO LOBBY", "address": {"city": "FREDONIA", "state": "WI", "street": "207 REGAL DR", "postcode": "53021"}}},
{"geometry": {"type": "Point", "coordinates": [-88.1032177285, 43.2227091372]}, "type": "Feature", "properties": {"collection_times": [{"days": "Mon-Fri", "time": "5:00pm"}, {"days": "Sat", "time": "2:00pm"}, {"days": "Sun", "time": "Closed"}], "id": "5302200001", "name": "USPS COLLECTION BOX - BLUE BOX", "address": {"city": "GERMANTOWN", "state": "WI", "street": "W156N11301 PILGRIM RD", "postcode": "53022"}}},
{"geometry": {"type": "Point", "coordinates": [-88.1032177285, 43.2227091372]}, "type": "Feature", "properties": {"collection_times": [{"days": "Mon-Fri", "time": "5:00pm"}, {"days": "Sat", "time": "2:00pm"}, {"days": "Sun", "time": "Closed"}], "id": "5302200003", "name": "USPS COLLECTION BOX - BLUE BOX", "address": {"city": "GERMANTOWN", "state": "WI", "street": "W156N11301 PILGRIM RD", "postcode": "53022"}}},
{"geometry": {"type": "Point", "coordinates": [-88.1032177285, 43.2227091372]}, "type": "Feature", "properties": {"collection_times": [{"days": "Mon-Fri", "time": "5:00pm"}, {"days": "Sat", "time": "2:00pm"}, {"days": "Sun", "time": "Closed"}], "id": "5302200005", "name": "USPS COLLECTION BOX - PO LOBBY", "address": {"city": "GERMANTOWN", "state": "WI", "street": "W156N11301 PILGRIM RD", "postcode": "53022"}}},
{"geometry": {"type": "Point", "coordinates": [-88.1170940255, 43.2210054134]}, "type": "Feature", "properties": {"collection_times": [{"days": "Mon-Fri", "time": "3:00pm"}, {"days": "Sat-Sun", "time": "Closed"}], "id": "5302200008", "name": "USPS COLLECTION BOX - BLUE BOX", "address": {"city": "GERMANTOWN", "state": "WI", "street": "N112W16760 MEQUON RD", "postcode": "53022"}}},
{"geometry": {"type": "Point", "coordinates": [-88.1387709901, 43.2210145762]}, "type": "Feature", "properties": {"collection_times": [{"days": "Mon-Fri", "time": "3:00pm"}, {"days": "Sat-Sun", "time": "Closed"}], "id": "5302200010", "name": "USPS COLLECTION BOX - BLUE BOX", "address": {"city": "GERMANTOWN", "state": "WI", "street": "N112W18500 MEQUON RD", "postcode": "53022"}}},
{"geometry": {"type": "Point", "coordinates": [-88.1387709901, 43.2210145762]}, "type": "Feature", "properties": {"collection_times": [{"days": "Mon-Fri", "time": "3:00pm"}, {"days": "Sat-Sun", "time": "Closed"}], "id": "5302200012", "name": "USPS COLLECTION BOX - BLUE BOX", "address": {"city": "GERMANTOWN", "state": "WI", "street": "N112W18500 MEQUON RD", "postcode": "53022"}}},
{"geometry": {"type": "Point", "coordinates": [-88.1387709901, 43.2210145762]}, "type": "Feature", "properties": {"collection_times": [{"days": "Mon-Fri", "time": "3:00pm"}, {"days": "Sat-Sun", "time": "Closed"}], "id": "5302200013", "name": "USPS COLLECTION BOX - BLUE BOX", "address": {"city": "GERMANTOWN", "state": "WI", "street": "N112W18500 MEQUON RD", "postcode": "53022"}}},
{"geometry": {"type": "Point", "coordinates": [-88.1032177285, 43.2227091372]}, "type": "Feature", "properties": {"collection_times": [{"days": "Mon-Fri", "time": "5:00pm"}, {"days": "Sat", "time": "2:00pm"}, {"days": "Sun", "time": "Closed"}], "id": "5302200014", "name": "USPS COLLECTION BOX - BLUE BOX", "address": {"city": "GERMANTOWN", "state": "WI", "street": "W156N11301 PILGRIM RD", "postcode": "53022"}}},
{"geometry": {"type": "Point", "coordinates": [-88.1032177285, 43.2227091372]}, "type": "Feature", "properties": {"collection_times": [{"days": "Mon-Fri", "time": "5:00pm"}, {"days": "Sat", "time": "2:00pm"}, {"days": "Sun", "time": "Closed"}], "id": "5302200015", "name": "USPS COLLECTION BOX - BLUE BOX", "address": {"city": "GERMANTOWN", "state": "WI", "street": "W156N11301 PILGRIM RD", "postcode": "53022"}}},
{"geometry": {"type": "Point", "coordinates": [-88.1424479615, 43.2247570038]}, "type": "Feature", "properties": {"collection_times": [{"days": "Mon-Fri", "time": "3:00pm"}, {"days": "Sat-Sun", "time": "Closed"}], "id": "5302200016", "name": "USPS COLLECTION BOX - BLUE BOX", "address": {"city": "GERMANTOWN", "state": "WI", "street": "W188N11400 MAPLE RD", "postcode": "53022"}}},
{"geometry": {"type": "Point", "coordinates": [-88.1424479615, 43.2247570038]}, "type": "Feature", "properties": {"collection_times": [{"days": "Mon-Fri", "time": "3:00pm"}, {"days": "Sat-Sun", "time": "Closed"}], "id": "5302200017", "name": "USPS COLLECTION BOX - BLUE BOX", "address": {"city": "GERMANTOWN", "state": "WI", "street": "W188N11400 MAPLE RD", "postcode": "53022"}}},
{"geometry": {"type": "Point", "coordinates": [-88.1265908201, 43.2200767906]}, "type": "Feature", "properties": {"collection_times": [{"days": "Mon-Fri", "time": "3:00pm"}, {"days": "Sat-Sun", "time": "Closed"}], "id": "5302200019", "name": "USPS COLLECTION BOX - BLUE BOX", "address": {"city": "GERMANTOWN", "state": "WI", "street": "W175N11163 STONEWOOD DR", "postcode": "53022"}}},
{"geometry": {"type": "Point", "coordinates": [-88.1032177285, 43.2227091372]}, "type": "Feature", "properties": {"collection_times": [{"days": "Mon-Fri", "time": "5:00pm"}, {"days": "Sat", "time": "2:00pm"}, {"days": "Sun", "time": "Closed"}], "id": "5302200021", "name": "USPS COLLECTION BOX - BLUE BOX", "address": {"city": "GERMANTOWN", "state": "WI", "street": "W156N11301 PILGRIM RD", "postcode": "53022"}}},
{"geometry": {"type": "Point", "coordinates": [-88.1387709901, 43.2210145762]}, "type": "Feature", "properties": {"collection_times": [{"days": "Mon-Fri", "time": "3:00pm"}, {"days": "Sat-Sun", "time": "Closed"}], "id": "5302200022", "name": "USPS COLLECTION BOX - BLUE BOX", "address": {"city": "GERMANTOWN", "state": "WI", "street": "N112W18500 MEQUON RD", "postcode": "53022"}}},
{"geometry": {"type": "Point", "coordinates": [-88.050858732, 43.7970282293]}, "type": "Feature", "properties": {"collection_times": [{"days": "Mon-Fri", "time": "4:00pm"}, {"days": "Sat", "time": "9:30am"}, {"days": "Sun", "time": "Closed"}], "id": "5302300000", "name": "USPS COLLECTION BOX - BLUE BOX", "address": {"city": "GLENBEULAH", "state": "WI", "street": "246 W MAIN ST", "postcode": "53023"}}},
{"geometry": {"type": "Point", "coordinates": [-88.050858732, 43.7970282293]}, "type": "Feature", "properties": {"collection_times": [{"days": "Mon-Fri", "time": "3:30pm"}, {"days": "Sat", "time": "9:30am"}, {"days": "Sun", "time": "Closed"}], "id": "5302300001", "name": "USPS COLLECTION BOX - PO LOBBY", "address": {"city": "GLENBEULAH", "state": "WI", "street": "246 W MAIN ST", "postcode": "53023"}}},
{"geometry": {"type": "Point", "coordinates": [-88.1012488727, 43.7859710534]}, "type": "Feature", "properties": {"collection_times": [{"days": "Mon-Fri", "time": "9:30am"}, {"days": "Sat", "time": "9:00am"}, {"days": "Sun", "time": "Closed"}], "id": "5302300002", "name": "USPS COLLECTION BOX - BLUE BOX", "address": {"city": "GLENBEULAH", "state": "WI", "street": "211 W MAIN ST", "postcode": "53023"}}},
{"geometry": {"type": "Point", "coordinates": [-87.9617371109, 43.3104945747]}, "type": "Feature", "properties": {"collection_times": [{"days": "Mon-Fri", "time": "5:00pm"}, {"days": "Sat", "time": "3:00pm"}, {"days": "Sun", "time": "Closed"}], "id": "5302400000", "name": "USPS COLLECTION BOX - BLUE BOX", "address": {"city": "GRAFTON", "state": "WI", "street": "1817 HIGHLAND DR", "postcode": "53024"}}},
{"geometry": {"type": "Point", "coordinates": [-87.9617371109, 43.3104945747]}, "type": "Feature", "properties": {"collection_times": [{"days": "Mon-Fri", "time": "5:00pm"}, {"days": "Sat", "time": "3:00pm"}, {"days": "Sun", "time": "Closed"}], "id": "5302400001", "name": "USPS COLLECTION BOX - BLUE BOX", "address": {"city": "GRAFTON", "state": "WI", "street": "1817 HIGHLAND DR", "postcode": "53024"}}},
{"geometry": {"type": "Point", "coordinates": [-87.9617371109, 43.3104945747]}, "type": "Feature", "properties": {"collection_times": [{"days": "Mon-Fri", "time": "5:00pm"}, {"days": "Sat", "time": "3:00pm"}, {"days": "Sun", "time": "Closed"}], "id": "5302400002", "name": "USPS COLLECTION BOX - BLUE BOX", "address": {"city": "GRAFTON", "state": "WI", "street": "1817 HIGHLAND DR", "postcode": "53024"}}},
{"geometry": {"type": "Point", "coordinates": [-87.9617371109, 43.3104945747]}, "type": "Feature", "properties": {"collection_times": [{"days": "Mon-Fri", "time": "5:00pm"}, {"days": "Sat", "time": "3:00pm"}, {"days": "Sun", "time": "Closed"}], "id": "5302400003", "name": "USPS COLLECTION BOX - BLUE BOX", "address": {"city": "GRAFTON", "state": "WI", "street": "1817 HIGHLAND DR", "postcode": "53024"}}},
{"geometry": {"type": "Point", "coordinates": [-87.9517201816, 43.3199993297]}, "type": "Feature", "properties": {"collection_times": [{"days": "Mon-Sat", "time": "12:00pm"}, {"days": "Sun", "time": "Closed"}], "id": "5302400008", "name": "USPS COLLECTION BOX - BLUE BOX", "address": {"city": "GRAFTON", "state": "WI", "street": "1200 WASHINGTON ST", "postcode": "53024"}}},
{"geometry": {"type": "Point", "coordinates": [-87.9617371109, 43.3104945747]}, "type": "Feature", "properties": {"collection_times": [{"days": "Mon-Fri", "time": "5:00pm"}, {"days": "Sat", "time": "3:00pm"}, {"days": "Sun", "time": "Closed"}], "id": "5302400017", "name": "USPS COLLECTION BOX - PO LOBBY", "address": {"city": "GRAFTON", "state": "WI", "street": "1817 HIGHLAND DR", "postcode": "53024"}}},
{"geometry": {"type": "Point", "coordinates": [-87.9617371109, 43.3104945747]}, "type": "Feature", "properties": {"collection_times": [{"days": "Mon-Fri", "time": "5:00pm"}, {"days": "Sat", "time": "3:00pm"}, {"days": "Sun", "time": "Closed"}], "id": "5302400018", "name": "USPS COLLECTION BOX - PO LOBBY", "address": {"city": "GRAFTON", "state": "WI", "street": "1817 HIGHLAND DR", "postcode": "53024"}}},
{"geometry": {"type": "Point", "coordinates": [-87.9617371109, 43.3104945747]}, "type": "Feature", "properties": {"collection_times": [{"days": "Mon-Fri", "time": "5:00pm"}, {"days": "Sat", "time": "3:00pm"}, {"days": "Sun", "time": "Closed"}], "id": "5302400019", "name": "USPS COLLECTION BOX - APC", "address": {"city": "GRAFTON", "state": "WI", "street": "1817 HIGHLAND DR", "postcode": "53024"}}},
{"geometry": {"type": "Point", "coordinates": [-87.9253128861, 43.3219665753]}, "type": "Feature", "properties": {"collection_times": [{"days": "Mon-Sat", "time": "11:00am"}, {"days": "Sun", "time": "Closed"}], "id": "5302400020", "name": "USPS COLLECTION BOX - BLUE BOX", "address": {"city": "GRAFTON", "state": "WI", "street": "1185 N PORT WASHINGTON RD", "postcode": "53024"}}},
{"geometry": {"type": "Point", "coordinates": [-88.0839857047, 43.7758943563]}, "type": "Feature", "properties": {"collection_times": [{"days": "Mon-Fri", "time": "4:30pm"}, {"days": "Sat", "time": "9:45am"}, {"days": "Sun", "time": "Closed"}], "id": "5302600001", "name": "USPS COLLECTION BOX - BLUE BOX", "address": {"city": "GREENBUSH", "state": "WI", "street": "W7756 PLANK RD", "postcode": "53026"}}},
{"geometry": {"type": "Point", "coordinates": [-88.0839857047, 43.7758943563]}, "type": "Feature", "properties": {"collection_times": [{"days": "Mon-Fri", "time": "4:30pm"}, {"days": "Sat", "time": "9:45am"}, {"days": "Sun", "time": "Closed"}], "id": "5302600002", "name": "USPS COLLECTION BOX - PO LOBBY", "address": {"city": "GREENBUSH", "state": "WI", "street": "W7756 PLANK RD", "postcode": "53026"}}},
{"geometry": {"type": "Point", "coordinates": [-88.3607089933, 43.3168925494]}, "type": "Feature", "properties": {"collection_times": [{"days": "Mon-Sat", "time": "11:00am"}, {"days": "Sun", "time": "Closed"}], "id": "5302700010", "name": "USPS COLLECTION BOX - BLUE BOX", "address": {"city": "HARTFORD", "state": "WI", "street": "1201 BELL AVE", "postcode": "53027"}}},
{"geometry": {"type": "Point", "coordinates": [-88.3774230731, 43.3199942366]}, "type": "Feature", "properties": {"collection_times": [{"days": "Mon-Fri", "time": "5:00pm"}, {"days": "Sat", "time": "3:00pm"}, {"days": "Sun", "time": "Closed"}], "id": "5302700015", "name": "USPS COLLECTION BOX - BLUE BOX", "address": {"city": "HARTFORD", "state": "WI", "street": "45 E WISCONSIN ST", "postcode": "53027"}}},
{"geometry": {"type": "Point", "coordinates": [-88.377403682, 43.31996187]}, "type": "Feature", "properties": {"collection_times": [{"days": "Mon-Fri", "time": "5:00pm"}, {"days": "Sat", "time": "3:00pm"}, {"days": "Sun", "time": "Closed"}], "id": "5302700017", "name": "USPS COLLECTION BOX - PO LOBBY", "address": {"city": "HARTFORD", "state": "WI", "street": "45 E WISCONSIN ST", "postcode": "53027"}}},
{"geometry": {"type": "Point", "coordinates": [-88.3774230731, 43.3199942366]}, "type": "Feature", "properties": {"collection_times": [{"days": "Mon-Fri", "time": "5:00pm"}, {"days": "Sat", "time": "3:00pm"}, {"days": "Sun", "time": "Closed"}], "id": "5302700018", "name": "USPS COLLECTION BOX - BLUE BOX", "address": {"city": "HARTFORD", "state": "WI", "street": "45 E WISCONSIN ST", "postcode": "53027"}}},
{"geometry": {"type": "Point", "coordinates": [-88.363414473, 43.3217272715]}, "type": "Feature", "properties": {"collection_times": [{"days": "Mon-Sat", "time": "10:00am"}, {"days": "Sun", "time": "Closed"}], "id": "5302700019", "name": "USPS COLLECTION BOX - BLUE BOX", "address": {"city": "HARTFORD", "state": "WI", "street": "1008 RIVERBEND DR", "postcode": "53027"}}},
{"geometry": {"type": "Point", "coordinates": [-88.3529868837, 43.317710349]}, "type": "Feature", "properties": {"collection_times": [{"days": "Mon-Sat", "time": "12:00pm"}, {"days": "Sun", "time": "Closed"}], "id": "5302700020", "name": "USPS COLLECTION BOX - BLUE BOX", "address": {"city": "HARTFORD", "state": "WI", "street": "1532 E SUMNER ST", "postcode": "53027"}}},
{"geometry": {"type": "Point", "coordinates": [-88.3469133784, 43.1046176297]}, "type": "Feature", "properties": {"collection_times": [{"days": "Mon-Sat", "time": "2:45pm"}, {"days": "Sun", "time": "Closed"}], "id": "5302900000", "name": "USPS COLLECTION BOX - BLUE BOX", "address": {"city": "HARTLAND", "state": "WI", "street": "112 E CAPITOL DR", "postcode": "53029"}}},
{"geometry": {"type": "Point", "coordinates": [-88.35259266, 43.1067220753]}, "type": "Feature", "properties": {"collection_times": [{"days": "Mon-Sat", "time": "10:30am"}, {"days": "Sun", "time": "Closed"}], "id": "5302900005", "name": "USPS COLLECTION BOX - BLUE BOX", "address": {"city": "HARTLAND", "state": "WI", "street": "400 HILLSIDE LN", "postcode": "53029"}}},
{"geometry": {"type": "Point", "coordinates": [-88.3607102288, 43.1034808061]}, "type": "Feature", "properties": {"collection_times": [{"days": "Mon-Sat", "time": "11:00am"}, {"days": "Sun", "time": "Closed"}], "id": "5302900006", "name": "USPS COLLECTION BOX - BLUE BOX", "address": {"city": "HARTLAND", "state": "WI", "street": "4850 EASY ST", "postcode": "53029"}}},
{"geometry": {"type": "Point", "coordinates": [-88.3480194451, 43.1032075426]}, "type": "Feature", "properties": {"collection_times": [{"days": "Mon-Sat", "time": "1:30pm"}, {"days": "Sun", "time": "Closed"}], "id": "5302900007", "name": "USPS COLLECTION BOX - BLUE BOX", "address": {"city": "HARTLAND", "state": "WI", "street": "211 COTTONWOOD AVE", "postcode": "53029"}}},
{"geometry": {"type": "Point", "coordinates": [-88.3487883684, 43.0987134815]}, "type": "Feature", "properties": {"collection_times": [{"days": "Mon-Fri", "time": "5:00pm"}, {"days": "Sat", "time": "3:00pm"}, {"days": "Sun", "time": "Closed"}], "id": "5302900010", "name": "USPS COLLECTION BOX - BLUE BOX", "address": {"city": "HARTLAND", "state": "WI", "street": "401 W INDUSTRIAL DR", "postcode": "53029"}}},
{"geometry": {"type": "Point", "coordinates": [-88.348749729, 43.098641743]}, "type": "Feature", "properties": {"collection_times": [{"days": "Mon-Fri", "time": "5:00pm"}, {"days": "Sat", "time": "3:00pm"}, {"days": "Sun", "time": "Closed"}], "id": "5302900012", "name": "USPS COLLECTION BOX - PO LOBBY", "address": {"city": "HARTLAND", "state": "WI", "street": "401 W INDUSTRIAL DR", "postcode": "53029"}}},
{"geometry": {"type": "Point", "coordinates": [-88.348749729, 43.098641743]}, "type": "Feature", "properties": {"collection_times": [{"days": "Mon-Fri", "time": "5:00pm"}, {"days": "Sat", "time": "3:00pm"}, {"days": "Sun", "time": "Closed"}], "id": "5302900013", "name": "USPS COLLECTION BOX - PO LOBBY", "address": {"city": "HARTLAND", "state": "WI", "street": "401 W INDUSTRIAL DR", "postcode": "53029"}}},
{"geometry": {"type": "Point", "coordinates": [-88.3353724308, 43.1100888149]}, "type": "Feature", "properties": {"collection_times": [{"days": "Mon-Sat", "time": "11:30am"}, {"days": "Sun", "time": "Closed"}], "id": "5302900014", "name": "USPS COLLECTION BOX - BLUE BOX", "address": {"city": "HARTLAND", "state": "WI", "street": "600 HARTBROOK DR", "postcode": "53029"}}},
{"geometry": {"type": "Point", "coordinates": [-87.8119380528, 43.7293792758]}, "type": "Feature", "properties": {"collection_times": [{"days": "Mon-Fri", "time": "3:30pm"}, {"days": "Sat", "time": "9:00am"}, {"days": "Sun", "time": "Closed"}], "id": "5303100001", "name": "USPS COLLECTION BOX - BLUE BOX", "address": {"city": "HINGHAM", "state": "WI", "street": "N2750 MAIN ST", "postcode": "53031"}}},
{"geometry": {"type": "Point", "coordinates": [-87.8119380528, 43.7293792758]}, "type": "Feature", "properties": {"collection_times": [{"days": "Mon-Fri", "time": "3:30pm"}, {"days": "Sat", "time": "9:00am"}, {"days": "Sun", "time": "Closed"}], "id": "5303100002", "name": "USPS COLLECTION BOX - PO LOBBY", "address": {"city": "HINGHAM", "state": "WI", "street": "N2750 MAIN ST", "postcode": "53031"}}},
{"geometry": {"type": "Point", "coordinates": [-88.6302580757, 43.4515771282]}, "type": "Feature", "properties": {"collection_times": [{"days": "Mon-Fri", "time": "5:00pm"}, {"days": "Sat", "time": "11:15am"}, {"days": "Sun", "time": "Closed"}], "id": "5303200002", "name": "USPS COLLECTION BOX - BLUE BOX", "address": {"city": "HORICON", "state": "WI", "street": "420 E LAKE ST", "postcode": "53032"}}},
{"geometry": {"type": "Point", "coordinates": [-88.6302580757, 43.4515771282]}, "type": "Feature", "properties": {"collection_times": [{"days": "Mon-Fri", "time": "5:00pm"}, {"days": "Sat", "time": "11:15am"}, {"days": "Sun", "time": "Closed"}], "id": "5303200003", "name": "USPS COLLECTION BOX - BLUE BOX", "address": {"city": "HORICON", "state": "WI", "street": "420 E LAKE ST", "postcode": "53032"}}},
{"geometry": {"type": "Point", "coordinates": [-88.630250605, 43.451607329]}, "type": "Feature", "properties": {"collection_times": [{"days": "Mon-Fri", "time": "5:00pm"}, {"days": "Sat", "time": "11:15am"}, {"days": "Sun", "time": "Closed"}], "id": "5303200017", "name": "USPS COLLECTION BOX - PO LOBBY", "address": {"city": "HORICON", "state": "WI", "street": "420 E LAKE ST", "postcode": "53032"}}},
{"geometry": {"type": "Point", "coordinates": [-88.2213718583, 43.2364442109]}, "type": "Feature", "properties": {"collection_times": [{"days": "Mon-Fri", "time": "5:00pm"}, {"days": "Sat", "time": "11:00am"}, {"days": "Sun", "time": "Closed"}], "id": "5303300000", "name": "USPS COLLECTION BOX - BLUE BOX", "address": {"city": "HUBERTUS", "state": "WI", "street": "3695 HUBERTUS RD", "postcode": "53033"}}},
{"geometry": {"type": "Point", "coordinates": [-88.1889090984, 43.2362324612]}, "type": "Feature", "properties": {"collection_times": [{"days": "Mon-Sat", "time": "11:00am"}, {"days": "Sun", "time": "Closed"}], "id": "5303300001", "name": "USPS COLLECTION BOX - BLUE BOX", "address": {"city": "HUBERTUS", "state": "WI", "street": "3052 HUBERTUS RD", "postcode": "53033"}}},
{"geometry": {"type": "Point", "coordinates": [-88.2213718583, 43.2364442109]}, "type": "Feature", "properties": {"collection_times": [{"days": "Mon-Fri", "time": "5:00pm"}, {"days": "Sat", "time": "11:00am"}, {"days": "Sun", "time": "Closed"}], "id": "5303300002", "name": "USPS COLLECTION BOX - PO LOBBY", "address": {"city": "HUBERTUS", "state": "WI", "street": "3695 HUBERTUS RD", "postcode": "53033"}}},
{"geometry": {"type": "Point", "coordinates": [-88.2213718583, 43.2364442109]}, "type": "Feature", "properties": {"collection_times": [{"days": "Mon-Fri", "time": "5:00pm"}, {"days": "Sat", "time": "11:00am"}, {"days": "Sun", "time": "Closed"}], "id": "5303300003", "name": "USPS COLLECTION BOX - PO LOBBY", "address": {"city": "HUBERTUS", "state": "WI", "street": "3695 HUBERTUS RD", "postcode": "53033"}}},
{"geometry": {"type": "Point", "coordinates": [-88.6003864058, 43.3448474008]}, "type": "Feature", "properties": {"collection_times": [{"days": "Mon-Fri", "time": "4:30pm"}, {"days": "Sat", "time": "10:30am"}, {"days": "Sun", "time": "Closed"}], "id": "5303400001", "name": "USPS COLLECTION BOX - BLUE BOX", "address": {"city": "HUSTISFORD", "state": "WI", "street": "118 E GRIFFITH ST", "postcode": "53034"}}},
{"geometry": {"type": "Point", "coordinates": [-88.6003283659, 43.3448652073]}, "type": "Feature", "properties": {"collection_times": [{"days": "Mon-Fri", "time": "3:30pm"}, {"days": "Sat", "time": "11:00am"}, {"days": "Sun", "time": "Closed"}], "id": "5303400002", "name": "USPS COLLECTION BOX - PO LOBBY", "address": {"city": "HUSTISFORD", "state": "WI", "street": "118 E GRIFFITH ST", "postcode": "53034"}}},
{"geometry": {"type": "Point", "coordinates": [-88.6003283659, 43.3448652073]}, "type": "Feature", "properties": {"collection_times": [{"days": "Mon-Fri", "time": "3:30pm"}, {"days": "Sat", "time": "11:00am"}, {"days": "Sun", "time": "Closed"}], "id": "5303400003", "name": "USPS COLLECTION BOX - PO LOBBY", "address": {"city": "HUSTISFORD", "state": "WI", "street": "118 E GRIFFITH ST", "postcode": "53034"}}},
{"geometry": {"type": "Point", "coordinates": [-88.5310433073, 43.4027410333]}, "type": "Feature", "properties": {"collection_times": [{"days": "Mon-Fri", "time": "2:00pm"}, {"days": "Sat", "time": "9:30am"}, {"days": "Sun", "time": "Closed"}], "id": "5303500001", "name": "USPS COLLECTION BOX - PO LOBBY", "address": {"city": "IRON RIDGE", "state": "WI", "street": "108 NORTH ST", "postcode": "53035"}}},
{"geometry": {"type": "Point", "coordinates": [-88.5310433073, 43.4027410333]}, "type": "Feature", "properties": {"collection_times": [{"days": "Mon-Fri", "time": "4:30pm"}, {"days": "Sat", "time": "9:30am"}, {"days": "Sun", "time": "Closed"}], "id": "5303500002", "name": "USPS COLLECTION BOX - BLUE BOX", "address": {"city": "IRON RIDGE", "state": "WI", "street": "108 NORTH ST", "postcode": "53035"}}},
{"geometry": {"type": "Point", "coordinates": [-88.5310433073, 43.4027410333]}, "type": "Feature", "properties": {"collection_times": [{"days": "Mon-Fri", "time": "2:00pm"}, {"days": "Sat", "time": "9:30am"}, {"days": "Sun", "time": "Closed"}], "id": "5303500003", "name": "USPS COLLECTION BOX - PO LOBBY", "address": {"city": "IRON RIDGE", "state": "WI", "street": "108 NORTH ST", "postcode": "53035"}}},
{"geometry": {"type": "Point", "coordinates": [-88.5949919797, 43.1432833421]}, "type": "Feature", "properties": {"collection_times": [{"days": "Mon-Fri", "time": "4:15pm"}, {"days": "Sat", "time": "10:30am"}, {"days": "Sun", "time": "Closed"}], "id": "5303600001", "name": "USPS COLLECTION BOX - BLUE BOX", "address": {"city": "IXONIA", "state": "WI", "street": "W1235 MARIETTA AVE", "postcode": "53036"}}},
{"geometry": {"type": "Point", "coordinates": [-88.5949919797, 43.1432833421]}, "type": "Feature", "properties": {"collection_times": [{"days": "Mon-Fri", "time": "4:30pm"}, {"days": "Sat", "time": "11:00am"}, {"days": "Sun", "time": "Closed"}], "id": "5303600002", "name": "USPS COLLECTION BOX - PO LOBBY", "address": {"city": "IXONIA", "state": "WI", "street": "W1235 MARIETTA AVE", "postcode": "53036"}}},
{"geometry": {"type": "Point", "coordinates": [-88.5949919797, 43.1432833421]}, "type": "Feature", "properties": {"collection_times": [{"days": "Mon-Fri", "time": "4:30pm"}, {"days": "Sat", "time": "11:00am"}, {"days": "Sun", "time": "Closed"}], "id": "5303600003", "name": "USPS COLLECTION BOX - PO LOBBY", "address": {"city": "IXONIA", "state": "WI", "street": "W1235 MARIETTA AVE", "postcode": "53036"}}},
{"geometry": {"type": "Point", "coordinates": [-88.1888606452, 43.3222771187]}, "type": "Feature", "properties": {"collection_times": [{"days": "Mon-Fri", "time": "4:30pm"}, {"days": "Sat", "time": "11:00am"}, {"days": "Sun", "time": "Closed"}], "id": "5303700000", "name": "USPS COLLECTION BOX - BLUE BOX", "address": {"city": "JACKSON", "state": "WI", "street": "W225N16702 CEDAR PARK CT", "postcode": "53037"}}},
{"geometry": {"type": "Point", "coordinates": [-88.178081854, 43.3243800479]}, "type": "Feature", "properties": {"collection_times": [{"days": "Mon-Sat", "time": "10:30am"}, {"days": "Sun", "time": "Closed"}], "id": "5303700001", "name": "USPS COLLECTION BOX - BLUE BOX", "address": {"city": "JACKSON", "state": "WI", "street": "N168W21700 MAIN ST", "postcode": "53037"}}},
{"geometry": {"type": "Point", "coordinates": [-88.1499980291, 43.322778922]}, "type": "Feature", "properties": {"collection_times": [{"days": "Mon-Sat", "time": "12:30pm"}, {"days": "Sun", "time": "Closed"}], "id": "5303700002", "name": "USPS COLLECTION BOX - BLUE BOX", "address": {"city": "JACKSON", "state": "WI", "street": "W194N16744 EAGLE DR", "postcode": "53037"}}},
{"geometry": {"type": "Point", "coordinates": [-88.1732325262, 43.3238021815]}, "type": "Feature", "properties": {"collection_times": [{"days": "Mon-Sat", "time": "11:00am"}, {"days": "Sun", "time": "Closed"}], "id": "5303700003", "name": "USPS COLLECTION BOX - BLUE BOX", "address": {"city": "JACKSON", "state": "WI", "street": "W213N16770 GLEN BROOKE DR", "postcode": "53037"}}},
{"geometry": {"type": "Point", "coordinates": [-88.1888606452, 43.3222771187]}, "type": "Feature", "properties": {"collection_times": [{"days": "Mon-Fri", "time": "4:30pm"}, {"days": "Sat", "time": "11:00am"}, {"days": "Sun", "time": "Closed"}], "id": "5303700004", "name": "USPS COLLECTION BOX - PO LOBBY", "address": {"city": "JACKSON", "state": "WI", "street": "W225N16702 CEDAR PARK CT", "postcode": "53037"}}},
{"geometry": {"type": "Point", "coordinates": [-88.1888606452, 43.3222771187]}, "type": "Feature", "properties": {"collection_times": [{"days": "Mon-Fri", "time": "4:30pm"}, {"days": "Sat", "time": "11:00am"}, {"days": "Sun", "time": "Closed"}], "id": "5303700005", "name": "USPS COLLECTION BOX - PO LOBBY", "address": {"city": "JACKSON", "state": "WI", "street": "W225N16702 CEDAR PARK CT", "postcode": "53037"}}},
{"geometry": {"type": "Point", "coordinates": [-88.160555906, 43.32392672]}, "type": "Feature", "properties": {"collection_times": [{"days": "Mon-Sat", "time": "1:00pm"}, {"days": "Sun", "time": "Closed"}], "id": "5303700007", "name": "USPS COLLECTION BOX - BLUE BOX", "address": {"city": "JACKSON", "state": "WI", "street": "N168W19490 MAIN ST", "postcode": "53037"}}},
{"geometry": {"type": "Point", "coordinates": [-88.7755841802, 43.07644317]}, "type": "Feature", "properties": {"collection_times": [{"days": "Mon-Fri", "time": "4:15pm"}, {"days": "Sat", "time": "9:45am"}, {"days": "Sun", "time": "Closed"}], "id": "5303800001", "name": "USPS COLLECTION BOX - BLUE BOX", "address": {"city": "JOHNSON CREEK", "state": "WI", "street": "115 DEPOT ST", "postcode": "53038"}}},
{"geometry": {"type": "Point", "coordinates": [-88.7828414366, 43.0589392441]}, "type": "Feature", "properties": {"collection_times": [{"days": "Mon-Sat", "time": "10:00am"}, {"days": "Sun", "time": "Closed"}], "id": "5303800003", "name": "USPS COLLECTION BOX - BLUE BOX", "address": {"city": "JOHNSON CREEK", "state": "WI", "street": "N6749 HWY 26", "postcode": "53038"}}},
{"geometry": {"type": "Point", "coordinates": [-88.7755841802, 43.07644317]}, "type": "Feature", "properties": {"collection_times": [{"days": "Mon-Fri", "time": "4:30pm"}, {"days": "Sat", "time": "10:15am"}, {"days": "Sun", "time": "Closed"}], "id": "5303800004", "name": "USPS COLLECTION BOX - PO LOBBY", "address": {"city": "JOHNSON CREEK", "state": "WI", "street": "115 DEPOT ST", "postcode": "53038"}}},
{"geometry": {"type": "Point", "coordinates": [-88.7008251268, 43.4069015]}, "type": "Feature", "properties": {"collection_times": [{"days": "Mon-Fri", "time": "4:45pm"}, {"days": "Sat", "time": "11:30am"}, {"days": "Sun", "time": "Closed"}], "id": "5303900006", "name": "USPS COLLECTION BOX - BLUE BOX", "address": {"city": "JUNEAU", "state": "WI", "street": "248 E OAK ST", "postcode": "53039"}}},
{"geometry": {"type": "Point", "coordinates": [-88.7008251268, 43.4069015]}, "type": "Feature", "properties": {"collection_times": [{"days": "Mon-Fri", "time": "4:45pm"}, {"days": "Sat", "time": "11:30am"}, {"days": "Sun", "time": "Closed"}], "id": "5303900014", "name": "USPS COLLECTION BOX - PO LOBBY", "address": {"city": "JUNEAU", "state": "WI", "street": "248 E OAK ST", "postcode": "53039"}}},
{"geometry": {"type": "Point", "coordinates": [-88.7008251268, 43.4069015]}, "type": "Feature", "properties": {"collection_times": [{"days": "Mon-Fri", "time": "4:45pm"}, {"days": "Sat", "time": "11:30am"}, {"days": "Sun", "time": "Closed"}], "id": "5303900015", "name": "USPS COLLECTION BOX - PO LOBBY", "address": {"city": "JUNEAU", "state": "WI", "street": "248 E OAK ST", "postcode": "53039"}}},
{"geometry": {"type": "Point", "coordinates": [-88.7008251268, 43.4069015]}, "type": "Feature", "properties": {"collection_times": [{"days": "Mon-Fri", "time": "4:45pm"}, {"days": "Sat", "time": "11:30am"}, {"days": "Sun", "time": "Closed"}], "id": "5303900016", "name": "USPS COLLECTION BOX - PO LOBBY", "address": {"city": "JUNEAU", "state": "WI", "street": "248 E OAK ST", "postcode": "53039"}}},
{"geometry": {"type": "Point", "coordinates": [-88.7091508831, 43.4087070109]}, "type": "Feature", "properties": {"collection_times": [{"days": "Mon-Sat", "time": "9:30am"}, {"days": "Sun", "time": "Closed"}], "id": "5303900017", "name": "USPS COLLECTION BOX - BLUE BOX", "address": {"city": "JUNEAU", "state": "WI", "street": "405 JEWEL ST", "postcode": "53039"}}},
{"geometry": {"type": "Point", "coordinates": [-88.2239329644, 43.5209387442]}, "type": "Feature", "properties": {"collection_times": [{"days": "Mon-Fri", "time": "5:00pm"}, {"days": "Sat", "time": "11:00am"}, {"days": "Sun", "time": "Closed"}], "id": "5304000002", "name": "USPS COLLECTION BOX - BLUE BOX", "address": {"city": "KEWASKUM", "state": "WI", "street": "347 MAIN ST", "postcode": "53040"}}},
{"geometry": {"type": "Point", "coordinates": [-88.2221076588, 43.5118394238]}, "type": "Feature", "properties": {"collection_times": [{"days": "Mon-Sat", "time": "11:30am"}, {"days": "Sun", "time": "Closed"}], "id": "5304000004", "name": "USPS COLLECTION BOX - BLUE BOX", "address": {"city": "KEWASKUM", "state": "WI", "street": "940 FOND DU LAC AVE", "postcode": "53040"}}},
{"geometry": {"type": "Point", "coordinates": [-88.2239329644, 43.5209387442]}, "type": "Feature", "properties": {"collection_times": [{"days": "Mon-Fri", "time": "5:00pm"}, {"days": "Sat", "time": "11:00am"}, {"days": "Sun", "time": "Closed"}], "id": "5304000005", "name": "USPS COLLECTION BOX - PO LOBBY", "address": {"city": "KEWASKUM", "state": "WI", "street": "347 MAIN ST", "postcode": "53040"}}},
{"geometry": {"type": "Point", "coordinates": [-88.2239329644, 43.5209387442]}, "type": "Feature", "properties": {"collection_times": [{"days": "Mon-Fri", "time": "5:00pm"}, {"days": "Sat", "time": "11:00am"}, {"days": "Sun", "time": "Closed"}], "id": "5304000006", "name": "USPS COLLECTION BOX - PO LOBBY", "address": {"city": "KEWASKUM", "state": "WI", "street": "347 MAIN ST", "postcode": "53040"}}},
{"geometry": {"type": "Point", "coordinates": [-88.0312105221, 43.9124161066]}, "type": "Feature", "properties": {"collection_times": [{"days": "Mon-Fri", "time": "4:30pm"}, {"days": "Sat", "time": "2:30pm"}, {"days": "Sun", "time": "Closed"}], "id": "5304200001", "name": "USPS COLLECTION BOX - BLUE BOX", "address": {"city": "KIEL", "state": "WI", "street": "220 FREMONT ST", "postcode": "53042"}}},
{"geometry": {"type": "Point", "coordinates": [-88.0312105221, 43.9124161066]}, "type": "Feature", "properties": {"collection_times": [{"days": "Mon-Fri", "time": "4:30pm"}, {"days": "Sat", "time": "2:30pm"}, {"days": "Sun", "time": "Closed"}], "id": "5304200003", "name": "USPS COLLECTION BOX - BLUE BOX", "address": {"city": "KIEL", "state": "WI", "street": "220 FREMONT ST", "postcode": "53042"}}},
{"geometry": {"type": "Point", "coordinates": [-88.0288815439, 43.9157117021]}, "type": "Feature", "properties": {"collection_times": [{"days": "Mon-Sat", "time": "1:00pm"}, {"days": "Sun", "time": "Closed"}], "id": "5304200004", "name": "USPS COLLECTION BOX - BLUE BOX", "address": {"city": "KIEL", "state": "WI", "street": "55 CHICAGO ST", "postcode": "53042"}}},
{"geometry": {"type": "Point", "coordinates": [-88.0418978577, 43.9211400465]}, "type": "Feature", "properties": {"collection_times": [{"days": "Mon-Fri", "time": "1:00pm"}, {"days": "Sat", "time": "12:00pm"}, {"days": "Sun", "time": "Closed"}], "id": "5304200009", "name": "USPS COLLECTION BOX - BLUE BOX", "address": {"city": "KIEL", "state": "WI", "street": "N911 STATE ROAD 57", "postcode": "53042"}}},
{"geometry": {"type": "Point", "coordinates": [-88.022735132, 43.9193416031]}, "type": "Feature", "properties": {"collection_times": [{"days": "Mon-Fri", "time": "12:30pm"}, {"days": "Sat", "time": "12:00pm"}, {"days": "Sun", "time": "Closed"}], "id": "5304200011", "name": "USPS COLLECTION BOX - BLUE BOX", "address": {"city": "KIEL", "state": "WI", "street": "1150 SERVICE RD", "postcode": "53042"}}},
{"geometry": {"type": "Point", "coordinates": [-88.031196968, 43.91246366]}, "type": "Feature", "properties": {"collection_times": [{"days": "Mon-Fri", "time": "4:30pm"}, {"days": "Sat", "time": "3:00pm"}, {"days": "Sun", "time": "Closed"}], "id": "5304200013", "name": "USPS COLLECTION BOX - PO LOBBY", "address": {"city": "KIEL", "state": "WI", "street": "220 FREMONT ST", "postcode": "53042"}}},
{"geometry": {"type": "Point", "coordinates": [-88.031196968, 43.91246366]}, "type": "Feature", "properties": {"collection_times": [{"days": "Mon-Fri", "time": "4:30pm"}, {"days": "Sat", "time": "3:00pm"}, {"days": "Sun", "time": "Closed"}], "id": "5304200015", "name": "USPS COLLECTION BOX - PO LOBBY", "address": {"city": "KIEL", "state": "WI", "street": "220 FREMONT ST", "postcode": "53042"}}},
{"geometry": {"type": "Point", "coordinates": [-87.7808478694, 43.7488817243]}, "type": "Feature", "properties": {"collection_times": [{"days": "Mon-Sat", "time": "2:30pm"}, {"days": "Sun", "time": "Closed"}], "id": "5304400002", "name": "USPS COLLECTION BOX - BLUE BOX", "address": {"city": "KOHLER", "state": "WI", "street": "795 WOODLAKE RD", "postcode": "53044"}}},
{"geometry": {"type": "Point", "coordinates": [-87.780014389, 43.7386032769]}, "type": "Feature", "properties": {"collection_times": [{"days": "Mon-Fri", "time": "3:45pm"}, {"days": "Sat", "time": "9:30am"}, {"days": "Sun", "time": "Closed"}], "id": "5304400003", "name": "USPS COLLECTION BOX - BLUE BOX", "address": {"city": "KOHLER", "state": "WI", "street": "319 HIGHLAND DR", "postcode": "53044"}}},
{"geometry": {"type": "Point", "coordinates": [-87.780014389, 43.7386032769]}, "type": "Feature", "properties": {"collection_times": [{"days": "Mon-Fri", "time": "3:45pm"}, {"days": "Sat-Sun", "time": "Closed"}], "id": "5304400004", "name": "USPS COLLECTION BOX - PO LOBBY", "address": {"city": "KOHLER", "state": "WI", "street": "319 HIGHLAND DR", "postcode": "53044"}}},
{"geometry": {"type": "Point", "coordinates": [-87.780014389, 43.7386032769]}, "type": "Feature", "properties": {"collection_times": [{"days": "Mon-Fri", "time": "3:45pm"}, {"days": "Sat-Sun", "time": "Closed"}], "id": "5304400005", "name": "USPS COLLECTION BOX - PO LOBBY", "address": {"city": "KOHLER", "state": "WI", "street": "319 HIGHLAND DR", "postcode": "53044"}}},
{"geometry": {"type": "Point", "coordinates": [-88.1269575374, 43.0899891592]}, "type": "Feature", "properties": {"collection_times": [{"days": "Mon-Fri", "time": "2:00pm"}, {"days": "Sat", "time": "10:00am"}, {"days": "Sun", "time": "Closed"}], "id": "5304500005", "name": "USPS COLLECTION BOX - BLUE BOX", "address": {"city": "BROOKFIELD", "state": "WI", "street": "17295 W CAPITOL DR", "postcode": "53045"}}},
{"geometry": {"type": "Point", "coordinates": [-88.1679413984, 43.0527371986]}, "type": "Feature", "properties": {"collection_times": [{"days": "Mon-Fri", "time": "2:00pm"}, {"days": "Sat", "time": "10:00am"}, {"days": "Sun", "time": "Closed"}], "id": "5304500028", "name": "USPS COLLECTION BOX - BLUE BOX", "address": {"city": "BROOKFIELD", "state": "WI", "street": "20520 ENTERPRISE AVE", "postcode": "53045"}}},
{"geometry": {"type": "Point", "coordinates": [-88.128460939, 43.057641553]}, "type": "Feature", "properties": {"collection_times": [{"days": "Mon-Fri", "time": "5:45pm"}, {"days": "Sat", "time": "4:00pm"}, {"days": "Sun", "time": "Closed"}], "id": "5304500042", "name": "USPS COLLECTION BOX - PO LOBBY", "address": {"city": "BROOKFIELD", "state": "WI", "street": "17345 CIVIC DR", "postcode": "53045"}}},
{"geometry": {"type": "Point", "coordinates": [-88.1281972784, 43.0576801839]}, "type": "Feature", "properties": {"collection_times": [{"days": "Mon-Fri", "time": "5:45pm"}, {"days": "Sat", "time": "4:00pm"}, {"days": "Sun", "time": "Closed"}], "id": "5304500046", "name": "USPS COLLECTION BOX - BLUE BOX", "address": {"city": "BROOKFIELD", "state": "WI", "street": "17345 CIVIC DR", "postcode": "53045"}}},
{"geometry": {"type": "Point", "coordinates": [-88.1538012554, 43.0903498455]}, "type": "Feature", "properties": {"collection_times": [{"days": "Mon-Fri", "time": "2:00pm"}, {"days": "Sat", "time": "10:00am"}, {"days": "Sun", "time": "Closed"}], "id": "5304500050", "name": "USPS COLLECTION BOX - BLUE BOX", "address": {"city": "BROOKFIELD", "state": "WI", "street": "19205 W CAPITOL DR", "postcode": "53045"}}},
{"geometry": {"type": "Point", "coordinates": [-88.1281972784, 43.0576801839]}, "type": "Feature", "properties": {"collection_times": [{"days": "Mon-Fri", "time": "5:45pm"}, {"days": "Sat", "time": "4:00pm"}, {"days": "Sun", "time": "Closed"}], "id": "5304500052", "name": "USPS COLLECTION BOX - BLUE BOX", "address": {"city": "BROOKFIELD", "state": "WI", "street": "17345 CIVIC DR", "postcode": "53045"}}},
{"geometry": {"type": "Point", "coordinates": [-88.1513891664, 43.0602989354]}, "type": "Feature", "properties": {"collection_times": [{"days": "Mon-Fri", "time": "2:00pm"}, {"days": "Sat", "time": "10:00am"}, {"days": "Sun", "time": "Closed"}], "id": "5304500053", "name": "USPS COLLECTION BOX - BLUE BOX", "address": {"city": "BROOKFIELD", "state": "WI", "street": "21900 GREEN BLVD", "postcode": "53045"}}},
{"geometry": {"type": "Point", "coordinates": [-88.1513891664, 43.0602989354]}, "type": "Feature", "properties": {"collection_times": [{"days": "Mon-Fri", "time": "2:00pm"}, {"days": "Sat", "time": "10:00am"}, {"days": "Sun", "time": "Closed"}], "id": "5304500054", "name": "USPS COLLECTION BOX - BLUE BOX", "address": {"city": "BROOKFIELD", "state": "WI", "street": "21900 GREEN BLVD", "postcode": "53045"}}},
{"geometry": {"type": "Point", "coordinates": [-88.1346586002, 43.0348064894]}, "type": "Feature", "properties": {"collection_times": [{"days": "Mon-Fri", "time": "2:00pm"}, {"days": "Sat", "time": "10:00am"}, {"days": "Sun", "time": "Closed"}], "id": "5304500059", "name": "USPS COLLECTION BOX - BLUE BOX", "address": {"city": "BROOKFIELD", "state": "WI", "street": "300 N PATRICK BLVD", "postcode": "53045"}}},
{"geometry": {"type": "Point", "coordinates": [-88.1651446357, 43.0310517776]}, "type": "Feature", "properties": {"collection_times": [{"days": "Mon-Fri", "time": "2:00pm"}, {"days": "Sat", "time": "10:00am"}, {"days": "Sun", "time": "Closed"}], "id": "5304500061", "name": "USPS COLLECTION BOX - BLUE BOX", "address": {"city": "BROOKFIELD", "state": "WI", "street": "20225 WATER TOWER BLVD", "postcode": "53045"}}},
{"geometry": {"type": "Point", "coordinates": [-88.1281972784, 43.0576801839]}, "type": "Feature", "properties": {"collection_times": [{"days": "Mon-Fri", "time": "5:45pm"}, {"days": "Sat", "time": "3:00pm"}, {"days": "Sun", "time": "Closed"}], "id": "5304500062", "name": "USPS COLLECTION BOX - APC", "address": {"city": "BROOKFIELD", "state": "WI", "street": "17345 CIVIC DR", "postcode": "53045"}}},
{"geometry": {"type": "Point", "coordinates": [-88.1346586002, 43.0348064894]}, "type": "Feature", "properties": {"collection_times": [{"days": "Mon-Fri", "time": "2:00pm"}, {"days": "Sat", "time": "10:00am"}, {"days": "Sun", "time": "Closed"}], "id": "5304500065", "name": "USPS COLLECTION BOX - BLUE BOX", "address": {"city": "BROOKFIELD", "state": "WI", "street": "300 N PATRICK BLVD", "postcode": "53045"}}},
{"geometry": {"type": "Point", "coordinates": [-88.164284105, 43.1483301153]}, "type": "Feature", "properties": {"collection_times": [{"days": "Mon-Fri", "time": "4:30pm"}, {"days": "Sat", "time": "10:00am"}, {"days": "Sun", "time": "Closed"}], "id": "5304600002", "name": "USPS COLLECTION BOX - BLUE BOX", "address": {"city": "LANNON", "state": "WI", "street": "20414 W GOOD HOPE RD", "postcode": "53046"}}},
{"geometry": {"type": "Point", "coordinates": [-88.164284105, 43.1483301153]}, "type": "Feature", "properties": {"collection_times": [{"days": "Mon-Fri", "time": "2:15pm"}, {"days": "Sat", "time": "10:00am"}, {"days": "Sun", "time": "Closed"}], "id": "5304600003", "name": "USPS COLLECTION BOX - PO LOBBY", "address": {"city": "LANNON", "state": "WI", "street": "20414 W GOOD HOPE RD", "postcode": "53046"}}},
{"geometry": {"type": "Point", "coordinates": [-88.164179429, 43.1483106759]}, "type": "Feature", "properties": {"collection_times": [{"days": "Mon-Fri", "time": "2:15pm"}, {"days": "Sat", "time": "10:00am"}, {"days": "Sun", "time": "Closed"}], "id": "5304600004", "name": "USPS COLLECTION BOX - PO LOBBY", "address": {"city": "LANNON", "state": "WI", "street": "20414 W GOOD HOPE RD", "postcode": "53046"}}},
{"geometry": {"type": "Point", "coordinates": [-88.721543088, 43.1916391435]}, "type": "Feature", "properties": {"collection_times": [{"days": "Mon-Fri", "time": "4:30pm"}, {"days": "Sat", "time": "9:30am"}, {"days": "Sun", "time": "Closed"}], "id": "5304700001", "name": "USPS COLLECTION BOX - BLUE BOX", "address": {"city": "LEBANON", "state": "WI", "street": "N1798 COUNTY ROAD R", "postcode": "53047"}}},
{"geometry": {"type": "Point", "coordinates": [-88.721543088, 43.1916391435]}, "type": "Feature", "properties": {"collection_times": [{"days": "Mon-Fri", "time": "4:30pm"}, {"days": "Sat", "time": "9:30am"}, {"days": "Sun", "time": "Closed"}], "id": "5304700002", "name": "USPS COLLECTION BOX - PO LOBBY", "address": {"city": "LEBANON", "state": "WI", "street": "N1798 COUNTY ROAD R", "postcode": "53047"}}},
{"geometry": {"type": "Point", "coordinates": [-88.4415796696, 43.5921055555]}, "type": "Feature", "properties": {"collection_times": [{"days": "Mon-Fri", "time": "4:00pm"}, {"days": "Sat", "time": "9:30am"}, {"days": "Sun", "time": "Closed"}], "id": "5304800000", "name": "USPS COLLECTION BOX - BLUE BOX", "address": {"city": "LOMIRA", "state": "WI", "street": "827 RAILROAD AVE", "postcode": "53048"}}},
{"geometry": {"type": "Point", "coordinates": [-88.4415796696, 43.5921055555]}, "type": "Feature", "properties": {"collection_times": [{"days": "Mon-Fri", "time": "4:30pm"}, {"days": "Sat", "time": "10:00am"}, {"days": "Sun", "time": "Closed"}], "id": "5304800004", "name": "USPS COLLECTION BOX - PO LOBBY", "address": {"city": "LOMIRA", "state": "WI", "street": "827 RAILROAD AVE", "postcode": "53048"}}},
{"geometry": {"type": "Point", "coordinates": [-88.4482348321, 43.6250034097]}, "type": "Feature", "properties": {"collection_times": [{"days": "Mon-Sat", "time": "10:00am"}, {"days": "Sun", "time": "Closed"}], "id": "5304800005", "name": "USPS COLLECTION BOX - BLUE BOX", "address": {"city": "LOMIRA", "state": "WI", "street": "4000 LITHOSTONE DR", "postcode": "53048"}}},
{"geometry": {"type": "Point", "coordinates": [-88.2821629365, 43.8563774053]}, "type": "Feature", "properties": {"collection_times": [{"days": "Mon-Fri", "time": "2:00pm"}, {"days": "Sat", "time": "9:30am"}, {"days": "Sun", "time": "Closed"}], "id": "5304900002", "name": "USPS COLLECTION BOX - PO LOBBY", "address": {"city": "MALONE", "state": "WI", "street": "N8722 COUNTY RD W", "postcode": "53049"}}},
{"geometry": {"type": "Point", "coordinates": [-88.2821629365, 43.8563774053]}, "type": "Feature", "properties": {"collection_times": [{"days": "Mon-Fri", "time": "2:00pm"}, {"days": "Sat", "time": "9:30am"}, {"days": "Sun", "time": "Closed"}], "id": "5304900003", "name": "USPS COLLECTION BOX - PO LOBBY", "address": {"city": "MALONE", "state": "WI", "street": "N8722 COUNTY RD W", "postcode": "53049"}}},
{"geometry": {"type": "Point", "coordinates": [-88.2821629365, 43.8563774053]}, "type": "Feature", "properties": {"collection_times": [{"days": "Mon-Fri", "time": "4:30pm"}, {"days": "Sat", "time": "10:15am"}, {"days": "Sun", "time": "Closed"}], "id": "5304900004", "name": "USPS COLLECTION BOX - BLUE BOX", "address": {"city": "MALONE", "state": "WI", "street": "N8722 COUNTY RD W", "postcode": "53049"}}},
{"geometry": {"type": "Point", "coordinates": [-88.5455428353, 43.4958552823]}, "type": "Feature", "properties": {"collection_times": [{"days": "Mon-Fri", "time": "4:45pm"}, {"days": "Sat", "time": "2:30pm"}, {"days": "Sun", "time": "Closed"}], "id": "5305000000", "name": "USPS COLLECTION BOX - BLUE BOX", "address": {"city": "MAYVILLE", "state": "WI", "street": "7 N SCHOOL ST", "postcode": "53050"}}},
{"geometry": {"type": "Point", "coordinates": [-88.5454481986, 43.4935118406]}, "type": "Feature", "properties": {"collection_times": [{"days": "Mon-Sat", "time": "10:00am"}, {"days": "Sun", "time": "Closed"}], "id": "5305000010", "name": "USPS COLLECTION BOX - BLUE BOX", "address": {"city": "MAYVILLE", "state": "WI", "street": "210 S SCHOOL ST", "postcode": "53050"}}},
{"geometry": {"type": "Point", "coordinates": [-88.5455428353, 43.4958552823]}, "type": "Feature", "properties": {"collection_times": [{"days": "Mon-Fri", "time": "4:45pm"}, {"days": "Sat", "time": "11:00am"}, {"days": "Sun", "time": "Closed"}], "id": "5305000015", "name": "USPS COLLECTION BOX - PO LOBBY", "address": {"city": "MAYVILLE", "state": "WI", "street": "7 N SCHOOL ST", "postcode": "53050"}}},
{"geometry": {"type": "Point", "coordinates": [-88.5455428353, 43.4958552823]}, "type": "Feature", "properties": {"collection_times": [{"days": "Mon-Fri", "time": "4:45pm"}, {"days": "Sat", "time": "11:00am"}, {"days": "Sun", "time": "Closed"}], "id": "5305000016", "name": "USPS COLLECTION BOX - PO LOBBY", "address": {"city": "MAYVILLE", "state": "WI", "street": "7 N SCHOOL ST", "postcode": "53050"}}},
{"geometry": {"type": "Point", "coordinates": [-88.5568436423, 43.4940264277]}, "type": "Feature", "properties": {"collection_times": [{"days": "Mon-Sat", "time": "11:00am"}, {"days": "Sun", "time": "Closed"}], "id": "5305000018", "name": "USPS COLLECTION BOX - BLUE BOX", "address": {"city": "MAYVILLE", "state": "WI", "street": "1020 HORICON ST", "postcode": "53050"}}},
{"geometry": {"type": "Point", "coordinates": [-88.5455132496, 43.4954379167]}, "type": "Feature", "properties": {"collection_times": [{"days": "Mon-Sat", "time": "2:30pm"}, {"days": "Sun", "time": "Closed"}], "id": "5305000020", "name": "USPS COLLECTION BOX - BLUE BOX", "address": {"city": "MAYVILLE", "state": "WI", "street": "15 S SCHOOL ST", "postcode": "53050"}}},
{"geometry": {"type": "Point", "coordinates": [-88.1032534056, 43.1791239342]}, "type": "Feature", "properties": {"collection_times": [{"days": "Mon-Sat", "time": "10:00am"}, {"days": "Sun", "time": "Closed"}], "id": "5305100002", "name": "USPS COLLECTION BOX - BLUE BOX", "address": {"city": "MENOMONEE FALLS", "state": "WI", "street": "N88W15567 MAIN ST", "postcode": "53051"}}},
{"geometry": {"type": "Point", "coordinates": [-88.0999949713, 43.1670639941]}, "type": "Feature", "properties": {"collection_times": [{"days": "Mon-Sat", "time": "10:00am"}, {"days": "Sun", "time": "Closed"}], "id": "5305100004", "name": "USPS COLLECTION BOX - BLUE BOX", "address": {"city": "MENOMONEE FALLS", "state": "WI", "street": "N81W15182 APPLETON AVE", "postcode": "53051"}}},
{"geometry": {"type": "Point", "coordinates": [-88.0948964207, 43.163025358]}, "type": "Feature", "properties": {"collection_times": [{"days": "Mon-Sat", "time": "10:00am"}, {"days": "Sun", "time": "Closed"}], "id": "5305100005", "name": "USPS COLLECTION BOX - BLUE BOX", "address": {"city": "MENOMONEE FALLS", "state": "WI", "street": "N78W14501 APPLETON AVE", "postcode": "53051"}}},
{"geometry": {"type": "Point", "coordinates": [-88.08482338, 43.1095344536]}, "type": "Feature", "properties": {"collection_times": [{"days": "Mon-Fri", "time": "3:00pm"}, {"days": "Sat", "time": "10:00am"}, {"days": "Sun", "time": "Closed"}], "id": "5305100006", "name": "USPS COLLECTION BOX - BLUE BOX", "address": {"city": "MENOMONEE FALLS", "state": "WI", "street": "N50W13906 OVERVIEW DR", "postcode": "53051"}}},
{"geometry": {"type": "Point", "coordinates": [-88.0850640949, 43.1895403922]}, "type": "Feature", "properties": {"collection_times": [{"days": "Mon-Fri", "time": "3:00pm"}, {"days": "Sat", "time": "10:00am"}, {"days": "Sun", "time": "Closed"}], "id": "5305100010", "name": "USPS COLLECTION BOX - BLUE BOX", "address": {"city": "MENOMONEE FALLS", "state": "WI", "street": "W141N9580 FOUNTAIN BLVD", "postcode": "53051"}}},
{"geometry": {"type": "Point", "coordinates": [-88.0850640949, 43.1895403922]}, "type": "Feature", "properties": {"collection_times": [{"days": "Mon-Fri", "time": "3:00pm"}, {"days": "Sat", "time": "10:00am"}, {"days": "Sun", "time": "Closed"}], "id": "5305100011", "name": "USPS COLLECTION BOX - BLUE BOX", "address": {"city": "MENOMONEE FALLS", "state": "WI", "street": "W141N9580 FOUNTAIN BLVD", "postcode": "53051"}}},
{"geometry": {"type": "Point", "coordinates": [-88.1250359109, 43.1840303402]}, "type": "Feature", "properties": {"collection_times": [{"days": "Mon-Fri", "time": "3:00pm"}, {"days": "Sat", "time": "10:00am"}, {"days": "Sun", "time": "Closed"}], "id": "5305100012", "name": "USPS COLLECTION BOX - BLUE BOX", "address": {"city": "MENOMONEE FALLS", "state": "WI", "street": "W173N9170 SAINT FRANCIS DR", "postcode": "53051"}}},
{"geometry": {"type": "Point", "coordinates": [-88.1250359109, 43.1840303402]}, "type": "Feature", "properties": {"collection_times": [{"days": "Mon-Fri", "time": "3:00pm"}, {"days": "Sat", "time": "10:00am"}, {"days": "Sun", "time": "Closed"}], "id": "5305100013", "name": "USPS COLLECTION BOX - BLUE BOX", "address": {"city": "MENOMONEE FALLS", "state": "WI", "street": "W173N9170 SAINT FRANCIS DR", "postcode": "53051"}}},
{"geometry": {"type": "Point", "coordinates": [-88.1250359109, 43.1840303402]}, "type": "Feature", "properties": {"collection_times": [{"days": "Mon-Fri", "time": "5:30pm"}, {"days": "Sat", "time": "3:00pm"}, {"days": "Sun", "time": "Closed"}], "id": "5305100014", "name": "USPS COLLECTION BOX - BLUE BOX", "address": {"city": "MENOMONEE FALLS", "state": "WI", "street": "N85W16110 APPLETON AVE", "postcode": "53051"}}},
{"geometry": {"type": "Point", "coordinates": [-88.0869222722, 43.1799800611]}, "type": "Feature", "properties": {"collection_times": [{"days": "Mon-Fri", "time": "3:00pm"}, {"days": "Sat", "time": "10:00am"}, {"days": "Sun", "time": "Closed"}], "id": "5305100018", "name": "USPS COLLECTION BOX - BLUE BOX", "address": {"city": "MENOMONEE FALLS", "state": "WI", "street": "N89W14261 PATRITA DR", "postcode": "53051"}}},
{"geometry": {"type": "Point", "coordinates": [-88.0869222722, 43.1799800611]}, "type": "Feature", "properties": {"collection_times": [{"days": "Mon-Fri", "time": "3:00pm"}, {"days": "Sat", "time": "10:00am"}, {"days": "Sun", "time": "Closed"}], "id": "5305100019", "name": "USPS COLLECTION BOX - BLUE BOX", "address": {"city": "MENOMONEE FALLS", "state": "WI", "street": "N89W14261 PATRITA DR", "postcode": "53051"}}},
{"geometry": {"type": "Point", "coordinates": [-88.0640568248, 43.1920708899]}, "type": "Feature", "properties": {"collection_times": [{"days": "Mon-Sat", "time": "10:00am"}, {"days": "Sun", "time": "Closed"}], "id": "5305100021", "name": "USPS COLLECTION BOX - BLUE BOX", "address": {"city": "MENOMONEE FALLS", "state": "WI", "street": "N95W18345 COUNTY LINE RD", "postcode": "53051"}}},
{"geometry": {"type": "Point", "coordinates": [-88.1104225812, 43.173252802]}, "type": "Feature", "properties": {"collection_times": [{"days": "Mon-Fri", "time": "5:30pm"}, {"days": "Sat", "time": "3:00pm"}, {"days": "Sun", "time": "Closed"}], "id": "5305100022", "name": "USPS COLLECTION BOX - BLUE BOX", "address": {"city": "MENOMONEE FALLS", "state": "WI", "street": "N85W16110 APPLETON AVE", "postcode": "53051"}}},
{"geometry": {"type": "Point", "coordinates": [-88.093545144, 43.12135172]}, "type": "Feature", "properties": {"collection_times": [{"days": "Mon-Fri", "time": "12:00pm"}, {"days": "Sat", "time": "10:00am"}, {"days": "Sun", "time": "Closed"}], "id": "5305100025", "name": "USPS COLLECTION BOX - BLUE BOX", "address": {"city": "MENOMONEE FALLS", "state": "WI", "street": "W146N5700 ENTERPRISE AVE", "postcode": "53051"}}},
{"geometry": {"type": "Point", "coordinates": [-88.1104225812, 43.173252802]}, "type": "Feature", "properties": {"collection_times": [{"days": "Mon-Fri", "time": "5:30pm"}, {"days": "Sat", "time": "3:00pm"}, {"days": "Sun", "time": "Closed"}], "id": "5305100027", "name": "USPS COLLECTION BOX - BLUE BOX", "address": {"city": "MENOMONEE FALLS", "state": "WI", "street": "N85W16110 APPLETON AVE", "postcode": "53051"}}},
{"geometry": {"type": "Point", "coordinates": [-88.1104225812, 43.173252802]}, "type": "Feature", "properties": {"collection_times": [{"days": "Mon-Fri", "time": "5:30pm"}, {"days": "Sat", "time": "3:00pm"}, {"days": "Sun", "time": "Closed"}], "id": "5305100028", "name": "USPS COLLECTION BOX - BLUE BOX", "address": {"city": "MENOMONEE FALLS", "state": "WI", "street": "N85W16110 APPLETON AVE", "postcode": "53051"}}},
{"geometry": {"type": "Point", "coordinates": [-88.0793280606, 43.1193336392]}, "type": "Feature", "properties": {"collection_times": [{"days": "Mon-Fri", "time": "3:00pm"}, {"days": "Sat", "time": "10:00am"}, {"days": "Sun", "time": "Closed"}], "id": "5305100032", "name": "USPS COLLECTION BOX - BLUE BOX", "address": {"city": "MENOMONEE FALLS", "state": "WI", "street": "N56W13500 SILVER SPRING RD", "postcode": "53051"}}},
{"geometry": {"type": "Point", "coordinates": [-88.1035767599, 43.1855259888]}, "type": "Feature", "properties": {"collection_times": [{"days": "Mon-Fri", "time": "1:00pm"}, {"days": "Sat", "time": "10:00am"}, {"days": "Sun", "time": "Closed"}], "id": "5305100036", "name": "USPS COLLECTION BOX - BLUE BOX", "address": {"city": "MENOMONEE FALLS", "state": "WI", "street": "W156N9251 TIPP ST", "postcode": "53051"}}},
{"geometry": {"type": "Point", "coordinates": [-88.125733612, 43.183451372]}, "type": "Feature", "properties": {"collection_times": [{"days": "Mon-Fri", "time": "5:30pm"}, {"days": "Sat", "time": "12:00pm"}, {"days": "Sun", "time": "Closed"}], "id": "5305100037", "name": "USPS COLLECTION BOX - PO LOBBY", "address": {"city": "MENOMONEE FALLS", "state": "WI", "street": "N85W16110 APPLETON AVE", "postcode": "53051"}}},
{"geometry": {"type": "Point", "coordinates": [-88.1148190521, 43.1193204507]}, "type": "Feature", "properties": {"collection_times": [{"days": "Mon-Fri", "time": "3:00pm"}, {"days": "Sat", "time": "10:00am"}, {"days": "Sun", "time": "Closed"}], "id": "5305100039", "name": "USPS COLLECTION BOX - BLUE BOX", "address": {"city": "MENOMONEE FALLS", "state": "WI", "street": "N56W16500 SILVER SPRING DR", "postcode": "53051"}}},
{"geometry": {"type": "Point", "coordinates": [-88.1049047298, 43.1699008917]}, "type": "Feature", "properties": {"collection_times": [{"days": "Mon-Sat", "time": "10:00am"}, {"days": "Sun", "time": "Closed"}], "id": "5305100040", "name": "USPS COLLECTION BOX - BLUE BOX", "address": {"city": "MENOMONEE FALLS", "state": "WI", "street": "N83W15701 APPLETON AVE", "postcode": "53051"}}},
{"geometry": {"type": "Point", "coordinates": [-88.0689943136, 43.1549860828]}, "type": "Feature", "properties": {"collection_times": [{"days": "Mon-Fri", "time": "3:00pm"}, {"days": "Sat", "time": "10:00am"}, {"days": "Sun", "time": "Closed"}], "id": "5305100041", "name": "USPS COLLECTION BOX - BLUE BOX", "address": {"city": "MENOMONEE FALLS", "state": "WI", "street": ". W126N7338 FLINT DR", "postcode": "53051"}}},
{"geometry": {"type": "Point", "coordinates": [-88.1148190521, 43.1193204507]}, "type": "Feature", "properties": {"collection_times": [{"days": "Mon-Fri", "time": "3:00pm"}, {"days": "Sat", "time": "10:00am"}, {"days": "Sun", "time": "Closed"}], "id": "5305100043", "name": "USPS COLLECTION BOX - BLUE BOX", "address": {"city": "MENOMONEE FALLS", "state": "WI", "street": "N56W16500 SILVER SPRING DR", "postcode": "53051"}}},
{"geometry": {"type": "Point", "coordinates": [-88.1059275232, 43.1190974962]}, "type": "Feature", "properties": {"collection_times": [{"days": "Mon-Fri", "time": "1:00pm"}, {"days": "Sat", "time": "10:00am"}, {"days": "Sun", "time": "Closed"}], "id": "5305100045", "name": "USPS COLLECTION BOX - BLUE BOX", "address": {"city": "MENOMONEE FALLS", "state": "WI", "street": "N56W15501 SILVER SPRING DR", "postcode": "53051"}}},
{"geometry": {"type": "Point", "coordinates": [-88.1250359109, 43.1840303402]}, "type": "Feature", "properties": {"collection_times": [{"days": "Mon-Fri", "time": "5:30pm"}, {"days": "Sat", "time": "12:00pm"}, {"days": "Sun", "time": "Closed"}], "id": "5305100046", "name": "USPS COLLECTION BOX - APC", "address": {"city": "MENOMONEE FALLS", "state": "WI", "street": "N85W16110 APPLETON AVE", "postcode": "53051"}}},
{"geometry": {"type": "Point", "coordinates": [-88.3075107068, 43.1485836745]}, "type": "Feature", "properties": {"collection_times": [{"days": "Mon-Fri", "time": "4:30pm"}, {"days": "Sat", "time": "10:00am"}, {"days": "Sun", "time": "Closed"}], "id": "5305600001", "name": "USPS COLLECTION BOX - BLUE BOX", "address": {"city": "MERTON", "state": "WI", "street": "7105 MAIN ST", "postcode": "53056"}}},
{"geometry": {"type": "Point", "coordinates": [-88.3075107068, 43.1485836745]}, "type": "Feature", "properties": {"collection_times": [{"days": "Mon-Fri", "time": "4:30pm"}, {"days": "Sat", "time": "10:15am"}, {"days": "Sun", "time": "Closed"}], "id": "5305600002", "name": "USPS COLLECTION BOX - PO LOBBY", "address": {"city": "MERTON", "state": "WI", "street": "7105 MAIN ST", "postcode": "53056"}}},
{"geometry": {"type": "Point", "coordinates": [-88.3075107068, 43.1485836745]}, "type": "Feature", "properties": {"collection_times": [{"days": "Mon-Fri", "time": "4:30pm"}, {"days": "Sat", "time": "10:15am"}, {"days": "Sun", "time": "Closed"}], "id": "5305600003", "name": "USPS COLLECTION BOX - PO LOBBY", "address": {"city": "MERTON", "state": "WI", "street": "7105 MAIN ST", "postcode": "53056"}}},
{"geometry": {"type": "Point", "coordinates": [-88.2448722954, 43.8272286189]}, "type": "Feature", "properties": {"collection_times": [{"days": "Mon-Fri", "time": "4:30pm"}, {"days": "Sat", "time": "10:00am"}, {"days": "Sun", "time": "Closed"}], "id": "5305700001", "name": "USPS COLLECTION BOX - BLUE BOX", "address": {"city": "MOUNT  CALVARY", "state": "WI", "street": "616 MOUNT CARMEL ST", "postcode": "53057"}}},
{"geometry": {"type": "Point", "coordinates": [-88.2448722954, 43.8272286189]}, "type": "Feature", "properties": {"collection_times": [{"days": "Mon-Fri", "time": "4:30pm"}, {"days": "Sat", "time": "10:00am"}, {"days": "Sun", "time": "Closed"}], "id": "5305700002", "name": "USPS COLLECTION BOX - PO LOBBY", "address": {"city": "MOUNT  CALVARY", "state": "WI", "street": "616 MOUNT CARMEL ST", "postcode": "53057"}}},
{"geometry": {"type": "Point", "coordinates": [-88.2448722954, 43.8272286189]}, "type": "Feature", "properties": {"collection_times": [{"days": "Mon-Fri", "time": "4:30pm"}, {"days": "Sat", "time": "10:00am"}, {"days": "Sun", "time": "Closed"}], "id": "5305700003", "name": "USPS COLLECTION BOX - PO LOBBY", "address": {"city": "MOUNT  CALVARY", "state": "WI", "street": "616 MOUNT CARMEL ST", "postcode": "53057"}}},
{"geometry": {"type": "Point", "coordinates": [-88.4047648616, 43.108227697]}, "type": "Feature", "properties": {"collection_times": [{"days": "Mon-Fri", "time": "4:45pm"}, {"days": "Sat", "time": "11:15am"}, {"days": "Sun", "time": "Closed"}], "id": "5305800002", "name": "USPS COLLECTION BOX - BLUE BOX", "address": {"city": "NASHOTAH", "state": "WI", "street": "W330 N4361 LAKELAND DR", "postcode": "53058"}}},
{"geometry": {"type": "Point", "coordinates": [-88.4047648616, 43.108227697]}, "type": "Feature", "properties": {"collection_times": [{"days": "Mon-Fri", "time": "4:45pm"}, {"days": "Sat", "time": "11:15am"}, {"days": "Sun", "time": "Closed"}], "id": "5305800003", "name": "USPS COLLECTION BOX - PO LOBBY", "address": {"city": "NASHOTAH", "state": "WI", "street": "W330 N4361 LAKELAND DR", "postcode": "53058"}}},
{"geometry": {"type": "Point", "coordinates": [-88.403067906, 43.097660828]}, "type": "Feature", "properties": {"collection_times": [{"days": "Mon-Fri", "time": "4:45pm"}, {"days": "Sat", "time": "11:15am"}, {"days": "Sun", "time": "Closed"}], "id": "5305800004", "name": "USPS COLLECTION BOX - PO LOBBY", "address": {"city": "NASHOTAH", "state": "WI", "street": "W330N4361 LAKELAND DR", "postcode": "53058"}}},
{"geometry": {"type": "Point", "coordinates": [-88.5168134939, 43.3102667651]}, "type": "Feature", "properties": {"collection_times": [{"days": "Mon-Fri", "time": "3:45pm"}, {"days": "Sat", "time": "9:45am"}, {"days": "Sun", "time": "Closed"}], "id": "5305900001", "name": "USPS COLLECTION BOX - BLUE BOX", "address": {"city": "NEOSHO", "state": "WI", "street": "211 RUBICON ST", "postcode": "53059"}}},
{"geometry": {"type": "Point", "coordinates": [-88.516783195, 43.310259509]}, "type": "Feature", "properties": {"collection_times": [{"days": "Mon-Fri", "time": "3:30pm"}, {"days": "Sat", "time": "9:30am"}, {"days": "Sun", "time": "Closed"}], "id": "5305900002", "name": "USPS COLLECTION BOX - PO LOBBY", "address": {"city": "NEOSHO", "state": "WI", "street": "211 RUBICON ST", "postcode": "53059"}}},
{"geometry": {"type": "Point", "coordinates": [-88.516783195, 43.310259509]}, "type": "Feature", "properties": {"collection_times": [{"days": "Mon-Fri", "time": "3:30pm"}, {"days": "Sat", "time": "9:30am"}, {"days": "Sun", "time": "Closed"}], "id": "5305900003", "name": "USPS COLLECTION BOX - PO LOBBY", "address": {"city": "NEOSHO", "state": "WI", "street": "211 RUBICON ST", "postcode": "53059"}}},
{"geometry": {"type": "Point", "coordinates": [-88.0449358946, 43.4320358291]}, "type": "Feature", "properties": {"collection_times": [{"days": "Mon-Fri", "time": "3:30pm"}, {"days": "Sat", "time": "9:30am"}, {"days": "Sun", "time": "Closed"}], "id": "5306000001", "name": "USPS COLLECTION BOX - BLUE BOX", "address": {"city": "NEWBURG", "state": "WI", "street": "440 MAIN ST", "postcode": "53060"}}},
{"geometry": {"type": "Point", "coordinates": [-88.0449358946, 43.4320358291]}, "type": "Feature", "properties": {"collection_times": [{"days": "Mon-Fri", "time": "3:45pm"}, {"days": "Sat", "time": "9:45am"}, {"days": "Sun", "time": "Closed"}], "id": "5306000002", "name": "USPS COLLECTION BOX - PO LOBBY", "address": {"city": "NEWBURG", "state": "WI", "street": "440 MAIN ST", "postcode": "53060"}}},
{"geometry": {"type": "Point", "coordinates": [-88.0882936545, 43.9497905122]}, "type": "Feature", "properties": {"collection_times": [{"days": "Mon-Fri", "time": "4:15pm"}, {"days": "Sat", "time": "11:30am"}, {"days": "Sun", "time": "Closed"}], "id": "5306100001", "name": "USPS COLLECTION BOX - BLUE BOX", "address": {"city": "NEW HOLSTEIN", "state": "WI", "street": "1816 WISCONSIN AVE", "postcode": "53061"}}},
{"geometry": {"type": "Point", "coordinates": [-88.1035983513, 43.9534446388]}, "type": "Feature", "properties": {"collection_times": [{"days": "Mon-Fri", "time": "1:00pm"}, {"days": "Sat", "time": "9:00am"}, {"days": "Sun", "time": "Closed"}], "id": "5306100002", "name": "USPS COLLECTION BOX - BLUE BOX", "address": {"city": "NEW HOLSTEIN", "state": "WI", "street": "2243 CALUMET DR", "postcode": "53061"}}},
{"geometry": {"type": "Point", "coordinates": [-88.0882936545, 43.9497905122]}, "type": "Feature", "properties": {"collection_times": [{"days": "Mon-Fri", "time": "4:15pm"}, {"days": "Sat", "time": "11:30am"}, {"days": "Sun", "time": "Closed"}], "id": "5306100014", "name": "USPS COLLECTION BOX - PO LOBBY", "address": {"city": "NEW HOLSTEIN", "state": "WI", "street": "1816 WISCONSIN AVE", "postcode": "53061"}}},
{"geometry": {"type": "Point", "coordinates": [-88.0826791309, 43.9481958976]}, "type": "Feature", "properties": {"collection_times": [{"days": "Mon-Fri", "time": "11:00am"}, {"days": "Sat", "time": "9:00am"}, {"days": "Sun", "time": "Closed"}], "id": "5306100015", "name": "USPS COLLECTION BOX - BLUE BOX", "address": {"city": "NEW HOLSTEIN", "state": "WI", "street": "1411 MILWAUKEE DR", "postcode": "53061"}}},
{"geometry": {"type": "Point", "coordinates": [-87.7252466093, 43.9937957915]}, "type": "Feature", "properties": {"collection_times": [{"days": "Mon-Fri", "time": "4:00pm"}, {"days": "Sat", "time": "10:30am"}, {"days": "Sun", "time": "Closed"}], "id": "5306300001", "name": "USPS COLLECTION BOX - BLUE BOX", "address": {"city": "NEWTON", "state": "WI", "street": "5627 COUNTY ROAD U", "postcode": "53063"}}},
{"geometry": {"type": "Point", "coordinates": [-87.7252466093, 43.9937957915]}, "type": "Feature", "properties": {"collection_times": [{"days": "Mon-Fri", "time": "3:30pm"}, {"days": "Sat", "time": "9:30am"}, {"days": "Sun", "time": "Closed"}], "id": "5306300002", "name": "USPS COLLECTION BOX - PO LOBBY", "address": {"city": "NEWTON", "state": "WI", "street": "5627 COUNTY ROAD U", "postcode": "53063"}}},
{"geometry": {"type": "Point", "coordinates": [-88.3704656907, 43.1580475235]}, "type": "Feature", "properties": {"collection_times": [{"days": "Mon-Fri", "time": "4:30pm"}, {"days": "Sat", "time": "10:45am"}, {"days": "Sun", "time": "Closed"}], "id": "5306400002", "name": "USPS COLLECTION BOX - BLUE BOX", "address": {"city": "NORTH LAKE", "state": "WI", "street": "W315 N7755 STATE ROAD 83", "postcode": "53064"}}},
{"geometry": {"type": "Point", "coordinates": [-88.3704656907, 43.1580475235]}, "type": "Feature", "properties": {"collection_times": [{"days": "Mon-Fri", "time": "4:30pm"}, {"days": "Sat", "time": "10:45am"}, {"days": "Sun", "time": "Closed"}], "id": "5306400003", "name": "USPS COLLECTION BOX - PO LOBBY", "address": {"city": "NORTH LAKE", "state": "WI", "street": "W315 N7755 STATE ROAD 83", "postcode": "53064"}}},
{"geometry": {"type": "Point", "coordinates": [-88.5485629295, 43.6844840041]}, "type": "Feature", "properties": {"collection_times": [{"days": "Mon-Fri", "time": "4:30pm"}, {"days": "Sat", "time": "10:15am"}, {"days": "Sun", "time": "Closed"}], "id": "5306500001", "name": "USPS COLLECTION BOX - BLUE BOX", "address": {"city": "OAKFIELD", "state": "WI", "street": "120 BOOTH ST", "postcode": "53065"}}},
{"geometry": {"type": "Point", "coordinates": [-88.5485629295, 43.6844840041]}, "type": "Feature", "properties": {"collection_times": [{"days": "Mon-Fri", "time": "4:45pm"}, {"days": "Sat", "time": "10:15am"}, {"days": "Sun", "time": "Closed"}], "id": "5306500002", "name": "USPS COLLECTION BOX - PO LOBBY", "address": {"city": "OAKFIELD", "state": "WI", "street": "120 BOOTH ST", "postcode": "53065"}}},
{"geometry": {"type": "Point", "coordinates": [-88.5485629295, 43.6844840041]}, "type": "Feature", "properties": {"collection_times": [{"days": "Mon-Fri", "time": "4:45pm"}, {"days": "Sat", "time": "10:15am"}, {"days": "Sun", "time": "Closed"}], "id": "5306500003", "name": "USPS COLLECTION BOX - PO LOBBY", "address": {"city": "OAKFIELD", "state": "WI", "street": "120 BOOTH ST", "postcode": "53065"}}},
{"geometry": {"type": "Point", "coordinates": [-88.5001501038, 43.1103531797]}, "type": "Feature", "properties": {"collection_times": [{"days": "Mon-Fri", "time": "5:00pm"}, {"days": "Sat", "time": "4:30pm"}, {"days": "Sun", "time": "Closed"}], "id": "5306600000", "name": "USPS COLLECTION BOX - BLUE BOX", "address": {"city": "OCONOMOWOC", "state": "WI", "street": "140 W SOUTH ST", "postcode": "53066"}}},
{"geometry": {"type": "Point", "coordinates": [-88.4994098016, 43.1106329761]}, "type": "Feature", "properties": {"collection_times": [{"days": "Mon-Fri", "time": "5:00pm"}, {"days": "Sat", "time": "4:30pm"}, {"days": "Sun", "time": "Closed"}], "id": "5306600001", "name": "USPS COLLECTION BOX - BLUE BOX", "address": {"city": "OCONOMOWOC", "state": "WI", "street": "38 S MAIN ST", "postcode": "53066"}}},
{"geometry": {"type": "Point", "coordinates": [-88.5001501038, 43.1103531797]}, "type": "Feature", "properties": {"collection_times": [{"days": "Mon-Fri", "time": "5:00pm"}, {"days": "Sat", "time": "4:30pm"}, {"days": "Sun", "time": "Closed"}], "id": "5306600003", "name": "USPS COLLECTION BOX - BLUE BOX", "address": {"city": "OCONOMOWOC", "state": "WI", "street": "140 W SOUTH ST", "postcode": "53066"}}},
{"geometry": {"type": "Point", "coordinates": [-88.5001501038, 43.1103531797]}, "type": "Feature", "properties": {"collection_times": [{"days": "Mon-Fri", "time": "5:00pm"}, {"days": "Sat", "time": "4:30pm"}, {"days": "Sun", "time": "Closed"}], "id": "5306600004", "name": "USPS COLLECTION BOX - BLUE BOX", "address": {"city": "OCONOMOWOC", "state": "WI", "street": "140 W SOUTH ST", "postcode": "53066"}}},
{"geometry": {"type": "Point", "coordinates": [-88.4972757436, 43.1105655474]}, "type": "Feature", "properties": {"collection_times": [{"days": "Mon-Sat", "time": "3:00pm"}, {"days": "Sun", "time": "Closed"}], "id": "5306600006", "name": "USPS COLLECTION BOX - BLUE BOX", "address": {"city": "OCONOMOWOC", "state": "WI", "street": "174 E WISCONSIN AVE", "postcode": "53066"}}},
{"geometry": {"type": "Point", "coordinates": [-88.4894081288, 43.117380394]}, "type": "Feature", "properties": {"collection_times": [{"days": "Mon-Sat", "time": "10:00am"}, {"days": "Sun", "time": "Closed"}], "id": "5306600007", "name": "USPS COLLECTION BOX - BLUE BOX", "address": {"city": "OCONOMOWOC", "state": "WI", "street": "36903 E WISCONSIN AVE", "postcode": "53066"}}},
{"geometry": {"type": "Point", "coordinates": [-88.4894081288, 43.117380394]}, "type": "Feature", "properties": {"collection_times": [{"days": "Mon-Sat", "time": "1:00pm"}, {"days": "Sun", "time": "Closed"}], "id": "5306600008", "name": "USPS COLLECTION BOX - BLUE BOX", "address": {"city": "OCONOMOWOC", "state": "WI", "street": "1300 BROWN ST", "postcode": "53066"}}},
{"geometry": {"type": "Point", "coordinates": [-88.4725032003, 43.073752303]}, "type": "Feature", "properties": {"collection_times": [{"days": "Mon-Fri", "time": "3:00pm"}, {"days": "Sat", "time": "1:00pm"}, {"days": "Sun", "time": "Closed"}], "id": "5306600011", "name": "USPS COLLECTION BOX - BLUE BOX", "address": {"city": "OCONOMOWOC", "state": "WI", "street": "1227 CORPORATE CENTER DR", "postcode": "53066"}}},
{"geometry": {"type": "Point", "coordinates": [-88.4803164098, 43.0952948691]}, "type": "Feature", "properties": {"collection_times": [{"days": "Mon-Sat", "time": "10:00am"}, {"days": "Sun", "time": "Closed"}], "id": "5306600012", "name": "USPS COLLECTION BOX - BLUE BOX", "address": {"city": "OCONOMOWOC", "state": "WI", "street": "1075 SUMMIT AVE", "postcode": "53066"}}},
{"geometry": {"type": "Point", "coordinates": [-88.4824284256, 43.0965983509]}, "type": "Feature", "properties": {"collection_times": [{"days": "Mon-Fri", "time": "2:30pm"}, {"days": "Sat", "time": "2:00pm"}, {"days": "Sun", "time": "Closed"}], "id": "5306600014", "name": "USPS COLLECTION BOX - BLUE BOX", "address": {"city": "OCONOMOWOC", "state": "WI", "street": "888 THACKERAY TRL", "postcode": "53066"}}},
{"geometry": {"type": "Point", "coordinates": [-88.4725032003, 43.073752303]}, "type": "Feature", "properties": {"collection_times": [{"days": "Mon-Fri", "time": "3:00pm"}, {"days": "Sat", "time": "1:00pm"}, {"days": "Sun", "time": "Closed"}], "id": "5306600017", "name": "USPS COLLECTION BOX - BLUE BOX", "address": {"city": "OCONOMOWOC", "state": "WI", "street": "1227 CORPORATE CENTER DR", "postcode": "53066"}}},
{"geometry": {"type": "Point", "coordinates": [-88.4994098016, 43.1106329761]}, "type": "Feature", "properties": {"collection_times": [{"days": "Mon-Fri", "time": "5:00pm"}, {"days": "Sat", "time": "4:30pm"}, {"days": "Sun", "time": "Closed"}], "id": "5306600019", "name": "USPS COLLECTION BOX - PO LOBBY", "address": {"city": "OCONOMOWOC", "state": "WI", "street": "38 S MAIN ST", "postcode": "53066"}}},
{"geometry": {"type": "Point", "coordinates": [-88.4537925205, 43.0760901552]}, "type": "Feature", "properties": {"collection_times": [{"days": "Mon-Sat", "time": "10:00am"}, {"days": "Sun", "time": "Closed"}], "id": "5306600025", "name": "USPS COLLECTION BOX - BLUE BOX", "address": {"city": "OCONOMOWOC", "state": "WI", "street": "1733 EASTLAKE DR", "postcode": "53066"}}},
{"geometry": {"type": "Point", "coordinates": [-88.4391761796, 43.1119781327]}, "type": "Feature", "properties": {"collection_times": [{"days": "Mon-Fri", "time": "4:30pm"}, {"days": "Sat", "time": "10:30am"}, {"days": "Sun", "time": "Closed"}], "id": "5306900002", "name": "USPS COLLECTION BOX - BLUE BOX", "address": {"city": "OKAUCHEE", "state": "WI", "street": "N50W35013 WISCONSIN AVE", "postcode": "53069"}}},
{"geometry": {"type": "Point", "coordinates": [-88.4387656747, 43.1118099568]}, "type": "Feature", "properties": {"collection_times": [{"days": "Mon-Fri", "time": "4:30pm"}, {"days": "Sat", "time": "10:30am"}, {"days": "Sun", "time": "Closed"}], "id": "5306900003", "name": "USPS COLLECTION BOX - PO LOBBY", "address": {"city": "OKAUCHEE", "state": "WI", "street": "N50W35013 WISCONSIN AVE", "postcode": "53069"}}},
{"geometry": {"type": "Point", "coordinates": [-87.8075897365, 43.6230902013]}, "type": "Feature", "properties": {"collection_times": [{"days": "Mon-Fri", "time": "4:00pm"}, {"days": "Sat", "time": "10:45am"}, {"days": "Sun", "time": "Closed"}], "id": "5307000001", "name": "USPS COLLECTION BOX - BLUE BOX", "address": {"city": "OOSTBURG", "state": "WI", "street": "1508 CENTER AVE", "postcode": "53070"}}},
{"geometry": {"type": "Point", "coordinates": [-87.8075897365, 43.6230902013]}, "type": "Feature", "properties": {"collection_times": [{"days": "Mon-Fri", "time": "4:00pm"}, {"days": "Sat", "time": "11:00am"}, {"days": "Sun", "time": "Closed"}], "id": "5307000003", "name": "USPS COLLECTION BOX - PO LOBBY", "address": {"city": "OOSTBURG", "state": "WI", "street": "1508 CENTER AVE", "postcode": "53070"}}},
{"geometry": {"type": "Point", "coordinates": [-87.8075897365, 43.6230902013]}, "type": "Feature", "properties": {"collection_times": [{"days": "Mon-Fri", "time": "4:00pm"}, {"days": "Sat", "time": "11:00am"}, {"days": "Sun", "time": "Closed"}], "id": "5307000004", "name": "USPS COLLECTION BOX - PO LOBBY", "address": {"city": "OOSTBURG", "state": "WI", "street": "1508 CENTER AVE", "postcode": "53070"}}},
{"geometry": {"type": "Point", "coordinates": [-88.2535495251, 43.0844398986]}, "type": "Feature", "properties": {"collection_times": [{"days": "Mon-Fri", "time": "5:15pm"}, {"days": "Sat", "time": "3:00pm"}, {"days": "Sun", "time": "Closed"}], "id": "5307200001", "name": "USPS COLLECTION BOX - BLUE BOX", "address": {"city": "PEWAUKEE", "state": "WI", "street": "140 SIMMONS AVE", "postcode": "53072"}}},
{"geometry": {"type": "Point", "coordinates": [-88.2535495251, 43.0844398986]}, "type": "Feature", "properties": {"collection_times": [{"days": "Mon-Fri", "time": "5:15pm"}, {"days": "Sat", "time": "3:00pm"}, {"days": "Sun", "time": "Closed"}], "id": "5307200002", "name": "USPS COLLECTION BOX - BLUE BOX", "address": {"city": "PEWAUKEE", "state": "WI", "street": "140 SIMMONS AVE", "postcode": "53072"}}},
{"geometry": {"type": "Point", "coordinates": [-88.2668037954, 43.0809784612]}, "type": "Feature", "properties": {"collection_times": [{"days": "Mon-Fri", "time": "11:30am"}, {"days": "Sat", "time": "10:00am"}, {"days": "Sun", "time": "Closed"}], "id": "5307200007", "name": "USPS COLLECTION BOX - BLUE BOX", "address": {"city": "PEWAUKEE", "state": "WI", "street": "N27 W23027 ROUNDY DR", "postcode": "53072"}}},
{"geometry": {"type": "Point", "coordinates": [-88.2628044849, 43.0824807522]}, "type": "Feature", "properties": {"collection_times": [{"days": "Mon-Sat", "time": "10:00am"}, {"days": "Sun", "time": "Closed"}], "id": "5307200009", "name": "USPS COLLECTION BOX - BLUE BOX", "address": {"city": "PEWAUKEE", "state": "WI", "street": "101 W WISCONSIN AVE", "postcode": "53072"}}},
{"geometry": {"type": "Point", "coordinates": [-88.229798075, 43.0818740607]}, "type": "Feature", "properties": {"collection_times": [{"days": "Mon-Fri", "time": "10:30am"}, {"days": "Sat", "time": "10:00am"}, {"days": "Sun", "time": "Closed"}], "id": "5307200013", "name": "USPS COLLECTION BOX - BLUE BOX", "address": {"city": "PEWAUKEE", "state": "WI", "street": "249 MEADOWCREEK DR", "postcode": "53072"}}},
{"geometry": {"type": "Point", "coordinates": [-88.2668037954, 43.0809784612]}, "type": "Feature", "properties": {"collection_times": [{"days": "Mon-Sat", "time": "10:00am"}, {"days": "Sun", "time": "Closed"}], "id": "5307200015", "name": "USPS COLLECTION BOX - BLUE BOX", "address": {"city": "PEWAUKEE", "state": "WI", "street": "N22 W24020 AVONDALE BLVD", "postcode": "53072"}}},
{"geometry": {"type": "Point", "coordinates": [-88.2740868757, 43.0932422963]}, "type": "Feature", "properties": {"collection_times": [{"days": "Mon-Sat", "time": "10:00am"}, {"days": "Sun", "time": "Closed"}], "id": "5307200016", "name": "USPS COLLECTION BOX - BLUE BOX", "address": {"city": "PEWAUKEE", "state": "WI", "street": "601 RYAN ST", "postcode": "53072"}}},
{"geometry": {"type": "Point", "coordinates": [-88.2535495251, 43.0844398986]}, "type": "Feature", "properties": {"collection_times": [{"days": "Mon-Fri", "time": "5:15pm"}, {"days": "Sat", "time": "3:00pm"}, {"days": "Sun", "time": "Closed"}], "id": "5307200022", "name": "USPS COLLECTION BOX - BLUE BOX", "address": {"city": "PEWAUKEE", "state": "WI", "street": "140 SIMMONS AVE", "postcode": "53072"}}},
{"geometry": {"type": "Point", "coordinates": [-88.2364378418, 43.0831236941]}, "type": "Feature", "properties": {"collection_times": [{"days": "Mon-Fri", "time": "10:30am"}, {"days": "Sat", "time": "10:00am"}, {"days": "Sun", "time": "Closed"}], "id": "5307200023", "name": "USPS COLLECTION BOX - BLUE BOX", "address": {"city": "PEWAUKEE", "state": "WI", "street": "1256 CAPITOL DR", "postcode": "53072"}}},
{"geometry": {"type": "Point", "coordinates": [-88.253503556, 43.084358885]}, "type": "Feature", "properties": {"collection_times": [{"days": "Mon-Fri", "time": "5:15pm"}, {"days": "Sat", "time": "3:00pm"}, {"days": "Sun", "time": "Closed"}], "id": "5307200024", "name": "USPS COLLECTION BOX - PO LOBBY", "address": {"city": "PEWAUKEE", "state": "WI", "street": "140 SIMMONS AVE", "postcode": "53072"}}},
{"geometry": {"type": "Point", "coordinates": [-88.253503556, 43.084358885]}, "type": "Feature", "properties": {"collection_times": [{"days": "Mon-Fri", "time": "5:15pm"}, {"days": "Sat", "time": "3:00pm"}, {"days": "Sun", "time": "Closed"}], "id": "5307200025", "name": "USPS COLLECTION BOX - PO LOBBY", "address": {"city": "PEWAUKEE", "state": "WI", "street": "140 SIMMONS AVE", "postcode": "53072"}}},
{"geometry": {"type": "Point", "coordinates": [-88.253503556, 43.084358885]}, "type": "Feature", "properties": {"collection_times": [{"days": "Mon-Fri", "time": "5:15pm"}, {"days": "Sat", "time": "3:00pm"}, {"days": "Sun", "time": "Closed"}], "id": "5307200026", "name": "USPS COLLECTION BOX - PO LOBBY", "address": {"city": "PEWAUKEE", "state": "WI", "street": "140 SIMMONS AVE", "postcode": "53072"}}},
{"geometry": {"type": "Point", "coordinates": [-88.2525635008, 43.0686648956]}, "type": "Feature", "properties": {"collection_times": [{"days": "Mon-Sat", "time": "10:00am"}, {"days": "Sun", "time": "Closed"}], "id": "5307200027", "name": "USPS COLLECTION BOX - BLUE BOX", "address": {"city": "PEWAUKEE", "state": "WI", "street": "892 MAIN ST", "postcode": "53072"}}},
{"geometry": {"type": "Point", "coordinates": [-88.2625400895, 43.0439948885]}, "type": "Feature", "properties": {"collection_times": [{"days": "Mon-Sat", "time": "10:00am"}, {"days": "Sun", "time": "Closed"}], "id": "5307200033", "name": "USPS COLLECTION BOX - BLUE BOX", "address": {"city": "PEWAUKEE", "state": "WI", "street": "2337 SILVERNAIL RD", "postcode": "53072"}}},
{"geometry": {"type": "Point", "coordinates": [-88.2668037954, 43.0809784612]}, "type": "Feature", "properties": {"collection_times": [{"days": "Mon-Sat", "time": "10:00am"}, {"days": "Sun", "time": "Closed"}], "id": "5307200036", "name": "USPS COLLECTION BOX - BLUE BOX", "address": {"city": "PEWAUKEE", "state": "WI", "street": "N16 W26581 CONSERVANCY", "postcode": "53072"}}},
{"geometry": {"type": "Point", "coordinates": [-88.2287724496, 43.0836106444]}, "type": "Feature", "properties": {"collection_times": [{"days": "Mon-Sat", "time": "10:30am"}, {"days": "Sun", "time": "Closed"}], "id": "5307200037", "name": "USPS COLLECTION BOX - BLUE BOX", "address": {"city": "PEWAUKEE", "state": "WI", "street": "1405 CAPITOL DR", "postcode": "53072"}}},
{"geometry": {"type": "Point", "coordinates": [-88.2668037954, 43.0809784612]}, "type": "Feature", "properties": {"collection_times": [{"days": "Mon-Sat", "time": "10:00am"}, {"days": "Sun", "time": "Closed"}], "id": "5307200038", "name": "USPS COLLECTION BOX - BLUE BOX", "address": {"city": "PEWAUKEE", "state": "WI", "street": "N24 W24242 SADDLEBROOK DR", "postcode": "53072"}}},
{"geometry": {"type": "Point", "coordinates": [-88.2535495251, 43.0844398986]}, "type": "Feature", "properties": {"collection_times": [{"days": "Mon-Fri", "time": "5:15pm"}, {"days": "Sat", "time": "3:00pm"}, {"days": "Sun", "time": "Closed"}], "id": "5307200040", "name": "USPS COLLECTION BOX - APC", "address": {"city": "PEWAUKEE", "state": "WI", "street": "140 SIMMONS AVE", "postcode": "53072"}}},
{"geometry": {"type": "Point", "coordinates": [-88.2582836045, 43.0427674881]}, "type": "Feature", "properties": {"collection_times": [{"days": "Mon-Sat", "time": "10:00am"}, {"days": "Sun", "time": "Closed"}], "id": "5307200041", "name": "USPS COLLECTION BOX - BLUE BOX", "address": {"city": "PEWAUKEE", "state": "WI", "street": "2160 SILVERNAIL RD", "postcode": "53072"}}},
{"geometry": {"type": "Point", "coordinates": [-88.2582836045, 43.0427674881]}, "type": "Feature", "properties": {"collection_times": [{"days": "Mon-Sat", "time": "10:00am"}, {"days": "Sun", "time": "Closed"}], "id": "5307200042", "name": "USPS COLLECTION BOX - BLUE BOX", "address": {"city": "PEWAUKEE", "state": "WI", "street": "2160 SILVERNAIL RD", "postcode": "53072"}}},
{"geometry": {"type": "Point", "coordinates": [-87.9772692176, 43.7487707208]}, "type": "Feature", "properties": {"collection_times": [{"days": "Mon-Fri", "time": "5:00pm"}, {"days": "Sat", "time": "2:00pm"}, {"days": "Sun", "time": "Closed"}], "id": "5307300000", "name": "USPS COLLECTION BOX - BLUE BOX", "address": {"city": "PLYMOUTH", "state": "WI", "street": "302 E MAIN ST", "postcode": "53073"}}},
{"geometry": {"type": "Point", "coordinates": [-87.9635670712, 43.7470017149]}, "type": "Feature", "properties": {"collection_times": [{"days": "Mon-Fri", "time": "1:00pm"}, {"days": "Sat", "time": "12:00pm"}, {"days": "Sun", "time": "Closed"}], "id": "5307300001", "name": "USPS COLLECTION BOX - BLUE BOX", "address": {"city": "PLYMOUTH", "state": "WI", "street": "1411 EASTERN AVE", "postcode": "53073"}}},
{"geometry": {"type": "Point", "coordinates": [-87.9546689312, 43.747011821]}, "type": "Feature", "properties": {"collection_times": [{"days": "Mon-Fri", "time": "1:00pm"}, {"days": "Sat", "time": "12:00pm"}, {"days": "Sun", "time": "Closed"}], "id": "5307300002", "name": "USPS COLLECTION BOX - BLUE BOX", "address": {"city": "PLYMOUTH", "state": "WI", "street": "2225 EASTERN AVE", "postcode": "53073"}}},
{"geometry": {"type": "Point", "coordinates": [-87.9516489602, 43.747036524]}, "type": "Feature", "properties": {"collection_times": [{"days": "Mon-Fri", "time": "1:00pm"}, {"days": "Sat", "time": "12:00pm"}, {"days": "Sun", "time": "Closed"}], "id": "5307300003", "name": "USPS COLLECTION BOX - BLUE BOX", "address": {"city": "PLYMOUTH", "state": "WI", "street": "2455 EASTERN AVE", "postcode": "53073"}}},
{"geometry": {"type": "Point", "coordinates": [-87.9772805195, 43.7474827871]}, "type": "Feature", "properties": {"collection_times": [{"days": "Mon-Fri", "time": "1:00pm"}, {"days": "Sat", "time": "12:00pm"}, {"days": "Sun", "time": "Closed"}], "id": "5307300004", "name": "USPS COLLECTION BOX - BLUE BOX", "address": {"city": "PLYMOUTH", "state": "WI", "street": "301 E MILL ST", "postcode": "53073"}}},
{"geometry": {"type": "Point", "coordinates": [-87.9772692176, 43.7487707208]}, "type": "Feature", "properties": {"collection_times": [{"days": "Mon-Fri", "time": "5:00pm"}, {"days": "Sat", "time": "2:00pm"}, {"days": "Sun", "time": "Closed"}], "id": "5307300020", "name": "USPS COLLECTION BOX - PO LOBBY", "address": {"city": "PLYMOUTH", "state": "WI", "street": "302 E MAIN ST", "postcode": "53073"}}},
{"geometry": {"type": "Point", "coordinates": [-87.9433626614, 43.7548824923]}, "type": "Feature", "properties": {"collection_times": [{"days": "Mon-Sat", "time": "8:00am"}, {"days": "Sun", "time": "Closed"}], "id": "5307300021", "name": "USPS COLLECTION BOX - BLUE BOX", "address": {"city": "PLYMOUTH", "state": "WI", "street": "428 WALTON DR", "postcode": "53073"}}},
{"geometry": {"type": "Point", "coordinates": [-87.8708035867, 43.3885214023]}, "type": "Feature", "properties": {"collection_times": [{"days": "Mon-Fri", "time": "5:00pm"}, {"days": "Sat", "time": "3:30pm"}, {"days": "Sun", "time": "Closed"}], "id": "5307400000", "name": "USPS COLLECTION BOX - BLUE BOX", "address": {"city": "PORT WASHINGTON", "state": "WI", "street": "104 E MAIN ST", "postcode": "53074"}}},
{"geometry": {"type": "Point", "coordinates": [-87.870844342, 43.3886905805]}, "type": "Feature", "properties": {"collection_times": [{"days": "Mon-Fri", "time": "5:00pm"}, {"days": "Sat", "time": "3:30pm"}, {"days": "Sun", "time": "Closed"}], "id": "5307400002", "name": "USPS COLLECTION BOX - BLUE BOX", "address": {"city": "PORT WASHINGTON", "state": "WI", "street": "222 N WISCONSIN ST", "postcode": "53074"}}},
{"geometry": {"type": "Point", "coordinates": [-87.8710270857, 43.4007195373]}, "type": "Feature", "properties": {"collection_times": [{"days": "Mon-Sat", "time": "2:00pm"}, {"days": "Sun", "time": "Closed"}], "id": "5307400011", "name": "USPS COLLECTION BOX - BLUE BOX", "address": {"city": "PORT WASHINGTON", "state": "WI", "street": "1011 N WISCONSIN ST", "postcode": "53074"}}},
{"geometry": {"type": "Point", "coordinates": [-87.8818952296, 43.3869685467]}, "type": "Feature", "properties": {"collection_times": [{"days": "Mon-Sat", "time": "1:00pm"}, {"days": "Sun", "time": "Closed"}], "id": "5307400021", "name": "USPS COLLECTION BOX - BLUE BOX", "address": {"city": "PORT WASHINGTON", "state": "WI", "street": "623 W GRAND AVE", "postcode": "53074"}}},
{"geometry": {"type": "Point", "coordinates": [-87.8935590671, 43.3758763212]}, "type": "Feature", "properties": {"collection_times": [{"days": "Mon-Sat", "time": "1:00pm"}, {"days": "Sun", "time": "Closed"}], "id": "5307400023", "name": "USPS COLLECTION BOX - BLUE BOX", "address": {"city": "PORT WASHINGTON", "state": "WI", "street": "1100 S SPRING ST", "postcode": "53074"}}},
{"geometry": {"type": "Point", "coordinates": [-87.8708035867, 43.3885214023]}, "type": "Feature", "properties": {"collection_times": [{"days": "Mon-Fri", "time": "5:00pm"}, {"days": "Sat", "time": "3:30pm"}, {"days": "Sun", "time": "Closed"}], "id": "5307400024", "name": "USPS COLLECTION BOX - PO LOBBY", "address": {"city": "PORT WASHINGTON", "state": "WI", "street": "104 E MAIN ST", "postcode": "53074"}}},
{"geometry": {"type": "Point", "coordinates": [-87.8708035867, 43.3885214023]}, "type": "Feature", "properties": {"collection_times": [{"days": "Mon-Fri", "time": "5:00pm"}, {"days": "Sat", "time": "3:30pm"}, {"days": "Sun", "time": "Closed"}], "id": "5307400025", "name": "USPS COLLECTION BOX - PO LOBBY", "address": {"city": "PORT WASHINGTON", "state": "WI", "street": "104 E MAIN ST", "postcode": "53074"}}},
{"geometry": {"type": "Point", "coordinates": [-87.9635113959, 43.5511684888]}, "type": "Feature", "properties": {"collection_times": [{"days": "Mon-Fri", "time": "4:30pm"}, {"days": "Sat", "time": "11:00am"}, {"days": "Sun", "time": "Closed"}], "id": "5307500001", "name": "USPS COLLECTION BOX - BLUE BOX", "address": {"city": "RANDOM LAKE", "state": "WI", "street": "220 ALLEN ST", "postcode": "53075"}}},
{"geometry": {"type": "Point", "coordinates": [-87.9635113959, 43.5511684888]}, "type": "Feature", "properties": {"collection_times": [{"days": "Mon-Fri", "time": "4:30pm"}, {"days": "Sat", "time": "11:00am"}, {"days": "Sun", "time": "Closed"}], "id": "5307500002", "name": "USPS COLLECTION BOX - PO LOBBY", "address": {"city": "RANDOM LAKE", "state": "WI", "street": "220 ALLEN ST", "postcode": "53075"}}},
{"geometry": {"type": "Point", "coordinates": [-87.9635113959, 43.5511684888]}, "type": "Feature", "properties": {"collection_times": [{"days": "Mon-Fri", "time": "4:30pm"}, {"days": "Sat", "time": "11:00am"}, {"days": "Sun", "time": "Closed"}], "id": "5307500003", "name": "USPS COLLECTION BOX - PO LOBBY", "address": {"city": "RANDOM LAKE", "state": "WI", "street": "220 ALLEN ST", "postcode": "53075"}}},
{"geometry": {"type": "Point", "coordinates": [-88.1960341657, 43.2591056965]}, "type": "Feature", "properties": {"collection_times": [{"days": "Mon-Fri", "time": "4:00pm"}, {"days": "Sat", "time": "10:00am"}, {"days": "Sun", "time": "Closed"}], "id": "5307600001", "name": "USPS COLLECTION BOX - BLUE BOX", "address": {"city": "RICHFIELD", "state": "WI", "street": "1925 STATE ROAD 175", "postcode": "53076"}}},
{"geometry": {"type": "Point", "coordinates": [-88.1960341657, 43.2591056965]}, "type": "Feature", "properties": {"collection_times": [{"days": "Mon-Fri", "time": "4:30pm"}, {"days": "Sat", "time": "10:30am"}, {"days": "Sun", "time": "Closed"}], "id": "5307600002", "name": "USPS COLLECTION BOX - PO LOBBY", "address": {"city": "RICHFIELD", "state": "WI", "street": "1925 STATE ROAD 175", "postcode": "53076"}}},
{"geometry": {"type": "Point", "coordinates": [-88.4571663369, 43.3399921579]}, "type": "Feature", "properties": {"collection_times": [{"days": "Mon-Fri", "time": "4:00pm"}, {"days": "Sat", "time": "9:45am"}, {"days": "Sun", "time": "Closed"}], "id": "5307800001", "name": "USPS COLLECTION BOX - BLUE BOX", "address": {"city": "RUBICON", "state": "WI", "street": "W1219 ROME RD", "postcode": "53078"}}},
{"geometry": {"type": "Point", "coordinates": [-88.4571663369, 43.3399921579]}, "type": "Feature", "properties": {"collection_times": [{"days": "Mon-Fri", "time": "3:15pm"}, {"days": "Sat", "time": "9:30am"}, {"days": "Sun", "time": "Closed"}], "id": "5307800002", "name": "USPS COLLECTION BOX - PO LOBBY", "address": {"city": "RUBICON", "state": "WI", "street": "W1219 ROME RD", "postcode": "53078"}}},
{"geometry": {"type": "Point", "coordinates": [-88.1660969177, 43.8213736496]}, "type": "Feature", "properties": {"collection_times": [{"days": "Mon-Fri", "time": "4:00pm"}, {"days": "Sat", "time": "9:30am"}, {"days": "Sun", "time": "Closed"}], "id": "5307900001", "name": "USPS COLLECTION BOX - BLUE BOX", "address": {"city": "SAINT CLOUD", "state": "WI", "street": "1008 MAIN ST", "postcode": "53079"}}},
{"geometry": {"type": "Point", "coordinates": [-88.1660969177, 43.8213736496]}, "type": "Feature", "properties": {"collection_times": [{"days": "Mon-Fri", "time": "4:00pm"}, {"days": "Sat", "time": "9:30am"}, {"days": "Sun", "time": "Closed"}], "id": "5307900002", "name": "USPS COLLECTION BOX - PO LOBBY", "address": {"city": "SAINT CLOUD", "state": "WI", "street": "1008 MAIN ST", "postcode": "53079"}}},
{"geometry": {"type": "Point", "coordinates": [-88.1668213386, 43.8238878253]}, "type": "Feature", "properties": {"collection_times": [{"days": "Mon-Sat", "time": "9:00am"}, {"days": "Sun", "time": "Closed"}], "id": "5307900004", "name": "USPS COLLECTION BOX - BLUE BOX", "address": {"city": "SAINT CLOUD", "state": "WI", "street": "1313 MAIN ST", "postcode": "53079"}}},
{"geometry": {"type": "Point", "coordinates": [-87.9480560566, 43.3824916322]}, "type": "Feature", "properties": {"collection_times": [{"days": "Mon-Fri", "time": "4:30pm"}, {"days": "Sat", "time": "10:30am"}, {"days": "Sun", "time": "Closed"}], "id": "5308000001", "name": "USPS COLLECTION BOX - BLUE BOX", "address": {"city": "SAUKVILLE", "state": "WI", "street": "600 W DEKORA ST", "postcode": "53080"}}},
{"geometry": {"type": "Point", "coordinates": [-87.9247933709, 43.3848321459]}, "type": "Feature", "properties": {"collection_times": [{"days": "Mon-Sat", "time": "8:30am"}, {"days": "Sun", "time": "Closed"}], "id": "5308000004", "name": "USPS COLLECTION BOX - BLUE BOX", "address": {"city": "SAUKVILLE", "state": "WI", "street": "810 E GREEN BAY AVE", "postcode": "53080"}}},
{"geometry": {"type": "Point", "coordinates": [-87.9480560566, 43.3824916322]}, "type": "Feature", "properties": {"collection_times": [{"days": "Mon-Fri", "time": "4:30pm"}, {"days": "Sat", "time": "10:30am"}, {"days": "Sun", "time": "Closed"}], "id": "5308000005", "name": "USPS COLLECTION BOX - PO LOBBY", "address": {"city": "SAUKVILLE", "state": "WI", "street": "600 W DEKORA ST", "postcode": "53080"}}},
{"geometry": {"type": "Point", "coordinates": [-87.9480560566, 43.3824916322]}, "type": "Feature", "properties": {"collection_times": [{"days": "Mon-Fri", "time": "4:30pm"}, {"days": "Sat", "time": "10:30am"}, {"days": "Sun", "time": "Closed"}], "id": "5308000006", "name": "USPS COLLECTION BOX - PO LOBBY", "address": {"city": "SAUKVILLE", "state": "WI", "street": "600 W DEKORA ST", "postcode": "53080"}}},
{"geometry": {"type": "Point", "coordinates": [-87.7383779936, 43.756498997]}, "type": "Feature", "properties": {"collection_times": [{"days": "Mon-Sat", "time": "3:00pm"}, {"days": "Sun", "time": "Closed"}], "id": "5308100006", "name": "USPS COLLECTION BOX - BLUE BOX", "address": {"city": "SHEBOYGAN", "state": "WI", "street": "2414 KOHLER MEMORIAL DR", "postcode": "53081"}}},
{"geometry": {"type": "Point", "coordinates": [-87.7198138185, 43.7233276446]}, "type": "Feature", "properties": {"collection_times": [{"days": "Mon-Sat", "time": "1:00pm"}, {"days": "Sun", "time": "Closed"}], "id": "5308100010", "name": "USPS COLLECTION BOX - BLUE BOX", "address": {"city": "SHEBOYGAN", "state": "WI", "street": "2919 S 12TH ST", "postcode": "53081"}}},
{"geometry": {"type": "Point", "coordinates": [-87.7343219618, 43.7237429798]}, "type": "Feature", "properties": {"collection_times": [{"days": "Mon-Sat", "time": "1:00pm"}, {"days": "Sun", "time": "Closed"}], "id": "5308100013", "name": "USPS COLLECTION BOX - BLUE BOX", "address": {"city": "SHEBOYGAN", "state": "WI", "street": "2220 WILSON AVE", "postcode": "53081"}}},
{"geometry": {"type": "Point", "coordinates": [-87.719597337, 43.7386386825]}, "type": "Feature", "properties": {"collection_times": [{"days": "Mon-Sat", "time": "1:00pm"}, {"days": "Sun", "time": "Closed"}], "id": "5308100015", "name": "USPS COLLECTION BOX - BLUE BOX", "address": {"city": "SHEBOYGAN", "state": "WI", "street": "1450 S 12TH ST", "postcode": "53081"}}},
{"geometry": {"type": "Point", "coordinates": [-87.7085485003, 43.7606925865]}, "type": "Feature", "properties": {"collection_times": [{"days": "Mon-Sat", "time": "1:00pm"}, {"days": "Sun", "time": "Closed"}], "id": "5308100018", "name": "USPS COLLECTION BOX - BLUE BOX", "address": {"city": "SHEBOYGAN", "state": "WI", "street": "509 SUPERIOR AVE", "postcode": "53081"}}},
{"geometry": {"type": "Point", "coordinates": [-87.7129983552, 43.7577777086]}, "type": "Feature", "properties": {"collection_times": [{"days": "Mon-Sat", "time": "3:00pm"}, {"days": "Sun", "time": "Closed"}], "id": "5308100019", "name": "USPS COLLECTION BOX - BLUE BOX", "address": {"city": "SHEBOYGAN", "state": "WI", "street": "1230 N 8TH ST", "postcode": "53081"}}},
{"geometry": {"type": "Point", "coordinates": [-87.7129183507, 43.7511827794]}, "type": "Feature", "properties": {"collection_times": [{"days": "Mon-Sat", "time": "3:00pm"}, {"days": "Sun", "time": "Closed"}], "id": "5308100026", "name": "USPS COLLECTION BOX - BLUE BOX", "address": {"city": "SHEBOYGAN", "state": "WI", "street": "605 N 8TH ST", "postcode": "53081"}}},
{"geometry": {"type": "Point", "coordinates": [-87.726976717, 43.7399422645]}, "type": "Feature", "properties": {"collection_times": [{"days": "Mon-Sat", "time": "1:00pm"}, {"days": "Sun", "time": "Closed"}], "id": "5308100032", "name": "USPS COLLECTION BOX - BLUE BOX", "address": {"city": "SHEBOYGAN", "state": "WI", "street": "1640 GEORGIA AVE", "postcode": "53081"}}},
{"geometry": {"type": "Point", "coordinates": [-87.7204547025, 43.7320395122]}, "type": "Feature", "properties": {"collection_times": [{"days": "Mon-Sat", "time": "1:00pm"}, {"days": "Sun", "time": "Closed"}], "id": "5308100033", "name": "USPS COLLECTION BOX - BLUE BOX", "address": {"city": "SHEBOYGAN", "state": "WI", "street": "1202 UNION AVE", "postcode": "53081"}}},
{"geometry": {"type": "Point", "coordinates": [-87.7410656763, 43.7310488178]}, "type": "Feature", "properties": {"collection_times": [{"days": "Mon-Sat", "time": "1:00pm"}, {"days": "Sun", "time": "Closed"}], "id": "5308100038", "name": "USPS COLLECTION BOX - BLUE BOX", "address": {"city": "SHEBOYGAN", "state": "WI", "street": "2143 BOLLMANN DR", "postcode": "53081"}}},
{"geometry": {"type": "Point", "coordinates": [-87.7262677851, 43.7278576974]}, "type": "Feature", "properties": {"collection_times": [{"days": "Mon-Sat", "time": "1:00pm"}, {"days": "Sun", "time": "Closed"}], "id": "5308100039", "name": "USPS COLLECTION BOX - BLUE BOX", "address": {"city": "SHEBOYGAN", "state": "WI", "street": "1601 MEAD AVE", "postcode": "53081"}}},
{"geometry": {"type": "Point", "coordinates": [-87.7146206287, 43.7504245027]}, "type": "Feature", "properties": {"collection_times": [{"days": "Mon-Sat", "time": "5:00pm"}, {"days": "Sun", "time": "Closed"}], "id": "5308100041", "name": "USPS COLLECTION BOX - BLUE BOX", "address": {"city": "SHEBOYGAN", "state": "WI", "street": "522 N 9TH ST", "postcode": "53081"}}},
{"geometry": {"type": "Point", "coordinates": [-87.7146206287, 43.7504245027]}, "type": "Feature", "properties": {"collection_times": [{"days": "Mon-Sat", "time": "5:00pm"}, {"days": "Sun", "time": "Closed"}], "id": "5308100046", "name": "USPS COLLECTION BOX - BLUE BOX", "address": {"city": "SHEBOYGAN", "state": "WI", "street": "522 N 9TH ST", "postcode": "53081"}}},
{"geometry": {"type": "Point", "coordinates": [-87.7146206287, 43.7504245027]}, "type": "Feature", "properties": {"collection_times": [{"days": "Mon-Sat", "time": "5:00pm"}, {"days": "Sun", "time": "Closed"}], "id": "5308100047", "name": "USPS COLLECTION BOX - BLUE BOX", "address": {"city": "SHEBOYGAN", "state": "WI", "street": "522 N 9TH ST", "postcode": "53081"}}},
{"geometry": {"type": "Point", "coordinates": [-87.7146206287, 43.7504245027]}, "type": "Feature", "properties": {"collection_times": [{"days": "Mon-Sat", "time": "5:00pm"}, {"days": "Sun", "time": "Closed"}], "id": "5308100051", "name": "USPS COLLECTION BOX - PO LOBBY", "address": {"city": "SHEBOYGAN", "state": "WI", "street": "522 N 9TH ST", "postcode": "53081"}}},
{"geometry": {"type": "Point", "coordinates": [-87.7489567989, 43.7512226407]}, "type": "Feature", "properties": {"collection_times": [{"days": "Mon-Sat", "time": "3:00pm"}, {"days": "Sun", "time": "Closed"}], "id": "5308100054", "name": "USPS COLLECTION BOX - BLUE BOX", "address": {"city": "SHEBOYGAN", "state": "WI", "street": "567 S TAYLOR DR", "postcode": "53081"}}},
{"geometry": {"type": "Point", "coordinates": [-87.7146206287, 43.7504245027]}, "type": "Feature", "properties": {"collection_times": [{"days": "Mon-Sat", "time": "5:00pm"}, {"days": "Sun", "time": "Closed"}], "id": "5308100055", "name": "USPS COLLECTION BOX - APC", "address": {"city": "SHEBOYGAN", "state": "WI", "street": "522 N 9TH ST", "postcode": "53081"}}},
{"geometry": {"type": "Point", "coordinates": [-87.8205408001, 43.836282837]}, "type": "Feature", "properties": {"collection_times": [{"days": "Mon-Sat", "time": "1:00pm"}, {"days": "Sun", "time": "Closed"}], "id": "5308300001", "name": "USPS COLLECTION BOX - BLUE BOX", "address": {"city": "SHEBOYGAN", "state": "WI", "street": "302 N WISCONSIN DR", "postcode": "53083"}}},
{"geometry": {"type": "Point", "coordinates": [-87.8231303882, 43.8272257301]}, "type": "Feature", "properties": {"collection_times": [{"days": "Mon-Sat", "time": "1:00pm"}, {"days": "Sun", "time": "Closed"}], "id": "5308300002", "name": "USPS COLLECTION BOX - BLUE BOX", "address": {"city": "SHEBOYGAN", "state": "WI", "street": "714 S WISCONSIN DR", "postcode": "53083"}}},
{"geometry": {"type": "Point", "coordinates": [-87.7112066091, 43.7725872389]}, "type": "Feature", "properties": {"collection_times": [{"days": "Mon-Sat", "time": "1:00pm"}, {"days": "Sun", "time": "Closed"}], "id": "5308300007", "name": "USPS COLLECTION BOX - BLUE BOX", "address": {"city": "SHEBOYGAN", "state": "WI", "street": "2629 N 7TH ST", "postcode": "53083"}}},
{"geometry": {"type": "Point", "coordinates": [-87.7289323971, 43.7689241333]}, "type": "Feature", "properties": {"collection_times": [{"days": "Mon-Sat", "time": "1:00pm"}, {"days": "Sun", "time": "Closed"}], "id": "5308300010", "name": "USPS COLLECTION BOX - BLUE BOX", "address": {"city": "SHEBOYGAN", "state": "WI", "street": "2213 CALUMET DR", "postcode": "53083"}}},
{"geometry": {"type": "Point", "coordinates": [-87.7247964417, 43.7238185726]}, "type": "Feature", "properties": {"collection_times": [{"days": "Mon-Sat", "time": "1:00pm"}, {"days": "Sun", "time": "Closed"}], "id": "5308300011", "name": "USPS COLLECTION BOX - BLUE BOX", "address": {"city": "SHEBOYGAN", "state": "WI", "street": "2905 N 15TH ST", "postcode": "53083"}}},
{"geometry": {"type": "Point", "coordinates": [-87.70958136, 43.7683910475]}, "type": "Feature", "properties": {"collection_times": [{"days": "Mon-Sat", "time": "1:00pm"}, {"days": "Sun", "time": "Closed"}], "id": "5308300012", "name": "USPS COLLECTION BOX - BLUE BOX", "address": {"city": "SHEBOYGAN", "state": "WI", "street": "602 GEELE AVE", "postcode": "53083"}}},
{"geometry": {"type": "Point", "coordinates": [-87.8118938932, 43.7293505041]}, "type": "Feature", "properties": {"collection_times": [{"days": "Mon-Fri", "time": "5:00pm"}, {"days": "Sat", "time": "3:30pm"}, {"days": "Sun", "time": "Closed"}], "id": "5308500008", "name": "USPS COLLECTION BOX - BLUE BOX", "address": {"city": "SHEBOYGAN FALLS", "state": "WI", "street": "111 MAPLE ST", "postcode": "53085"}}},
{"geometry": {"type": "Point", "coordinates": [-87.8119344062, 43.7294573507]}, "type": "Feature", "properties": {"collection_times": [{"days": "Mon-Fri", "time": "5:00pm"}, {"days": "Sat", "time": "3:30pm"}, {"days": "Sun", "time": "Closed"}], "id": "5308500010", "name": "USPS COLLECTION BOX - BLUE BOX", "address": {"city": "SHEBOYGAN FALLS", "state": "WI", "street": "108 MAPLE ST", "postcode": "53085"}}},
{"geometry": {"type": "Point", "coordinates": [-87.8119344062, 43.7294573507]}, "type": "Feature", "properties": {"collection_times": [{"days": "Mon-Fri", "time": "5:00pm"}, {"days": "Sat", "time": "3:30pm"}, {"days": "Sun", "time": "Closed"}], "id": "5308500012", "name": "USPS COLLECTION BOX - PO LOBBY", "address": {"city": "SHEBOYGAN FALLS", "state": "WI", "street": "108 MAPLE ST", "postcode": "53085"}}},
{"geometry": {"type": "Point", "coordinates": [-87.8257172821, 43.7334017664]}, "type": "Feature", "properties": {"collection_times": [{"days": "Mon-Sat", "time": "2:00pm"}, {"days": "Sun", "time": "Closed"}], "id": "5308500014", "name": "USPS COLLECTION BOX - BLUE BOX", "address": {"city": "SHEBOYGAN FALLS", "state": "WI", "street": "1166 FOND DU LAC AVE", "postcode": "53085"}}},
{"geometry": {"type": "Point", "coordinates": [-88.2776629606, 43.3300978892]}, "type": "Feature", "properties": {"collection_times": [{"days": "Mon-Fri", "time": "5:00pm"}, {"days": "Sat", "time": "11:45am"}, {"days": "Sun", "time": "Closed"}], "id": "5308600000", "name": "USPS COLLECTION BOX - BLUE BOX", "address": {"city": "SLINGER", "state": "WI", "street": "350 E WASHINGTON ST", "postcode": "53086"}}},
{"geometry": {"type": "Point", "coordinates": [-88.2776629606, 43.3300978892]}, "type": "Feature", "properties": {"collection_times": [{"days": "Mon-Fri", "time": "5:00pm"}, {"days": "Sat", "time": "11:45am"}, {"days": "Sun", "time": "Closed"}], "id": "5308600001", "name": "USPS COLLECTION BOX - BLUE BOX", "address": {"city": "SLINGER", "state": "WI", "street": "350 E WASHINGTON ST", "postcode": "53086"}}},
{"geometry": {"type": "Point", "coordinates": [-88.2776629606, 43.3300978892]}, "type": "Feature", "properties": {"collection_times": [{"days": "Mon-Fri", "time": "5:00pm"}, {"days": "Sat", "time": "11:45am"}, {"days": "Sun", "time": "Closed"}], "id": "5308600004", "name": "USPS COLLECTION BOX - PO LOBBY", "address": {"city": "SLINGER", "state": "WI", "street": "350 E WASHINGTON ST", "postcode": "53086"}}},
{"geometry": {"type": "Point", "coordinates": [-88.26449, 43.324646]}, "type": "Feature", "properties": {"collection_times": [{"days": "Mon-Sat", "time": "11:00am"}, {"days": "Sun", "time": "Closed"}], "id": "5308600005", "name": "USPS COLLECTION BOX - BLUE BOX", "address": {"city": "SLINGER", "state": "WI", "street": "1130 E COMMERCE BLVD", "postcode": "53086"}}},
{"geometry": {"type": "Point", "coordinates": [-88.2655269846, 43.3246089596]}, "type": "Feature", "properties": {"collection_times": [{"days": "Mon-Sat", "time": "11:00am"}, {"days": "Sun", "time": "Closed"}], "id": "5308600007", "name": "USPS COLLECTION BOX - BLUE BOX", "address": {"city": "SLINGER", "state": "WI", "street": "1100 E COMMERCE BLVD", "postcode": "53086"}}},
{"geometry": {"type": "Point", "coordinates": [-88.2776629606, 43.3300978892]}, "type": "Feature", "properties": {"collection_times": [{"days": "Mon-Fri", "time": "5:00pm"}, {"days": "Sat", "time": "11:45am"}, {"days": "Sun", "time": "Closed"}], "id": "5308600008", "name": "USPS COLLECTION BOX - PO LOBBY", "address": {"city": "SLINGER", "state": "WI", "street": "350 E WASHINGTON ST", "postcode": "53086"}}},
{"geometry": {"type": "Point", "coordinates": [-88.2776629606, 43.3300978892]}, "type": "Feature", "properties": {"collection_times": [{"days": "Mon-Fri", "time": "5:00pm"}, {"days": "Sat", "time": "11:45am"}, {"days": "Sun", "time": "Closed"}], "id": "5308600009", "name": "USPS COLLECTION BOX - PO LOBBY", "address": {"city": "SLINGER", "state": "WI", "street": "350 E WASHINGTON ST", "postcode": "53086"}}},
{"geometry": {"type": "Point", "coordinates": [-88.2992170616, 44.0790590255]}, "type": "Feature", "properties": {"collection_times": [{"days": "Mon-Fri", "time": "4:00pm"}, {"days": "Sat", "time": "10:00am"}, {"days": "Sun", "time": "Closed"}], "id": "5308800001", "name": "USPS COLLECTION BOX - BLUE BOX", "address": {"city": "STOCKBRIDGE", "state": "WI", "street": "115 S MILITARY RD", "postcode": "53088"}}},
{"geometry": {"type": "Point", "coordinates": [-88.2992170616, 44.0790590255]}, "type": "Feature", "properties": {"collection_times": [{"days": "Mon-Fri", "time": "4:00pm"}, {"days": "Sat", "time": "10:00am"}, {"days": "Sun", "time": "Closed"}], "id": "5308800002", "name": "USPS COLLECTION BOX - PO LOBBY", "address": {"city": "STOCKBRIDGE", "state": "WI", "street": "115 S MILITARY RD", "postcode": "53088"}}},
{"geometry": {"type": "Point", "coordinates": [-88.2346301188, 43.146617308]}, "type": "Feature", "properties": {"collection_times": [{"days": "Mon-Fri", "time": "5:00pm"}, {"days": "Sat", "time": "1:00pm"}, {"days": "Sun", "time": "Closed"}], "id": "5308900000", "name": "USPS COLLECTION BOX - BLUE BOX", "address": {"city": "SUSSEX", "state": "WI", "street": ". N63 W23565 SILVERSPRING DR", "postcode": "53089"}}},
{"geometry": {"type": "Point", "coordinates": [-88.2346301188, 43.146617308]}, "type": "Feature", "properties": {"collection_times": [{"days": "Mon-Fri", "time": "5:00pm"}, {"days": "Sat", "time": "1:00pm"}, {"days": "Sun", "time": "Closed"}], "id": "5308900001", "name": "USPS COLLECTION BOX - BLUE BOX", "address": {"city": "SUSSEX", "state": "WI", "street": ". N63 W23565 SILVERSPRING DR", "postcode": "53089"}}},
{"geometry": {"type": "Point", "coordinates": [-88.2346301188, 43.146617308]}, "type": "Feature", "properties": {"collection_times": [{"days": "Mon-Fri", "time": "5:00pm"}, {"days": "Sat", "time": "1:00pm"}, {"days": "Sun", "time": "Closed"}], "id": "5308900002", "name": "USPS COLLECTION BOX - BLUE BOX", "address": {"city": "SUSSEX", "state": "WI", "street": ". N63 W23565 SILVERSPRING DR", "postcode": "53089"}}},
{"geometry": {"type": "Point", "coordinates": [-88.2346301188, 43.146617308]}, "type": "Feature", "properties": {"collection_times": [{"days": "Mon-Fri", "time": "5:00pm"}, {"days": "Sat", "time": "1:00pm"}, {"days": "Sun", "time": "Closed"}], "id": "5308900003", "name": "USPS COLLECTION BOX - BLUE BOX", "address": {"city": "SUSSEX", "state": "WI", "street": ". N63 W23565 SILVERSPRING DR", "postcode": "53089"}}},
{"geometry": {"type": "Point", "coordinates": [-88.2291368266, 43.1338872771]}, "type": "Feature", "properties": {"collection_times": [{"days": "Mon-Sat", "time": "12:00pm"}, {"days": "Sun", "time": "Closed"}], "id": "5308900007", "name": "USPS COLLECTION BOX - BLUE BOX", "address": {"city": "SUSSEX", "state": "WI", "street": "N64W24300 MAIN ST", "postcode": "53089"}}},
{"geometry": {"type": "Point", "coordinates": [-88.243483209, 43.1372298652]}, "type": "Feature", "properties": {"collection_times": [{"days": "Mon-Sat", "time": "10:00am"}, {"days": "Sun", "time": "Closed"}], "id": "5308900009", "name": "USPS COLLECTION BOX - BLUE BOX", "address": {"city": "SUSSEX", "state": "WI", "street": "N65W24838 MAIN ST", "postcode": "53089"}}},
{"geometry": {"type": "Point", "coordinates": [-88.243176303, 43.1209299847]}, "type": "Feature", "properties": {"collection_times": [{"days": "Mon-Fri", "time": "1:00pm"}, {"days": "Sat", "time": "12:00pm"}, {"days": "Sun", "time": "Closed"}], "id": "5308900010", "name": "USPS COLLECTION BOX - BLUE BOX", "address": {"city": "SUSSEX", "state": "WI", "street": "N57W24950 N CORPORATE CIR", "postcode": "53089"}}},
{"geometry": {"type": "Point", "coordinates": [-88.215584795, 43.132213533]}, "type": "Feature", "properties": {"collection_times": [{"days": "Mon-Fri", "time": "5:00pm"}, {"days": "Sat", "time": "12:00pm"}, {"days": "Sun", "time": "Closed"}], "id": "5308900011", "name": "USPS COLLECTION BOX - PO LOBBY", "address": {"city": "SUSSEX", "state": "WI", "street": "N63W23565 SILVER SPRING DR", "postcode": "53089"}}},
{"geometry": {"type": "Point", "coordinates": [-88.1866650252, 43.4341000925]}, "type": "Feature", "properties": {"collection_times": [{"days": "Mon-Sat", "time": "2:00pm"}, {"days": "Sun", "time": "Closed"}], "id": "5309000003", "name": "USPS COLLECTION BOX - BLUE BOX", "address": {"city": "WEST BEND", "state": "WI", "street": "728 PARK AVE", "postcode": "53090"}}},
{"geometry": {"type": "Point", "coordinates": [-88.4523067415, 43.5180085548]}, "type": "Feature", "properties": {"collection_times": [{"days": "Mon-Fri", "time": "4:30pm"}, {"days": "Sat", "time": "10:00am"}, {"days": "Sun", "time": "Closed"}], "id": "5309100001", "name": "USPS COLLECTION BOX - BLUE BOX", "address": {"city": "THERESA", "state": "WI", "street": "109 CHURCH ST", "postcode": "53091"}}},
{"geometry": {"type": "Point", "coordinates": [-88.4523067415, 43.5180085548]}, "type": "Feature", "properties": {"collection_times": [{"days": "Mon-Fri", "time": "4:30pm"}, {"days": "Sat", "time": "10:00am"}, {"days": "Sun", "time": "Closed"}], "id": "5309100002", "name": "USPS COLLECTION BOX - PO LOBBY", "address": {"city": "THERESA", "state": "WI", "street": "109 CHURCH ST", "postcode": "53091"}}},
{"geometry": {"type": "Point", "coordinates": [-87.9862584025, 43.2362272345]}, "type": "Feature", "properties": {"collection_times": [{"days": "Mon-Fri", "time": "5:00pm"}, {"days": "Sat", "time": "3:30pm"}, {"days": "Sun", "time": "Closed"}], "id": "5309200000", "name": "USPS COLLECTION BOX - BLUE BOX", "address": {"city": "MEQUON", "state": "WI", "street": "124 W FREISTADT RD", "postcode": "53092"}}},
{"geometry": {"type": "Point", "coordinates": [-87.9862584025, 43.2362272345]}, "type": "Feature", "properties": {"collection_times": [{"days": "Mon-Fri", "time": "5:00pm"}, {"days": "Sat", "time": "3:30pm"}, {"days": "Sun", "time": "Closed"}], "id": "5309200002", "name": "USPS COLLECTION BOX - BLUE BOX", "address": {"city": "MEQUON", "state": "WI", "street": "124 W FREISTADT RD", "postcode": "53092"}}},
{"geometry": {"type": "Point", "coordinates": [-87.986257024, 43.236236627]}, "type": "Feature", "properties": {"collection_times": [{"days": "Mon-Fri", "time": "5:00pm"}, {"days": "Sat", "time": "3:30pm"}, {"days": "Sun", "time": "Closed"}], "id": "5309200003", "name": "USPS COLLECTION BOX - PO LOBBY", "address": {"city": "MEQUON", "state": "WI", "street": "124 W FREISTADT RD", "postcode": "53092"}}},
{"geometry": {"type": "Point", "coordinates": [-87.9851946827, 43.2214498792]}, "type": "Feature", "properties": {"collection_times": [{"days": "Mon-Sat", "time": "10:00am"}, {"days": "Sun", "time": "Closed"}], "id": "5309200004", "name": "USPS COLLECTION BOX - BLUE BOX", "address": {"city": "MEQUON", "state": "WI", "street": "6111 W MEQUON RD", "postcode": "53092"}}},
{"geometry": {"type": "Point", "coordinates": [-87.9825133503, 43.2071506619]}, "type": "Feature", "properties": {"collection_times": [{"days": "Mon-Fri", "time": "1:00pm"}, {"days": "Sat-Sun", "time": "Closed"}], "id": "5309200005", "name": "USPS COLLECTION BOX - BLUE BOX", "address": {"city": "MEQUON", "state": "WI", "street": "6020 W DONGES BAY RD", "postcode": "53092"}}},
{"geometry": {"type": "Point", "coordinates": [-87.9533018992, 43.2205435938]}, "type": "Feature", "properties": {"collection_times": [{"days": "Mon-Fri", "time": "2:30pm"}, {"days": "Sat", "time": "12:00pm"}, {"days": "Sun", "time": "Closed"}], "id": "5309200007", "name": "USPS COLLECTION BOX - BLUE BOX", "address": {"city": "MEQUON", "state": "WI", "street": "11111 N MARKET ST", "postcode": "53092"}}},
{"geometry": {"type": "Point", "coordinates": [-87.9248429183, 43.2181799118]}, "type": "Feature", "properties": {"collection_times": [{"days": "Mon-Fri", "time": "2:30pm"}, {"days": "Sat", "time": "12:00pm"}, {"days": "Sun", "time": "Closed"}], "id": "5309200009", "name": "USPS COLLECTION BOX - BLUE BOX", "address": {"city": "MEQUON", "state": "WI", "street": "1324 W TOWNE SQUARE RD", "postcode": "53092"}}},
{"geometry": {"type": "Point", "coordinates": [-87.9255998167, 43.2066532231]}, "type": "Feature", "properties": {"collection_times": [{"days": "Mon-Fri", "time": "2:30pm"}, {"days": "Sat", "time": "12:00pm"}, {"days": "Sun", "time": "Closed"}], "id": "5309200010", "name": "USPS COLLECTION BOX - BLUE BOX", "address": {"city": "MEQUON", "state": "WI", "street": "1403 W DONGES BAY RD", "postcode": "53092"}}},
{"geometry": {"type": "Point", "coordinates": [-87.9239258929, 43.2164486828]}, "type": "Feature", "properties": {"collection_times": [{"days": "Mon-Fri", "time": "3:00pm"}, {"days": "Sat", "time": "12:00pm"}, {"days": "Sun", "time": "Closed"}], "id": "5309200013", "name": "USPS COLLECTION BOX - BLUE BOX", "address": {"city": "MEQUON", "state": "WI", "street": "10928 N PORT WASHINGTON RD", "postcode": "53092"}}},
{"geometry": {"type": "Point", "coordinates": [-87.9239258929, 43.2164486828]}, "type": "Feature", "properties": {"collection_times": [{"days": "Mon-Fri", "time": "3:00pm"}, {"days": "Sat", "time": "12:00pm"}, {"days": "Sun", "time": "Closed"}], "id": "5309200014", "name": "USPS COLLECTION BOX - BLUE BOX", "address": {"city": "MEQUON", "state": "WI", "street": "10928 N PORT WASHINGTON RD", "postcode": "53092"}}},
{"geometry": {"type": "Point", "coordinates": [-87.9533018992, 43.2205435938]}, "type": "Feature", "properties": {"collection_times": [{"days": "Mon-Fri", "time": "3:00pm"}, {"days": "Sat", "time": "12:00pm"}, {"days": "Sun", "time": "Closed"}], "id": "5309200020", "name": "USPS COLLECTION BOX - BLUE BOX", "address": {"city": "MEQUON", "state": "WI", "street": "1399 W EASTBROOK DR", "postcode": "53092"}}},
{"geometry": {"type": "Point", "coordinates": [-87.9231386774, 43.2359262062]}, "type": "Feature", "properties": {"collection_times": [{"days": "Mon-Fri", "time": "3:00pm"}, {"days": "Sat", "time": "11:00am"}, {"days": "Sun", "time": "Closed"}], "id": "5309200022", "name": "USPS COLLECTION BOX - BLUE BOX", "address": {"city": "MEQUON", "state": "WI", "street": "1200 W GLEN OAKS LN", "postcode": "53092"}}},
{"geometry": {"type": "Point", "coordinates": [-87.924220882, 43.256062037]}, "type": "Feature", "properties": {"collection_times": [{"days": "Mon-Fri", "time": "3:00pm"}, {"days": "Sat", "time": "12:00pm"}, {"days": "Sun", "time": "Closed"}], "id": "5309200023", "name": "USPS COLLECTION BOX - BLUE BOX", "address": {"city": "MEQUON", "state": "WI", "street": "13111 N PORT WASHINGTON RD", "postcode": "53092"}}},
{"geometry": {"type": "Point", "coordinates": [-87.986257024, 43.236236627]}, "type": "Feature", "properties": {"collection_times": [{"days": "Mon-Fri", "time": "5:00pm"}, {"days": "Sat", "time": "3:30pm"}, {"days": "Sun", "time": "Closed"}], "id": "5309200024", "name": "USPS COLLECTION BOX - PO LOBBY", "address": {"city": "MEQUON", "state": "WI", "street": "124 W FREISTADT RD", "postcode": "53092"}}},
{"geometry": {"type": "Point", "coordinates": [-87.9862584025, 43.2362272345]}, "type": "Feature", "properties": {"collection_times": [{"days": "Mon-Fri", "time": "5:00pm"}, {"days": "Sat", "time": "3:30pm"}, {"days": "Sun", "time": "Closed"}], "id": "5309200028", "name": "USPS COLLECTION BOX - BLUE BOX", "address": {"city": "MEQUON", "state": "WI", "street": "124 W FREISTADT RD", "postcode": "53092"}}},
{"geometry": {"type": "Point", "coordinates": [-87.9521336928, 43.6754483792]}, "type": "Feature", "properties": {"collection_times": [{"days": "Mon-Fri", "time": "4:00pm"}, {"days": "Sat", "time": "9:00am"}, {"days": "Sun", "time": "Closed"}], "id": "5309300002", "name": "USPS COLLECTION BOX - BLUE BOX", "address": {"city": "WALDO", "state": "WI", "street": "829 2ND ST", "postcode": "53093"}}},
{"geometry": {"type": "Point", "coordinates": [-87.9526022562, 43.6755352073]}, "type": "Feature", "properties": {"collection_times": [{"days": "Mon-Fri", "time": "3:30pm"}, {"days": "Sat", "time": "9:00am"}, {"days": "Sun", "time": "Closed"}], "id": "5309300003", "name": "USPS COLLECTION BOX - PO LOBBY", "address": {"city": "WALDO", "state": "WI", "street": "829 2ND ST", "postcode": "53093"}}},
{"geometry": {"type": "Point", "coordinates": [-87.9409580124, 43.6744289584]}, "type": "Feature", "properties": {"collection_times": [{"days": "Mon-Sat", "time": "1:30pm"}, {"days": "Sun", "time": "Closed"}], "id": "5309300005", "name": "USPS COLLECTION BOX - BLUE BOX", "address": {"city": "WALDO", "state": "WI", "street": "104 S MILL ST", "postcode": "53093"}}},
{"geometry": {"type": "Point", "coordinates": [-88.7215689227, 43.1916058755]}, "type": "Feature", "properties": {"collection_times": [{"days": "Mon-Fri", "time": "5:00pm"}, {"days": "Sat", "time": "4:30pm"}, {"days": "Sun", "time": "Closed"}], "id": "5309400000", "name": "USPS COLLECTION BOX - BLUE BOX", "address": {"city": "WATERTOWN", "state": "WI", "street": "411 DODGE ST", "postcode": "53094"}}},
{"geometry": {"type": "Point", "coordinates": [-88.7215689227, 43.1916058755]}, "type": "Feature", "properties": {"collection_times": [{"days": "Mon-Fri", "time": "5:00pm"}, {"days": "Sat", "time": "4:30pm"}, {"days": "Sun", "time": "Closed"}], "id": "5309400003", "name": "USPS COLLECTION BOX - PO LOBBY", "address": {"city": "WATERTOWN", "state": "WI", "street": "411 DODGE ST", "postcode": "53094"}}},
{"geometry": {"type": "Point", "coordinates": [-88.7215689227, 43.1916058755]}, "type": "Feature", "properties": {"collection_times": [{"days": "Mon-Fri", "time": "5:00pm"}, {"days": "Sat", "time": "4:30pm"}, {"days": "Sun", "time": "Closed"}], "id": "5309400004", "name": "USPS COLLECTION BOX - PO LOBBY", "address": {"city": "WATERTOWN", "state": "WI", "street": "411 DODGE ST", "postcode": "53094"}}},
{"geometry": {"type": "Point", "coordinates": [-88.725840276, 43.1968320106]}, "type": "Feature", "properties": {"collection_times": [{"days": "Mon-Sat", "time": "2:00pm"}, {"days": "Sun", "time": "Closed"}], "id": "5309400008", "name": "USPS COLLECTION BOX - BLUE BOX", "address": {"city": "WATERTOWN", "state": "WI", "street": "304 N WATER ST", "postcode": "53094"}}},
{"geometry": {"type": "Point", "coordinates": [-88.7236875072, 43.1958297148]}, "type": "Feature", "properties": {"collection_times": [{"days": "Mon-Sat", "time": "2:30pm"}, {"days": "Sun", "time": "Closed"}], "id": "5309400010", "name": "USPS COLLECTION BOX - BLUE BOX", "address": {"city": "WATERTOWN", "state": "WI", "street": "106 JONES ST", "postcode": "53094"}}},
{"geometry": {"type": "Point", "coordinates": [-88.7299003807, 43.1880805799]}, "type": "Feature", "properties": {"collection_times": [{"days": "Mon-Sat", "time": "10:00am"}, {"days": "Sun", "time": "Closed"}], "id": "5309400019", "name": "USPS COLLECTION BOX - BLUE BOX", "address": {"city": "WATERTOWN", "state": "WI", "street": "624 S CHURCH ST", "postcode": "53094"}}},
{"geometry": {"type": "Point", "coordinates": [-88.2011184178, 43.4256028982]}, "type": "Feature", "properties": {"collection_times": [{"days": "Mon-Sat", "time": "2:00pm"}, {"days": "Sun", "time": "Closed"}], "id": "5309500010", "name": "USPS COLLECTION BOX - BLUE BOX", "address": {"city": "WEST BEND", "state": "WI", "street": "230 S 18TH AVE", "postcode": "53095"}}},
{"geometry": {"type": "Point", "coordinates": [-88.1810992033, 43.4097914687]}, "type": "Feature", "properties": {"collection_times": [{"days": "Mon-Sat", "time": "2:00pm"}, {"days": "Sun", "time": "Closed"}], "id": "5309500017", "name": "USPS COLLECTION BOX - BLUE BOX", "address": {"city": "WEST BEND", "state": "WI", "street": "868 S MAIN ST", "postcode": "53095"}}},
{"geometry": {"type": "Point", "coordinates": [-88.1807709785, 43.400088293]}, "type": "Feature", "properties": {"collection_times": [{"days": "Mon-Sat", "time": "2:45pm"}, {"days": "Sun", "time": "Closed"}], "id": "5309500019", "name": "USPS COLLECTION BOX - BLUE BOX", "address": {"city": "WEST BEND", "state": "WI", "street": "1629 S MAIN ST", "postcode": "53095"}}},
{"geometry": {"type": "Point", "coordinates": [-88.1809229424, 43.4116640928]}, "type": "Feature", "properties": {"collection_times": [{"days": "Mon-Sat", "time": "2:45pm"}, {"days": "Sun", "time": "Closed"}], "id": "5309500021", "name": "USPS COLLECTION BOX - BLUE BOX", "address": {"city": "WEST BEND", "state": "WI", "street": "819 S MAIN ST", "postcode": "53095"}}},
{"geometry": {"type": "Point", "coordinates": [-88.1810282257, 43.4166940343]}, "type": "Feature", "properties": {"collection_times": [{"days": "Mon-Sat", "time": "2:30pm"}, {"days": "Sun", "time": "Closed"}], "id": "5309500023", "name": "USPS COLLECTION BOX - BLUE BOX", "address": {"city": "WEST BEND", "state": "WI", "street": "601 S MAIN ST", "postcode": "53095"}}},
{"geometry": {"type": "Point", "coordinates": [-88.1810839072, 43.3986818634]}, "type": "Feature", "properties": {"collection_times": [{"days": "Mon-Sat", "time": "2:45pm"}, {"days": "Sun", "time": "Closed"}], "id": "5309500025", "name": "USPS COLLECTION BOX - BLUE BOX", "address": {"city": "WEST BEND", "state": "WI", "street": "1800 S MAIN ST", "postcode": "53095"}}},
{"geometry": {"type": "Point", "coordinates": [-88.1840305756, 43.4247227768]}, "type": "Feature", "properties": {"collection_times": [{"days": "Mon-Fri", "time": "5:15pm"}, {"days": "Sat", "time": "4:30pm"}, {"days": "Sun", "time": "Closed"}], "id": "5309500027", "name": "USPS COLLECTION BOX - BLUE BOX", "address": {"city": "WEST BEND", "state": "WI", "street": "607 ELM ST", "postcode": "53095"}}},
{"geometry": {"type": "Point", "coordinates": [-88.1840305756, 43.4247227768]}, "type": "Feature", "properties": {"collection_times": [{"days": "Mon-Fri", "time": "5:15pm"}, {"days": "Sat", "time": "4:30pm"}, {"days": "Sun", "time": "Closed"}], "id": "5309500029", "name": "USPS COLLECTION BOX - BLUE BOX", "address": {"city": "WEST BEND", "state": "WI", "street": "607 ELM ST", "postcode": "53095"}}},
{"geometry": {"type": "Point", "coordinates": [-88.183960568, 43.424712378]}, "type": "Feature", "properties": {"collection_times": [{"days": "Mon-Fri", "time": "5:15pm"}, {"days": "Sat", "time": "4:30pm"}, {"days": "Sun", "time": "Closed"}], "id": "5309500031", "name": "USPS COLLECTION BOX - PO LOBBY", "address": {"city": "WEST BEND", "state": "WI", "street": "607 ELM ST", "postcode": "53095"}}},
{"geometry": {"type": "Point", "coordinates": [-88.1840305756, 43.4247227768]}, "type": "Feature", "properties": {"collection_times": [{"days": "Mon-Fri", "time": "5:15pm"}, {"days": "Sat", "time": "4:30pm"}, {"days": "Sun", "time": "Closed"}], "id": "5309500032", "name": "USPS COLLECTION BOX - BLUE BOX", "address": {"city": "WEST BEND", "state": "WI", "street": "607 ELM ST", "postcode": "53095"}}},
{"geometry": {"type": "Point", "coordinates": [-88.2356478071, 43.427425838]}, "type": "Feature", "properties": {"collection_times": [{"days": "Mon-Fri", "time": "2:00pm"}, {"days": "Sat", "time": "1:00pm"}, {"days": "Sun", "time": "Closed"}], "id": "5309500034", "name": "USPS COLLECTION BOX - BLUE BOX", "address": {"city": "WEST BEND", "state": "WI", "street": "3710 W WASHINGTON ST", "postcode": "53095"}}},
{"geometry": {"type": "Point", "coordinates": [-88.1868578475, 43.3976685052]}, "type": "Feature", "properties": {"collection_times": [{"days": "Mon-Sat", "time": "2:00pm"}, {"days": "Sun", "time": "Closed"}], "id": "5309500035", "name": "USPS COLLECTION BOX - BLUE BOX", "address": {"city": "WEST BEND", "state": "WI", "street": "815 W PARADISE DR", "postcode": "53095"}}},
{"geometry": {"type": "Point", "coordinates": [-88.1809892193, 43.3934943488]}, "type": "Feature", "properties": {"collection_times": [{"days": "Mon-Sat", "time": "1:00pm"}, {"days": "Sun", "time": "Closed"}], "id": "5309500036", "name": "USPS COLLECTION BOX - BLUE BOX", "address": {"city": "WEST BEND", "state": "WI", "street": "2450 S MAIN ST", "postcode": "53095"}}},
{"geometry": {"type": "Point", "coordinates": [-88.2179269435, 43.4271341819]}, "type": "Feature", "properties": {"collection_times": [{"days": "Mon-Sat", "time": "1:00pm"}, {"days": "Sun", "time": "Closed"}], "id": "5309500037", "name": "USPS COLLECTION BOX - BLUE BOX", "address": {"city": "WEST BEND", "state": "WI", "street": "2575 E WASHINGTON ST", "postcode": "53095"}}},
{"geometry": {"type": "Point", "coordinates": [-88.6990163825, 43.1994625477]}, "type": "Feature", "properties": {"collection_times": [{"days": "Mon-Sat", "time": "10:30am"}, {"days": "Sun", "time": "Closed"}], "id": "5309800001", "name": "USPS COLLECTION BOX - BLUE BOX", "address": {"city": "WATERTOWN", "state": "WI", "street": "123 HOSPITAL DR", "postcode": "53098"}}},
{"geometry": {"type": "Point", "coordinates": [-88.7012829677, 43.2012311894]}, "type": "Feature", "properties": {"collection_times": [{"days": "Mon-Sat", "time": "10:30am"}, {"days": "Sun", "time": "Closed"}], "id": "5309800003", "name": "USPS COLLECTION BOX - BLUE BOX", "address": {"city": "WATERTOWN", "state": "WI", "street": "1330 MEMORIAL DR", "postcode": "53098"}}},
{"geometry": {"type": "Point", "coordinates": [-88.5301178817, 43.3965333917]}, "type": "Feature", "properties": {"collection_times": [{"days": "Mon-Sat", "time": "10:00am"}, {"days": "Sun", "time": "Closed"}], "id": "5309900001", "name": "USPS COLLECTION BOX - BLUE BOX", "address": {"city": "WOODLAND", "state": "WI", "street": "N5002 COUNTY ROAD WS", "postcode": "53099"}}}
]}
