{"type": "FeatureCollection", "features": [
{"geometry": {"type": "Point", "coordinates": [-88.2072100104, 42.8773518403]}, "type": "Feature", "properties": {"collection_times": [{"days": "Mon-Fri", "time": "11:30am"}, {"days": "Sat", "time": "11:00am"}, {"days": "Sun", "time": "Closed"}], "id": "5310300001", "name": "USPS COLLECTION BOX - BLUE BOX", "address": {"city": "BIG BEND", "state": "WI", "street": "W229S9180 CLARK ST", "postcode": "53103"}}},
{"geometry": {"type": "Point", "coordinates": [-88.2145473226, 42.8798620804]}, "type": "Feature", "properties": {"collection_times": [{"days": "Mon-Fri", "time": "11:30am"}, {"days": "Sat", "time": "11:00am"}, {"days": "Sun", "time": "Closed"}], "id": "5310300002", "name": "USPS COLLECTION BOX - BLUE BOX", "address": {"city": "BIG BEND", "state": "WI", "street": "W236S7050 BIG BEND DR", "postcode": "53103"}}},
{"geometry": {"type": "Point", "coordinates": [-88.2391694251, 42.886183528]}, "type": "Feature", "properties": {"collection_times": [{"days": "Mon-Fri", "time": "4:30pm"}, {"days": "Sat", "time": "11:00am"}, {"days": "Sun", "time": "Closed"}], "id": "5310300003", "name": "USPS COLLECTION BOX - BLUE BOX", "address": {"city": "BIG BEND", "state": "WI", "street": "S87W22530 EDGEWOOD AVE", "postcode": "53103"}}},
{"geometry": {"type": "Point", "coordinates": [-88.2391694251, 42.886183528]}, "type": "Feature", "properties": {"collection_times": [{"days": "Mon-Fri", "time": "4:30pm"}, {"days": "Sat", "time": "11:00am"}, {"days": "Sun", "time": "Closed"}], "id": "5310300004", "name": "USPS COLLECTION BOX - PO LOBBY", "address": {"city": "BIG BEND", "state": "WI", "street": "S87W22530 EDGEWOOD AVE", "postcode": "53103"}}},
{"geometry": {"type": "Point", "coordinates": [-88.2391694251, 42.886183528]}, "type": "Feature", "properties": {"collection_times": [{"days": "Mon-Fri", "time": "4:30pm"}, {"days": "Sat", "time": "11:00am"}, {"days": "Sun", "time": "Closed"}], "id": "5310300005", "name": "USPS COLLECTION BOX - PO LOBBY", "address": {"city": "BIG BEND", "state": "WI", "street": "S87W22530 EDGEWOOD AVE", "postcode": "53103"}}},
{"geometry": {"type": "Point", "coordinates": [-88.0491437688, 42.5584584762]}, "type": "Feature", "properties": {"collection_times": [{"days": "Mon-Fri", "time": "4:30pm"}, {"days": "Sat", "time": "11:00am"}, {"days": "Sun", "time": "Closed"}], "id": "5310400003", "name": "USPS COLLECTION BOX - BLUE BOX", "address": {"city": "BRISTOL", "state": "WI", "street": "8223 199TH AVE", "postcode": "53104"}}},
{"geometry": {"type": "Point", "coordinates": [-88.0491437688, 42.5584584762]}, "type": "Feature", "properties": {"collection_times": [{"days": "Mon-Fri", "time": "4:30pm"}, {"days": "Sat", "time": "11:00am"}, {"days": "Sun", "time": "Closed"}], "id": "5310400004", "name": "USPS COLLECTION BOX - PO LOBBY", "address": {"city": "BRISTOL", "state": "WI", "street": "8223 199TH AVE", "postcode": "53104"}}},
{"geometry": {"type": "Point", "coordinates": [-88.0491437688, 42.5584584762]}, "type": "Feature", "properties": {"collection_times": [{"days": "Mon-Fri", "time": "4:30pm"}, {"days": "Sat", "time": "11:00am"}, {"days": "Sun", "time": "Closed"}], "id": "5310400005", "name": "USPS COLLECTION BOX - PO LOBBY", "address": {"city": "BRISTOL", "state": "WI", "street": "8223 199TH AVE", "postcode": "53104"}}},
{"geometry": {"type": "Point", "coordinates": [-88.0491437688, 42.5584584762]}, "type": "Feature", "properties": {"collection_times": [{"days": "Mon-Fri", "time": "4:30pm"}, {"days": "Sat", "time": "11:00am"}, {"days": "Sun", "time": "Closed"}], "id": "5310400006", "name": "USPS COLLECTION BOX - PO LOBBY", "address": {"city": "BRISTOL", "state": "WI", "street": "8223 199TH AVE", "postcode": "53104"}}},
{"geometry": {"type": "Point", "coordinates": [-88.2741436577, 42.6764941336]}, "type": "Feature", "properties": {"collection_times": [{"days": "Mon-Fri", "time": "5:00pm"}, {"days": "Sat", "time": "3:00pm"}, {"days": "Sun", "time": "Closed"}], "id": "5310500000", "name": "USPS COLLECTION BOX - PO LOBBY", "address": {"city": "BURLINGTON", "state": "WI", "street": "100 S PINE ST", "postcode": "53105"}}},
{"geometry": {"type": "Point", "coordinates": [-88.273335599, 42.6772313878]}, "type": "Feature", "properties": {"collection_times": [{"days": "Mon-Fri", "time": "5:00pm"}, {"days": "Sat", "time": "3:00pm"}, {"days": "Sun", "time": "Closed"}], "id": "5310500001", "name": "USPS COLLECTION BOX - BLUE BOX", "address": {"city": "BURLINGTON", "state": "WI", "street": "100 S PINE ST", "postcode": "53105"}}},
{"geometry": {"type": "Point", "coordinates": [-88.273335599, 42.6772313878]}, "type": "Feature", "properties": {"collection_times": [{"days": "Mon-Fri", "time": "5:00pm"}, {"days": "Sat", "time": "3:00pm"}, {"days": "Sun", "time": "Closed"}], "id": "5310500003", "name": "USPS COLLECTION BOX - BLUE BOX", "address": {"city": "BURLINGTON", "state": "WI", "street": "100 S PINE ST", "postcode": "53105"}}},
{"geometry": {"type": "Point", "coordinates": [-88.2786001922, 42.6793006923]}, "type": "Feature", "properties": {"collection_times": [{"days": "Mon-Sat", "time": "11:15am"}, {"days": "Sun", "time": "Closed"}], "id": "5310500009", "name": "USPS COLLECTION BOX - BLUE BOX", "address": {"city": "BURLINGTON", "state": "WI", "street": "419 MILWAUKEE AVE", "postcode": "53105"}}},
{"geometry": {"type": "Point", "coordinates": [-88.265231608, 42.6922641186]}, "type": "Feature", "properties": {"collection_times": [{"days": "Mon-Sat", "time": "11:00am"}, {"days": "Sun", "time": "Closed"}], "id": "5310500012", "name": "USPS COLLECTION BOX - BLUE BOX", "address": {"city": "BURLINGTON", "state": "WI", "street": "1088 MILWAUKEE AVE", "postcode": "53105"}}},
{"geometry": {"type": "Point", "coordinates": [-88.2682667176, 42.6696708263]}, "type": "Feature", "properties": {"collection_times": [{"days": "Mon-Sat", "time": "2:30pm"}, {"days": "Sun", "time": "Closed"}], "id": "5310500022", "name": "USPS COLLECTION BOX - BLUE BOX", "address": {"city": "BURLINGTON", "state": "WI", "street": "465 N PINE ST", "postcode": "53105"}}},
{"geometry": {"type": "Point", "coordinates": [-87.9252573524, 42.8075376292]}, "type": "Feature", "properties": {"collection_times": [{"days": "Mon-Fri", "time": "4:30pm"}, {"days": "Sat", "time": "10:15am"}, {"days": "Sun", "time": "Closed"}], "id": "5310800002", "name": "USPS COLLECTION BOX - BLUE BOX", "address": {"city": "CALEDONIA", "state": "WI", "street": "11510 COUNTY ROAD G", "postcode": "53108"}}},
{"geometry": {"type": "Point", "coordinates": [-87.9252573524, 42.8075376292]}, "type": "Feature", "properties": {"collection_times": [{"days": "Mon-Fri", "time": "1:45pm"}, {"days": "Sat", "time": "10:15am"}, {"days": "Sun", "time": "Closed"}], "id": "5310800003", "name": "USPS COLLECTION BOX - PO LOBBY", "address": {"city": "CALEDONIA", "state": "WI", "street": "11510 COUNTY ROAD G", "postcode": "53108"}}},
{"geometry": {"type": "Point", "coordinates": [-88.1437322938, 42.5363265595]}, "type": "Feature", "properties": {"collection_times": [{"days": "Mon-Fri", "time": "4:15pm"}, {"days": "Sat", "time": "12:45pm"}, {"days": "Sun", "time": "Closed"}], "id": "5310900001", "name": "USPS COLLECTION BOX - BLUE BOX", "address": {"city": "CAMP LAKE", "state": "WI", "street": "9540 CAMP LAKE RD", "postcode": "53109"}}},
{"geometry": {"type": "Point", "coordinates": [-88.1437322938, 42.5363265595]}, "type": "Feature", "properties": {"collection_times": [{"days": "Mon-Fri", "time": "11:45am"}, {"days": "Sat", "time": "12:45pm"}, {"days": "Sun", "time": "Closed"}], "id": "5310900002", "name": "USPS COLLECTION BOX - PO LOBBY", "address": {"city": "CAMP LAKE", "state": "WI", "street": "9540 CAMP LAKE RD", "postcode": "53109"}}},
{"geometry": {"type": "Point", "coordinates": [-87.8499527929, 42.9372796766]}, "type": "Feature", "properties": {"collection_times": [{"days": "Mon-Sat", "time": "1:00pm"}, {"days": "Sun", "time": "Closed"}], "id": "5311000007", "name": "USPS COLLECTION BOX - BLUE BOX", "address": {"city": "CUDAHY", "state": "WI", "street": "3900 E RAMSEY AVE", "postcode": "53110"}}},
{"geometry": {"type": "Point", "coordinates": [-87.8610673187, 42.9343309571]}, "type": "Feature", "properties": {"collection_times": [{"days": "Mon-Sat", "time": "10:00am"}, {"days": "Sun", "time": "Closed"}], "id": "5311000018", "name": "USPS COLLECTION BOX - BLUE BOX", "address": {"city": "CUDAHY", "state": "WI", "street": "6077 S PACKARD AVE", "postcode": "53110"}}},
{"geometry": {"type": "Point", "coordinates": [-87.8605307416, 42.960037217]}, "type": "Feature", "properties": {"collection_times": [{"days": "Mon-Sat", "time": "10:00am"}, {"days": "Sun", "time": "Closed"}], "id": "5311000025", "name": "USPS COLLECTION BOX - BLUE BOX", "address": {"city": "CUDAHY", "state": "WI", "street": "3570 E PLANKINTON AVE", "postcode": "53110"}}},
{"geometry": {"type": "Point", "coordinates": [-87.8599731626, 42.9401212708]}, "type": "Feature", "properties": {"collection_times": [{"days": "Mon-Sat", "time": "12:00pm"}, {"days": "Sun", "time": "Closed"}], "id": "5311000028", "name": "USPS COLLECTION BOX - BLUE BOX", "address": {"city": "CUDAHY", "state": "WI", "street": "5656 S PACKARD AVE", "postcode": "53110"}}},
{"geometry": {"type": "Point", "coordinates": [-87.8500041868, 42.952786936]}, "type": "Feature", "properties": {"collection_times": [{"days": "Mon-Sat", "time": "1:00pm"}, {"days": "Sun", "time": "Closed"}], "id": "5311000029", "name": "USPS COLLECTION BOX - BLUE BOX", "address": {"city": "CUDAHY", "state": "WI", "street": "5050 S LAKE DR", "postcode": "53110"}}},
{"geometry": {"type": "Point", "coordinates": [-87.8605788373, 42.9600363852]}, "type": "Feature", "properties": {"collection_times": [{"days": "Mon-Fri", "time": "4:30pm"}, {"days": "Sat", "time": "12:00pm"}, {"days": "Sun", "time": "Closed"}], "id": "5311000032", "name": "USPS COLLECTION BOX - PO LOBBY", "address": {"city": "CUDAHY", "state": "WI", "street": "5656 S PACKARD AVE", "postcode": "53110"}}},
{"geometry": {"type": "Point", "coordinates": [-88.7075475886, 42.600240859]}, "type": "Feature", "properties": {"collection_times": [{"days": "Mon-Fri", "time": "4:15pm"}, {"days": "Sat", "time": "11:00am"}, {"days": "Sun", "time": "Closed"}], "id": "5311400001", "name": "USPS COLLECTION BOX - BLUE BOX", "address": {"city": "DARIEN", "state": "WI", "street": "1 E BELOIT ST", "postcode": "53114"}}},
{"geometry": {"type": "Point", "coordinates": [-88.7075475886, 42.600240859]}, "type": "Feature", "properties": {"collection_times": [{"days": "Mon-Fri", "time": "4:30pm"}, {"days": "Sat", "time": "11:00am"}, {"days": "Sun", "time": "Closed"}], "id": "5311400002", "name": "USPS COLLECTION BOX - PO LOBBY", "address": {"city": "DARIEN", "state": "WI", "street": "1 E BELOIT ST", "postcode": "53114"}}},
{"geometry": {"type": "Point", "coordinates": [-88.7075475886, 42.600240859]}, "type": "Feature", "properties": {"collection_times": [{"days": "Mon-Fri", "time": "4:30pm"}, {"days": "Sat", "time": "11:00am"}, {"days": "Sun", "time": "Closed"}], "id": "5311400003", "name": "USPS COLLECTION BOX - PO LOBBY", "address": {"city": "DARIEN", "state": "WI", "street": "1 E BELOIT ST", "postcode": "53114"}}},
{"geometry": {"type": "Point", "coordinates": [-88.6432799968, 42.6331624454]}, "type": "Feature", "properties": {"collection_times": [{"days": "Mon-Fri", "time": "5:00pm"}, {"days": "Sat", "time": "3:00pm"}, {"days": "Sun", "time": "Closed"}], "id": "5311500002", "name": "USPS COLLECTION BOX - BLUE BOX", "address": {"city": "DELAVAN", "state": "WI", "street": "335 E WALWORTH AVE", "postcode": "53115"}}},
{"geometry": {"type": "Point", "coordinates": [-88.6254235502, 42.6154852506]}, "type": "Feature", "properties": {"collection_times": [{"days": "Mon-Sat", "time": "10:00am"}, {"days": "Sun", "time": "Closed"}], "id": "5311500003", "name": "USPS COLLECTION BOX - BLUE BOX", "address": {"city": "DELAVAN", "state": "WI", "street": "1414 BORG RD", "postcode": "53115"}}},
{"geometry": {"type": "Point", "coordinates": [-88.6448155887, 42.6341765238]}, "type": "Feature", "properties": {"collection_times": [{"days": "Mon-Fri", "time": "5:00pm"}, {"days": "Sat", "time": "3:00pm"}, {"days": "Sun", "time": "Closed"}], "id": "5311500004", "name": "USPS COLLECTION BOX - BLUE BOX", "address": {"city": "DELAVAN", "state": "WI", "street": "300 MCDOWELL ST", "postcode": "53115"}}},
{"geometry": {"type": "Point", "coordinates": [-88.6448155887, 42.6341765238]}, "type": "Feature", "properties": {"collection_times": [{"days": "Mon-Fri", "time": "5:00pm"}, {"days": "Sat", "time": "3:00pm"}, {"days": "Sun", "time": "Closed"}], "id": "5311500006", "name": "USPS COLLECTION BOX - BLUE BOX", "address": {"city": "DELAVAN", "state": "WI", "street": "300 MCDOWELL ST", "postcode": "53115"}}},
{"geometry": {"type": "Point", "coordinates": [-88.625713484, 42.6308676478]}, "type": "Feature", "properties": {"collection_times": [{"days": "Mon-Sat", "time": "10:00am"}, {"days": "Sun", "time": "Closed"}], "id": "5311500007", "name": "USPS COLLECTION BOX - BLUE BOX", "address": {"city": "DELAVAN", "state": "WI", "street": "207 S WRIGHT ST", "postcode": "53115"}}},
{"geometry": {"type": "Point", "coordinates": [-88.6358127533, 42.6274277836]}, "type": "Feature", "properties": {"collection_times": [{"days": "Mon-Sat", "time": "10:30am"}, {"days": "Sun", "time": "Closed"}], "id": "5311500013", "name": "USPS COLLECTION BOX - BLUE BOX", "address": {"city": "DELAVAN", "state": "WI", "street": "820 E GENEVA ST", "postcode": "53115"}}},
{"geometry": {"type": "Point", "coordinates": [-88.6432799968, 42.6331624454]}, "type": "Feature", "properties": {"collection_times": [{"days": "Mon-Fri", "time": "5:00pm"}, {"days": "Sat", "time": "3:00pm"}, {"days": "Sun", "time": "Closed"}], "id": "5311500014", "name": "USPS COLLECTION BOX - PO LOBBY", "address": {"city": "DELAVAN", "state": "WI", "street": "335 E WALWORTH AVE", "postcode": "53115"}}},
{"geometry": {"type": "Point", "coordinates": [-88.6432799968, 42.6331624454]}, "type": "Feature", "properties": {"collection_times": [{"days": "Mon-Fri", "time": "5:00pm"}, {"days": "Sat", "time": "3:00pm"}, {"days": "Sun", "time": "Closed"}], "id": "5311500015", "name": "USPS COLLECTION BOX - PO LOBBY", "address": {"city": "DELAVAN", "state": "WI", "street": "335 E WALWORTH AVE", "postcode": "53115"}}},
{"geometry": {"type": "Point", "coordinates": [-88.4727482724, 43.0177458552]}, "type": "Feature", "properties": {"collection_times": [{"days": "Mon-Fri", "time": "4:30pm"}, {"days": "Sat", "time": "10:45am"}, {"days": "Sun", "time": "Closed"}], "id": "5311800000", "name": "USPS COLLECTION BOX - BLUE BOX", "address": {"city": "DOUSMAN", "state": "WI", "street": "271 N MAIN ST", "postcode": "53118"}}},
{"geometry": {"type": "Point", "coordinates": [-88.4727482724, 43.0177458552]}, "type": "Feature", "properties": {"collection_times": [{"days": "Mon-Fri", "time": "4:30pm"}, {"days": "Sat", "time": "10:45am"}, {"days": "Sun", "time": "Closed"}], "id": "5311800002", "name": "USPS COLLECTION BOX - PO LOBBY", "address": {"city": "DOUSMAN", "state": "WI", "street": "271 N MAIN ST", "postcode": "53118"}}},
{"geometry": {"type": "Point", "coordinates": [-88.4624718956, 43.0163901376]}, "type": "Feature", "properties": {"collection_times": [{"days": "Mon-Sat", "time": "10:00am"}, {"days": "Sun", "time": "Closed"}], "id": "5311800004", "name": "USPS COLLECTION BOX - BLUE BOX", "address": {"city": "DOUSMAN", "state": "WI", "street": "159A HIGHWAY 67", "postcode": "53118"}}},
{"geometry": {"type": "Point", "coordinates": [-88.4673373111, 42.8789033603]}, "type": "Feature", "properties": {"collection_times": [{"days": "Mon-Fri", "time": "4:00pm"}, {"days": "Sat", "time": "10:30am"}, {"days": "Sun", "time": "Closed"}], "id": "5311900002", "name": "USPS COLLECTION BOX - BLUE BOX", "address": {"city": "EAGLE", "state": "WI", "street": "104 MARKHAM RD", "postcode": "53119"}}},
{"geometry": {"type": "Point", "coordinates": [-88.4834095744, 42.8873212017]}, "type": "Feature", "properties": {"collection_times": [{"days": "Mon-Fri", "time": "4:30pm"}, {"days": "Sat", "time": "10:30am"}, {"days": "Sun", "time": "Closed"}], "id": "5311900004", "name": "USPS COLLECTION BOX - PO LOBBY", "address": {"city": "EAGLE", "state": "WI", "street": "104 MARKHAM RD", "postcode": "53119"}}},
{"geometry": {"type": "Point", "coordinates": [-88.4834095744, 42.8873212017]}, "type": "Feature", "properties": {"collection_times": [{"days": "Mon-Fri", "time": "4:30pm"}, {"days": "Sat", "time": "10:30am"}, {"days": "Sun", "time": "Closed"}], "id": "5311900005", "name": "USPS COLLECTION BOX - PO LOBBY", "address": {"city": "EAGLE", "state": "WI", "street": "104 MARKHAM RD", "postcode": "53119"}}},
{"geometry": {"type": "Point", "coordinates": [-88.4245972258, 42.7834052449]}, "type": "Feature", "properties": {"collection_times": [{"days": "Mon-Sat", "time": "11:00am"}, {"days": "Sun", "time": "Closed"}], "id": "5312000003", "name": "USPS COLLECTION BOX - BLUE BOX", "address": {"city": "EAST TROY", "state": "WI", "street": "3284 MAIN ST", "postcode": "53120"}}},
{"geometry": {"type": "Point", "coordinates": [-88.4037391782, 42.7848555408]}, "type": "Feature", "properties": {"collection_times": [{"days": "Mon-Fri", "time": "5:00pm"}, {"days": "Sat", "time": "11:30am"}, {"days": "Sun", "time": "Closed"}], "id": "5312000004", "name": "USPS COLLECTION BOX - PO LOBBY", "address": {"city": "EAST TROY", "state": "WI", "street": "2099 MILL ST", "postcode": "53120"}}},
{"geometry": {"type": "Point", "coordinates": [-88.4037391782, 42.7848555408]}, "type": "Feature", "properties": {"collection_times": [{"days": "Mon-Fri", "time": "5:00pm"}, {"days": "Sat", "time": "11:30am"}, {"days": "Sun", "time": "Closed"}], "id": "5312000005", "name": "USPS COLLECTION BOX - PO LOBBY", "address": {"city": "EAST TROY", "state": "WI", "street": "2099 MILL ST", "postcode": "53120"}}},
{"geometry": {"type": "Point", "coordinates": [-88.4037391782, 42.7848555408]}, "type": "Feature", "properties": {"collection_times": [{"days": "Mon-Fri", "time": "5:00pm"}, {"days": "Sat", "time": "11:30am"}, {"days": "Sun", "time": "Closed"}], "id": "5312000006", "name": "USPS COLLECTION BOX - BLUE BOX", "address": {"city": "EAST TROY", "state": "WI", "street": "2099 MILL ST", "postcode": "53120"}}},
{"geometry": {"type": "Point", "coordinates": [-88.5422377846, 42.6719652854]}, "type": "Feature", "properties": {"collection_times": [{"days": "Mon-Fri", "time": "5:00pm"}, {"days": "Sat", "time": "2:45pm"}, {"days": "Sun", "time": "Closed"}], "id": "5312100001", "name": "USPS COLLECTION BOX - BLUE BOX", "address": {"city": "ELKHORN", "state": "WI", "street": "102 E WALWORTH ST", "postcode": "53121"}}},
{"geometry": {"type": "Point", "coordinates": [-88.5422377846, 42.6719652854]}, "type": "Feature", "properties": {"collection_times": [{"days": "Mon-Fri", "time": "5:00pm"}, {"days": "Sat", "time": "2:45pm"}, {"days": "Sun", "time": "Closed"}], "id": "5312100003", "name": "USPS COLLECTION BOX - BLUE BOX", "address": {"city": "ELKHORN", "state": "WI", "street": "102 E WALWORTH ST", "postcode": "53121"}}},
{"geometry": {"type": "Point", "coordinates": [-88.5414136406, 42.687892996]}, "type": "Feature", "properties": {"collection_times": [{"days": "Mon-Sat", "time": "10:00am"}, {"days": "Sun", "time": "Closed"}], "id": "5312100004", "name": "USPS COLLECTION BOX - BLUE BOX", "address": {"city": "ELKHORN", "state": "WI", "street": "801 N WISCONSIN ST", "postcode": "53121"}}},
{"geometry": {"type": "Point", "coordinates": [-88.5443438968, 42.691758326]}, "type": "Feature", "properties": {"collection_times": [{"days": "Mon-Sat", "time": "10:00am"}, {"days": "Sun", "time": "Closed"}], "id": "5312100005", "name": "USPS COLLECTION BOX - BLUE BOX", "address": {"city": "ELKHORN", "state": "WI", "street": "58 W MARKET ST", "postcode": "53121"}}},
{"geometry": {"type": "Point", "coordinates": [-88.5419006338, 42.6718815561]}, "type": "Feature", "properties": {"collection_times": [{"days": "Mon-Fri", "time": "5:00pm"}, {"days": "Sat", "time": "2:30pm"}, {"days": "Sun", "time": "Closed"}], "id": "5312100009", "name": "USPS COLLECTION BOX - BLUE BOX", "address": {"city": "ELKHORN", "state": "WI", "street": "101 E WALWORTH ST", "postcode": "53121"}}},
{"geometry": {"type": "Point", "coordinates": [-88.5422377846, 42.6719652854]}, "type": "Feature", "properties": {"collection_times": [{"days": "Mon-Fri", "time": "5:00pm"}, {"days": "Sat", "time": "2:45pm"}, {"days": "Sun", "time": "Closed"}], "id": "5312100012", "name": "USPS COLLECTION BOX - PO LOBBY", "address": {"city": "ELKHORN", "state": "WI", "street": "102 E WALWORTH ST", "postcode": "53121"}}},
{"geometry": {"type": "Point", "coordinates": [-88.5422377846, 42.6719652854]}, "type": "Feature", "properties": {"collection_times": [{"days": "Mon-Fri", "time": "5:00pm"}, {"days": "Sat", "time": "2:45pm"}, {"days": "Sun", "time": "Closed"}], "id": "5312100013", "name": "USPS COLLECTION BOX - PO LOBBY", "address": {"city": "ELKHORN", "state": "WI", "street": "102 E WALWORTH ST", "postcode": "53121"}}},
{"geometry": {"type": "Point", "coordinates": [-88.0791979351, 43.0429677233]}, "type": "Feature", "properties": {"collection_times": [{"days": "Mon-Fri", "time": "5:00pm"}, {"days": "Sat", "time": "12:00pm"}, {"days": "Sun", "time": "Closed"}], "id": "5312200003", "name": "USPS COLLECTION BOX - BLUE BOX", "address": {"city": "ELM GROVE", "state": "WI", "street": "13425 WATERTOWN PLANK RD", "postcode": "53122"}}},
{"geometry": {"type": "Point", "coordinates": [-88.0791979351, 43.0429677233]}, "type": "Feature", "properties": {"collection_times": [{"days": "Mon-Fri", "time": "5:00pm"}, {"days": "Sat", "time": "12:00pm"}, {"days": "Sun", "time": "Closed"}], "id": "5312200004", "name": "USPS COLLECTION BOX - BLUE BOX", "address": {"city": "ELM GROVE", "state": "WI", "street": "13425 WATERTOWN PLANK RD", "postcode": "53122"}}},
{"geometry": {"type": "Point", "coordinates": [-88.0791979351, 43.0429677233]}, "type": "Feature", "properties": {"collection_times": [{"days": "Mon-Fri", "time": "5:00pm"}, {"days": "Sat", "time": "12:00pm"}, {"days": "Sun", "time": "Closed"}], "id": "5312200005", "name": "USPS COLLECTION BOX - BLUE BOX", "address": {"city": "ELM GROVE", "state": "WI", "street": "13425 WATERTOWN PLANK RD", "postcode": "53122"}}},
{"geometry": {"type": "Point", "coordinates": [-88.079587071, 43.04272385]}, "type": "Feature", "properties": {"collection_times": [{"days": "Mon-Fri", "time": "5:00pm"}, {"days": "Sat", "time": "12:00pm"}, {"days": "Sun", "time": "Closed"}], "id": "5312200007", "name": "USPS COLLECTION BOX - PO LOBBY", "address": {"city": "ELM GROVE", "state": "WI", "street": "13425 WATERTOWN PLANK RD", "postcode": "53122"}}},
{"geometry": {"type": "Point", "coordinates": [-88.079587071, 43.04272385]}, "type": "Feature", "properties": {"collection_times": [{"days": "Mon-Fri", "time": "5:00pm"}, {"days": "Sat", "time": "12:00pm"}, {"days": "Sun", "time": "Closed"}], "id": "5312200008", "name": "USPS COLLECTION BOX - PO LOBBY", "address": {"city": "ELM GROVE", "state": "WI", "street": "13425 WATERTOWN PLANK RD", "postcode": "53122"}}},
{"geometry": {"type": "Point", "coordinates": [-88.0854982277, 43.0466727126]}, "type": "Feature", "properties": {"collection_times": [{"days": "Mon-Sat", "time": "10:00am"}, {"days": "Sun", "time": "Closed"}], "id": "5312200009", "name": "USPS COLLECTION BOX - BLUE BOX", "address": {"city": "ELM GROVE", "state": "WI", "street": "13435 WATERTOWN PLANK RD", "postcode": "53122"}}},
{"geometry": {"type": "Point", "coordinates": [-88.577755164, 42.5498768656]}, "type": "Feature", "properties": {"collection_times": [{"days": "Mon-Fri", "time": "4:30pm"}, {"days": "Sat", "time": "12:00pm"}, {"days": "Sun", "time": "Closed"}], "id": "5312500002", "name": "USPS COLLECTION BOX - BLUE BOX", "address": {"city": "FONTANA", "state": "WI", "street": "185 3RD ST", "postcode": "53125"}}},
{"geometry": {"type": "Point", "coordinates": [-88.577755164, 42.5498768656]}, "type": "Feature", "properties": {"collection_times": [{"days": "Mon-Fri", "time": "4:30pm"}, {"days": "Sat", "time": "12:00pm"}, {"days": "Sun", "time": "Closed"}], "id": "5312500003", "name": "USPS COLLECTION BOX - PO LOBBY", "address": {"city": "FONTANA", "state": "WI", "street": "185 3RD ST", "postcode": "53125"}}},
{"geometry": {"type": "Point", "coordinates": [-88.577755164, 42.5498768656]}, "type": "Feature", "properties": {"collection_times": [{"days": "Mon-Fri", "time": "4:30pm"}, {"days": "Sat", "time": "12:00pm"}, {"days": "Sun", "time": "Closed"}], "id": "5312500004", "name": "USPS COLLECTION BOX - PO LOBBY", "address": {"city": "FONTANA", "state": "WI", "street": "185 3RD ST", "postcode": "53125"}}},
{"geometry": {"type": "Point", "coordinates": [-87.9135789481, 42.7612909982]}, "type": "Feature", "properties": {"collection_times": [{"days": "Mon-Fri", "time": "4:30pm"}, {"days": "Sat", "time": "10:30am"}, {"days": "Sun", "time": "Closed"}], "id": "5312600001", "name": "USPS COLLECTION BOX - BLUE BOX", "address": {"city": "FRANKSVILLE", "state": "WI", "street": "3319 ROBERTS ST", "postcode": "53126"}}},
{"geometry": {"type": "Point", "coordinates": [-87.9135789481, 42.7612909982]}, "type": "Feature", "properties": {"collection_times": [{"days": "Mon-Fri", "time": "4:30pm"}, {"days": "Sat", "time": "10:30am"}, {"days": "Sun", "time": "Closed"}], "id": "5312600002", "name": "USPS COLLECTION BOX - PO LOBBY", "address": {"city": "FRANKSVILLE", "state": "WI", "street": "3319 ROBERTS ST", "postcode": "53126"}}},
{"geometry": {"type": "Point", "coordinates": [-88.3735757891, 42.9665484363]}, "type": "Feature", "properties": {"collection_times": [{"days": "Mon-Fri", "time": "4:30pm"}, {"days": "Sat", "time": "9:00am"}, {"days": "Sun", "time": "Closed"}], "id": "5312700001", "name": "USPS COLLECTION BOX - BLUE BOX", "address": {"city": "GENESEE DEPOT", "state": "WI", "street": ". S42 W31230 STATE RD 83", "postcode": "53127"}}},
{"geometry": {"type": "Point", "coordinates": [-88.3735757891, 42.9665484363]}, "type": "Feature", "properties": {"collection_times": [{"days": "Mon-Fri", "time": "4:30pm"}, {"days": "Sat", "time": "9:15am"}, {"days": "Sun", "time": "Closed"}], "id": "5312700002", "name": "USPS COLLECTION BOX - PO LOBBY", "address": {"city": "GENESEE DEPOT", "state": "WI", "street": "S42W31230 STATE ROAD 83", "postcode": "53127"}}},
{"geometry": {"type": "Point", "coordinates": [-88.3735757891, 42.9665484363]}, "type": "Feature", "properties": {"collection_times": [{"days": "Mon-Fri", "time": "4:30pm"}, {"days": "Sat", "time": "9:15am"}, {"days": "Sun", "time": "Closed"}], "id": "5312700003", "name": "USPS COLLECTION BOX - PO LOBBY", "address": {"city": "GENESEE DEPOT", "state": "WI", "street": "S42W31230 STATE ROAD 83", "postcode": "53127"}}},
{"geometry": {"type": "Point", "coordinates": [-88.3313313902, 42.4983461552]}, "type": "Feature", "properties": {"collection_times": [{"days": "Mon-Fri", "time": "4:30pm"}, {"days": "Sat", "time": "11:00am"}, {"days": "Sun", "time": "Closed"}], "id": "5312800002", "name": "USPS COLLECTION BOX - BLUE BOX", "address": {"city": "GENOA CITY", "state": "WI", "street": "742 WALWORTH ST", "postcode": "53128"}}},
{"geometry": {"type": "Point", "coordinates": [-88.3313313902, 42.4983461552]}, "type": "Feature", "properties": {"collection_times": [{"days": "Mon-Fri", "time": "4:45pm"}, {"days": "Sat", "time": "11:00am"}, {"days": "Sun", "time": "Closed"}], "id": "5312800003", "name": "USPS COLLECTION BOX - PO LOBBY", "address": {"city": "GENOA CITY", "state": "WI", "street": "742 WALWORTH ST", "postcode": "53128"}}},
{"geometry": {"type": "Point", "coordinates": [-88.3313313902, 42.4983461552]}, "type": "Feature", "properties": {"collection_times": [{"days": "Mon-Fri", "time": "4:45pm"}, {"days": "Sat", "time": "11:00am"}, {"days": "Sun", "time": "Closed"}], "id": "5312800004", "name": "USPS COLLECTION BOX - PO LOBBY", "address": {"city": "GENOA CITY", "state": "WI", "street": "742 WALWORTH ST", "postcode": "53128"}}},
{"geometry": {"type": "Point", "coordinates": [-87.9951546154, 42.9308516044]}, "type": "Feature", "properties": {"collection_times": [{"days": "Mon-Fri", "time": "3:00pm"}, {"days": "Sat", "time": "9:30am"}, {"days": "Sun", "time": "Closed"}], "id": "5312900003", "name": "USPS COLLECTION BOX - BLUE BOX", "address": {"city": "GREENDALE", "state": "WI", "street": "6300 INDUSTRIAL LOOP", "postcode": "53129"}}},
{"geometry": {"type": "Point", "coordinates": [-88.0087796454, 42.9454695559]}, "type": "Feature", "properties": {"collection_times": [{"days": "Mon-Sat", "time": "1:00pm"}, {"days": "Sun", "time": "Closed"}], "id": "5312900012", "name": "USPS COLLECTION BOX - BLUE BOX", "address": {"city": "GREENDALE", "state": "WI", "street": "5465 S 76TH ST", "postcode": "53129"}}},
{"geometry": {"type": "Point", "coordinates": [-87.9967080403, 42.9388122961]}, "type": "Feature", "properties": {"collection_times": [{"days": "Mon-Sat", "time": "1:00pm"}, {"days": "Sun", "time": "Closed"}], "id": "5312900014", "name": "USPS COLLECTION BOX - BLUE BOX", "address": {"city": "GREENDALE", "state": "WI", "street": "5300 S 76TH ST", "postcode": "53129"}}},
{"geometry": {"type": "Point", "coordinates": [-87.9960442005, 42.9397001374]}, "type": "Feature", "properties": {"collection_times": [{"days": "Mon-Fri", "time": "5:00pm"}, {"days": "Sat", "time": "12:30pm"}, {"days": "Sun", "time": "Closed"}], "id": "5312900016", "name": "USPS COLLECTION BOX - PO LOBBY", "address": {"city": "GREENDALE", "state": "WI", "street": "5741 BROAD ST", "postcode": "53129"}}},
{"geometry": {"type": "Point", "coordinates": [-87.9960442005, 42.9397001374]}, "type": "Feature", "properties": {"collection_times": [{"days": "Mon-Fri", "time": "5:00pm"}, {"days": "Sat", "time": "12:30pm"}, {"days": "Sun", "time": "Closed"}], "id": "5312900017", "name": "USPS COLLECTION BOX - BLUE BOX", "address": {"city": "GREENDALE", "state": "WI", "street": "5741 BROAD ST", "postcode": "53129"}}},
{"geometry": {"type": "Point", "coordinates": [-88.030342437, 42.9483519561]}, "type": "Feature", "properties": {"collection_times": [{"days": "Mon-Fri", "time": "2:00pm"}, {"days": "Sat", "time": "10:00am"}, {"days": "Sun", "time": "Closed"}], "id": "5313000008", "name": "USPS COLLECTION BOX - BLUE BOX", "address": {"city": "HALES CORNERS", "state": "WI", "street": "9415 W FOREST HOME AVE", "postcode": "53130"}}},
{"geometry": {"type": "Point", "coordinates": [-88.0481510344, 42.9453509803]}, "type": "Feature", "properties": {"collection_times": [{"days": "Mon-Fri", "time": "5:00pm"}, {"days": "Sat", "time": "1:00pm"}, {"days": "Sun", "time": "Closed"}], "id": "5313000012", "name": "USPS COLLECTION BOX - BLUE BOX", "address": {"city": "HALES CORNERS", "state": "WI", "street": "5444 S 108TH ST", "postcode": "53130"}}},
{"geometry": {"type": "Point", "coordinates": [-88.0481510344, 42.9453509803]}, "type": "Feature", "properties": {"collection_times": [{"days": "Mon-Fri", "time": "5:00pm"}, {"days": "Sat", "time": "1:00pm"}, {"days": "Sun", "time": "Closed"}], "id": "5313000013", "name": "USPS COLLECTION BOX - BLUE BOX", "address": {"city": "HALES CORNERS", "state": "WI", "street": "5444 S 108TH ST", "postcode": "53130"}}},
{"geometry": {"type": "Point", "coordinates": [-88.0442925027, 42.9301346496]}, "type": "Feature", "properties": {"collection_times": [{"days": "Mon-Sat", "time": "12:00pm"}, {"days": "Sun", "time": "Closed"}], "id": "5313000015", "name": "USPS COLLECTION BOX - BLUE BOX", "address": {"city": "HALES CORNERS", "state": "WI", "street": "10459 W COLLEGE AVE", "postcode": "53130"}}},
{"geometry": {"type": "Point", "coordinates": [-88.047788966, 42.945582195]}, "type": "Feature", "properties": {"collection_times": [{"days": "Mon-Fri", "time": "5:00pm"}, {"days": "Sat", "time": "1:00pm"}, {"days": "Sun", "time": "Closed"}], "id": "5313000016", "name": "USPS COLLECTION BOX - PO LOBBY", "address": {"city": "HALES CORNERS", "state": "WI", "street": "5444 S 108TH ST", "postcode": "53130"}}},
{"geometry": {"type": "Point", "coordinates": [-88.0486175655, 42.9339268628]}, "type": "Feature", "properties": {"collection_times": [{"days": "Mon-Sat", "time": "10:00am"}, {"days": "Sun", "time": "Closed"}], "id": "5313000017", "name": "USPS COLLECTION BOX - BLUE BOX", "address": {"city": "HALES CORNERS", "state": "WI", "street": "6101 S 108TH ST", "postcode": "53130"}}},
{"geometry": {"type": "Point", "coordinates": [-88.0481510344, 42.9453509803]}, "type": "Feature", "properties": {"collection_times": [{"days": "Mon-Fri", "time": "5:00pm"}, {"days": "Sat", "time": "1:00pm"}, {"days": "Sun", "time": "Closed"}], "id": "5313000018", "name": "USPS COLLECTION BOX - PO LOBBY", "address": {"city": "HALES CORNERS", "state": "WI", "street": "5444 S 108TH ST", "postcode": "53130"}}},
{"geometry": {"type": "Point", "coordinates": [-88.0481510344, 42.9453509803]}, "type": "Feature", "properties": {"collection_times": [{"days": "Mon-Fri", "time": "5:00pm"}, {"days": "Sat", "time": "1:00pm"}, {"days": "Sun", "time": "Closed"}], "id": "5313000019", "name": "USPS COLLECTION BOX - PO LOBBY", "address": {"city": "HALES CORNERS", "state": "WI", "street": "5444 S 108TH ST", "postcode": "53130"}}},
{"geometry": {"type": "Point", "coordinates": [-87.9907338473, 42.8706657208]}, "type": "Feature", "properties": {"collection_times": [{"days": "Mon-Fri", "time": "3:00pm"}, {"days": "Sat", "time": "11:00am"}, {"days": "Sun", "time": "Closed"}], "id": "5313200001", "name": "USPS COLLECTION BOX - BLUE BOX", "address": {"city": "FRANKLIN", "state": "WI", "street": "9601 S 60TH ST", "postcode": "53132"}}},
{"geometry": {"type": "Point", "coordinates": [-88.0093916414, 42.9144324181]}, "type": "Feature", "properties": {"collection_times": [{"days": "Mon-Sat", "time": "11:00am"}, {"days": "Sun", "time": "Closed"}], "id": "5313200002", "name": "USPS COLLECTION BOX - BLUE BOX", "address": {"city": "FRANKLIN", "state": "WI", "street": "7201 S 76TH ST", "postcode": "53132"}}},
{"geometry": {"type": "Point", "coordinates": [-88.0299229887, 42.8993240237]}, "type": "Feature", "properties": {"collection_times": [{"days": "Mon-Fri", "time": "12:00pm"}, {"days": "Sat-Sun", "time": "Closed"}], "id": "5313200005", "name": "USPS COLLECTION BOX - BLUE BOX", "address": {"city": "FRANKLIN", "state": "WI", "street": "9229 W LOOMIS RD", "postcode": "53132"}}},
{"geometry": {"type": "Point", "coordinates": [-88.0392643675, 42.9056679608]}, "type": "Feature", "properties": {"collection_times": [{"days": "Mon-Sat", "time": "12:30pm"}, {"days": "Sun", "time": "Closed"}], "id": "5313200009", "name": "USPS COLLECTION BOX - BLUE BOX", "address": {"city": "FRANKLIN", "state": "WI", "street": "10001 W CHURCH ST", "postcode": "53132"}}},
{"geometry": {"type": "Point", "coordinates": [-88.0089979884, 42.9153914972]}, "type": "Feature", "properties": {"collection_times": [{"days": "Mon-Sat", "time": "11:00am"}, {"days": "Sun", "time": "Closed"}], "id": "5313200011", "name": "USPS COLLECTION BOX - BLUE BOX", "address": {"city": "FRANKLIN", "state": "WI", "street": "7144 S 76TH ST", "postcode": "53132"}}},
{"geometry": {"type": "Point", "coordinates": [-87.9806477044, 42.8726167242]}, "type": "Feature", "properties": {"collection_times": [{"days": "Mon-Fri", "time": "3:00pm"}, {"days": "Sat", "time": "11:00am"}, {"days": "Sun", "time": "Closed"}], "id": "5313200015", "name": "USPS COLLECTION BOX - BLUE BOX", "address": {"city": "FRANKLIN", "state": "WI", "street": "9500 S FRANKLIN DR", "postcode": "53132"}}},
{"geometry": {"type": "Point", "coordinates": [-88.0326981841, 42.8918494473]}, "type": "Feature", "properties": {"collection_times": [{"days": "Mon-Fri", "time": "5:00pm"}, {"days": "Sat", "time": "1:30pm"}, {"days": "Sun", "time": "Closed"}], "id": "5313200017", "name": "USPS COLLECTION BOX - PO LOBBY", "address": {"city": "FRANKLIN", "state": "WI", "street": "9575 BRENWOOD PARK DR", "postcode": "53132"}}},
{"geometry": {"type": "Point", "coordinates": [-88.0326981841, 42.8918494473]}, "type": "Feature", "properties": {"collection_times": [{"days": "Mon-Fri", "time": "5:00pm"}, {"days": "Sat", "time": "1:30pm"}, {"days": "Sun", "time": "Closed"}], "id": "5313200019", "name": "USPS COLLECTION BOX - BLUE BOX", "address": {"city": "FRANKLIN", "state": "WI", "street": "9575 BRENWOOD PARK DR", "postcode": "53132"}}},
{"geometry": {"type": "Point", "coordinates": [-88.0290476445, 42.9008688908]}, "type": "Feature", "properties": {"collection_times": [{"days": "Mon-Sat", "time": "11:00am"}, {"days": "Sun", "time": "Closed"}], "id": "5313200025", "name": "USPS COLLECTION BOX - BLUE BOX", "address": {"city": "FRANKLIN", "state": "WI", "street": "9120 W LOOMIS RD", "postcode": "53132"}}},
{"geometry": {"type": "Point", "coordinates": [-87.9806477044, 42.8726167242]}, "type": "Feature", "properties": {"collection_times": [{"days": "Mon-Fri", "time": "3:00pm"}, {"days": "Sat", "time": "11:00am"}, {"days": "Sun", "time": "Closed"}], "id": "5313200026", "name": "USPS COLLECTION BOX - BLUE BOX", "address": {"city": "FRANKLIN", "state": "WI", "street": "9500 S FRANKLIN DR", "postcode": "53132"}}},
{"geometry": {"type": "Point", "coordinates": [-88.0326981841, 42.8918494473]}, "type": "Feature", "properties": {"collection_times": [{"days": "Mon-Fri", "time": "5:00pm"}, {"days": "Sat", "time": "1:30pm"}, {"days": "Sun", "time": "Closed"}], "id": "5313200030", "name": "USPS COLLECTION BOX - PO LOBBY", "address": {"city": "FRANKLIN", "state": "WI", "street": "9575 BRENWOOD PARK DR", "postcode": "53132"}}},
{"geometry": {"type": "Point", "coordinates": [-87.9806477044, 42.8726167242]}, "type": "Feature", "properties": {"collection_times": [{"days": "Mon-Fri", "time": "3:00pm"}, {"days": "Sat", "time": "11:00am"}, {"days": "Sun", "time": "Closed"}], "id": "5313200031", "name": "USPS COLLECTION BOX - BLUE BOX", "address": {"city": "FRANKLIN", "state": "WI", "street": "9500 S FRANKLIN DR", "postcode": "53132"}}},
{"geometry": {"type": "Point", "coordinates": [-88.6989217123, 43.0120238735]}, "type": "Feature", "properties": {"collection_times": [{"days": "Mon-Fri", "time": "4:30pm"}, {"days": "Sat", "time": "9:30am"}, {"days": "Sun", "time": "Closed"}], "id": "5313700001", "name": "USPS COLLECTION BOX - BLUE BOX", "address": {"city": "HELENVILLE", "state": "WI", "street": "W3290 US HIGHWAY 18", "postcode": "53137"}}},
{"geometry": {"type": "Point", "coordinates": [-88.6988647703, 43.0120265695]}, "type": "Feature", "properties": {"collection_times": [{"days": "Mon-Fri", "time": "11:45am"}, {"days": "Sat", "time": "9:30am"}, {"days": "Sun", "time": "Closed"}], "id": "5313700002", "name": "USPS COLLECTION BOX - PO LOBBY", "address": {"city": "HELENVILLE", "state": "WI", "street": "W3290 US HIGHWAY 18", "postcode": "53137"}}},
{"geometry": {"type": "Point", "coordinates": [-88.3068301507, 42.7194043042]}, "type": "Feature", "properties": {"collection_times": [{"days": "Mon-Fri", "time": "4:30pm"}, {"days": "Sat", "time": "9:30am"}, {"days": "Sun", "time": "Closed"}], "id": "5313800001", "name": "USPS COLLECTION BOX - BLUE BOX", "address": {"city": "HONEY CREEK", "state": "WI", "street": "N7140 HONEY CREEK RD", "postcode": "53138"}}},
{"geometry": {"type": "Point", "coordinates": [-88.3068301507, 42.7194043042]}, "type": "Feature", "properties": {"collection_times": [{"days": "Mon-Fri", "time": "4:30pm"}, {"days": "Sat", "time": "9:30am"}, {"days": "Sun", "time": "Closed"}], "id": "5313800002", "name": "USPS COLLECTION BOX - PO LOBBY", "address": {"city": "HONEY CREEK", "state": "WI", "street": "N7140 HONEY CREEK RD", "postcode": "53138"}}},
{"geometry": {"type": "Point", "coordinates": [-88.1104632767, 42.6878176138]}, "type": "Feature", "properties": {"collection_times": [{"days": "Mon-Fri", "time": "4:15pm"}, {"days": "Sat", "time": "11:30am"}, {"days": "Sun", "time": "Closed"}], "id": "5313900002", "name": "USPS COLLECTION BOX - BLUE BOX", "address": {"city": "KANSASVILLE", "state": "WI", "street": "3825 S BEAUMONT AVE", "postcode": "53139"}}},
{"geometry": {"type": "Point", "coordinates": [-88.1104632767, 42.6878176138]}, "type": "Feature", "properties": {"collection_times": [{"days": "Mon-Fri", "time": "4:30pm"}, {"days": "Sat", "time": "11:30am"}, {"days": "Sun", "time": "Closed"}], "id": "5313900003", "name": "USPS COLLECTION BOX - PO LOBBY", "address": {"city": "KANSASVILLE", "state": "WI", "street": "3825 S BEAUMONT AVE", "postcode": "53139"}}},
{"geometry": {"type": "Point", "coordinates": [-87.819553119, 42.5880707572]}, "type": "Feature", "properties": {"collection_times": [{"days": "Mon-Sat", "time": "12:00pm"}, {"days": "Sun", "time": "Closed"}], "id": "5314000004", "name": "USPS COLLECTION BOX - BLUE BOX", "address": {"city": "KENOSHA", "state": "WI", "street": "625 52ND ST", "postcode": "53140"}}},
{"geometry": {"type": "Point", "coordinates": [-87.819553119, 42.5880707572]}, "type": "Feature", "properties": {"collection_times": [{"days": "Mon-Sat", "time": "12:00pm"}, {"days": "Sun", "time": "Closed"}], "id": "5314000005", "name": "USPS COLLECTION BOX - BLUE BOX", "address": {"city": "KENOSHA", "state": "WI", "street": "625 52ND ST", "postcode": "53140"}}},
{"geometry": {"type": "Point", "coordinates": [-87.8201884982, 42.584947797]}, "type": "Feature", "properties": {"collection_times": [{"days": "Mon-Fri", "time": "5:00pm"}, {"days": "Sat", "time": "3:30pm"}, {"days": "Sun", "time": "Closed"}], "id": "5314000013", "name": "USPS COLLECTION BOX - BLUE BOX", "address": {"city": "KENOSHA", "state": "WI", "street": "720 56TH ST", "postcode": "53140"}}},
{"geometry": {"type": "Point", "coordinates": [-87.8201884982, 42.584947797]}, "type": "Feature", "properties": {"collection_times": [{"days": "Mon-Fri", "time": "5:00pm"}, {"days": "Sat", "time": "3:30pm"}, {"days": "Sun", "time": "Closed"}], "id": "5314000014", "name": "USPS COLLECTION BOX - BLUE BOX", "address": {"city": "KENOSHA", "state": "WI", "street": "720 56TH ST", "postcode": "53140"}}},
{"geometry": {"type": "Point", "coordinates": [-87.822014337, 42.584096743]}, "type": "Feature", "properties": {"collection_times": [{"days": "Mon-Fri", "time": "5:00pm"}, {"days": "Sat", "time": "3:30pm"}, {"days": "Sun", "time": "Closed"}], "id": "5314000015", "name": "USPS COLLECTION BOX - PO LOBBY", "address": {"city": "KENOSHA", "state": "WI", "street": "5605 SHERIDAN RD", "postcode": "53140"}}},
{"geometry": {"type": "Point", "coordinates": [-87.8360332867, 42.6031060697]}, "type": "Feature", "properties": {"collection_times": [{"days": "Mon-Sat", "time": "10:00am"}, {"days": "Sun", "time": "Closed"}], "id": "5314000026", "name": "USPS COLLECTION BOX - BLUE BOX", "address": {"city": "KENOSHA", "state": "WI", "street": "3726 22ND AVE", "postcode": "53140"}}},
{"geometry": {"type": "Point", "coordinates": [-87.8358585441, 42.6178938954]}, "type": "Feature", "properties": {"collection_times": [{"days": "Mon-Sat", "time": "10:00am"}, {"days": "Sun", "time": "Closed"}], "id": "5314000027", "name": "USPS COLLECTION BOX - BLUE BOX", "address": {"city": "KENOSHA", "state": "WI", "street": "2105 22ND AVE", "postcode": "53140"}}},
{"geometry": {"type": "Point", "coordinates": [-87.8294365164, 42.6097031978]}, "type": "Feature", "properties": {"collection_times": [{"days": "Mon-Sat", "time": "9:30am"}, {"days": "Sun", "time": "Closed"}], "id": "5314000029", "name": "USPS COLLECTION BOX - BLUE BOX", "address": {"city": "KENOSHA", "state": "WI", "street": "2001 ALFORD DR", "postcode": "53140"}}},
{"geometry": {"type": "Point", "coordinates": [-87.8430946294, 42.6244357052]}, "type": "Feature", "properties": {"collection_times": [{"days": "Mon-Sat", "time": "12:00pm"}, {"days": "Sun", "time": "Closed"}], "id": "5314000030", "name": "USPS COLLECTION BOX - BLUE BOX", "address": {"city": "KENOSHA", "state": "WI", "street": "2801 18TH ST", "postcode": "53140"}}},
{"geometry": {"type": "Point", "coordinates": [-87.8359575513, 42.6221153085]}, "type": "Feature", "properties": {"collection_times": [{"days": "Mon-Sat", "time": "10:00am"}, {"days": "Sun", "time": "Closed"}], "id": "5314000034", "name": "USPS COLLECTION BOX - BLUE BOX", "address": {"city": "KENOSHA", "state": "WI", "street": "1872 22ND AVE", "postcode": "53140"}}},
{"geometry": {"type": "Point", "coordinates": [-87.9219470882, 42.5699197098]}, "type": "Feature", "properties": {"collection_times": [{"days": "Mon-Sat", "time": "10:00am"}, {"days": "Sun", "time": "Closed"}], "id": "5314200001", "name": "USPS COLLECTION BOX - BLUE BOX", "address": {"city": "KENOSHA", "state": "WI", "street": "7200 94TH AVE", "postcode": "53142"}}},
{"geometry": {"type": "Point", "coordinates": [-87.8539570093, 42.5589127491]}, "type": "Feature", "properties": {"collection_times": [{"days": "Mon-Sat", "time": "12:00pm"}, {"days": "Sun", "time": "Closed"}], "id": "5314200002", "name": "USPS COLLECTION BOX - BLUE BOX", "address": {"city": "KENOSHA", "state": "WI", "street": "3805 80TH ST", "postcode": "53142"}}},
{"geometry": {"type": "Point", "coordinates": [-87.8497430732, 42.5588405501]}, "type": "Feature", "properties": {"collection_times": [{"days": "Mon-Sat", "time": "12:00pm"}, {"days": "Sun", "time": "Closed"}], "id": "5314200003", "name": "USPS COLLECTION BOX - BLUE BOX", "address": {"city": "KENOSHA", "state": "WI", "street": "3401 80TH ST", "postcode": "53142"}}},
{"geometry": {"type": "Point", "coordinates": [-87.8577345289, 42.5649932918]}, "type": "Feature", "properties": {"collection_times": [{"days": "Mon-Sat", "time": "10:00am"}, {"days": "Sun", "time": "Closed"}], "id": "5314200005", "name": "USPS COLLECTION BOX - BLUE BOX", "address": {"city": "KENOSHA", "state": "WI", "street": "7600 PERSHING BLVD", "postcode": "53142"}}},
{"geometry": {"type": "Point", "coordinates": [-87.8549014096, 42.5715062083]}, "type": "Feature", "properties": {"collection_times": [{"days": "Mon-Sat", "time": "10:00am"}, {"days": "Sun", "time": "Closed"}], "id": "5314200008", "name": "USPS COLLECTION BOX - BLUE BOX", "address": {"city": "KENOSHA", "state": "WI", "street": "6829 39TH AVE", "postcode": "53142"}}},
{"geometry": {"type": "Point", "coordinates": [-87.8871631693, 42.5691731107]}, "type": "Feature", "properties": {"collection_times": [{"days": "Mon-Sat", "time": "11:00am"}, {"days": "Sun", "time": "Closed"}], "id": "5314200023", "name": "USPS COLLECTION BOX - BLUE BOX", "address": {"city": "KENOSHA", "state": "WI", "street": "7300 GREEN BAY RD", "postcode": "53142"}}},
{"geometry": {"type": "Point", "coordinates": [-87.8784895347, 42.5666531746]}, "type": "Feature", "properties": {"collection_times": [{"days": "Mon-Sat", "time": "12:00pm"}, {"days": "Sun", "time": "Closed"}], "id": "5314200024", "name": "USPS COLLECTION BOX - BLUE BOX", "address": {"city": "KENOSHA", "state": "WI", "street": "5914 75TH ST", "postcode": "53142"}}},
{"geometry": {"type": "Point", "coordinates": [-87.8784895347, 42.5666531746]}, "type": "Feature", "properties": {"collection_times": [{"days": "Mon-Sat", "time": "12:00pm"}, {"days": "Sun", "time": "Closed"}], "id": "5314200025", "name": "USPS COLLECTION BOX - BLUE BOX", "address": {"city": "KENOSHA", "state": "WI", "street": "5914 75TH ST", "postcode": "53142"}}},
{"geometry": {"type": "Point", "coordinates": [-87.88794395, 42.5643620423]}, "type": "Feature", "properties": {"collection_times": [{"days": "Mon-Sat", "time": "10:00am"}, {"days": "Sun", "time": "Closed"}], "id": "5314200027", "name": "USPS COLLECTION BOX - BLUE BOX", "address": {"city": "KENOSHA", "state": "WI", "street": "7701 GREEN BAY RD", "postcode": "53142"}}},
{"geometry": {"type": "Point", "coordinates": [-87.8351876665, 42.557848768]}, "type": "Feature", "properties": {"collection_times": [{"days": "Mon-Sat", "time": "10:00am"}, {"days": "Sun", "time": "Closed"}], "id": "5314300001", "name": "USPS COLLECTION BOX - BLUE BOX", "address": {"city": "KENOSHA", "state": "WI", "street": "8032 22ND AVE", "postcode": "53143"}}},
{"geometry": {"type": "Point", "coordinates": [-87.8193598154, 42.5655183872]}, "type": "Feature", "properties": {"collection_times": [{"days": "Mon-Sat", "time": "10:00am"}, {"days": "Sun", "time": "Closed"}], "id": "5314300008", "name": "USPS COLLECTION BOX - BLUE BOX", "address": {"city": "KENOSHA", "state": "WI", "street": "7506 7TH AVE", "postcode": "53143"}}},
{"geometry": {"type": "Point", "coordinates": [-87.8404910114, 42.5778720277]}, "type": "Feature", "properties": {"collection_times": [{"days": "Mon-Sat", "time": "10:00am"}, {"days": "Sun", "time": "Closed"}], "id": "5314300019", "name": "USPS COLLECTION BOX - BLUE BOX", "address": {"city": "KENOSHA", "state": "WI", "street": "6218 26TH AVE", "postcode": "53143"}}},
{"geometry": {"type": "Point", "coordinates": [-87.8831674391, 42.5888723631]}, "type": "Feature", "properties": {"collection_times": [{"days": "Mon-Sat", "time": "12:00pm"}, {"days": "Sun", "time": "Closed"}], "id": "5314400013", "name": "USPS COLLECTION BOX - BLUE BOX", "address": {"city": "KENOSHA", "state": "WI", "street": "6300 52ND ST", "postcode": "53144"}}},
{"geometry": {"type": "Point", "coordinates": [-87.8565703027, 42.5810670995]}, "type": "Feature", "properties": {"collection_times": [{"days": "Mon-Sat", "time": "12:00pm"}, {"days": "Sun", "time": "Closed"}], "id": "5314400015", "name": "USPS COLLECTION BOX - BLUE BOX", "address": {"city": "KENOSHA", "state": "WI", "street": "3928 60TH ST", "postcode": "53144"}}},
{"geometry": {"type": "Point", "coordinates": [-87.8458637668, 42.6059983405]}, "type": "Feature", "properties": {"collection_times": [{"days": "Mon-Sat", "time": "10:00am"}, {"days": "Sun", "time": "Closed"}], "id": "5314400025", "name": "USPS COLLECTION BOX - BLUE BOX", "address": {"city": "KENOSHA", "state": "WI", "street": "3520 30TH AVE", "postcode": "53144"}}},
{"geometry": {"type": "Point", "coordinates": [-88.4332368951, 42.5916800692]}, "type": "Feature", "properties": {"collection_times": [{"days": "Mon-Fri", "time": "5:00pm"}, {"days": "Sat", "time": "3:00pm"}, {"days": "Sun", "time": "Closed"}], "id": "5314700001", "name": "USPS COLLECTION BOX - BLUE BOX", "address": {"city": "LAKE GENEVA", "state": "WI", "street": "672 W MAIN ST", "postcode": "53147"}}},
{"geometry": {"type": "Point", "coordinates": [-88.4147689347, 42.5672270283]}, "type": "Feature", "properties": {"collection_times": [{"days": "Mon-Sat", "time": "10:00am"}, {"days": "Sun", "time": "Closed"}], "id": "5314700002", "name": "USPS COLLECTION BOX - BLUE BOX", "address": {"city": "LAKE GENEVA", "state": "WI", "street": "N2020 COUNTY ROAD H", "postcode": "53147"}}},
{"geometry": {"type": "Point", "coordinates": [-88.4332368951, 42.5916800692]}, "type": "Feature", "properties": {"collection_times": [{"days": "Mon-Fri", "time": "5:00pm"}, {"days": "Sat", "time": "3:00pm"}, {"days": "Sun", "time": "Closed"}], "id": "5314700006", "name": "USPS COLLECTION BOX - BLUE BOX", "address": {"city": "LAKE GENEVA", "state": "WI", "street": "672 W MAIN ST", "postcode": "53147"}}},
{"geometry": {"type": "Point", "coordinates": [-88.4348470631, 42.5918295601]}, "type": "Feature", "properties": {"collection_times": [{"days": "Mon-Sat", "time": "2:00pm"}, {"days": "Sun", "time": "Closed"}], "id": "5314700010", "name": "USPS COLLECTION BOX - BLUE BOX", "address": {"city": "LAKE GENEVA", "state": "WI", "street": "771 W MAIN ST", "postcode": "53147"}}},
{"geometry": {"type": "Point", "coordinates": [-88.4353737174, 42.594235648]}, "type": "Feature", "properties": {"collection_times": [{"days": "Mon-Sat", "time": "12:00pm"}, {"days": "Sun", "time": "Closed"}], "id": "5314700011", "name": "USPS COLLECTION BOX - BLUE BOX", "address": {"city": "LAKE GENEVA", "state": "WI", "street": "401 BROAD ST", "postcode": "53147"}}},
{"geometry": {"type": "Point", "coordinates": [-88.4333932499, 42.6019297947]}, "type": "Feature", "properties": {"collection_times": [{"days": "Mon-Sat", "time": "12:00pm"}, {"days": "Sun", "time": "Closed"}], "id": "5314700014", "name": "USPS COLLECTION BOX - BLUE BOX", "address": {"city": "LAKE GENEVA", "state": "WI", "street": "1103 CENTER ST", "postcode": "53147"}}},
{"geometry": {"type": "Point", "coordinates": [-88.4192397281, 42.5761948208]}, "type": "Feature", "properties": {"collection_times": [{"days": "Mon-Sat", "time": "10:00am"}, {"days": "Sun", "time": "Closed"}], "id": "5314700017", "name": "USPS COLLECTION BOX - BLUE BOX", "address": {"city": "LAKE GENEVA", "state": "WI", "street": "1157 S WELLS ST", "postcode": "53147"}}},
{"geometry": {"type": "Point", "coordinates": [-88.4258748112, 42.5920075797]}, "type": "Feature", "properties": {"collection_times": [{"days": "Mon-Sat", "time": "10:30am"}, {"days": "Sun", "time": "Closed"}], "id": "5314700020", "name": "USPS COLLECTION BOX - BLUE BOX", "address": {"city": "LAKE GENEVA", "state": "WI", "street": "250 HAVENWOOD DR", "postcode": "53147"}}},
{"geometry": {"type": "Point", "coordinates": [-88.4337223318, 42.5930418502]}, "type": "Feature", "properties": {"collection_times": [{"days": "Mon-Sat", "time": "2:00pm"}, {"days": "Sun", "time": "Closed"}], "id": "5314700021", "name": "USPS COLLECTION BOX - BLUE BOX", "address": {"city": "LAKE GENEVA", "state": "WI", "street": "303 CENTER ST", "postcode": "53147"}}},
{"geometry": {"type": "Point", "coordinates": [-88.4557710436, 42.5719481317]}, "type": "Feature", "properties": {"collection_times": [{"days": "Mon-Sat", "time": "9:30am"}, {"days": "Sun", "time": "Closed"}], "id": "5314700022", "name": "USPS COLLECTION BOX - BLUE BOX", "address": {"city": "LAKE GENEVA", "state": "WI", "street": "3540 STATE ROAD 50", "postcode": "53147"}}},
{"geometry": {"type": "Point", "coordinates": [-88.4245032917, 42.6061720396]}, "type": "Feature", "properties": {"collection_times": [{"days": "Mon-Sat", "time": "9:30am"}, {"days": "Sun", "time": "Closed"}], "id": "5314700023", "name": "USPS COLLECTION BOX - BLUE BOX", "address": {"city": "LAKE GENEVA", "state": "WI", "street": "124 E GENEVA SQ", "postcode": "53147"}}},
{"geometry": {"type": "Point", "coordinates": [-88.4353480938, 42.5963379323]}, "type": "Feature", "properties": {"collection_times": [{"days": "Mon-Sat", "time": "12:00pm"}, {"days": "Sun", "time": "Closed"}], "id": "5314700024", "name": "USPS COLLECTION BOX - BLUE BOX", "address": {"city": "LAKE GENEVA", "state": "WI", "street": "567 BROAD ST", "postcode": "53147"}}},
{"geometry": {"type": "Point", "coordinates": [-88.4353480938, 42.5963379323]}, "type": "Feature", "properties": {"collection_times": [{"days": "Mon-Sat", "time": "12:00pm"}, {"days": "Sun", "time": "Closed"}], "id": "5314700026", "name": "USPS COLLECTION BOX - BLUE BOX", "address": {"city": "LAKE GENEVA", "state": "WI", "street": "567 BROAD ST", "postcode": "53147"}}},
{"geometry": {"type": "Point", "coordinates": [-88.4332368951, 42.5916800692]}, "type": "Feature", "properties": {"collection_times": [{"days": "Mon-Fri", "time": "5:00pm"}, {"days": "Sat", "time": "3:00pm"}, {"days": "Sun", "time": "Closed"}], "id": "5314700027", "name": "USPS COLLECTION BOX - PO LOBBY", "address": {"city": "LAKE GENEVA", "state": "WI", "street": "672 W MAIN ST", "postcode": "53147"}}},
{"geometry": {"type": "Point", "coordinates": [-88.4332368951, 42.5916800692]}, "type": "Feature", "properties": {"collection_times": [{"days": "Mon-Fri", "time": "5:00pm"}, {"days": "Sat", "time": "3:00pm"}, {"days": "Sun", "time": "Closed"}], "id": "5314700028", "name": "USPS COLLECTION BOX - PO LOBBY", "address": {"city": "LAKE GENEVA", "state": "WI", "street": "672 W MAIN ST", "postcode": "53147"}}},
{"geometry": {"type": "Point", "coordinates": [-88.4332368951, 42.5916800692]}, "type": "Feature", "properties": {"collection_times": [{"days": "Mon-Fri", "time": "5:00pm"}, {"days": "Sat", "time": "3:00pm"}, {"days": "Sun", "time": "Closed"}], "id": "5314700029", "name": "USPS COLLECTION BOX - PO LOBBY", "address": {"city": "LAKE GENEVA", "state": "WI", "street": "672 W MAIN ST", "postcode": "53147"}}},
{"geometry": {"type": "Point", "coordinates": [-88.4366761942, 42.5917231139]}, "type": "Feature", "properties": {"collection_times": [{"days": "Mon-Sat", "time": "11:30am"}, {"days": "Sun", "time": "Closed"}], "id": "5314700030", "name": "USPS COLLECTION BOX - BLUE BOX", "address": {"city": "LAKE GENEVA", "state": "WI", "street": "880 W MAIN ST", "postcode": "53147"}}},
{"geometry": {"type": "Point", "coordinates": [-88.4131921111, 42.5885102812]}, "type": "Feature", "properties": {"collection_times": [{"days": "Mon-Sat", "time": "11:00am"}, {"days": "Sun", "time": "Closed"}], "id": "5314700032", "name": "USPS COLLECTION BOX - BLUE BOX", "address": {"city": "LAKE GENEVA", "state": "WI", "street": "201 N EDWARDS BLVD", "postcode": "53147"}}},
{"geometry": {"type": "Point", "coordinates": [-88.3573246629, 42.6527211788]}, "type": "Feature", "properties": {"collection_times": [{"days": "Mon-Fri", "time": "11:45am"}, {"days": "Sat", "time": "10:00am"}, {"days": "Sun", "time": "Closed"}], "id": "5314800001", "name": "USPS COLLECTION BOX - PO LOBBY", "address": {"city": "LYONS", "state": "WI", "street": "1447 MILL ST", "postcode": "53148"}}},
{"geometry": {"type": "Point", "coordinates": [-88.3573246629, 42.6527211788]}, "type": "Feature", "properties": {"collection_times": [{"days": "Mon-Fri", "time": "4:30pm"}, {"days": "Sat", "time": "10:00am"}, {"days": "Sun", "time": "Closed"}], "id": "5314800002", "name": "USPS COLLECTION BOX - BLUE BOX", "address": {"city": "LYONS", "state": "WI", "street": "1447 MILL ST", "postcode": "53148"}}},
{"geometry": {"type": "Point", "coordinates": [-88.3458770273, 42.8759009615]}, "type": "Feature", "properties": {"collection_times": [{"days": "Mon-Fri", "time": "5:00pm"}, {"days": "Sat", "time": "3:30pm"}, {"days": "Sun", "time": "Closed"}], "id": "5314900000", "name": "USPS COLLECTION BOX - PO LOBBY", "address": {"city": "MUKWONAGO", "state": "WI", "street": "911 GREENRIDGE CTR", "postcode": "53149"}}},
{"geometry": {"type": "Point", "coordinates": [-88.3458770273, 42.8759009615]}, "type": "Feature", "properties": {"collection_times": [{"days": "Mon-Fri", "time": "5:00pm"}, {"days": "Sat", "time": "3:30pm"}, {"days": "Sun", "time": "Closed"}], "id": "5314900001", "name": "USPS COLLECTION BOX - PO LOBBY", "address": {"city": "MUKWONAGO", "state": "WI", "street": "911 GREENRIDGE CTR", "postcode": "53149"}}},
{"geometry": {"type": "Point", "coordinates": [-88.3458770273, 42.8759009615]}, "type": "Feature", "properties": {"collection_times": [{"days": "Mon-Fri", "time": "5:00pm"}, {"days": "Sat", "time": "3:30pm"}, {"days": "Sun", "time": "Closed"}], "id": "5314900002", "name": "USPS COLLECTION BOX - BLUE BOX", "address": {"city": "MUKWONAGO", "state": "WI", "street": "911 GREENRIDGE CTR", "postcode": "53149"}}},
{"geometry": {"type": "Point", "coordinates": [-88.3458770273, 42.8759009615]}, "type": "Feature", "properties": {"collection_times": [{"days": "Mon-Fri", "time": "5:00pm"}, {"days": "Sat", "time": "3:30pm"}, {"days": "Sun", "time": "Closed"}], "id": "5314900004", "name": "USPS COLLECTION BOX - BLUE BOX", "address": {"city": "MUKWONAGO", "state": "WI", "street": "911 GREENRIDGE CTR", "postcode": "53149"}}},
{"geometry": {"type": "Point", "coordinates": [-88.3321240255, 42.8588543559]}, "type": "Feature", "properties": {"collection_times": [{"days": "Mon-Sat", "time": "10:00am"}, {"days": "Sun", "time": "Closed"}], "id": "5314900006", "name": "USPS COLLECTION BOX - BLUE BOX", "address": {"city": "MUKWONAGO", "state": "WI", "street": "601 MAIN ST", "postcode": "53149"}}},
{"geometry": {"type": "Point", "coordinates": [-88.3383333771, 42.8751791896]}, "type": "Feature", "properties": {"collection_times": [{"days": "Mon-Sat", "time": "10:00am"}, {"days": "Sun", "time": "Closed"}], "id": "5314900012", "name": "USPS COLLECTION BOX - BLUE BOX", "address": {"city": "MUKWONAGO", "state": "WI", "street": "1010 N ROCHESTER ST", "postcode": "53149"}}},
{"geometry": {"type": "Point", "coordinates": [-88.3458770273, 42.8759009615]}, "type": "Feature", "properties": {"collection_times": [{"days": "Mon-Fri", "time": "5:00pm"}, {"days": "Sat", "time": "3:30pm"}, {"days": "Sun", "time": "Closed"}], "id": "5314900015", "name": "USPS COLLECTION BOX - PO LOBBY", "address": {"city": "MUKWONAGO", "state": "WI", "street": "911 GREENRIDGE CTR", "postcode": "53149"}}},
{"geometry": {"type": "Point", "coordinates": [-88.3338784564, 42.864790201]}, "type": "Feature", "properties": {"collection_times": [{"days": "Mon-Sat", "time": "10:00am"}, {"days": "Sun", "time": "Closed"}], "id": "5314900016", "name": "USPS COLLECTION BOX - BLUE BOX", "address": {"city": "MUKWONAGO", "state": "WI", "street": "109 LAKE ST", "postcode": "53149"}}},
{"geometry": {"type": "Point", "coordinates": [-88.3338784564, 42.864790201]}, "type": "Feature", "properties": {"collection_times": [{"days": "Mon-Sat", "time": "10:00am"}, {"days": "Sun", "time": "Closed"}], "id": "5314900017", "name": "USPS COLLECTION BOX - BLUE BOX", "address": {"city": "MUKWONAGO", "state": "WI", "street": "109 LAKE ST", "postcode": "53149"}}},
{"geometry": {"type": "Point", "coordinates": [-88.320043107, 42.8476769384]}, "type": "Feature", "properties": {"collection_times": [{"days": "Mon-Sat", "time": "10:00am"}, {"days": "Sun", "time": "Closed"}], "id": "5314900018", "name": "USPS COLLECTION BOX - BLUE BOX", "address": {"city": "MUKWONAGO", "state": "WI", "street": "122 WOLF RUN", "postcode": "53149"}}},
{"geometry": {"type": "Point", "coordinates": [-88.3458770273, 42.8759009615]}, "type": "Feature", "properties": {"collection_times": [{"days": "Mon-Fri", "time": "5:00pm"}, {"days": "Sat", "time": "3:30pm"}, {"days": "Sun", "time": "Closed"}], "id": "5314900019", "name": "USPS COLLECTION BOX - BLUE BOX", "address": {"city": "MUKWONAGO", "state": "WI", "street": "911 GREENRIDGE CTR", "postcode": "53149"}}},
{"geometry": {"type": "Point", "coordinates": [-88.1246130555, 42.9104087775]}, "type": "Feature", "properties": {"collection_times": [{"days": "Mon-Fri", "time": "5:00pm"}, {"days": "Sat", "time": "1:00pm"}, {"days": "Sun", "time": "Closed"}], "id": "5315000003", "name": "USPS COLLECTION BOX - BLUE BOX", "address": {"city": "MUSKEGO", "state": "WI", "street": "S74W16860 JANESVILLE RD", "postcode": "53150"}}},
{"geometry": {"type": "Point", "coordinates": [-88.149376147, 42.9015609267]}, "type": "Feature", "properties": {"collection_times": [{"days": "Mon-Sat", "time": "12:00pm"}, {"days": "Sun", "time": "Closed"}], "id": "5315000004", "name": "USPS COLLECTION BOX - BLUE BOX", "address": {"city": "MUSKEGO", "state": "WI", "street": "W182S8200 RACINE AVE", "postcode": "53150"}}},
{"geometry": {"type": "Point", "coordinates": [-88.0859578441, 42.9279395515]}, "type": "Feature", "properties": {"collection_times": [{"days": "Mon-Sat", "time": "12:00pm"}, {"days": "Sun", "time": "Closed"}], "id": "5315000005", "name": "USPS COLLECTION BOX - BLUE BOX", "address": {"city": "MUSKEGO", "state": "WI", "street": "S63W13660 JANESVILLE RD", "postcode": "53150"}}},
{"geometry": {"type": "Point", "coordinates": [-88.1266440665, 42.9095119243]}, "type": "Feature", "properties": {"collection_times": [{"days": "Mon-Sat", "time": "12:00pm"}, {"days": "Sun", "time": "Closed"}], "id": "5315000006", "name": "USPS COLLECTION BOX - BLUE BOX", "address": {"city": "MUSKEGO", "state": "WI", "street": "S74W17030 JANESVILLE RD", "postcode": "53150"}}},
{"geometry": {"type": "Point", "coordinates": [-88.1516242235, 42.9038682105]}, "type": "Feature", "properties": {"collection_times": [{"days": "Mon-Sat", "time": "12:00pm"}, {"days": "Sun", "time": "Closed"}], "id": "5315000007", "name": "USPS COLLECTION BOX - BLUE BOX", "address": {"city": "MUSKEGO", "state": "WI", "street": "W189S7874 RACINE AVE", "postcode": "53150"}}},
{"geometry": {"type": "Point", "coordinates": [-88.1246130555, 42.9104087775]}, "type": "Feature", "properties": {"collection_times": [{"days": "Mon-Fri", "time": "5:30pm"}, {"days": "Sat", "time": "1:00pm"}, {"days": "Sun", "time": "Closed"}], "id": "5315000008", "name": "USPS COLLECTION BOX - PO LOBBY", "address": {"city": "MUSKEGO", "state": "WI", "street": "S74W16860 JANESVILLE RD", "postcode": "53150"}}},
{"geometry": {"type": "Point", "coordinates": [-88.0878429992, 42.985837903]}, "type": "Feature", "properties": {"collection_times": [{"days": "Mon-Fri", "time": "12:00pm"}, {"days": "Sat", "time": "10:00am"}, {"days": "Sun", "time": "Closed"}], "id": "5315100004", "name": "USPS COLLECTION BOX - BLUE BOX", "address": {"city": "NEW BERLIN", "state": "WI", "street": "13995 W NATIONAL AVE", "postcode": "53151"}}},
{"geometry": {"type": "Point", "coordinates": [-88.1040104994, 42.9746364646]}, "type": "Feature", "properties": {"collection_times": [{"days": "Mon-Fri", "time": "5:45pm"}, {"days": "Sat", "time": "2:00pm"}, {"days": "Sun", "time": "Closed"}], "id": "5315100006", "name": "USPS COLLECTION BOX - BLUE BOX", "address": {"city": "NEW BERLIN", "state": "WI", "street": "15300 W HOWARD AVE", "postcode": "53151"}}},
{"geometry": {"type": "Point", "coordinates": [-88.1150205516, 42.9953616301]}, "type": "Feature", "properties": {"collection_times": [{"days": "Mon-Fri", "time": "12:00pm"}, {"days": "Sat", "time": "10:00am"}, {"days": "Sun", "time": "Closed"}], "id": "5315100013", "name": "USPS COLLECTION BOX - BLUE BOX", "address": {"city": "NEW BERLIN", "state": "WI", "street": "16001 W CLEVELAND AVE", "postcode": "53151"}}},
{"geometry": {"type": "Point", "coordinates": [-88.1245051774, 42.9985248897]}, "type": "Feature", "properties": {"collection_times": [{"days": "Mon-Fri", "time": "12:00pm"}, {"days": "Sat", "time": "9:45am"}, {"days": "Sun", "time": "Closed"}], "id": "5315100018", "name": "USPS COLLECTION BOX - BLUE BOX", "address": {"city": "NEW BERLIN", "state": "WI", "street": "2530 S 170TH ST", "postcode": "53151"}}},
{"geometry": {"type": "Point", "coordinates": [-88.1040104994, 42.9746364646]}, "type": "Feature", "properties": {"collection_times": [{"days": "Mon-Fri", "time": "5:45pm"}, {"days": "Sat", "time": "2:00pm"}, {"days": "Sun", "time": "Closed"}], "id": "5315100024", "name": "USPS COLLECTION BOX - BLUE BOX", "address": {"city": "NEW BERLIN", "state": "WI", "street": "15300 W HOWARD AVE", "postcode": "53151"}}},
{"geometry": {"type": "Point", "coordinates": [-88.1121638336, 43.0062719877]}, "type": "Feature", "properties": {"collection_times": [{"days": "Mon-Fri", "time": "12:00pm"}, {"days": "Sat", "time": "10:00am"}, {"days": "Sun", "time": "Closed"}], "id": "5315100025", "name": "USPS COLLECTION BOX - BLUE BOX", "address": {"city": "NEW BERLIN", "state": "WI", "street": "16001 W ROGERS DR", "postcode": "53151"}}},
{"geometry": {"type": "Point", "coordinates": [-88.1252184424, 43.0072895978]}, "type": "Feature", "properties": {"collection_times": [{"days": "Mon-Fri", "time": "12:00pm"}, {"days": "Sat", "time": "10:00am"}, {"days": "Sun", "time": "Closed"}], "id": "5315100028", "name": "USPS COLLECTION BOX - BLUE BOX", "address": {"city": "NEW BERLIN", "state": "WI", "street": "17026 W ROGERS DR", "postcode": "53151"}}},
{"geometry": {"type": "Point", "coordinates": [-88.1123003915, 43.0001716931]}, "type": "Feature", "properties": {"collection_times": [{"days": "Mon-Fri", "time": "12:00pm"}, {"days": "Sat", "time": "10:00am"}, {"days": "Sun", "time": "Closed"}], "id": "5315100029", "name": "USPS COLLECTION BOX - BLUE BOX", "address": {"city": "NEW BERLIN", "state": "WI", "street": "16101 W OVERLAND DR", "postcode": "53151"}}},
{"geometry": {"type": "Point", "coordinates": [-88.0889578856, 43.0165166246]}, "type": "Feature", "properties": {"collection_times": [{"days": "Mon-Sat", "time": "12:00pm"}, {"days": "Sun", "time": "Closed"}], "id": "5315100030", "name": "USPS COLLECTION BOX - BLUE BOX", "address": {"city": "NEW BERLIN", "state": "WI", "street": "14105 W GREENFIELD AVE", "postcode": "53151"}}},
{"geometry": {"type": "Point", "coordinates": [-88.0959604636, 42.9837168576]}, "type": "Feature", "properties": {"collection_times": [{"days": "Mon-Fri", "time": "12:00pm"}, {"days": "Sat", "time": "10:00am"}, {"days": "Sun", "time": "Closed"}], "id": "5315100036", "name": "USPS COLLECTION BOX - BLUE BOX", "address": {"city": "NEW BERLIN", "state": "WI", "street": "14555 W NATIONAL AVE", "postcode": "53151"}}},
{"geometry": {"type": "Point", "coordinates": [-88.1099304195, 42.9930519972]}, "type": "Feature", "properties": {"collection_times": [{"days": "Mon-Fri", "time": "12:00pm"}, {"days": "Sat", "time": "10:00am"}, {"days": "Sun", "time": "Closed"}], "id": "5315100038", "name": "USPS COLLECTION BOX - BLUE BOX", "address": {"city": "NEW BERLIN", "state": "WI", "street": "2825 S JAMES DR", "postcode": "53151"}}},
{"geometry": {"type": "Point", "coordinates": [-88.1056879352, 42.9784373117]}, "type": "Feature", "properties": {"collection_times": [{"days": "Mon-Fri", "time": "12:00pm"}, {"days": "Sat", "time": "10:00am"}, {"days": "Sun", "time": "Closed"}], "id": "5315100040", "name": "USPS COLLECTION BOX - BLUE BOX", "address": {"city": "NEW BERLIN", "state": "WI", "street": "15400 W NATIONAL AVE", "postcode": "53151"}}},
{"geometry": {"type": "Point", "coordinates": [-88.103581676, 42.974716407]}, "type": "Feature", "properties": {"collection_times": [{"days": "Mon-Fri", "time": "5:45pm"}, {"days": "Sat", "time": "2:00pm"}, {"days": "Sun", "time": "Closed"}], "id": "5315100041", "name": "USPS COLLECTION BOX - PO LOBBY", "address": {"city": "NEW BERLIN", "state": "WI", "street": "15300 W HOWARD AVE", "postcode": "53151"}}},
{"geometry": {"type": "Point", "coordinates": [-88.103581676, 42.974716407]}, "type": "Feature", "properties": {"collection_times": [{"days": "Mon-Fri", "time": "5:45pm"}, {"days": "Sat", "time": "2:00pm"}, {"days": "Sun", "time": "Closed"}], "id": "5315100042", "name": "USPS COLLECTION BOX - PO LOBBY", "address": {"city": "NEW BERLIN", "state": "WI", "street": "15300 W HOWARD AVE", "postcode": "53151"}}},
{"geometry": {"type": "Point", "coordinates": [-88.103581676, 42.974716407]}, "type": "Feature", "properties": {"collection_times": [{"days": "Mon-Fri", "time": "5:45pm"}, {"days": "Sat", "time": "2:00pm"}, {"days": "Sun", "time": "Closed"}], "id": "5315100043", "name": "USPS COLLECTION BOX - PO LOBBY", "address": {"city": "NEW BERLIN", "state": "WI", "street": "15300 W HOWARD AVE", "postcode": "53151"}}},
{"geometry": {"type": "Point", "coordinates": [-88.112265187, 42.9460786522]}, "type": "Feature", "properties": {"collection_times": [{"days": "Mon-Fri", "time": "12:00pm"}, {"days": "Sat", "time": "10:00am"}, {"days": "Sun", "time": "Closed"}], "id": "5315100045", "name": "USPS COLLECTION BOX - BLUE BOX", "address": {"city": "NEW BERLIN", "state": "WI", "street": "5355 S WESTRIDGE DR", "postcode": "53151"}}},
{"geometry": {"type": "Point", "coordinates": [-88.1040104994, 42.9746364646]}, "type": "Feature", "properties": {"collection_times": [{"days": "Mon-Fri", "time": "5:45pm"}, {"days": "Sat", "time": "2:00pm"}, {"days": "Sun", "time": "Closed"}], "id": "5315100049", "name": "USPS COLLECTION BOX - BLUE BOX", "address": {"city": "NEW BERLIN", "state": "WI", "street": "15300 W HOWARD AVE", "postcode": "53151"}}},
{"geometry": {"type": "Point", "coordinates": [-88.1040104994, 42.9746364646]}, "type": "Feature", "properties": {"collection_times": [{"days": "Mon-Fri", "time": "5:45pm"}, {"days": "Sat", "time": "2:00pm"}, {"days": "Sun", "time": "Closed"}], "id": "5315100051", "name": "USPS COLLECTION BOX - BLUE BOX", "address": {"city": "NEW BERLIN", "state": "WI", "street": "15300 W HOWARD AVE", "postcode": "53151"}}},
{"geometry": {"type": "Point", "coordinates": [-88.1150205516, 42.9953616301]}, "type": "Feature", "properties": {"collection_times": [{"days": "Mon-Fri", "time": "12:00pm"}, {"days": "Sat", "time": "10:00am"}, {"days": "Sun", "time": "Closed"}], "id": "5315100052", "name": "USPS COLLECTION BOX - BLUE BOX", "address": {"city": "NEW BERLIN", "state": "WI", "street": "16001 W CLEVELAND AVE", "postcode": "53151"}}},
{"geometry": {"type": "Point", "coordinates": [-88.2352183238, 42.5814673912]}, "type": "Feature", "properties": {"collection_times": [{"days": "Mon-Fri", "time": "4:00pm"}, {"days": "Sat", "time": "10:45am"}, {"days": "Sun", "time": "Closed"}], "id": "5315200001", "name": "USPS COLLECTION BOX - BLUE BOX", "address": {"city": "NEW MUNSTER", "state": "WI", "street": "34315 GENEVA RD", "postcode": "53152"}}},
{"geometry": {"type": "Point", "coordinates": [-88.2352183238, 42.5814673912]}, "type": "Feature", "properties": {"collection_times": [{"days": "Mon-Fri", "time": "4:00pm"}, {"days": "Sat", "time": "10:45am"}, {"days": "Sun", "time": "Closed"}], "id": "5315200002", "name": "USPS COLLECTION BOX - PO LOBBY", "address": {"city": "NEW MUNSTER", "state": "WI", "street": "34315 GENEVA RD", "postcode": "53152"}}},
{"geometry": {"type": "Point", "coordinates": [-88.4038669378, 42.9347234291]}, "type": "Feature", "properties": {"collection_times": [{"days": "Mon-Fri", "time": "4:30pm"}, {"days": "Sat", "time": "11:00am"}, {"days": "Sun", "time": "Closed"}], "id": "5315300001", "name": "USPS COLLECTION BOX - BLUE BOX", "address": {"city": "NORTH PRAIRIE", "state": "WI", "street": "125 N HARRISON ST", "postcode": "53153"}}},
{"geometry": {"type": "Point", "coordinates": [-88.4038669378, 42.9347234291]}, "type": "Feature", "properties": {"collection_times": [{"days": "Mon-Fri", "time": "4:30pm"}, {"days": "Sat", "time": "11:00am"}, {"days": "Sun", "time": "Closed"}], "id": "5315300004", "name": "USPS COLLECTION BOX - PO LOBBY", "address": {"city": "NORTH PRAIRIE", "state": "WI", "street": "125 N HARRISON ST", "postcode": "53153"}}},
{"geometry": {"type": "Point", "coordinates": [-87.910295054, 42.8829559618]}, "type": "Feature", "properties": {"collection_times": [{"days": "Mon-Fri", "time": "5:00pm"}, {"days": "Sat", "time": "2:00pm"}, {"days": "Sun", "time": "Closed"}], "id": "5315400000", "name": "USPS COLLECTION BOX - PO LOBBY", "address": {"city": "OAK CREEK", "state": "WI", "street": "200 E CENTENNIAL DR", "postcode": "53154"}}},
{"geometry": {"type": "Point", "coordinates": [-87.910295054, 42.8829559618]}, "type": "Feature", "properties": {"collection_times": [{"days": "Mon-Fri", "time": "5:00pm"}, {"days": "Sat", "time": "2:00pm"}, {"days": "Sun", "time": "Closed"}], "id": "5315400002", "name": "USPS COLLECTION BOX - PO LOBBY", "address": {"city": "OAK CREEK", "state": "WI", "street": "200 E CENTENNIAL DR", "postcode": "53154"}}},
{"geometry": {"type": "Point", "coordinates": [-87.9493480784, 42.9275937354]}, "type": "Feature", "properties": {"collection_times": [{"days": "Mon-Sat", "time": "10:00am"}, {"days": "Sun", "time": "Closed"}], "id": "5315400003", "name": "USPS COLLECTION BOX - BLUE BOX", "address": {"city": "OAK CREEK", "state": "WI", "street": "6462 S 27TH ST", "postcode": "53154"}}},
{"geometry": {"type": "Point", "coordinates": [-87.9493244192, 42.9283046937]}, "type": "Feature", "properties": {"collection_times": [{"days": "Mon-Sat", "time": "10:00am"}, {"days": "Sun", "time": "Closed"}], "id": "5315400004", "name": "USPS COLLECTION BOX - BLUE BOX", "address": {"city": "OAK CREEK", "state": "WI", "street": "6400 S 27TH ST", "postcode": "53154"}}},
{"geometry": {"type": "Point", "coordinates": [-89.7391818064, 44.6448297939]}, "type": "Feature", "properties": {"collection_times": [{"days": "Mon-Sat", "time": "2:30pm"}, {"days": "Sun", "time": "Closed"}], "id": "5315400005", "name": "USPS COLLECTION BOX - BLUE BOX", "address": {"city": "OAK CREEK", "state": "WI", "street": "6930 S 20TH ST", "postcode": "53154"}}},
{"geometry": {"type": "Point", "coordinates": [-87.9431336676, 42.8724460568]}, "type": "Feature", "properties": {"collection_times": [{"days": "Mon-Sat", "time": "2:30pm"}, {"days": "Sun", "time": "Closed"}], "id": "5315400008", "name": "USPS COLLECTION BOX - BLUE BOX", "address": {"city": "OAK CREEK", "state": "WI", "street": "2031 W RYAN RD", "postcode": "53154"}}},
{"geometry": {"type": "Point", "coordinates": [-87.927045753, 42.900766592]}, "type": "Feature", "properties": {"collection_times": [{"days": "Mon-Sat", "time": "2:30pm"}, {"days": "Sun", "time": "Closed"}], "id": "5315400010", "name": "USPS COLLECTION BOX - BLUE BOX", "address": {"city": "OAK CREEK", "state": "WI", "street": "7920 S WILDWOOD DR", "postcode": "53154"}}},
{"geometry": {"type": "Point", "coordinates": [-87.910295054, 42.8829559618]}, "type": "Feature", "properties": {"collection_times": [{"days": "Mon-Fri", "time": "5:00pm"}, {"days": "Sat", "time": "2:00pm"}, {"days": "Sun", "time": "Closed"}], "id": "5315400012", "name": "USPS COLLECTION BOX - BLUE BOX", "address": {"city": "OAK CREEK", "state": "WI", "street": "200 E CENTENNIAL DR", "postcode": "53154"}}},
{"geometry": {"type": "Point", "coordinates": [-87.910295054, 42.8829559618]}, "type": "Feature", "properties": {"collection_times": [{"days": "Mon-Fri", "time": "5:00pm"}, {"days": "Sat", "time": "2:00pm"}, {"days": "Sun", "time": "Closed"}], "id": "5315400013", "name": "USPS COLLECTION BOX - BLUE BOX", "address": {"city": "OAK CREEK", "state": "WI", "street": "200 E CENTENNIAL DR", "postcode": "53154"}}},
{"geometry": {"type": "Point", "coordinates": [-87.910295054, 42.8829559618]}, "type": "Feature", "properties": {"collection_times": [{"days": "Mon-Fri", "time": "5:00pm"}, {"days": "Sat", "time": "2:00pm"}, {"days": "Sun", "time": "Closed"}], "id": "5315400015", "name": "USPS COLLECTION BOX - PO LOBBY", "address": {"city": "OAK CREEK", "state": "WI", "street": "200 E CENTENNIAL DR", "postcode": "53154"}}},
{"geometry": {"type": "Point", "coordinates": [-87.910295054, 42.8829559618]}, "type": "Feature", "properties": {"collection_times": [{"days": "Mon-Fri", "time": "5:00pm"}, {"days": "Sat", "time": "2:00pm"}, {"days": "Sun", "time": "Closed"}], "id": "5315400019", "name": "USPS COLLECTION BOX - APC", "address": {"city": "OAK CREEK", "state": "WI", "street": "200 E CENTENNIAL DR", "postcode": "53154"}}},
{"geometry": {"type": "Point", "coordinates": [-88.5863815904, 42.8773304495]}, "type": "Feature", "properties": {"collection_times": [{"days": "Mon-Fri", "time": "3:30pm"}, {"days": "Sat", "time": "10:45am"}, {"days": "Sun", "time": "Closed"}], "id": "5315600001", "name": "USPS COLLECTION BOX - BLUE BOX", "address": {"city": "PALMYRA", "state": "WI", "street": "116 N 3RD ST", "postcode": "53156"}}},
{"geometry": {"type": "Point", "coordinates": [-88.5863815904, 42.8773304495]}, "type": "Feature", "properties": {"collection_times": [{"days": "Mon-Fri", "time": "4:00pm"}, {"days": "Sat", "time": "11:00am"}, {"days": "Sun", "time": "Closed"}], "id": "5315600003", "name": "USPS COLLECTION BOX - PO LOBBY", "address": {"city": "PALMYRA", "state": "WI", "street": "116 N 3RD ST", "postcode": "53156"}}},
{"geometry": {"type": "Point", "coordinates": [-88.3444653249, 42.5452700515]}, "type": "Feature", "properties": {"collection_times": [{"days": "Mon-Fri", "time": "4:15pm"}, {"days": "Sat", "time": "11:00am"}, {"days": "Sun", "time": "Closed"}], "id": "5315700001", "name": "USPS COLLECTION BOX - BLUE BOX", "address": {"city": "PELL LAKE", "state": "WI", "street": "W1265 PARK RD", "postcode": "53157"}}},
{"geometry": {"type": "Point", "coordinates": [-88.3444653249, 42.5452700515]}, "type": "Feature", "properties": {"collection_times": [{"days": "Mon-Fri", "time": "4:30pm"}, {"days": "Sat", "time": "11:00am"}, {"days": "Sun", "time": "Closed"}], "id": "5315700002", "name": "USPS COLLECTION BOX - PO LOBBY", "address": {"city": "PELL LAKE", "state": "WI", "street": "W1265 PARK RD", "postcode": "53157"}}},
{"geometry": {"type": "Point", "coordinates": [-87.8579501963, 42.5258399909]}, "type": "Feature", "properties": {"collection_times": [{"days": "Mon-Fri", "time": "5:00pm"}, {"days": "Sat", "time": "1:00pm"}, {"days": "Sun", "time": "Closed"}], "id": "5315800003", "name": "USPS COLLECTION BOX - BLUE BOX", "address": {"city": "PLEASANT PR", "state": "WI", "street": "4225 101ST ST", "postcode": "53158"}}},
{"geometry": {"type": "Point", "coordinates": [-87.9332157254, 42.5577759099]}, "type": "Feature", "properties": {"collection_times": [{"days": "Mon-Sat", "time": "11:00am"}, {"days": "Sun", "time": "Closed"}], "id": "5315800006", "name": "USPS COLLECTION BOX - BLUE BOX", "address": {"city": "PLEASANT PR", "state": "WI", "street": "10350 82ND ST", "postcode": "53158"}}},
{"geometry": {"type": "Point", "coordinates": [-87.9139849696, 42.56279667]}, "type": "Feature", "properties": {"collection_times": [{"days": "Mon-Sat", "time": "11:00am"}, {"days": "Sun", "time": "Closed"}], "id": "5315800007", "name": "USPS COLLECTION BOX - BLUE BOX", "address": {"city": "PLEASANT PR", "state": "WI", "street": "7801 88TH AVE", "postcode": "53158"}}},
{"geometry": {"type": "Point", "coordinates": [-87.8579501963, 42.5258399909]}, "type": "Feature", "properties": {"collection_times": [{"days": "Mon-Fri", "time": "4:15pm"}, {"days": "Sat", "time": "1:00pm"}, {"days": "Sun", "time": "Closed"}], "id": "5315800008", "name": "USPS COLLECTION BOX - PO LOBBY", "address": {"city": "PLEASANT PR", "state": "WI", "street": "4225 101ST ST", "postcode": "53158"}}},
{"geometry": {"type": "Point", "coordinates": [-87.9335789559, 42.5537064763]}, "type": "Feature", "properties": {"collection_times": [{"days": "Mon-Sat", "time": "11:00am"}, {"days": "Sun", "time": "Closed"}], "id": "5315800009", "name": "USPS COLLECTION BOX - BLUE BOX", "address": {"city": "PLEASANT PR", "state": "WI", "street": "8500 104TH AVE", "postcode": "53158"}}},
{"geometry": {"type": "Point", "coordinates": [-88.2861534665, 42.5171612408]}, "type": "Feature", "properties": {"collection_times": [{"days": "Mon-Fri", "time": "4:15pm"}, {"days": "Sat", "time": "9:45am"}, {"days": "Sun", "time": "Closed"}], "id": "5315900001", "name": "USPS COLLECTION BOX - BLUE BOX", "address": {"city": "POWERS LAKE", "state": "WI", "street": "39722 BLOOMFIELD RD", "postcode": "53159"}}},
{"geometry": {"type": "Point", "coordinates": [-88.2861534665, 42.5171612408]}, "type": "Feature", "properties": {"collection_times": [{"days": "Mon-Fri", "time": "11:45am"}, {"days": "Sat", "time": "9:45am"}, {"days": "Sun", "time": "Closed"}], "id": "5315900002", "name": "USPS COLLECTION BOX - PO LOBBY", "address": {"city": "POWERS LAKE", "state": "WI", "street": "39722 BLOOMFIELD RD", "postcode": "53159"}}},
{"geometry": {"type": "Point", "coordinates": [-88.2223868371, 42.7412966258]}, "type": "Feature", "properties": {"collection_times": [{"days": "Mon-Fri", "time": "4:30pm"}, {"days": "Sat", "time": "9:30am"}, {"days": "Sun", "time": "Closed"}], "id": "5316700002", "name": "USPS COLLECTION BOX - BLUE BOX", "address": {"city": "ROCHESTER", "state": "WI", "street": "208 W MAIN ST", "postcode": "53167"}}},
{"geometry": {"type": "Point", "coordinates": [-88.2223868371, 42.7412966258]}, "type": "Feature", "properties": {"collection_times": [{"days": "Mon-Fri", "time": "4:30pm"}, {"days": "Sat", "time": "9:30am"}, {"days": "Sun", "time": "Closed"}], "id": "5316700003", "name": "USPS COLLECTION BOX - PO LOBBY", "address": {"city": "ROCHESTER", "state": "WI", "street": "208 W MAIN ST", "postcode": "53167"}}},
{"geometry": {"type": "Point", "coordinates": [-88.2223868371, 42.7412966258]}, "type": "Feature", "properties": {"collection_times": [{"days": "Mon-Fri", "time": "4:30pm"}, {"days": "Sat", "time": "9:30am"}, {"days": "Sun", "time": "Closed"}], "id": "5316700004", "name": "USPS COLLECTION BOX - PO LOBBY", "address": {"city": "ROCHESTER", "state": "WI", "street": "208 W MAIN ST", "postcode": "53167"}}},
{"geometry": {"type": "Point", "coordinates": [-88.109390595, 42.5548981904]}, "type": "Feature", "properties": {"collection_times": [{"days": "Mon-Fri", "time": "4:30pm"}, {"days": "Sat", "time": "10:30am"}, {"days": "Sun", "time": "Closed"}], "id": "5316800001", "name": "USPS COLLECTION BOX - BLUE BOX", "address": {"city": "SALEM", "state": "WI", "street": "24913 83RD PL", "postcode": "53168"}}},
{"geometry": {"type": "Point", "coordinates": [-88.1139637442, 42.5683540899]}, "type": "Feature", "properties": {"collection_times": [{"days": "Mon-Sat", "time": "12:30pm"}, {"days": "Sun", "time": "Closed"}], "id": "5316800002", "name": "USPS COLLECTION BOX - BLUE BOX", "address": {"city": "SALEM", "state": "WI", "street": "25260 75TH ST", "postcode": "53168"}}},
{"geometry": {"type": "Point", "coordinates": [-88.1093449987, 42.5548949346]}, "type": "Feature", "properties": {"collection_times": [{"days": "Mon-Fri", "time": "4:30pm"}, {"days": "Sat", "time": "10:30am"}, {"days": "Sun", "time": "Closed"}], "id": "5316800004", "name": "USPS COLLECTION BOX - BLUE BOX", "address": {"city": "SALEM", "state": "WI", "street": "24913 83RD PL", "postcode": "53168"}}},
{"geometry": {"type": "Point", "coordinates": [-88.167780399, 42.5424058776]}, "type": "Feature", "properties": {"collection_times": [{"days": "Mon-Fri", "time": "4:30pm"}, {"days": "Sat", "time": "11:00am"}, {"days": "Sun", "time": "Closed"}], "id": "5317000000", "name": "USPS COLLECTION BOX - BLUE BOX", "address": {"city": "SILVER LAKE", "state": "WI", "street": "739 S COGSWELL DR", "postcode": "53170"}}},
{"geometry": {"type": "Point", "coordinates": [-88.167780399, 42.5424058776]}, "type": "Feature", "properties": {"collection_times": [{"days": "Mon-Fri", "time": "4:30pm"}, {"days": "Sat", "time": "11:00am"}, {"days": "Sun", "time": "Closed"}], "id": "5317000002", "name": "USPS COLLECTION BOX - PO LOBBY", "address": {"city": "SILVER LAKE", "state": "WI", "street": "739 S COGSWELL DR", "postcode": "53170"}}},
{"geometry": {"type": "Point", "coordinates": [-87.9095715573, 42.6390361792]}, "type": "Feature", "properties": {"collection_times": [{"days": "Mon-Fri", "time": "4:30pm"}, {"days": "Sat", "time": "11:30am"}, {"days": "Sun", "time": "Closed"}], "id": "5317100001", "name": "USPS COLLECTION BOX - BLUE BOX", "address": {"city": "SOMERS", "state": "WI", "street": "7621 12TH ST", "postcode": "53171"}}},
{"geometry": {"type": "Point", "coordinates": [-87.9095715573, 42.6390361792]}, "type": "Feature", "properties": {"collection_times": [{"days": "Mon-Fri", "time": "4:30pm"}, {"days": "Sat", "time": "11:30am"}, {"days": "Sun", "time": "Closed"}], "id": "5317100002", "name": "USPS COLLECTION BOX - PO LOBBY", "address": {"city": "SOMERS", "state": "WI", "street": "7621 12TH ST", "postcode": "53171"}}},
{"geometry": {"type": "Point", "coordinates": [-87.8611845126, 42.9078761754]}, "type": "Feature", "properties": {"collection_times": [{"days": "Mon-Fri", "time": "1:00pm"}, {"days": "Sat", "time": "10:00am"}, {"days": "Sun", "time": "Closed"}], "id": "5317200001", "name": "USPS COLLECTION BOX - BLUE BOX", "address": {"city": "SOUTH MILWAUKEE", "state": "WI", "street": "1001 MARQUETTE AVE", "postcode": "53172"}}},
{"geometry": {"type": "Point", "coordinates": [-87.8607941362, 42.9091679666]}, "type": "Feature", "properties": {"collection_times": [{"days": "Mon-Fri", "time": "4:30pm"}, {"days": "Sat", "time": "2:00pm"}, {"days": "Sun", "time": "Closed"}], "id": "5317200003", "name": "USPS COLLECTION BOX - BLUE BOX", "address": {"city": "SOUTH MILWAUKEE", "state": "WI", "street": "2210 10TH AVE", "postcode": "53172"}}},
{"geometry": {"type": "Point", "coordinates": [-87.8607941362, 42.9091679666]}, "type": "Feature", "properties": {"collection_times": [{"days": "Mon-Fri", "time": "4:30pm"}, {"days": "Sat", "time": "2:00pm"}, {"days": "Sun", "time": "Closed"}], "id": "5317200007", "name": "USPS COLLECTION BOX - BLUE BOX", "address": {"city": "SOUTH MILWAUKEE", "state": "WI", "street": "2210 10TH AVE", "postcode": "53172"}}},
{"geometry": {"type": "Point", "coordinates": [-87.8655863029, 42.9020016011]}, "type": "Feature", "properties": {"collection_times": [{"days": "Mon-Sat", "time": "11:30am"}, {"days": "Sun", "time": "Closed"}], "id": "5317200008", "name": "USPS COLLECTION BOX - BLUE BOX", "address": {"city": "SOUTH MILWAUKEE", "state": "WI", "street": "2901 S CHICAGO AVE", "postcode": "53172"}}},
{"geometry": {"type": "Point", "coordinates": [-87.8718152087, 42.9076345849]}, "type": "Feature", "properties": {"collection_times": [{"days": "Mon-Sat", "time": "11:00am"}, {"days": "Sun", "time": "Closed"}], "id": "5317200009", "name": "USPS COLLECTION BOX - BLUE BOX", "address": {"city": "SOUTH MILWAUKEE", "state": "WI", "street": "2424 15TH AVE", "postcode": "53172"}}},
{"geometry": {"type": "Point", "coordinates": [-87.8706623798, 42.9286903384]}, "type": "Feature", "properties": {"collection_times": [{"days": "Mon-Sat", "time": "10:00am"}, {"days": "Sun", "time": "Closed"}], "id": "5317200010", "name": "USPS COLLECTION BOX - BLUE BOX", "address": {"city": "SOUTH MILWAUKEE", "state": "WI", "street": "200 15TH AVE", "postcode": "53172"}}},
{"geometry": {"type": "Point", "coordinates": [-87.8606202412, 42.9122353792]}, "type": "Feature", "properties": {"collection_times": [{"days": "Mon-Sat", "time": "10:00am"}, {"days": "Sun", "time": "Closed"}], "id": "5317200012", "name": "USPS COLLECTION BOX - BLUE BOX", "address": {"city": "SOUTH MILWAUKEE", "state": "WI", "street": "1907 10TH AVE", "postcode": "53172"}}},
{"geometry": {"type": "Point", "coordinates": [-87.8532101862, 42.9105260034]}, "type": "Feature", "properties": {"collection_times": [{"days": "Mon-Sat", "time": "9:30am"}, {"days": "Sun", "time": "Closed"}], "id": "5317200013", "name": "USPS COLLECTION BOX - BLUE BOX", "address": {"city": "SOUTH MILWAUKEE", "state": "WI", "street": "601 MILWAUKEE AVE", "postcode": "53172"}}},
{"geometry": {"type": "Point", "coordinates": [-87.8519219439, 42.9039345561]}, "type": "Feature", "properties": {"collection_times": [{"days": "Mon-Sat", "time": "9:30am"}, {"days": "Sun", "time": "Closed"}], "id": "5317200016", "name": "USPS COLLECTION BOX - BLUE BOX", "address": {"city": "SOUTH MILWAUKEE", "state": "WI", "street": "2701 5TH AVE", "postcode": "53172"}}},
{"geometry": {"type": "Point", "coordinates": [-87.8596277386, 42.9226276737]}, "type": "Feature", "properties": {"collection_times": [{"days": "Mon-Sat", "time": "9:30am"}, {"days": "Sun", "time": "Closed"}], "id": "5317200018", "name": "USPS COLLECTION BOX - BLUE BOX", "address": {"city": "SOUTH MILWAUKEE", "state": "WI", "street": "721 N CHICAGO AVE", "postcode": "53172"}}},
{"geometry": {"type": "Point", "coordinates": [-87.8509010503, 42.925068118]}, "type": "Feature", "properties": {"collection_times": [{"days": "Mon-Sat", "time": "9:30am"}, {"days": "Sun", "time": "Closed"}], "id": "5317200019", "name": "USPS COLLECTION BOX - BLUE BOX", "address": {"city": "SOUTH MILWAUKEE", "state": "WI", "street": "412 LAKE DR", "postcode": "53172"}}},
{"geometry": {"type": "Point", "coordinates": [-87.8681237499, 42.9299643852]}, "type": "Feature", "properties": {"collection_times": [{"days": "Mon-Sat", "time": "10:00am"}, {"days": "Sun", "time": "Closed"}], "id": "5317200022", "name": "USPS COLLECTION BOX - BLUE BOX", "address": {"city": "SOUTH MILWAUKEE", "state": "WI", "street": "1333 COLLEGE AVE", "postcode": "53172"}}},
{"geometry": {"type": "Point", "coordinates": [-87.872790523, 42.9136005138]}, "type": "Feature", "properties": {"collection_times": [{"days": "Mon-Sat", "time": "11:30am"}, {"days": "Sun", "time": "Closed"}], "id": "5317200023", "name": "USPS COLLECTION BOX - BLUE BOX", "address": {"city": "SOUTH MILWAUKEE", "state": "WI", "street": "1519 MANITOBA AVE", "postcode": "53172"}}},
{"geometry": {"type": "Point", "coordinates": [-87.8735606293, 42.9109518687]}, "type": "Feature", "properties": {"collection_times": [{"days": "Mon-Sat", "time": "10:30am"}, {"days": "Sun", "time": "Closed"}], "id": "5317200025", "name": "USPS COLLECTION BOX - BLUE BOX", "address": {"city": "SOUTH MILWAUKEE", "state": "WI", "street": "1600 MILWAUKEE AVE", "postcode": "53172"}}},
{"geometry": {"type": "Point", "coordinates": [-87.8718453388, 42.9008848879]}, "type": "Feature", "properties": {"collection_times": [{"days": "Mon-Sat", "time": "11:00am"}, {"days": "Sun", "time": "Closed"}], "id": "5317200028", "name": "USPS COLLECTION BOX - BLUE BOX", "address": {"city": "SOUTH MILWAUKEE", "state": "WI", "street": "1434 DREXEL BLVD", "postcode": "53172"}}},
{"geometry": {"type": "Point", "coordinates": [-87.860857889, 42.909051242]}, "type": "Feature", "properties": {"collection_times": [{"days": "Mon-Fri", "time": "4:30pm"}, {"days": "Sat", "time": "2:00pm"}, {"days": "Sun", "time": "Closed"}], "id": "5317200033", "name": "USPS COLLECTION BOX - PO LOBBY", "address": {"city": "SOUTH MILWAUKEE", "state": "WI", "street": "2210 10TH AVE", "postcode": "53172"}}},
{"geometry": {"type": "Point", "coordinates": [-88.4136518719, 42.6430797333]}, "type": "Feature", "properties": {"collection_times": [{"days": "Mon-Fri", "time": "4:30pm"}, {"days": "Sat", "time": "9:45am"}, {"days": "Sun", "time": "Closed"}], "id": "5317600001", "name": "USPS COLLECTION BOX - BLUE BOX", "address": {"city": "SPRINGFIELD", "state": "WI", "street": "7210 SPRINGFIELD RD", "postcode": "53176"}}},
{"geometry": {"type": "Point", "coordinates": [-88.4142628766, 42.6402337991]}, "type": "Feature", "properties": {"collection_times": [{"days": "Mon-Fri", "time": "4:00pm"}, {"days": "Sat", "time": "9:45am"}, {"days": "Sun", "time": "Closed"}], "id": "5317600002", "name": "USPS COLLECTION BOX - PO LOBBY", "address": {"city": "SPRINGFIELD", "state": "WI", "street": "7210 SPRINGFIELD RD", "postcode": "53176"}}},
{"geometry": {"type": "Point", "coordinates": [-87.9046843659, 42.7006391355]}, "type": "Feature", "properties": {"collection_times": [{"days": "Mon-Fri", "time": "5:00pm"}, {"days": "Sat", "time": "11:30am"}, {"days": "Sun", "time": "Closed"}], "id": "5317700003", "name": "USPS COLLECTION BOX - BLUE BOX", "address": {"city": "MOUNT PLEASANT", "state": "WI", "street": "2849 WISCONSIN ST", "postcode": "53177"}}},
{"geometry": {"type": "Point", "coordinates": [-87.9567756257, 42.7248114486]}, "type": "Feature", "properties": {"collection_times": [{"days": "Mon-Sat", "time": "9:30am"}, {"days": "Sun", "time": "Closed"}], "id": "5317700006", "name": "USPS COLLECTION BOX - BLUE BOX", "address": {"city": "MOUNT PLEASANT", "state": "WI", "street": "611 S SYLVANIA AVE", "postcode": "53177"}}},
{"geometry": {"type": "Point", "coordinates": [-87.9046843659, 42.7006391355]}, "type": "Feature", "properties": {"collection_times": [{"days": "Mon-Fri", "time": "5:00pm"}, {"days": "Sat", "time": "11:30am"}, {"days": "Sun", "time": "Closed"}], "id": "5317700007", "name": "USPS COLLECTION BOX - PO LOBBY", "address": {"city": "MOUNT PLEASANT", "state": "WI", "street": "2849 WISCONSIN ST", "postcode": "53177"}}},
{"geometry": {"type": "Point", "coordinates": [-87.8701893923, 42.6966328667]}, "type": "Feature", "properties": {"collection_times": [{"days": "Mon-Sat", "time": "9:00am"}, {"days": "Sun", "time": "Closed"}], "id": "5317700008", "name": "USPS COLLECTION BOX - BLUE BOX", "address": {"city": "MOUNT PLEASANT", "state": "WI", "street": "3049 S OAKES RD", "postcode": "53177"}}},
{"geometry": {"type": "Point", "coordinates": [-88.5841377362, 43.0045316645]}, "type": "Feature", "properties": {"collection_times": [{"days": "Mon-Fri", "time": "4:30pm"}, {"days": "Sat", "time": "10:30am"}, {"days": "Sun", "time": "Closed"}], "id": "5317800001", "name": "USPS COLLECTION BOX - BLUE BOX", "address": {"city": "SULLIVAN", "state": "WI", "street": "707 PALMYRA ST", "postcode": "53178"}}},
{"geometry": {"type": "Point", "coordinates": [-88.5841377362, 43.0045316645]}, "type": "Feature", "properties": {"collection_times": [{"days": "Mon-Fri", "time": "4:30pm"}, {"days": "Sat", "time": "10:30am"}, {"days": "Sun", "time": "Closed"}], "id": "5317800002", "name": "USPS COLLECTION BOX - PO LOBBY", "address": {"city": "SULLIVAN", "state": "WI", "street": "707 PALMYRA ST", "postcode": "53178"}}},
{"geometry": {"type": "Point", "coordinates": [-88.5841377362, 43.0045316645]}, "type": "Feature", "properties": {"collection_times": [{"days": "Mon-Fri", "time": "4:30pm"}, {"days": "Sat", "time": "10:30am"}, {"days": "Sun", "time": "Closed"}], "id": "5317800003", "name": "USPS COLLECTION BOX - PO LOBBY", "address": {"city": "SULLIVAN", "state": "WI", "street": "707 PALMYRA ST", "postcode": "53178"}}},
{"geometry": {"type": "Point", "coordinates": [-88.1206227921, 42.5112749868]}, "type": "Feature", "properties": {"collection_times": [{"days": "Mon-Fri", "time": "3:45pm"}, {"days": "Sat", "time": "11:00am"}, {"days": "Sun", "time": "Closed"}], "id": "5317900001", "name": "USPS COLLECTION BOX - PO LOBBY", "address": {"city": "TREVOR", "state": "WI", "street": "25930 WILMOT RD", "postcode": "53179"}}},
{"geometry": {"type": "Point", "coordinates": [-88.1206227921, 42.5112749868]}, "type": "Feature", "properties": {"collection_times": [{"days": "Mon-Fri", "time": "4:30pm"}, {"days": "Sat", "time": "11:00am"}, {"days": "Sun", "time": "Closed"}], "id": "5317900002", "name": "USPS COLLECTION BOX - BLUE BOX", "address": {"city": "TREVOR", "state": "WI", "street": "25930 WILMOT RD", "postcode": "53179"}}},
{"geometry": {"type": "Point", "coordinates": [-88.1205209068, 42.5163954131]}, "type": "Feature", "properties": {"collection_times": [{"days": "Mon-Fri", "time": "1:00pm"}, {"days": "Sat-Sun", "time": "Closed"}], "id": "5317900004", "name": "USPS COLLECTION BOX - BLUE BOX", "address": {"city": "TREVOR", "state": "WI", "street": "11100 258TH AVE", "postcode": "53179"}}},
{"geometry": {"type": "Point", "coordinates": [-88.2551237715, 42.5306075845]}, "type": "Feature", "properties": {"collection_times": [{"days": "Mon-Fri", "time": "4:45pm"}, {"days": "Sat", "time": "11:00am"}, {"days": "Sun", "time": "Closed"}], "id": "5318100002", "name": "USPS COLLECTION BOX - BLUE BOX", "address": {"city": "TWIN LAKES", "state": "WI", "street": "170 LANCE DR", "postcode": "53181"}}},
{"geometry": {"type": "Point", "coordinates": [-88.2466226353, 42.5383285693]}, "type": "Feature", "properties": {"collection_times": [{"days": "Mon-Sat", "time": "11:00am"}, {"days": "Sun", "time": "Closed"}], "id": "5318100003", "name": "USPS COLLECTION BOX - BLUE BOX", "address": {"city": "TWIN LAKES", "state": "WI", "street": "700 N LAKE AVE", "postcode": "53181"}}},
{"geometry": {"type": "Point", "coordinates": [-88.2551237715, 42.5306075845]}, "type": "Feature", "properties": {"collection_times": [{"days": "Mon-Fri", "time": "5:00pm"}, {"days": "Sat", "time": "11:00am"}, {"days": "Sun", "time": "Closed"}], "id": "5318100004", "name": "USPS COLLECTION BOX - PO LOBBY", "address": {"city": "TWIN LAKES", "state": "WI", "street": "170 LANCE DR", "postcode": "53181"}}},
{"geometry": {"type": "Point", "coordinates": [-88.2551237715, 42.5306075845]}, "type": "Feature", "properties": {"collection_times": [{"days": "Mon-Fri", "time": "5:00pm"}, {"days": "Sat", "time": "11:00am"}, {"days": "Sun", "time": "Closed"}], "id": "5318100005", "name": "USPS COLLECTION BOX - PO LOBBY", "address": {"city": "TWIN LAKES", "state": "WI", "street": "170 LANCE DR", "postcode": "53181"}}},
{"geometry": {"type": "Point", "coordinates": [-87.9922409875, 42.6887140998]}, "type": "Feature", "properties": {"collection_times": [{"days": "Mon-Sat", "time": "11:00am"}, {"days": "Sun", "time": "Closed"}], "id": "5318200010", "name": "USPS COLLECTION BOX - BLUE BOX", "address": {"city": "UNION GROVE", "state": "WI", "street": "15941 DURAND AVE", "postcode": "53182"}}},
{"geometry": {"type": "Point", "coordinates": [-88.0807701453, 42.6714450453]}, "type": "Feature", "properties": {"collection_times": [{"days": "Mon-Sat", "time": "9:30am"}, {"days": "Sun", "time": "Closed"}], "id": "5318200011", "name": "USPS COLLECTION BOX - BLUE BOX", "address": {"city": "UNION GROVE", "state": "WI", "street": "4915 SCHOEN RD", "postcode": "53182"}}},
{"geometry": {"type": "Point", "coordinates": [-88.0519725712, 42.6898220091]}, "type": "Feature", "properties": {"collection_times": [{"days": "Mon-Fri", "time": "5:00pm"}, {"days": "Sat", "time": "11:00am"}, {"days": "Sun", "time": "Closed"}], "id": "5318200012", "name": "USPS COLLECTION BOX - BLUE BOX", "address": {"city": "UNION GROVE", "state": "WI", "street": "830 MAIN ST", "postcode": "53182"}}},
{"geometry": {"type": "Point", "coordinates": [-88.0519725712, 42.6898220091]}, "type": "Feature", "properties": {"collection_times": [{"days": "Mon-Fri", "time": "5:00pm"}, {"days": "Sat", "time": "11:00am"}, {"days": "Sun", "time": "Closed"}], "id": "5318200015", "name": "USPS COLLECTION BOX - PO LOBBY", "address": {"city": "UNION GROVE", "state": "WI", "street": "830 MAIN ST", "postcode": "53182"}}},
{"geometry": {"type": "Point", "coordinates": [-88.0322284985, 42.6837150341]}, "type": "Feature", "properties": {"collection_times": [{"days": "Mon-Sat", "time": "11:00am"}, {"days": "Sun", "time": "Closed"}], "id": "5318200016", "name": "USPS COLLECTION BOX - BLUE BOX", "address": {"city": "UNION GROVE", "state": "WI", "street": "4350 67TH DR", "postcode": "53182"}}},
{"geometry": {"type": "Point", "coordinates": [-88.0519725712, 42.6898220091]}, "type": "Feature", "properties": {"collection_times": [{"days": "Mon-Fri", "time": "5:00pm"}, {"days": "Sat", "time": "11:00am"}, {"days": "Sun", "time": "Closed"}], "id": "5318200017", "name": "USPS COLLECTION BOX - PO LOBBY", "address": {"city": "UNION GROVE", "state": "WI", "street": "830 MAIN ST", "postcode": "53182"}}},
{"geometry": {"type": "Point", "coordinates": [-88.3773733888, 43.0041252656]}, "type": "Feature", "properties": {"collection_times": [{"days": "Mon-Fri", "time": "3:45pm"}, {"days": "Sat", "time": "10:45am"}, {"days": "Sun", "time": "Closed"}], "id": "5318300001", "name": "USPS COLLECTION BOX - BLUE BOX", "address": {"city": "WALES", "state": "WI", "street": "110 JAMES ST", "postcode": "53183"}}},
{"geometry": {"type": "Point", "coordinates": [-88.3783183694, 43.0056598062]}, "type": "Feature", "properties": {"collection_times": [{"days": "Mon-Sat", "time": "10:00am"}, {"days": "Sun", "time": "Closed"}], "id": "5318300003", "name": "USPS COLLECTION BOX - BLUE BOX", "address": {"city": "WALES", "state": "WI", "street": "405 N WALES RD", "postcode": "53183"}}},
{"geometry": {"type": "Point", "coordinates": [-88.3773733888, 43.0041252656]}, "type": "Feature", "properties": {"collection_times": [{"days": "Mon-Fri", "time": "3:45pm"}, {"days": "Sat", "time": "10:45am"}, {"days": "Sun", "time": "Closed"}], "id": "5318300004", "name": "USPS COLLECTION BOX - PO LOBBY", "address": {"city": "WALES", "state": "WI", "street": "110 JAMES ST", "postcode": "53183"}}},
{"geometry": {"type": "Point", "coordinates": [-88.5852865799, 42.5310473923]}, "type": "Feature", "properties": {"collection_times": [{"days": "Mon-Sat", "time": "11:00am"}, {"days": "Sun", "time": "Closed"}], "id": "5318400001", "name": "USPS COLLECTION BOX - BLUE BOX", "address": {"city": "WALWORTH", "state": "WI", "street": "681 KENOSHA ST", "postcode": "53184"}}},
{"geometry": {"type": "Point", "coordinates": [-88.5995788803, 42.5320721727]}, "type": "Feature", "properties": {"collection_times": [{"days": "Mon-Fri", "time": "4:45pm"}, {"days": "Sat", "time": "12:00pm"}, {"days": "Sun", "time": "Closed"}], "id": "5318400003", "name": "USPS COLLECTION BOX - BLUE BOX", "address": {"city": "WALWORTH", "state": "WI", "street": "206 N MAIN ST", "postcode": "53184"}}},
{"geometry": {"type": "Point", "coordinates": [-88.5995788803, 42.5320721727]}, "type": "Feature", "properties": {"collection_times": [{"days": "Mon-Fri", "time": "4:45pm"}, {"days": "Sat", "time": "11:00am"}, {"days": "Sun", "time": "Closed"}], "id": "5318400004", "name": "USPS COLLECTION BOX - PO LOBBY", "address": {"city": "WALWORTH", "state": "WI", "street": "206 N MAIN ST", "postcode": "53184"}}},
{"geometry": {"type": "Point", "coordinates": [-88.20933, 42.76486]}, "type": "Feature", "properties": {"collection_times": [{"days": "Mon-Fri", "time": "5:00pm"}, {"days": "Sat", "time": "2:00pm"}, {"days": "Sun", "time": "Closed"}], "id": "5318500000", "name": "USPS COLLECTION BOX - BLUE BOX", "address": {"city": "WATERFORD", "state": "WI", "street": "209 N MILWAUKEE ST", "postcode": "53185"}}},
{"geometry": {"type": "Point", "coordinates": [-88.206033606, 42.768456022]}, "type": "Feature", "properties": {"collection_times": [{"days": "Mon-Sat", "time": "1:00pm"}, {"days": "Sun", "time": "Closed"}], "id": "5318500002", "name": "USPS COLLECTION BOX - BLUE BOX", "address": {"city": "WATERFORD", "state": "WI", "street": "515 N MILWAUKEE ST", "postcode": "53185"}}},
{"geometry": {"type": "Point", "coordinates": [-88.2137382241, 42.763084364]}, "type": "Feature", "properties": {"collection_times": [{"days": "Mon-Sat", "time": "1:00pm"}, {"days": "Sun", "time": "Closed"}], "id": "5318500003", "name": "USPS COLLECTION BOX - BLUE BOX", "address": {"city": "WATERFORD", "state": "WI", "street": "107 W MAIN ST", "postcode": "53185"}}},
{"geometry": {"type": "Point", "coordinates": [-88.1981870455, 42.8288308573]}, "type": "Feature", "properties": {"collection_times": [{"days": "Mon-Sat", "time": "10:30am"}, {"days": "Sun", "time": "Closed"}], "id": "5318500008", "name": "USPS COLLECTION BOX - BLUE BOX", "address": {"city": "WATERFORD", "state": "WI", "street": "28407 N LAKE DR", "postcode": "53185"}}},
{"geometry": {"type": "Point", "coordinates": [-88.1610414288, 42.8211026783]}, "type": "Feature", "properties": {"collection_times": [{"days": "Mon-Sat", "time": "12:30pm"}, {"days": "Sun", "time": "Closed"}], "id": "5318500010", "name": "USPS COLLECTION BOX - BLUE BOX", "address": {"city": "WATERFORD", "state": "WI", "street": "26480 FRIES LN", "postcode": "53185"}}},
{"geometry": {"type": "Point", "coordinates": [-88.1557507586, 42.8287977345]}, "type": "Feature", "properties": {"collection_times": [{"days": "Mon-Sat", "time": "1:00pm"}, {"days": "Sun", "time": "Closed"}], "id": "5318500012", "name": "USPS COLLECTION BOX - BLUE BOX", "address": {"city": "WATERFORD", "state": "WI", "street": "7957 W WIND LAKE RD STE B", "postcode": "53185"}}},
{"geometry": {"type": "Point", "coordinates": [-88.209329336, 42.7655839563]}, "type": "Feature", "properties": {"collection_times": [{"days": "Mon-Fri", "time": "5:00pm"}, {"days": "Sat", "time": "3:00pm"}, {"days": "Sun", "time": "Closed"}], "id": "5318500013", "name": "USPS COLLECTION BOX - PO LOBBY", "address": {"city": "WATERFORD", "state": "WI", "street": "218 N MILWAUKEE ST", "postcode": "53185"}}},
{"geometry": {"type": "Point", "coordinates": [-88.1999884834, 42.7664129593]}, "type": "Feature", "properties": {"collection_times": [{"days": "Mon-Sat", "time": "10:00am"}, {"days": "Sun", "time": "Closed"}], "id": "5318500014", "name": "USPS COLLECTION BOX - BLUE BOX", "address": {"city": "WATERFORD", "state": "WI", "street": "815 FOX LN", "postcode": "53185"}}},
{"geometry": {"type": "Point", "coordinates": [-88.209329336, 42.7655839563]}, "type": "Feature", "properties": {"collection_times": [{"days": "Mon-Fri", "time": "5:00pm"}, {"days": "Sat", "time": "3:00pm"}, {"days": "Sun", "time": "Closed"}], "id": "5318500015", "name": "USPS COLLECTION BOX - PO LOBBY", "address": {"city": "WATERFORD", "state": "WI", "street": "218 N MILWAUKEE ST", "postcode": "53185"}}},
{"geometry": {"type": "Point", "coordinates": [-88.209329336, 42.7655839563]}, "type": "Feature", "properties": {"collection_times": [{"days": "Mon-Fri", "time": "5:00pm"}, {"days": "Sat", "time": "3:00pm"}, {"days": "Sun", "time": "Closed"}], "id": "5318500016", "name": "USPS COLLECTION BOX - BLUE BOX", "address": {"city": "WATERFORD", "state": "WI", "street": "218 N MILWAUKEE ST", "postcode": "53185"}}},
{"geometry": {"type": "Point", "coordinates": [-88.169836251, 43.0382914865]}, "type": "Feature", "properties": {"collection_times": [{"days": "Mon-Sat", "time": "10:15am"}, {"days": "Sun", "time": "Closed"}], "id": "5318600000", "name": "USPS COLLECTION BOX - BLUE BOX", "address": {"city": "WAUKESHA", "state": "WI", "street": "20611 WATERTOWN RD", "postcode": "53186"}}},
{"geometry": {"type": "Point", "coordinates": [-88.2085450342, 42.9977928863]}, "type": "Feature", "properties": {"collection_times": [{"days": "Mon-Sat", "time": "9:45am"}, {"days": "Sun", "time": "Closed"}], "id": "5318600006", "name": "USPS COLLECTION BOX - BLUE BOX", "address": {"city": "WAUKESHA", "state": "WI", "street": "1427 E RACINE AVE", "postcode": "53186"}}},
{"geometry": {"type": "Point", "coordinates": [-88.1747168703, 43.0320228016]}, "type": "Feature", "properties": {"collection_times": [{"days": "Mon-Fri", "time": "5:00pm"}, {"days": "Sat", "time": "11:00am"}, {"days": "Sun", "time": "Closed"}], "id": "5318600010", "name": "USPS COLLECTION BOX - BLUE BOX", "address": {"city": "WAUKESHA", "state": "WI", "street": "20950 SWENSON DR", "postcode": "53186"}}},
{"geometry": {"type": "Point", "coordinates": [-88.1747168703, 43.0320228016]}, "type": "Feature", "properties": {"collection_times": [{"days": "Mon-Fri", "time": "5:00pm"}, {"days": "Sat", "time": "11:00am"}, {"days": "Sun", "time": "Closed"}], "id": "5318600011", "name": "USPS COLLECTION BOX - BLUE BOX", "address": {"city": "WAUKESHA", "state": "WI", "street": "20950 SWENSON DR", "postcode": "53186"}}},
{"geometry": {"type": "Point", "coordinates": [-88.2056757482, 43.024840119]}, "type": "Feature", "properties": {"collection_times": [{"days": "Mon-Sat", "time": "9:00am"}, {"days": "Sun", "time": "Closed"}], "id": "5318600013", "name": "USPS COLLECTION BOX - BLUE BOX", "address": {"city": "WAUKESHA", "state": "WI", "street": "1535 E MORELAND BLVD", "postcode": "53186"}}},
{"geometry": {"type": "Point", "coordinates": [-88.2326597562, 43.0098999002]}, "type": "Feature", "properties": {"collection_times": [{"days": "Mon-Sat", "time": "10:30am"}, {"days": "Sun", "time": "Closed"}], "id": "5318600040", "name": "USPS COLLECTION BOX - BLUE BOX", "address": {"city": "WAUKESHA", "state": "WI", "street": "715 CLINTON ST", "postcode": "53186"}}},
{"geometry": {"type": "Point", "coordinates": [-88.2298619548, 43.0097691629]}, "type": "Feature", "properties": {"collection_times": [{"days": "Mon-Sat", "time": "9:30am"}, {"days": "Sun", "time": "Closed"}], "id": "5318600046", "name": "USPS COLLECTION BOX - BLUE BOX", "address": {"city": "WAUKESHA", "state": "WI", "street": "217 WISCONSIN AVE", "postcode": "53186"}}},
{"geometry": {"type": "Point", "coordinates": [-88.2048366718, 43.0512849676]}, "type": "Feature", "properties": {"collection_times": [{"days": "Mon-Sat", "time": "10:30am"}, {"days": "Sun", "time": "Closed"}], "id": "5318600056", "name": "USPS COLLECTION BOX - BLUE BOX", "address": {"city": "WAUKESHA", "state": "WI", "street": "W229N1492 WESTWOOD DR", "postcode": "53186"}}},
{"geometry": {"type": "Point", "coordinates": [-88.1877320542, 43.0277323947]}, "type": "Feature", "properties": {"collection_times": [{"days": "Mon-Sat", "time": "10:00am"}, {"days": "Sun", "time": "Closed"}], "id": "5318600057", "name": "USPS COLLECTION BOX - BLUE BOX", "address": {"city": "WAUKESHA", "state": "WI", "street": "2120 E MORELAND BLVD", "postcode": "53186"}}},
{"geometry": {"type": "Point", "coordinates": [-88.224370605, 43.008835294]}, "type": "Feature", "properties": {"collection_times": [{"days": "Mon-Fri", "time": "5:00pm"}, {"days": "Sat", "time": "4:00pm"}, {"days": "Sun", "time": "Closed"}], "id": "5318600070", "name": "USPS COLLECTION BOX - PO LOBBY", "address": {"city": "WAUKESHA", "state": "WI", "street": "300 E BROADWAY", "postcode": "53186"}}},
{"geometry": {"type": "Point", "coordinates": [-88.2244025991, 43.0088026854]}, "type": "Feature", "properties": {"collection_times": [{"days": "Mon-Fri", "time": "5:00pm"}, {"days": "Sat", "time": "4:00pm"}, {"days": "Sun", "time": "Closed"}], "id": "5318600073", "name": "USPS COLLECTION BOX - BLUE BOX", "address": {"city": "WAUKESHA", "state": "WI", "street": "300 E BROADWAY", "postcode": "53186"}}},
{"geometry": {"type": "Point", "coordinates": [-88.175513271, 43.0316586355]}, "type": "Feature", "properties": {"collection_times": [{"days": "Mon-Sat", "time": "11:00am"}, {"days": "Sun", "time": "Closed"}], "id": "5318600076", "name": "USPS COLLECTION BOX - BLUE BOX", "address": {"city": "WAUKESHA", "state": "WI", "street": "20975 SWENSON DR", "postcode": "53186"}}},
{"geometry": {"type": "Point", "coordinates": [-88.1918510071, 43.0415630765]}, "type": "Feature", "properties": {"collection_times": [{"days": "Mon-Sat", "time": "11:45am"}, {"days": "Sun", "time": "Closed"}], "id": "5318600079", "name": "USPS COLLECTION BOX - BLUE BOX", "address": {"city": "WAUKESHA", "state": "WI", "street": "N8W22245 JOHNSON DR", "postcode": "53186"}}},
{"geometry": {"type": "Point", "coordinates": [-88.1959346916, 43.019567612]}, "type": "Feature", "properties": {"collection_times": [{"days": "Mon-Sat", "time": "10:30am"}, {"days": "Sun", "time": "Closed"}], "id": "5318600081", "name": "USPS COLLECTION BOX - BLUE BOX", "address": {"city": "WAUKESHA", "state": "WI", "street": "1800 DOLPHIN DR", "postcode": "53186"}}},
{"geometry": {"type": "Point", "coordinates": [-88.1992884185, 43.0238312712]}, "type": "Feature", "properties": {"collection_times": [{"days": "Mon-Sat", "time": "9:30am"}, {"days": "Sun", "time": "Closed"}], "id": "5318600082", "name": "USPS COLLECTION BOX - BLUE BOX", "address": {"city": "WAUKESHA", "state": "WI", "street": "1711 PARAMOUNT CT", "postcode": "53186"}}},
{"geometry": {"type": "Point", "coordinates": [-88.2244025991, 43.0088026854]}, "type": "Feature", "properties": {"collection_times": [{"days": "Mon-Fri", "time": "5:00pm"}, {"days": "Sat", "time": "4:00pm"}, {"days": "Sun", "time": "Closed"}], "id": "5318600085", "name": "USPS COLLECTION BOX - APC", "address": {"city": "WAUKESHA", "state": "WI", "street": "300 E BROADWAY", "postcode": "53186"}}},
{"geometry": {"type": "Point", "coordinates": [-88.2406801141, 43.023098317]}, "type": "Feature", "properties": {"collection_times": [{"days": "Mon-Sat", "time": "10:30am"}, {"days": "Sun", "time": "Closed"}], "id": "5318800000", "name": "USPS COLLECTION BOX - BLUE BOX", "address": {"city": "WAUKESHA", "state": "WI", "street": "1111 DELAFIELD ST", "postcode": "53188"}}},
{"geometry": {"type": "Point", "coordinates": [-88.2501260418, 43.0135593634]}, "type": "Feature", "properties": {"collection_times": [{"days": "Mon-Sat", "time": "11:00am"}, {"days": "Sun", "time": "Closed"}], "id": "5318800006", "name": "USPS COLLECTION BOX - BLUE BOX", "address": {"city": "WAUKESHA", "state": "WI", "street": "101 N MORELAND BLVD", "postcode": "53188"}}},
{"geometry": {"type": "Point", "coordinates": [-88.2420329079, 43.0248239288]}, "type": "Feature", "properties": {"collection_times": [{"days": "Mon-Sat", "time": "10:00am"}, {"days": "Sun", "time": "Closed"}], "id": "5318800011", "name": "USPS COLLECTION BOX - BLUE BOX", "address": {"city": "WAUKESHA", "state": "WI", "street": "827 W MORELAND BLVD", "postcode": "53188"}}},
{"geometry": {"type": "Point", "coordinates": [-88.2337124545, 43.0250773576]}, "type": "Feature", "properties": {"collection_times": [{"days": "Mon-Sat", "time": "10:30am"}, {"days": "Sun", "time": "Closed"}], "id": "5318800013", "name": "USPS COLLECTION BOX - BLUE BOX", "address": {"city": "WAUKESHA", "state": "WI", "street": "1500 AIRPORT RD", "postcode": "53188"}}},
{"geometry": {"type": "Point", "coordinates": [-88.2354265937, 43.0150522576]}, "type": "Feature", "properties": {"collection_times": [{"days": "Mon-Sat", "time": "11:30am"}, {"days": "Sun", "time": "Closed"}], "id": "5318800014", "name": "USPS COLLECTION BOX - BLUE BOX", "address": {"city": "WAUKESHA", "state": "WI", "street": "201 DELAFIELD ST", "postcode": "53188"}}},
{"geometry": {"type": "Point", "coordinates": [-88.2326170662, 43.0126591316]}, "type": "Feature", "properties": {"collection_times": [{"days": "Mon-Sat", "time": "11:15am"}, {"days": "Sun", "time": "Closed"}], "id": "5318800016", "name": "USPS COLLECTION BOX - BLUE BOX", "address": {"city": "WAUKESHA", "state": "WI", "street": "100 BANK ST", "postcode": "53188"}}},
{"geometry": {"type": "Point", "coordinates": [-88.2215393358, 43.0503800102]}, "type": "Feature", "properties": {"collection_times": [{"days": "Mon-Fri", "time": "5:00pm"}, {"days": "Sat", "time": "12:00pm"}, {"days": "Sun", "time": "Closed"}], "id": "5318800018", "name": "USPS COLLECTION BOX - BLUE BOX", "address": {"city": "WAUKESHA", "state": "WI", "street": "N14W23755 STONE RIDGE DR", "postcode": "53188"}}},
{"geometry": {"type": "Point", "coordinates": [-88.2215393358, 43.0503800102]}, "type": "Feature", "properties": {"collection_times": [{"days": "Mon-Fri", "time": "5:00pm"}, {"days": "Sat", "time": "12:00pm"}, {"days": "Sun", "time": "Closed"}], "id": "5318800019", "name": "USPS COLLECTION BOX - BLUE BOX", "address": {"city": "WAUKESHA", "state": "WI", "street": "N14W23755 STONE RIDGE DR", "postcode": "53188"}}},
{"geometry": {"type": "Point", "coordinates": [-88.2221401261, 43.0550256305]}, "type": "Feature", "properties": {"collection_times": [{"days": "Mon-Sat", "time": "11:30am"}, {"days": "Sun", "time": "Closed"}], "id": "5318800021", "name": "USPS COLLECTION BOX - BLUE BOX", "address": {"city": "WAUKESHA", "state": "WI", "street": "W238N1777 ROCKWOOD DR", "postcode": "53188"}}},
{"geometry": {"type": "Point", "coordinates": [-88.2935472317, 43.021277075]}, "type": "Feature", "properties": {"collection_times": [{"days": "Mon-Sat", "time": "10:30am"}, {"days": "Sun", "time": "Closed"}], "id": "5318800023", "name": "USPS COLLECTION BOX - BLUE BOX", "address": {"city": "WAUKESHA", "state": "WI", "street": "1701 WOODBURN RD", "postcode": "53188"}}},
{"geometry": {"type": "Point", "coordinates": [-88.2432364888, 43.0113413153]}, "type": "Feature", "properties": {"collection_times": [{"days": "Mon-Sat", "time": "9:30am"}, {"days": "Sun", "time": "Closed"}], "id": "5318800025", "name": "USPS COLLECTION BOX - BLUE BOX", "address": {"city": "WAUKESHA", "state": "WI", "street": "725 AMERICAN AVE", "postcode": "53188"}}},
{"geometry": {"type": "Point", "coordinates": [-88.2260198816, 43.0276154275]}, "type": "Feature", "properties": {"collection_times": [{"days": "Mon-Sat", "time": "11:30am"}, {"days": "Sun", "time": "Closed"}], "id": "5318800030", "name": "USPS COLLECTION BOX - BLUE BOX", "address": {"city": "WAUKESHA", "state": "WI", "street": "403 PILOT CT", "postcode": "53188"}}},
{"geometry": {"type": "Point", "coordinates": [-88.2262794317, 43.022065096]}, "type": "Feature", "properties": {"collection_times": [{"days": "Mon-Sat", "time": "9:15am"}, {"days": "Sun", "time": "Closed"}], "id": "5318800037", "name": "USPS COLLECTION BOX - BLUE BOX", "address": {"city": "WAUKESHA", "state": "WI", "street": "1320 PEWAUKEE RD", "postcode": "53188"}}},
{"geometry": {"type": "Point", "coordinates": [-88.2297907355, 43.0570161478]}, "type": "Feature", "properties": {"collection_times": [{"days": "Mon-Sat", "time": "1:30pm"}, {"days": "Sun", "time": "Closed"}], "id": "5318800041", "name": "USPS COLLECTION BOX - BLUE BOX", "address": {"city": "WAUKESHA", "state": "WI", "street": "N17W24222 RIVERWOOD DR", "postcode": "53188"}}},
{"geometry": {"type": "Point", "coordinates": [-88.2297907355, 43.0570161478]}, "type": "Feature", "properties": {"collection_times": [{"days": "Mon-Sat", "time": "1:30pm"}, {"days": "Sun", "time": "Closed"}], "id": "5318800043", "name": "USPS COLLECTION BOX - BLUE BOX", "address": {"city": "WAUKESHA", "state": "WI", "street": "N17W24222 RIVERWOOD DR", "postcode": "53188"}}},
{"geometry": {"type": "Point", "coordinates": [-88.2857706198, 43.0215799273]}, "type": "Feature", "properties": {"collection_times": [{"days": "Mon-Sat", "time": "12:45pm"}, {"days": "Sun", "time": "Closed"}], "id": "5318800047", "name": "USPS COLLECTION BOX - BLUE BOX", "address": {"city": "WAUKESHA", "state": "WI", "street": "701 MEADOWBROOK RD", "postcode": "53188"}}},
{"geometry": {"type": "Point", "coordinates": [-88.2235289099, 42.9884128421]}, "type": "Feature", "properties": {"collection_times": [{"days": "Mon-Sat", "time": "12:45pm"}, {"days": "Sun", "time": "Closed"}], "id": "5318900000", "name": "USPS COLLECTION BOX - BLUE BOX", "address": {"city": "WAUKESHA", "state": "WI", "street": "220 E SUNSET DR", "postcode": "53189"}}},
{"geometry": {"type": "Point", "coordinates": [-88.2062773019, 42.9863820641]}, "type": "Feature", "properties": {"collection_times": [{"days": "Mon-Sat", "time": "12:30pm"}, {"days": "Sun", "time": "Closed"}], "id": "5318900001", "name": "USPS COLLECTION BOX - BLUE BOX", "address": {"city": "WAUKESHA", "state": "WI", "street": "1600 E SUNSET DR", "postcode": "53189"}}},
{"geometry": {"type": "Point", "coordinates": [-88.2356421401, 42.9769506495]}, "type": "Feature", "properties": {"collection_times": [{"days": "Mon-Sat", "time": "9:15am"}, {"days": "Sun", "time": "Closed"}], "id": "5318900004", "name": "USPS COLLECTION BOX - BLUE BOX", "address": {"city": "WAUKESHA", "state": "WI", "street": "2101 S WEST AVE", "postcode": "53189"}}},
{"geometry": {"type": "Point", "coordinates": [-88.7325858055, 42.8334082924]}, "type": "Feature", "properties": {"collection_times": [{"days": "Mon-Fri", "time": "5:00pm"}, {"days": "Sat", "time": "4:00pm"}, {"days": "Sun", "time": "Closed"}], "id": "5319000000", "name": "USPS COLLECTION BOX - BLUE BOX", "address": {"city": "WHITEWATER", "state": "WI", "street": "213 W CENTER ST", "postcode": "53190"}}},
{"geometry": {"type": "Point", "coordinates": [-88.7326034115, 42.8335171752]}, "type": "Feature", "properties": {"collection_times": [{"days": "Mon-Fri", "time": "5:00pm"}, {"days": "Sat", "time": "4:00pm"}, {"days": "Sun", "time": "Closed"}], "id": "5319000002", "name": "USPS COLLECTION BOX - BLUE BOX", "address": {"city": "WHITEWATER", "state": "WI", "street": "212 W CENTER ST", "postcode": "53190"}}},
{"geometry": {"type": "Point", "coordinates": [-88.758802092, 42.8347805039]}, "type": "Feature", "properties": {"collection_times": [{"days": "Mon-Sat", "time": "9:30am"}, {"days": "Sun", "time": "Closed"}], "id": "5319000013", "name": "USPS COLLECTION BOX - BLUE BOX", "address": {"city": "WHITEWATER", "state": "WI", "street": "1362 W MAIN ST", "postcode": "53190"}}},
{"geometry": {"type": "Point", "coordinates": [-88.7354994592, 42.8072826988]}, "type": "Feature", "properties": {"collection_times": [{"days": "Mon-Sat", "time": "10:00am"}, {"days": "Sun", "time": "Closed"}], "id": "5319000020", "name": "USPS COLLECTION BOX - BLUE BOX", "address": {"city": "WHITEWATER", "state": "WI", "street": "755 N TRATT ST", "postcode": "53190"}}},
{"geometry": {"type": "Point", "coordinates": [-88.7337163379, 42.8333425693]}, "type": "Feature", "properties": {"collection_times": [{"days": "Mon-Fri", "time": "4:45pm"}, {"days": "Sat", "time": "4:00pm"}, {"days": "Sun", "time": "Closed"}], "id": "5319000026", "name": "USPS COLLECTION BOX - BLUE BOX", "address": {"city": "WHITEWATER", "state": "WI", "street": "200 S FREMONT ST", "postcode": "53190"}}},
{"geometry": {"type": "Point", "coordinates": [-88.7325858055, 42.8334082924]}, "type": "Feature", "properties": {"collection_times": [{"days": "Mon-Fri", "time": "5:00pm"}, {"days": "Sat", "time": "4:00pm"}, {"days": "Sun", "time": "Closed"}], "id": "5319000028", "name": "USPS COLLECTION BOX - PO LOBBY", "address": {"city": "WHITEWATER", "state": "WI", "street": "213 W CENTER ST", "postcode": "53190"}}},
{"geometry": {"type": "Point", "coordinates": [-88.5414400607, 42.5781309922]}, "type": "Feature", "properties": {"collection_times": [{"days": "Mon-Fri", "time": "4:30pm"}, {"days": "Sat", "time": "12:00pm"}, {"days": "Sun", "time": "Closed"}], "id": "5319100002", "name": "USPS COLLECTION BOX - BLUE BOX", "address": {"city": "WILLIAMS BAY", "state": "WI", "street": "129 N WALWORTH AVE", "postcode": "53191"}}},
{"geometry": {"type": "Point", "coordinates": [-88.5414400607, 42.5781309922]}, "type": "Feature", "properties": {"collection_times": [{"days": "Mon-Fri", "time": "4:30pm"}, {"days": "Sat", "time": "12:00pm"}, {"days": "Sun", "time": "Closed"}], "id": "5319100006", "name": "USPS COLLECTION BOX - PO LOBBY", "address": {"city": "WILLIAMS BAY", "state": "WI", "street": "129 N WALWORTH AVE", "postcode": "53191"}}},
{"geometry": {"type": "Point", "coordinates": [-88.5414400607, 42.5781309922]}, "type": "Feature", "properties": {"collection_times": [{"days": "Mon-Fri", "time": "4:30pm"}, {"days": "Sat", "time": "12:00pm"}, {"days": "Sun", "time": "Closed"}], "id": "5319100007", "name": "USPS COLLECTION BOX - PO LOBBY", "address": {"city": "WILLIAMS BAY", "state": "WI", "street": "129 N WALWORTH AVE", "postcode": "53191"}}},
{"geometry": {"type": "Point", "coordinates": [-88.1840160735, 42.5116883769]}, "type": "Feature", "properties": {"collection_times": [{"days": "Mon-Fri", "time": "3:45pm"}, {"days": "Sat", "time": "9:45am"}, {"days": "Sun", "time": "Closed"}], "id": "5319200001", "name": "USPS COLLECTION BOX - BLUE BOX", "address": {"city": "WILMOT", "state": "WI", "street": "30725 113TH ST", "postcode": "53192"}}},
{"geometry": {"type": "Point", "coordinates": [-88.1840160735, 42.5116883769]}, "type": "Feature", "properties": {"collection_times": [{"days": "Mon-Fri", "time": "4:00pm"}, {"days": "Sat", "time": "9:30am"}, {"days": "Sun", "time": "Closed"}], "id": "5319200002", "name": "USPS COLLECTION BOX - PO LOBBY", "address": {"city": "WILMOT", "state": "WI", "street": "30725 113TH ST", "postcode": "53192"}}},
{"geometry": {"type": "Point", "coordinates": [-88.0492304617, 42.5581281558]}, "type": "Feature", "properties": {"collection_times": [{"days": "Mon-Fri", "time": "3:30pm"}, {"days": "Sat", "time": "9:30am"}, {"days": "Sun", "time": "Closed"}], "id": "5319400001", "name": "USPS COLLECTION BOX - BLUE BOX", "address": {"city": "WOODWORTH", "state": "WI", "street": "8105 160TH AVE", "postcode": "53194"}}},
{"geometry": {"type": "Point", "coordinates": [-88.0492304617, 42.5581281558]}, "type": "Feature", "properties": {"collection_times": [{"days": "Mon-Fri", "time": "12:45pm"}, {"days": "Sat", "time": "9:30am"}, {"days": "Sun", "time": "Closed"}], "id": "5319400002", "name": "USPS COLLECTION BOX - PO LOBBY", "address": {"city": "WOODWORTH", "state": "WI", "street": "8105 160TH AVE", "postcode": "53194"}}},
{"geometry": {"type": "Point", "coordinates": [-88.4819490075, 42.5147501686]}, "type": "Feature", "properties": {"collection_times": [{"days": "Mon-Fri", "time": "3:45pm"}, {"days": "Sat", "time": "9:30am"}, {"days": "Sun", "time": "Closed"}], "id": "5319500001", "name": "USPS COLLECTION BOX - BLUE BOX", "address": {"city": "ZENDA", "state": "WI", "street": "W3724 FRANKLIN WALSH ST", "postcode": "53195"}}},
{"geometry": {"type": "Point", "coordinates": [-88.4819490075, 42.5147501686]}, "type": "Feature", "properties": {"collection_times": [{"days": "Mon-Fri", "time": "11:30am"}, {"days": "Sat", "time": "9:30am"}, {"days": "Sun", "time": "Closed"}], "id": "5319500002", "name": "USPS COLLECTION BOX - PO LOBBY", "address": {"city": "ZENDA", "state": "WI", "street": "W3724 FRANKLIN WALSH ST", "postcode": "53195"}}}
]}
