{"type": "FeatureCollection", "features": [
{"geometry": {"type": "Point", "coordinates": [-87.9153035146, 43.0346046848]}, "type": "Feature", "properties": {"collection_times": [{"days": "Mon-Sat", "time": "8:00pm"}, {"days": "Sun", "time": "Closed"}], "id": "5320100000", "name": "USPS COLLECTION BOX - BLUE BOX", "address": {"city": "MILWAUKEE", "state": "WI", "street": "345 W ST PAUL AVE", "postcode": "53201"}}},
{"geometry": {"type": "Point", "coordinates": [-87.9153035146, 43.0346046848]}, "type": "Feature", "properties": {"collection_times": [{"days": "Mon-Sat", "time": "8:00pm"}, {"days": "Sun", "time": "Closed"}], "id": "5320100001", "name": "USPS COLLECTION BOX - BLUE BOX", "address": {"city": "MILWAUKEE", "state": "WI", "street": "345 W ST PAUL AVE", "postcode": "53201"}}},
{"geometry": {"type": "Point", "coordinates": [-87.9153035146, 43.0346046848]}, "type": "Feature", "properties": {"collection_times": [{"days": "Mon-Sat", "time": "8:00pm"}, {"days": "Sun", "time": "Closed"}], "id": "5320100002", "name": "USPS COLLECTION BOX - BLUE BOX", "address": {"city": "MILWAUKEE", "state": "WI", "street": "345 W ST PAUL AVE", "postcode": "53201"}}},
{"geometry": {"type": "Point", "coordinates": [-87.9151088371, 43.0346240124]}, "type": "Feature", "properties": {"collection_times": [{"days": "Mon-Fri", "time": "6:30pm"}, {"days": "Sat-Sun", "time": "Closed"}], "id": "5320100003", "name": "USPS COLLECTION BOX - EXPRESS", "address": {"city": "MILWAUKEE", "state": "WI", "street": "345 W ST PAUL AVE", "postcode": "53201"}}},
{"geometry": {"type": "Point", "coordinates": [-87.9153035146, 43.0346046848]}, "type": "Feature", "properties": {"collection_times": [{"days": "Mon-Sat", "time": "8:00pm"}, {"days": "Sun", "time": "Closed"}], "id": "5320100004", "name": "USPS COLLECTION BOX - BLUE BOX", "address": {"city": "MILWAUKEE", "state": "WI", "street": "345 W ST PAUL AVE", "postcode": "53201"}}},
{"geometry": {"type": "Point", "coordinates": [-87.915058364, 43.0346544996]}, "type": "Feature", "properties": {"collection_times": [{"days": "Mon-Sat", "time": "8:00pm"}, {"days": "Sun", "time": "Closed"}], "id": "5320100005", "name": "USPS COLLECTION BOX - BLUE BOX", "address": {"city": "MILWAUKEE", "state": "WI", "street": "345 W SAINT PAUL AVE", "postcode": "53201"}}},
{"geometry": {"type": "Point", "coordinates": [-87.9153035146, 43.0346046848]}, "type": "Feature", "properties": {"collection_times": [{"days": "Mon-Sat", "time": "8:00pm"}, {"days": "Sun", "time": "Closed"}], "id": "5320100006", "name": "USPS COLLECTION BOX - BLUE BOX", "address": {"city": "MILWAUKEE", "state": "WI", "street": "345 W ST PAUL AVE", "postcode": "53201"}}},
{"geometry": {"type": "Point", "coordinates": [-87.9153035146, 43.0346046848]}, "type": "Feature", "properties": {"collection_times": [{"days": "Mon-Sat", "time": "8:00pm"}, {"days": "Sun", "time": "Closed"}], "id": "5320100008", "name": "USPS COLLECTION BOX - BLUE BOX", "address": {"city": "MILWAUKEE", "state": "WI", "street": "345 W ST PAUL AVE", "postcode": "53201"}}},
{"geometry": {"type": "Point", "coordinates": [-87.9153035146, 43.0346046848]}, "type": "Feature", "properties": {"collection_times": [{"days": "Mon-Sat", "time": "8:00pm"}, {"days": "Sun", "time": "Closed"}], "id": "5320100009", "name": "USPS COLLECTION BOX - BLUE BOX", "address": {"city": "MILWAUKEE", "state": "WI", "street": "345 W ST PAUL AVE", "postcode": "53201"}}},
{"geometry": {"type": "Point", "coordinates": [-87.9153035146, 43.0346046848]}, "type": "Feature", "properties": {"collection_times": [{"days": "Mon-Sat", "time": "8:00pm"}, {"days": "Sun", "time": "Closed"}], "id": "5320100010", "name": "USPS COLLECTION BOX - BLUE BOX", "address": {"city": "MILWAUKEE", "state": "WI", "street": "345 W ST PAUL AVE", "postcode": "53201"}}},
{"geometry": {"type": "Point", "coordinates": [-87.9153035146, 43.0346046848]}, "type": "Feature", "properties": {"collection_times": [{"days": "Mon-Sat", "time": "8:00pm"}, {"days": "Sun", "time": "Closed"}], "id": "5320100011", "name": "USPS COLLECTION BOX - PO LOBBY", "address": {"city": "MILWAUKEE", "state": "WI", "street": "345 W ST PAUL AVE", "postcode": "53201"}}},
{"geometry": {"type": "Point", "coordinates": [-87.9153035146, 43.0346046848]}, "type": "Feature", "properties": {"collection_times": [{"days": "Mon-Sat", "time": "8:00pm"}, {"days": "Sun", "time": "Closed"}], "id": "5320100012", "name": "USPS COLLECTION BOX - PO LOBBY", "address": {"city": "MILWAUKEE", "state": "WI", "street": "345 W ST PAUL AVE", "postcode": "53201"}}},
{"geometry": {"type": "Point", "coordinates": [-87.9153035146, 43.0346046848]}, "type": "Feature", "properties": {"collection_times": [{"days": "Mon-Sat", "time": "8:00pm"}, {"days": "Sun", "time": "Closed"}], "id": "5320100013", "name": "USPS COLLECTION BOX - APC", "address": {"city": "MILWAUKEE", "state": "WI", "street": "345 W ST PAUL AVE", "postcode": "53201"}}},
{"geometry": {"type": "Point", "coordinates": [-87.8954808589, 43.0519605773]}, "type": "Feature", "properties": {"collection_times": [{"days": "Mon-Fri", "time": "1:00pm"}, {"days": "Sat", "time": "9:30am"}, {"days": "Sun", "time": "Closed"}], "id": "5320200000", "name": "USPS COLLECTION BOX - BLUE BOX", "address": {"city": "MILWAUKEE", "state": "WI", "street": "1633 N ARLINGTON PL", "postcode": "53202"}}},
{"geometry": {"type": "Point", "coordinates": [-87.9059257854, 43.0327759723]}, "type": "Feature", "properties": {"collection_times": [{"days": "Mon-Fri", "time": "3:00pm"}, {"days": "Sat", "time": "9:00am"}, {"days": "Sun", "time": "Closed"}], "id": "5320200020", "name": "USPS COLLECTION BOX - BLUE BOX", "address": {"city": "MILWAUKEE", "state": "WI", "street": "201 N MILWAUKEE ST", "postcode": "53202"}}},
{"geometry": {"type": "Point", "coordinates": [-87.907102596, 43.0317284214]}, "type": "Feature", "properties": {"collection_times": [{"days": "Mon-Fri", "time": "2:45pm"}, {"days": "Sat", "time": "9:00am"}, {"days": "Sun", "time": "Closed"}], "id": "5320200022", "name": "USPS COLLECTION BOX - BLUE BOX", "address": {"city": "MILWAUKEE", "state": "WI", "street": "121 N BROADWAY", "postcode": "53202"}}},
{"geometry": {"type": "Point", "coordinates": [-87.9043364897, 43.0457358472]}, "type": "Feature", "properties": {"collection_times": [{"days": "Mon-Fri", "time": "5:00pm"}, {"days": "Sat", "time": "3:00pm"}, {"days": "Sun", "time": "Closed"}], "id": "5320200050", "name": "USPS COLLECTION BOX - BLUE BOX", "address": {"city": "MILWAUKEE", "state": "WI", "street": "606 E JUNEAU AVE", "postcode": "53202"}}},
{"geometry": {"type": "Point", "coordinates": [-87.9043364897, 43.0457358472]}, "type": "Feature", "properties": {"collection_times": [{"days": "Mon-Fri", "time": "5:00pm"}, {"days": "Sat", "time": "3:00pm"}, {"days": "Sun", "time": "Closed"}], "id": "5320200054", "name": "USPS COLLECTION BOX - BLUE BOX", "address": {"city": "MILWAUKEE", "state": "WI", "street": "606 E JUNEAU AVE", "postcode": "53202"}}},
{"geometry": {"type": "Point", "coordinates": [-87.8944209277, 43.0560701767]}, "type": "Feature", "properties": {"collection_times": [{"days": "Mon-Fri", "time": "1:00pm"}, {"days": "Sat", "time": "10:00am"}, {"days": "Sun", "time": "Closed"}], "id": "5320200059", "name": "USPS COLLECTION BOX - BLUE BOX", "address": {"city": "MILWAUKEE", "state": "WI", "street": "1300 E KANE PL", "postcode": "53202"}}},
{"geometry": {"type": "Point", "coordinates": [-87.898736362, 43.0469140744]}, "type": "Feature", "properties": {"collection_times": [{"days": "Mon-Fri", "time": "1:00pm"}, {"days": "Sat", "time": "10:30am"}, {"days": "Sun", "time": "Closed"}], "id": "5320200071", "name": "USPS COLLECTION BOX - BLUE BOX", "address": {"city": "MILWAUKEE", "state": "WI", "street": "1032 E KNAPP ST", "postcode": "53202"}}},
{"geometry": {"type": "Point", "coordinates": [-87.8974170836, 43.0457200355]}, "type": "Feature", "properties": {"collection_times": [{"days": "Mon-Fri", "time": "3:30pm"}, {"days": "Sat", "time": "9:00am"}, {"days": "Sun", "time": "Closed"}], "id": "5320200107", "name": "USPS COLLECTION BOX - BLUE BOX", "address": {"city": "MILWAUKEE", "state": "WI", "street": "1202 N PROSPECT AVE", "postcode": "53202"}}},
{"geometry": {"type": "Point", "coordinates": [-87.8939193531, 43.0494739976]}, "type": "Feature", "properties": {"collection_times": [{"days": "Mon-Fri", "time": "3:30pm"}, {"days": "Sat", "time": "9:00am"}, {"days": "Sun", "time": "Closed"}], "id": "5320200109", "name": "USPS COLLECTION BOX - BLUE BOX", "address": {"city": "MILWAUKEE", "state": "WI", "street": "1521 N PROSPECT AVE", "postcode": "53202"}}},
{"geometry": {"type": "Point", "coordinates": [-87.8911114041, 43.0523611646]}, "type": "Feature", "properties": {"collection_times": [{"days": "Mon-Fri", "time": "3:30pm"}, {"days": "Sat", "time": "9:00am"}, {"days": "Sun", "time": "Closed"}], "id": "5320200112", "name": "USPS COLLECTION BOX - BLUE BOX", "address": {"city": "MILWAUKEE", "state": "WI", "street": "1700 N PROSPECT AVE", "postcode": "53202"}}},
{"geometry": {"type": "Point", "coordinates": [-87.8856705802, 43.0563682824]}, "type": "Feature", "properties": {"collection_times": [{"days": "Mon-Fri", "time": "3:00pm"}, {"days": "Sat", "time": "9:30am"}, {"days": "Sun", "time": "Closed"}], "id": "5320200128", "name": "USPS COLLECTION BOX - BLUE BOX", "address": {"city": "MILWAUKEE", "state": "WI", "street": "2025 N SUMMIT AVE", "postcode": "53202"}}},
{"geometry": {"type": "Point", "coordinates": [-87.9028104502, 43.039865587]}, "type": "Feature", "properties": {"collection_times": [{"days": "Mon-Fri", "time": "2:00pm"}, {"days": "Sat", "time": "8:45am"}, {"days": "Sun", "time": "Closed"}], "id": "5320200130", "name": "USPS COLLECTION BOX - BLUE BOX", "address": {"city": "MILWAUKEE", "state": "WI", "street": "750 N VAN BUREN ST", "postcode": "53202"}}},
{"geometry": {"type": "Point", "coordinates": [-87.9048863151, 43.0412673019]}, "type": "Feature", "properties": {"collection_times": [{"days": "Mon-Fri", "time": "4:00pm"}, {"days": "Sat", "time": "8:45am"}, {"days": "Sun", "time": "Closed"}], "id": "5320200159", "name": "USPS COLLECTION BOX - BLUE BOX", "address": {"city": "MILWAUKEE", "state": "WI", "street": "555 E WELLS ST", "postcode": "53202"}}},
{"geometry": {"type": "Point", "coordinates": [-87.9054899068, 43.0401099608]}, "type": "Feature", "properties": {"collection_times": [{"days": "Mon-Fri", "time": "3:00pm"}, {"days": "Sat", "time": "9:00am"}, {"days": "Sun", "time": "Closed"}], "id": "5320200208", "name": "USPS COLLECTION BOX - BLUE BOX", "address": {"city": "MILWAUKEE", "state": "WI", "street": "498 E MASON ST", "postcode": "53202"}}},
{"geometry": {"type": "Point", "coordinates": [-87.9054933985, 43.0524358666]}, "type": "Feature", "properties": {"collection_times": [{"days": "Mon-Fri", "time": "2:00pm"}, {"days": "Sat", "time": "9:00am"}, {"days": "Sun", "time": "Closed"}], "id": "5320200210", "name": "USPS COLLECTION BOX - BLUE BOX", "address": {"city": "MILWAUKEE", "state": "WI", "street": "1661 N WATER ST", "postcode": "53202"}}},
{"geometry": {"type": "Point", "coordinates": [-87.9053664377, 43.040026228]}, "type": "Feature", "properties": {"collection_times": [{"days": "Mon-Fri", "time": "4:00pm"}, {"days": "Sat", "time": "9:00am"}, {"days": "Sun", "time": "Closed"}], "id": "5320200216", "name": "USPS COLLECTION BOX - BLUE BOX", "address": {"city": "MILWAUKEE", "state": "WI", "street": "788 N JEFFERSON ST", "postcode": "53202"}}},
{"geometry": {"type": "Point", "coordinates": [-87.904210672, 43.045786918]}, "type": "Feature", "properties": {"collection_times": [{"days": "Mon-Fri", "time": "5:00pm"}, {"days": "Sat", "time": "3:00pm"}, {"days": "Sun", "time": "Closed"}], "id": "5320200217", "name": "USPS COLLECTION BOX - PO LOBBY", "address": {"city": "MILWAUKEE", "state": "WI", "street": "606 E JUNEAU AVE", "postcode": "53202"}}},
{"geometry": {"type": "Point", "coordinates": [-87.8856161641, 43.0599609288]}, "type": "Feature", "properties": {"collection_times": [{"days": "Mon-Fri", "time": "4:00pm"}, {"days": "Sat", "time": "10:00am"}, {"days": "Sun", "time": "Closed"}], "id": "5320200224", "name": "USPS COLLECTION BOX - BLUE BOX", "address": {"city": "MILWAUKEE", "state": "WI", "street": "2238 N FARWELL AVE", "postcode": "53202"}}},
{"geometry": {"type": "Point", "coordinates": [-87.908433934, 43.0470364513]}, "type": "Feature", "properties": {"collection_times": [{"days": "Mon-Fri", "time": "1:00pm"}, {"days": "Sat", "time": "9:00am"}, {"days": "Sun", "time": "Closed"}], "id": "5320200227", "name": "USPS COLLECTION BOX - BLUE BOX", "address": {"city": "MILWAUKEE", "state": "WI", "street": "310 E KNAPP ST", "postcode": "53202"}}},
{"geometry": {"type": "Point", "coordinates": [-87.8905976043, 43.0547772026]}, "type": "Feature", "properties": {"collection_times": [{"days": "Mon-Fri", "time": "4:00pm"}, {"days": "Sat", "time": "9:00am"}, {"days": "Sun", "time": "Closed"}], "id": "5320200229", "name": "USPS COLLECTION BOX - BLUE BOX", "address": {"city": "MILWAUKEE", "state": "WI", "street": "1845 N FARWELL AVE", "postcode": "53202"}}},
{"geometry": {"type": "Point", "coordinates": [-87.9041773585, 43.0302146887]}, "type": "Feature", "properties": {"collection_times": [{"days": "Mon-Fri", "time": "2:30pm"}, {"days": "Sat", "time": "9:30am"}, {"days": "Sun", "time": "Closed"}], "id": "5320200231", "name": "USPS COLLECTION BOX - BLUE BOX", "address": {"city": "MILWAUKEE", "state": "WI", "street": "126 N JEFFERSON ST", "postcode": "53202"}}},
{"geometry": {"type": "Point", "coordinates": [-87.8961669751, 43.0489038113]}, "type": "Feature", "properties": {"collection_times": [{"days": "Mon-Fri", "time": "4:00pm"}, {"days": "Sat", "time": "9:00am"}, {"days": "Sun", "time": "Closed"}], "id": "5320200233", "name": "USPS COLLECTION BOX - BLUE BOX", "address": {"city": "MILWAUKEE", "state": "WI", "street": "1442 N FARWELL AVE", "postcode": "53202"}}},
{"geometry": {"type": "Point", "coordinates": [-87.9053664377, 43.040026228]}, "type": "Feature", "properties": {"collection_times": [{"days": "Mon-Fri", "time": "4:00pm"}, {"days": "Sat", "time": "9:00am"}, {"days": "Sun", "time": "Closed"}], "id": "5320200234", "name": "USPS COLLECTION BOX - BLUE BOX", "address": {"city": "MILWAUKEE", "state": "WI", "street": "788 N JEFFERSON ST", "postcode": "53202"}}},
{"geometry": {"type": "Point", "coordinates": [-87.8922584787, 43.0530382529]}, "type": "Feature", "properties": {"collection_times": [{"days": "Mon-Fri", "time": "4:00pm"}, {"days": "Sat", "time": "9:00am"}, {"days": "Sun", "time": "Closed"}], "id": "5320200236", "name": "USPS COLLECTION BOX - BLUE BOX", "address": {"city": "MILWAUKEE", "state": "WI", "street": "1700 N FARWELL AVE", "postcode": "53202"}}},
{"geometry": {"type": "Point", "coordinates": [-87.8996541724, 43.0480657421]}, "type": "Feature", "properties": {"collection_times": [{"days": "Mon-Fri", "time": "11:00am"}, {"days": "Sat", "time": "9:30am"}, {"days": "Sun", "time": "Closed"}], "id": "5320200239", "name": "USPS COLLECTION BOX - BLUE BOX", "address": {"city": "MILWAUKEE", "state": "WI", "street": "1001 E OGDEN AVE", "postcode": "53202"}}},
{"geometry": {"type": "Point", "coordinates": [-87.9043364897, 43.0457358472]}, "type": "Feature", "properties": {"collection_times": [{"days": "Mon-Fri", "time": "5:00pm"}, {"days": "Sat", "time": "3:00pm"}, {"days": "Sun", "time": "Closed"}], "id": "5320200242", "name": "USPS COLLECTION BOX - APC", "address": {"city": "MILWAUKEE", "state": "WI", "street": "606 E JUNEAU AVE", "postcode": "53202"}}},
{"geometry": {"type": "Point", "coordinates": [-87.9119663212, 43.0397105619]}, "type": "Feature", "properties": {"collection_times": [{"days": "Mon-Fri", "time": "4:00pm"}, {"days": "Sat", "time": "9:30am"}, {"days": "Sun", "time": "Closed"}], "id": "5320300008", "name": "USPS COLLECTION BOX - BLUE BOX", "address": {"city": "MILWAUKEE", "state": "WI", "street": "740 N PLANKINTON AVE", "postcode": "53203"}}},
{"geometry": {"type": "Point", "coordinates": [-87.9119663212, 43.0397105619]}, "type": "Feature", "properties": {"collection_times": [{"days": "Mon-Fri", "time": "4:00pm"}, {"days": "Sat", "time": "9:30am"}, {"days": "Sun", "time": "Closed"}], "id": "5320300009", "name": "USPS COLLECTION BOX - BLUE BOX", "address": {"city": "MILWAUKEE", "state": "WI", "street": "740 N PLANKINTON AVE", "postcode": "53203"}}},
{"geometry": {"type": "Point", "coordinates": [-87.915457487, 43.0220660213]}, "type": "Feature", "properties": {"collection_times": [{"days": "Mon-Fri", "time": "12:00pm"}, {"days": "Sat", "time": "9:30am"}, {"days": "Sun", "time": "Closed"}], "id": "5320300052", "name": "USPS COLLECTION BOX - BLUE BOX", "address": {"city": "MILWAUKEE", "state": "WI", "street": "900 N 4TH ST", "postcode": "53203"}}},
{"geometry": {"type": "Point", "coordinates": [-87.912802927, 43.0406266475]}, "type": "Feature", "properties": {"collection_times": [{"days": "Mon-Fri", "time": "3:00pm"}, {"days": "Sat-Sun", "time": "Closed"}], "id": "5320300086", "name": "USPS COLLECTION BOX - BLUE BOX", "address": {"city": "MILWAUKEE", "state": "WI", "street": "826 N PLANKINTON AVE", "postcode": "53203"}}},
{"geometry": {"type": "Point", "coordinates": [-87.9363946777, 43.0228373105]}, "type": "Feature", "properties": {"collection_times": [{"days": "Mon-Sat", "time": "12:00pm"}, {"days": "Sun", "time": "Closed"}], "id": "5320400004", "name": "USPS COLLECTION BOX - BLUE BOX", "address": {"city": "MILWAUKEE", "state": "WI", "street": "1818 W NATIONAL AVE", "postcode": "53204"}}},
{"geometry": {"type": "Point", "coordinates": [-87.9268577319, 43.0176437309]}, "type": "Feature", "properties": {"collection_times": [{"days": "Mon-Sat", "time": "12:00pm"}, {"days": "Sun", "time": "Closed"}], "id": "5320400023", "name": "USPS COLLECTION BOX - BLUE BOX", "address": {"city": "MILWAUKEE", "state": "WI", "street": "1601 W MITCHELL ST", "postcode": "53204"}}},
{"geometry": {"type": "Point", "coordinates": [-87.9126532711, 43.0170022481]}, "type": "Feature", "properties": {"collection_times": [{"days": "Mon-Sat", "time": "12:00pm"}, {"days": "Sun", "time": "Closed"}], "id": "5320400025", "name": "USPS COLLECTION BOX - BLUE BOX", "address": {"city": "MILWAUKEE", "state": "WI", "street": "201 W GREENFIELD AVE", "postcode": "53204"}}},
{"geometry": {"type": "Point", "coordinates": [-87.947068299, 43.022202577]}, "type": "Feature", "properties": {"collection_times": [{"days": "Mon-Sat", "time": "12:00pm"}, {"days": "Sun", "time": "Closed"}], "id": "5320400028", "name": "USPS COLLECTION BOX - BLUE BOX", "address": {"city": "MILWAUKEE", "state": "WI", "street": "2625 W NATIONAL AVE", "postcode": "53204"}}},
{"geometry": {"type": "Point", "coordinates": [-87.9195848308, 43.0263542475]}, "type": "Feature", "properties": {"collection_times": [{"days": "Mon-Sat", "time": "12:00pm"}, {"days": "Sun", "time": "Closed"}], "id": "5320400040", "name": "USPS COLLECTION BOX - BLUE BOX", "address": {"city": "MILWAUKEE", "state": "WI", "street": "647 W VIRGINIA ST", "postcode": "53204"}}},
{"geometry": {"type": "Point", "coordinates": [-87.9252765012, 43.0168580404]}, "type": "Feature", "properties": {"collection_times": [{"days": "Mon-Fri", "time": "5:00pm"}, {"days": "Sat", "time": "3:00pm"}, {"days": "Sun", "time": "Closed"}], "id": "5320400042", "name": "USPS COLLECTION BOX - BLUE BOX", "address": {"city": "MILWAUKEE", "state": "WI", "street": "1416 S 11TH ST", "postcode": "53204"}}},
{"geometry": {"type": "Point", "coordinates": [-87.9195730348, 43.0264140497]}, "type": "Feature", "properties": {"collection_times": [{"days": "Mon-Sat", "time": "12:00pm"}, {"days": "Sun", "time": "Closed"}], "id": "5320400058", "name": "USPS COLLECTION BOX - BLUE BOX", "address": {"city": "MILWAUKEE", "state": "WI", "street": "700 W VIRGINIA ST", "postcode": "53204"}}},
{"geometry": {"type": "Point", "coordinates": [-87.9252765012, 43.0168580404]}, "type": "Feature", "properties": {"collection_times": [{"days": "Mon-Fri", "time": "5:00pm"}, {"days": "Sat", "time": "12:00pm"}, {"days": "Sun", "time": "Closed"}], "id": "5320400061", "name": "USPS COLLECTION BOX - PO LOBBY", "address": {"city": "MILWAUKEE", "state": "WI", "street": "1416 S 11TH ST", "postcode": "53204"}}},
{"geometry": {"type": "Point", "coordinates": [-87.9271510331, 43.047224894]}, "type": "Feature", "properties": {"collection_times": [{"days": "Mon-Fri", "time": "5:00pm"}, {"days": "Sat", "time": "3:00pm"}, {"days": "Sun", "time": "Closed"}], "id": "5320500014", "name": "USPS COLLECTION BOX - BLUE BOX", "address": {"city": "MILWAUKEE", "state": "WI", "street": "1301 N 12TH ST", "postcode": "53205"}}},
{"geometry": {"type": "Point", "coordinates": [-87.9271510331, 43.047224894]}, "type": "Feature", "properties": {"collection_times": [{"days": "Mon-Fri", "time": "5:00pm"}, {"days": "Sat", "time": "12:00pm"}, {"days": "Sun", "time": "Closed"}], "id": "5320500021", "name": "USPS COLLECTION BOX - PO LOBBY", "address": {"city": "MILWAUKEE", "state": "WI", "street": "1301 N 12TH ST", "postcode": "53205"}}},
{"geometry": {"type": "Point", "coordinates": [-87.9291537859, 43.0669403867]}, "type": "Feature", "properties": {"collection_times": [{"days": "Mon-Fri", "time": "5:00pm"}, {"days": "Sat", "time": "3:00pm"}, {"days": "Sun", "time": "Closed"}], "id": "5320600000", "name": "USPS COLLECTION BOX - BLUE BOX", "address": {"city": "MILWAUKEE", "state": "WI", "street": "2656 N TEUTONIA AVE", "postcode": "53206"}}},
{"geometry": {"type": "Point", "coordinates": [-87.9297724734, 43.0818728777]}, "type": "Feature", "properties": {"collection_times": [{"days": "Mon-Sat", "time": "1:00pm"}, {"days": "Sun", "time": "Closed"}], "id": "5320600002", "name": "USPS COLLECTION BOX - BLUE BOX", "address": {"city": "MILWAUKEE", "state": "WI", "street": "3500 N 15TH ST", "postcode": "53206"}}},
{"geometry": {"type": "Point", "coordinates": [-87.9424001735, 43.0751115802]}, "type": "Feature", "properties": {"collection_times": [{"days": "Mon-Sat", "time": "1:00pm"}, {"days": "Sun", "time": "Closed"}], "id": "5320600005", "name": "USPS COLLECTION BOX - BLUE BOX", "address": {"city": "MILWAUKEE", "state": "WI", "street": "3099 N 24TH ST", "postcode": "53206"}}},
{"geometry": {"type": "Point", "coordinates": [-87.9389065569, 43.0605722541]}, "type": "Feature", "properties": {"collection_times": [{"days": "Mon-Sat", "time": "1:00pm"}, {"days": "Sun", "time": "Closed"}], "id": "5320600008", "name": "USPS COLLECTION BOX - BLUE BOX", "address": {"city": "MILWAUKEE", "state": "WI", "street": "2301 N 21ST ST", "postcode": "53206"}}},
{"geometry": {"type": "Point", "coordinates": [-87.9046719613, 43.0028668048]}, "type": "Feature", "properties": {"collection_times": [{"days": "Mon-Fri", "time": "2:00pm"}, {"days": "Sat", "time": "2:30pm"}, {"days": "Sun", "time": "Closed"}], "id": "5320700004", "name": "USPS COLLECTION BOX - BLUE BOX", "address": {"city": "MILWAUKEE", "state": "WI", "street": "401 E LINCOLN AVE", "postcode": "53207"}}},
{"geometry": {"type": "Point", "coordinates": [-87.8965633467, 42.9955934595]}, "type": "Feature", "properties": {"collection_times": [{"days": "Mon-Fri", "time": "2:00pm"}, {"days": "Sat", "time": "2:30pm"}, {"days": "Sun", "time": "Closed"}], "id": "5320700010", "name": "USPS COLLECTION BOX - BLUE BOX", "address": {"city": "MILWAUKEE", "state": "WI", "street": "1009 E RUSSELL AVE", "postcode": "53207"}}},
{"geometry": {"type": "Point", "coordinates": [-87.9096467925, 42.971509904]}, "type": "Feature", "properties": {"collection_times": [{"days": "Mon-Fri", "time": "2:00pm"}, {"days": "Sat", "time": "2:30pm"}, {"days": "Sun", "time": "Closed"}], "id": "5320700012", "name": "USPS COLLECTION BOX - BLUE BOX", "address": {"city": "MILWAUKEE", "state": "WI", "street": "4015 S HOWELL AVE", "postcode": "53207"}}},
{"geometry": {"type": "Point", "coordinates": [-87.9044165239, 42.9952312438]}, "type": "Feature", "properties": {"collection_times": [{"days": "Mon-Fri", "time": "2:00pm"}, {"days": "Sat", "time": "2:30pm"}, {"days": "Sun", "time": "Closed"}], "id": "5320700023", "name": "USPS COLLECTION BOX - BLUE BOX", "address": {"city": "MILWAUKEE", "state": "WI", "street": "2701 S HOWELL AVE", "postcode": "53207"}}},
{"geometry": {"type": "Point", "coordinates": [-87.9096238017, 42.9773750861]}, "type": "Feature", "properties": {"collection_times": [{"days": "Mon-Fri", "time": "2:00pm"}, {"days": "Sat", "time": "2:30pm"}, {"days": "Sun", "time": "Closed"}], "id": "5320700031", "name": "USPS COLLECTION BOX - BLUE BOX", "address": {"city": "MILWAUKEE", "state": "WI", "street": "3701 S HOWELL AVE", "postcode": "53207"}}},
{"geometry": {"type": "Point", "coordinates": [-87.9114295117, 42.9591101281]}, "type": "Feature", "properties": {"collection_times": [{"days": "Mon-Fri", "time": "2:00pm"}, {"days": "Sat", "time": "2:30pm"}, {"days": "Sun", "time": "Closed"}], "id": "5320700037", "name": "USPS COLLECTION BOX - BLUE BOX", "address": {"city": "MILWAUKEE", "state": "WI", "street": "131 W LAYTON AVE", "postcode": "53207"}}},
{"geometry": {"type": "Point", "coordinates": [-87.9095994742, 42.948475327]}, "type": "Feature", "properties": {"collection_times": [{"days": "Mon-Fri", "time": "2:00pm"}, {"days": "Sat", "time": "2:30pm"}, {"days": "Sun", "time": "Closed"}], "id": "5320700044", "name": "USPS COLLECTION BOX - BLUE BOX", "address": {"city": "MILWAUKEE", "state": "WI", "street": "5300 S HOWELL AVE", "postcode": "53207"}}},
{"geometry": {"type": "Point", "coordinates": [-87.8875266428, 42.9664326441]}, "type": "Feature", "properties": {"collection_times": [{"days": "Mon-Fri", "time": "2:00pm"}, {"days": "Sat", "time": "2:30pm"}, {"days": "Sun", "time": "Closed"}], "id": "5320700059", "name": "USPS COLLECTION BOX - BLUE BOX", "address": {"city": "MILWAUKEE", "state": "WI", "street": "1775 E BOLIVAR AVE", "postcode": "53207"}}},
{"geometry": {"type": "Point", "coordinates": [-87.8999360779, 42.9824839464]}, "type": "Feature", "properties": {"collection_times": [{"days": "Mon-Fri", "time": "2:00pm"}, {"days": "Sat", "time": "2:30pm"}, {"days": "Sun", "time": "Closed"}], "id": "5320700061", "name": "USPS COLLECTION BOX - BLUE BOX", "address": {"city": "MILWAUKEE", "state": "WI", "street": "3598 S CLEMENT AVE", "postcode": "53207"}}},
{"geometry": {"type": "Point", "coordinates": [-87.9118816797, 42.9823154792]}, "type": "Feature", "properties": {"collection_times": [{"days": "Mon-Fri", "time": "2:00pm"}, {"days": "Sat", "time": "2:30pm"}, {"days": "Sun", "time": "Closed"}], "id": "5320700063", "name": "USPS COLLECTION BOX - BLUE BOX", "address": {"city": "MILWAUKEE", "state": "WI", "street": "3400 S 1ST PL", "postcode": "53207"}}},
{"geometry": {"type": "Point", "coordinates": [-87.8993160119, 42.9736782678]}, "type": "Feature", "properties": {"collection_times": [{"days": "Mon-Fri", "time": "2:00pm"}, {"days": "Sat", "time": "2:30pm"}, {"days": "Sun", "time": "Closed"}], "id": "5320700072", "name": "USPS COLLECTION BOX - BLUE BOX", "address": {"city": "MILWAUKEE", "state": "WI", "street": "801 E HOWARD AVE", "postcode": "53207"}}},
{"geometry": {"type": "Point", "coordinates": [-87.8891950185, 42.9881728935]}, "type": "Feature", "properties": {"collection_times": [{"days": "Mon-Fri", "time": "5:00pm"}, {"days": "Sat", "time": "3:00pm"}, {"days": "Sun", "time": "Closed"}], "id": "5320700084", "name": "USPS COLLECTION BOX - BLUE BOX", "address": {"city": "MILWAUKEE", "state": "WI", "street": "1603 E OKLAHOMA AVE", "postcode": "53207"}}},
{"geometry": {"type": "Point", "coordinates": [-87.888780739, 42.988201698]}, "type": "Feature", "properties": {"collection_times": [{"days": "Mon-Fri", "time": "5:00pm"}, {"days": "Sat", "time": "3:00pm"}, {"days": "Sun", "time": "Closed"}], "id": "5320700089", "name": "USPS COLLECTION BOX - PO LOBBY", "address": {"city": "MILWAUKEE", "state": "WI", "street": "1603 E OKLAHOMA AVE", "postcode": "53207"}}},
{"geometry": {"type": "Point", "coordinates": [-87.888780739, 42.988201698]}, "type": "Feature", "properties": {"collection_times": [{"days": "Mon-Fri", "time": "5:00pm"}, {"days": "Sat", "time": "3:00pm"}, {"days": "Sun", "time": "Closed"}], "id": "5320700091", "name": "USPS COLLECTION BOX - PO LOBBY", "address": {"city": "MILWAUKEE", "state": "WI", "street": "1603 E OKLAHOMA AVE", "postcode": "53207"}}},
{"geometry": {"type": "Point", "coordinates": [-87.955378663, 43.0375701143]}, "type": "Feature", "properties": {"collection_times": [{"days": "Mon-Fri", "time": "3:30pm"}, {"days": "Sat", "time": "12:00pm"}, {"days": "Sun", "time": "Closed"}], "id": "5320800018", "name": "USPS COLLECTION BOX - BLUE BOX", "address": {"city": "MILWAUKEE", "state": "WI", "street": "3300 W MICHIGAN ST", "postcode": "53208"}}},
{"geometry": {"type": "Point", "coordinates": [-87.9753885661, 43.0389030683]}, "type": "Feature", "properties": {"collection_times": [{"days": "Mon-Sat", "time": "1:00pm"}, {"days": "Sun", "time": "Closed"}], "id": "5320800024", "name": "USPS COLLECTION BOX - BLUE BOX", "address": {"city": "MILWAUKEE", "state": "WI", "street": "701 N 49TH ST", "postcode": "53208"}}},
{"geometry": {"type": "Point", "coordinates": [-87.9835058828, 43.0397002649]}, "type": "Feature", "properties": {"collection_times": [{"days": "Mon-Fri", "time": "3:30pm"}, {"days": "Sat", "time": "1:00pm"}, {"days": "Sun", "time": "Closed"}], "id": "5320800028", "name": "USPS COLLECTION BOX - BLUE BOX", "address": {"city": "MILWAUKEE", "state": "WI", "street": "800 N HAWLEY RD", "postcode": "53208"}}},
{"geometry": {"type": "Point", "coordinates": [-87.9787510379, 43.0491928636]}, "type": "Feature", "properties": {"collection_times": [{"days": "Mon-Sat", "time": "1:00pm"}, {"days": "Sun", "time": "Closed"}], "id": "5320800039", "name": "USPS COLLECTION BOX - BLUE BOX", "address": {"city": "MILWAUKEE", "state": "WI", "street": "1400 N 52ND ST", "postcode": "53208"}}},
{"geometry": {"type": "Point", "coordinates": [-87.9871791061, 43.0499613767]}, "type": "Feature", "properties": {"collection_times": [{"days": "Mon-Sat", "time": "1:00pm"}, {"days": "Sun", "time": "Closed"}], "id": "5320800043", "name": "USPS COLLECTION BOX - BLUE BOX", "address": {"city": "MILWAUKEE", "state": "WI", "street": "5918 W VLIET ST", "postcode": "53208"}}},
{"geometry": {"type": "Point", "coordinates": [-87.9703395075, 43.060688934]}, "type": "Feature", "properties": {"collection_times": [{"days": "Mon-Fri", "time": "12:30pm"}, {"days": "Sat", "time": "1:00pm"}, {"days": "Sun", "time": "Closed"}], "id": "5320800055", "name": "USPS COLLECTION BOX - BLUE BOX", "address": {"city": "MILWAUKEE", "state": "WI", "street": "4520 W NORTH AVE", "postcode": "53208"}}},
{"geometry": {"type": "Point", "coordinates": [-87.9568203239, 43.0487122783]}, "type": "Feature", "properties": {"collection_times": [{"days": "Mon-Fri", "time": "5:00pm"}, {"days": "Sat", "time": "3:00pm"}, {"days": "Sun", "time": "Closed"}], "id": "5320800062", "name": "USPS COLLECTION BOX - BLUE BOX", "address": {"city": "MILWAUKEE", "state": "WI", "street": "3421 W VLIET ST", "postcode": "53208"}}},
{"geometry": {"type": "Point", "coordinates": [-87.9568203239, 43.0487122783]}, "type": "Feature", "properties": {"collection_times": [{"days": "Mon-Fri", "time": "5:00pm"}, {"days": "Sat", "time": "3:00pm"}, {"days": "Sun", "time": "Closed"}], "id": "5320800063", "name": "USPS COLLECTION BOX - BLUE BOX", "address": {"city": "MILWAUKEE", "state": "WI", "street": "3421 W VLIET ST", "postcode": "53208"}}},
{"geometry": {"type": "Point", "coordinates": [-87.9569190157, 43.0487216357]}, "type": "Feature", "properties": {"collection_times": [{"days": "Mon-Fri", "time": "5:00pm"}, {"days": "Sat", "time": "12:00pm"}, {"days": "Sun", "time": "Closed"}], "id": "5320800079", "name": "USPS COLLECTION BOX - PO LOBBY", "address": {"city": "MILWAUKEE", "state": "WI", "street": "3421 W VLIET ST", "postcode": "53208"}}},
{"geometry": {"type": "Point", "coordinates": [-87.955378663, 43.0375701143]}, "type": "Feature", "properties": {"collection_times": [{"days": "Mon-Fri", "time": "3:30pm"}, {"days": "Sat", "time": "12:00pm"}, {"days": "Sun", "time": "Closed"}], "id": "5320800081", "name": "USPS COLLECTION BOX - BLUE BOX", "address": {"city": "MILWAUKEE", "state": "WI", "street": "3300 W MICHIGAN ST", "postcode": "53208"}}},
{"geometry": {"type": "Point", "coordinates": [-87.956480138, 43.1100994616]}, "type": "Feature", "properties": {"collection_times": [{"days": "Mon-Fri", "time": "3:00pm"}, {"days": "Sat", "time": "4:00pm"}, {"days": "Sun", "time": "Closed"}], "id": "5320900008", "name": "USPS COLLECTION BOX - BLUE BOX", "address": {"city": "MILWAUKEE", "state": "WI", "street": "5110 N 35TH ST", "postcode": "53209"}}},
{"geometry": {"type": "Point", "coordinates": [-87.9600408444, 43.1048766977]}, "type": "Feature", "properties": {"collection_times": [{"days": "Mon-Sat", "time": "12:00pm"}, {"days": "Sun", "time": "Closed"}], "id": "5320900040", "name": "USPS COLLECTION BOX - BLUE BOX", "address": {"city": "MILWAUKEE", "state": "WI", "street": "4808 N HOPKINS ST", "postcode": "53209"}}},
{"geometry": {"type": "Point", "coordinates": [-87.9653069824, 43.1487038841]}, "type": "Feature", "properties": {"collection_times": [{"days": "Mon-Sat", "time": "12:00pm"}, {"days": "Sun", "time": "Closed"}], "id": "5320900051", "name": "USPS COLLECTION BOX - BLUE BOX", "address": {"city": "MILWAUKEE", "state": "WI", "street": "7200 N 43RD ST", "postcode": "53209"}}},
{"geometry": {"type": "Point", "coordinates": [-87.9625897995, 43.1863915183]}, "type": "Feature", "properties": {"collection_times": [{"days": "Mon-Sat", "time": "12:00pm"}, {"days": "Sun", "time": "Closed"}], "id": "5320900054", "name": "USPS COLLECTION BOX - BLUE BOX", "address": {"city": "MILWAUKEE", "state": "WI", "street": "4185 W SCHROEDER DR", "postcode": "53209"}}},
{"geometry": {"type": "Point", "coordinates": [-87.9480975512, 43.1377133734]}, "type": "Feature", "properties": {"collection_times": [{"days": "Mon-Fri", "time": "3:00pm"}, {"days": "Sat", "time": "11:30am"}, {"days": "Sun", "time": "Closed"}], "id": "5320900057", "name": "USPS COLLECTION BOX - BLUE BOX", "address": {"city": "MILWAUKEE", "state": "WI", "street": "6600 N SIDNEY PL", "postcode": "53209"}}},
{"geometry": {"type": "Point", "coordinates": [-87.9565345541, 43.1478819879]}, "type": "Feature", "properties": {"collection_times": [{"days": "Mon-Fri", "time": "3:00pm"}, {"days": "Sat", "time": "12:00pm"}, {"days": "Sun", "time": "Closed"}], "id": "5320900062", "name": "USPS COLLECTION BOX - BLUE BOX", "address": {"city": "MILWAUKEE", "state": "WI", "street": "7171 N TEUTONIA AVE", "postcode": "53209"}}},
{"geometry": {"type": "Point", "coordinates": [-87.956480138, 43.1100994616]}, "type": "Feature", "properties": {"collection_times": [{"days": "Mon-Fri", "time": "3:00pm"}, {"days": "Sat", "time": "4:00pm"}, {"days": "Sun", "time": "Closed"}], "id": "5320900063", "name": "USPS COLLECTION BOX - BLUE BOX", "address": {"city": "MILWAUKEE", "state": "WI", "street": "5110 N 35TH ST", "postcode": "53209"}}},
{"geometry": {"type": "Point", "coordinates": [-87.9371507896, 43.1262240254]}, "type": "Feature", "properties": {"collection_times": [{"days": "Mon-Fri", "time": "3:00pm"}, {"days": "Sat", "time": "10:00am"}, {"days": "Sun", "time": "Closed"}], "id": "5320900064", "name": "USPS COLLECTION BOX - BLUE BOX", "address": {"city": "MILWAUKEE", "state": "WI", "street": "2085 W FLORIST AVE", "postcode": "53209"}}},
{"geometry": {"type": "Point", "coordinates": [-87.9517412043, 43.1262101797]}, "type": "Feature", "properties": {"collection_times": [{"days": "Mon-Sat", "time": "5:00pm"}, {"days": "Sun", "time": "Closed"}], "id": "5320900082", "name": "USPS COLLECTION BOX - BLUE BOX", "address": {"city": "MILWAUKEE", "state": "WI", "street": "5995 N TEUTONIA AVE", "postcode": "53209"}}},
{"geometry": {"type": "Point", "coordinates": [-87.9424077946, 43.14845759]}, "type": "Feature", "properties": {"collection_times": [{"days": "Mon-Sat", "time": "12:00pm"}, {"days": "Sun", "time": "Closed"}], "id": "5320900084", "name": "USPS COLLECTION BOX - BLUE BOX", "address": {"city": "MILWAUKEE", "state": "WI", "street": "2400 W GOOD HOPE RD", "postcode": "53209"}}},
{"geometry": {"type": "Point", "coordinates": [-87.951897358, 43.126012255]}, "type": "Feature", "properties": {"collection_times": [{"days": "Mon-Fri", "time": "5:00pm"}, {"days": "Sat", "time": "1:30pm"}, {"days": "Sun", "time": "Closed"}], "id": "5320900085", "name": "USPS COLLECTION BOX - PO LOBBY", "address": {"city": "MILWAUKEE", "state": "WI", "street": "5995 N TEUTONIA AVE", "postcode": "53209"}}},
{"geometry": {"type": "Point", "coordinates": [-87.9592837507, 43.1785407354]}, "type": "Feature", "properties": {"collection_times": [{"days": "Mon-Sat", "time": "12:00pm"}, {"days": "Sun", "time": "Closed"}], "id": "5320900089", "name": "USPS COLLECTION BOX - BLUE BOX", "address": {"city": "MILWAUKEE", "state": "WI", "street": "3900 W BROWN DEER RD", "postcode": "53209"}}},
{"geometry": {"type": "Point", "coordinates": [-87.9575892496, 43.0616194774]}, "type": "Feature", "properties": {"collection_times": [{"days": "Mon-Sat", "time": "1:00pm"}, {"days": "Sun", "time": "Closed"}], "id": "5321000013", "name": "USPS COLLECTION BOX - BLUE BOX", "address": {"city": "MILWAUKEE", "state": "WI", "street": "2355 N 35TH ST", "postcode": "53210"}}},
{"geometry": {"type": "Point", "coordinates": [-87.9997102176, 43.0679848319]}, "type": "Feature", "properties": {"collection_times": [{"days": "Mon-Sat", "time": "1:00pm"}, {"days": "Sun", "time": "Closed"}], "id": "5321000020", "name": "USPS COLLECTION BOX - BLUE BOX", "address": {"city": "MILWAUKEE", "state": "WI", "street": "7005 W CENTER ST", "postcode": "53210"}}},
{"geometry": {"type": "Point", "coordinates": [-87.9772725565, 43.074726047]}, "type": "Feature", "properties": {"collection_times": [{"days": "Mon-Sat", "time": "1:00pm"}, {"days": "Sun", "time": "Closed"}], "id": "5321000034", "name": "USPS COLLECTION BOX - BLUE BOX", "address": {"city": "MILWAUKEE", "state": "WI", "street": "3070 N 51ST ST", "postcode": "53210"}}},
{"geometry": {"type": "Point", "coordinates": [-87.9828672206, 43.0680109645]}, "type": "Feature", "properties": {"collection_times": [{"days": "Mon-Fri", "time": "5:00pm"}, {"days": "Sat", "time": "4:00pm"}, {"days": "Sun", "time": "Closed"}], "id": "5321000036", "name": "USPS COLLECTION BOX - BLUE BOX", "address": {"city": "MILWAUKEE", "state": "WI", "street": "5521 W CENTER ST", "postcode": "53210"}}},
{"geometry": {"type": "Point", "coordinates": [-87.9828672206, 43.0680109645]}, "type": "Feature", "properties": {"collection_times": [{"days": "Mon-Fri", "time": "5:00pm"}, {"days": "Sat", "time": "4:00pm"}, {"days": "Sun", "time": "Closed"}], "id": "5321000037", "name": "USPS COLLECTION BOX - BLUE BOX", "address": {"city": "MILWAUKEE", "state": "WI", "street": "5521 W CENTER ST", "postcode": "53210"}}},
{"geometry": {"type": "Point", "coordinates": [-87.9828672206, 43.0680109645]}, "type": "Feature", "properties": {"collection_times": [{"days": "Mon-Fri", "time": "5:00pm"}, {"days": "Sat", "time": "12:00pm"}, {"days": "Sun", "time": "Closed"}], "id": "5321000039", "name": "USPS COLLECTION BOX - BLUE BOX", "address": {"city": "MILWAUKEE", "state": "WI", "street": "5521 W CENTER ST", "postcode": "53210"}}},
{"geometry": {"type": "Point", "coordinates": [-87.9833695567, 43.0679586523]}, "type": "Feature", "properties": {"collection_times": [{"days": "Mon-Fri", "time": "5:00pm"}, {"days": "Sat", "time": "4:00pm"}, {"days": "Sun", "time": "Closed"}], "id": "5321000040", "name": "USPS COLLECTION BOX - BLUE BOX", "address": {"city": "MILWAUKEE", "state": "WI", "street": "5601 W CENTER ST", "postcode": "53210"}}},
{"geometry": {"type": "Point", "coordinates": [-87.9886108946, 43.0686807126]}, "type": "Feature", "properties": {"collection_times": [{"days": "Mon-Sat", "time": "1:00pm"}, {"days": "Sun", "time": "Closed"}], "id": "5321000042", "name": "USPS COLLECTION BOX - BLUE BOX", "address": {"city": "MILWAUKEE", "state": "WI", "street": "6075 W LISBON AVE", "postcode": "53210"}}},
{"geometry": {"type": "Point", "coordinates": [-87.8923705375, 43.0982908561]}, "type": "Feature", "properties": {"collection_times": [{"days": "Mon-Sat", "time": "1:00pm"}, {"days": "Sun", "time": "Closed"}], "id": "5321100013", "name": "USPS COLLECTION BOX - BLUE BOX", "address": {"city": "SHOREWOOD", "state": "WI", "street": "4499 N MORRIS BLVD", "postcode": "53211"}}},
{"geometry": {"type": "Point", "coordinates": [-87.8874889219, 43.0955389222]}, "type": "Feature", "properties": {"collection_times": [{"days": "Mon-Sat", "time": "1:00pm"}, {"days": "Sun", "time": "Closed"}], "id": "5321100020", "name": "USPS COLLECTION BOX - BLUE BOX", "address": {"city": "SHOREWOOD", "state": "WI", "street": "1799 E LAKE BLUFF BLVD", "postcode": "53211"}}},
{"geometry": {"type": "Point", "coordinates": [-87.8850286976, 43.0891379819]}, "type": "Feature", "properties": {"collection_times": [{"days": "Mon-Sat", "time": "1:00pm"}, {"days": "Sun", "time": "Closed"}], "id": "5321100024", "name": "USPS COLLECTION BOX - BLUE BOX", "address": {"city": "SHOREWOOD", "state": "WI", "street": "2301 N LAKE DR", "postcode": "53211"}}},
{"geometry": {"type": "Point", "coordinates": [-87.8775080168, 43.0860409597]}, "type": "Feature", "properties": {"collection_times": [{"days": "Mon-Sat", "time": "1:00pm"}, {"days": "Sun", "time": "Closed"}], "id": "5321100027", "name": "USPS COLLECTION BOX - BLUE BOX", "address": {"city": "SHOREWOOD", "state": "WI", "street": "2601 E BEVERLY RD", "postcode": "53211"}}},
{"geometry": {"type": "Point", "coordinates": [-87.8854823395, 43.0637055103]}, "type": "Feature", "properties": {"collection_times": [{"days": "Mon-Sat", "time": "1:00pm"}, {"days": "Sun", "time": "Closed"}], "id": "5321100029", "name": "USPS COLLECTION BOX - BLUE BOX", "address": {"city": "SHOREWOOD", "state": "WI", "street": "2498 N MURRAY AVE", "postcode": "53211"}}},
{"geometry": {"type": "Point", "coordinates": [-87.8781174153, 43.0661414898]}, "type": "Feature", "properties": {"collection_times": [{"days": "Mon-Sat", "time": "1:00pm"}, {"days": "Sun", "time": "Closed"}], "id": "5321100031", "name": "USPS COLLECTION BOX - BLUE BOX", "address": {"city": "SHOREWOOD", "state": "WI", "street": "2598 E BELLEVIEW PL", "postcode": "53211"}}},
{"geometry": {"type": "Point", "coordinates": [-87.8874045287, 43.0891421333]}, "type": "Feature", "properties": {"collection_times": [{"days": "Mon-Sat", "time": "1:00pm"}, {"days": "Sun", "time": "Closed"}], "id": "5321100036", "name": "USPS COLLECTION BOX - BLUE BOX", "address": {"city": "SHOREWOOD", "state": "WI", "street": "3998 N OAKLAND AVE", "postcode": "53211"}}},
{"geometry": {"type": "Point", "coordinates": [-87.8886450875, 43.0827462209]}, "type": "Feature", "properties": {"collection_times": [{"days": "Mon-Sat", "time": "1:00pm"}, {"days": "Sun", "time": "Closed"}], "id": "5321100043", "name": "USPS COLLECTION BOX - BLUE BOX", "address": {"city": "SHOREWOOD", "state": "WI", "street": "1700 E RIVER PARK CT", "postcode": "53211"}}},
{"geometry": {"type": "Point", "coordinates": [-87.88913665, 43.0891823811]}, "type": "Feature", "properties": {"collection_times": [{"days": "Mon-Fri", "time": "5:00pm"}, {"days": "Sat", "time": "3:30pm"}, {"days": "Sun", "time": "Closed"}], "id": "5321100047", "name": "USPS COLLECTION BOX - BLUE BOX", "address": {"city": "SHOREWOOD", "state": "WI", "street": "1620 E CAPITOL DR", "postcode": "53211"}}},
{"geometry": {"type": "Point", "coordinates": [-87.8827935524, 43.0747163443]}, "type": "Feature", "properties": {"collection_times": [{"days": "Mon-Sat", "time": "1:00pm"}, {"days": "Sun", "time": "Closed"}], "id": "5321100050", "name": "USPS COLLECTION BOX - BLUE BOX", "address": {"city": "SHOREWOOD", "state": "WI", "street": "2200 E KENWOOD BLVD", "postcode": "53211"}}},
{"geometry": {"type": "Point", "coordinates": [-87.8827935524, 43.0747163443]}, "type": "Feature", "properties": {"collection_times": [{"days": "Mon-Sat", "time": "1:00pm"}, {"days": "Sun", "time": "Closed"}], "id": "5321100051", "name": "USPS COLLECTION BOX - BLUE BOX", "address": {"city": "SHOREWOOD", "state": "WI", "street": "2200 E KENWOOD BLVD", "postcode": "53211"}}},
{"geometry": {"type": "Point", "coordinates": [-87.88913665, 43.0891823811]}, "type": "Feature", "properties": {"collection_times": [{"days": "Mon-Fri", "time": "5:00pm"}, {"days": "Sat", "time": "3:30pm"}, {"days": "Sun", "time": "Closed"}], "id": "5321100053", "name": "USPS COLLECTION BOX - BLUE BOX", "address": {"city": "SHOREWOOD", "state": "WI", "street": "1620 E CAPITOL DR", "postcode": "53211"}}},
{"geometry": {"type": "Point", "coordinates": [-87.8875275602, 43.0899226975]}, "type": "Feature", "properties": {"collection_times": [{"days": "Mon-Sat", "time": "1:00pm"}, {"days": "Sun", "time": "Closed"}], "id": "5321100055", "name": "USPS COLLECTION BOX - BLUE BOX", "address": {"city": "SHOREWOOD", "state": "WI", "street": "4035 N OAKLAND AVE", "postcode": "53211"}}},
{"geometry": {"type": "Point", "coordinates": [-87.8879241171, 43.0712226981]}, "type": "Feature", "properties": {"collection_times": [{"days": "Mon-Sat", "time": "1:00pm"}, {"days": "Sun", "time": "Closed"}], "id": "5321100063", "name": "USPS COLLECTION BOX - BLUE BOX", "address": {"city": "SHOREWOOD", "state": "WI", "street": "2900 N OAKLAND AVE", "postcode": "53211"}}},
{"geometry": {"type": "Point", "coordinates": [-87.880240598, 43.0636596507]}, "type": "Feature", "properties": {"collection_times": [{"days": "Mon-Sat", "time": "1:00pm"}, {"days": "Sun", "time": "Closed"}], "id": "5321100064", "name": "USPS COLLECTION BOX - BLUE BOX", "address": {"city": "SHOREWOOD", "state": "WI", "street": "2399 E BRADFORD AVE", "postcode": "53211"}}},
{"geometry": {"type": "Point", "coordinates": [-87.8757105253, 43.0650420851]}, "type": "Feature", "properties": {"collection_times": [{"days": "Mon-Sat", "time": "1:00pm"}, {"days": "Sun", "time": "Closed"}], "id": "5321100070", "name": "USPS COLLECTION BOX - BLUE BOX", "address": {"city": "SHOREWOOD", "state": "WI", "street": "2601 N LAKE DR", "postcode": "53211"}}},
{"geometry": {"type": "Point", "coordinates": [-87.8850835807, 43.0841499644]}, "type": "Feature", "properties": {"collection_times": [{"days": "Mon-Sat", "time": "1:00pm"}, {"days": "Sun", "time": "Closed"}], "id": "5321100074", "name": "USPS COLLECTION BOX - BLUE BOX", "address": {"city": "SHOREWOOD", "state": "WI", "street": "2001 E MENLO BLVD", "postcode": "53211"}}},
{"geometry": {"type": "Point", "coordinates": [-87.889170355, 43.089226791]}, "type": "Feature", "properties": {"collection_times": [{"days": "Mon-Fri", "time": "5:00pm"}, {"days": "Sat", "time": "1:00pm"}, {"days": "Sun", "time": "Closed"}], "id": "5321100075", "name": "USPS COLLECTION BOX - PO LOBBY", "address": {"city": "SHOREWOOD", "state": "WI", "street": "1620 E CAPITOL DR", "postcode": "53211"}}},
{"geometry": {"type": "Point", "coordinates": [-87.8775613965, 43.0894367173]}, "type": "Feature", "properties": {"collection_times": [{"days": "Mon-Sat", "time": "1:00pm"}, {"days": "Sun", "time": "Closed"}], "id": "5321100079", "name": "USPS COLLECTION BOX - BLUE BOX", "address": {"city": "SHOREWOOD", "state": "WI", "street": "4001 N DOWNER AVE", "postcode": "53211"}}},
{"geometry": {"type": "Point", "coordinates": [-87.8841778668, 43.0821719206]}, "type": "Feature", "properties": {"collection_times": [{"days": "Mon-Fri", "time": "5:00pm"}, {"days": "Sat", "time": "3:00pm"}, {"days": "Sun", "time": "Closed"}], "id": "5321100086", "name": "USPS COLLECTION BOX - BLUE BOX", "address": {"city": "SHOREWOOD", "state": "WI", "street": "3600 N HOLTON AVE", "postcode": "53211"}}},
{"geometry": {"type": "Point", "coordinates": [-87.8841778668, 43.0821719206]}, "type": "Feature", "properties": {"collection_times": [{"days": "Mon-Fri", "time": "5:00pm"}, {"days": "Sat", "time": "3:00pm"}, {"days": "Sun", "time": "Closed"}], "id": "5321100087", "name": "USPS COLLECTION BOX - BLUE BOX", "address": {"city": "SHOREWOOD", "state": "WI", "street": "3600 N HOLTON AVE", "postcode": "53211"}}},
{"geometry": {"type": "Point", "coordinates": [-87.9140757909, 43.066901349]}, "type": "Feature", "properties": {"collection_times": [{"days": "Mon-Fri", "time": "5:00pm"}, {"days": "Sat", "time": "3:00pm"}, {"days": "Sun", "time": "Closed"}], "id": "5321200002", "name": "USPS COLLECTION BOX - BLUE BOX", "address": {"city": "MILWAUKEE", "state": "WI", "street": "2650 N MARTIN LUTHER KING DR", "postcode": "53212"}}},
{"geometry": {"type": "Point", "coordinates": [-87.9098774121, 43.0503793785]}, "type": "Feature", "properties": {"collection_times": [{"days": "Mon-Fri", "time": "2:30pm"}, {"days": "Sat", "time": "1:00pm"}, {"days": "Sun", "time": "Closed"}], "id": "5321200010", "name": "USPS COLLECTION BOX - BLUE BOX", "address": {"city": "MILWAUKEE", "state": "WI", "street": "1555 N RIVERCENTER DR", "postcode": "53212"}}},
{"geometry": {"type": "Point", "coordinates": [-87.9098774121, 43.0503793785]}, "type": "Feature", "properties": {"collection_times": [{"days": "Mon-Fri", "time": "2:30pm"}, {"days": "Sat", "time": "1:00pm"}, {"days": "Sun", "time": "Closed"}], "id": "5321200011", "name": "USPS COLLECTION BOX - BLUE BOX", "address": {"city": "MILWAUKEE", "state": "WI", "street": "1555 N RIVERCENTER DR", "postcode": "53212"}}},
{"geometry": {"type": "Point", "coordinates": [-87.9112043218, 43.0528139962]}, "type": "Feature", "properties": {"collection_times": [{"days": "Mon-Sat", "time": "10:00am"}, {"days": "Sun", "time": "Closed"}], "id": "5321200015", "name": "USPS COLLECTION BOX - BLUE BOX", "address": {"city": "MILWAUKEE", "state": "WI", "street": "1718 N 1ST ST", "postcode": "53212"}}},
{"geometry": {"type": "Point", "coordinates": [-87.9186219022, 43.0099418749]}, "type": "Feature", "properties": {"collection_times": [{"days": "Mon-Sat", "time": "1:00pm"}, {"days": "Sun", "time": "Closed"}], "id": "5321200018", "name": "USPS COLLECTION BOX - BLUE BOX", "address": {"city": "MILWAUKEE", "state": "WI", "street": "1901 N 6TH ST", "postcode": "53212"}}},
{"geometry": {"type": "Point", "coordinates": [-87.8977809885, 43.062005882]}, "type": "Feature", "properties": {"collection_times": [{"days": "Mon-Sat", "time": "1:00pm"}, {"days": "Sun", "time": "Closed"}], "id": "5321200024", "name": "USPS COLLECTION BOX - BLUE BOX", "address": {"city": "MILWAUKEE", "state": "WI", "street": "2398 N HUMBOLDT BLVD", "postcode": "53212"}}},
{"geometry": {"type": "Point", "coordinates": [-87.9052982354, 43.0700681302]}, "type": "Feature", "properties": {"collection_times": [{"days": "Mon-Sat", "time": "1:00pm"}, {"days": "Sun", "time": "Closed"}], "id": "5321200033", "name": "USPS COLLECTION BOX - BLUE BOX", "address": {"city": "MILWAUKEE", "state": "WI", "street": "2825 N HOLTON ST", "postcode": "53212"}}},
{"geometry": {"type": "Point", "coordinates": [-87.8978493273, 43.0765991718]}, "type": "Feature", "properties": {"collection_times": [{"days": "Mon-Sat", "time": "1:00pm"}, {"days": "Sun", "time": "Closed"}], "id": "5321200036", "name": "USPS COLLECTION BOX - BLUE BOX", "address": {"city": "MILWAUKEE", "state": "WI", "street": "3201 N HUMBOLDT BLVD", "postcode": "53212"}}},
{"geometry": {"type": "Point", "coordinates": [-87.9141002276, 43.0712562557]}, "type": "Feature", "properties": {"collection_times": [{"days": "Mon-Sat", "time": "1:00pm"}, {"days": "Sun", "time": "Closed"}], "id": "5321200048", "name": "USPS COLLECTION BOX - BLUE BOX", "address": {"city": "MILWAUKEE", "state": "WI", "street": "2901 N MARTIN LUTHER KING DR", "postcode": "53212"}}},
{"geometry": {"type": "Point", "coordinates": [-87.906340909, 43.0893660976]}, "type": "Feature", "properties": {"collection_times": [{"days": "Mon-Fri", "time": "11:15am"}, {"days": "Sat", "time": "1:00pm"}, {"days": "Sun", "time": "Closed"}], "id": "5321200060", "name": "USPS COLLECTION BOX - BLUE BOX", "address": {"city": "MILWAUKEE", "state": "WI", "street": "360 E CAPITOL DR", "postcode": "53212"}}},
{"geometry": {"type": "Point", "coordinates": [-87.9172132401, 43.1000181726]}, "type": "Feature", "properties": {"collection_times": [{"days": "Mon-Fri", "time": "10:00am"}, {"days": "Sat", "time": "1:00pm"}, {"days": "Sun", "time": "Closed"}], "id": "5321200062", "name": "USPS COLLECTION BOX - BLUE BOX", "address": {"city": "MILWAUKEE", "state": "WI", "street": "519 W GLENDALE AVE", "postcode": "53212"}}},
{"geometry": {"type": "Point", "coordinates": [-87.9154760406, 43.0992632406]}, "type": "Feature", "properties": {"collection_times": [{"days": "Mon-Fri", "time": "10:00am"}, {"days": "Sat-Sun", "time": "Closed"}], "id": "5321200064", "name": "USPS COLLECTION BOX - BLUE BOX", "address": {"city": "MILWAUKEE", "state": "WI", "street": "525 W RIVER WOODS PKWY", "postcode": "53212"}}},
{"geometry": {"type": "Point", "coordinates": [-87.913993467, 43.066869718]}, "type": "Feature", "properties": {"collection_times": [{"days": "Mon-Fri", "time": "5:00pm"}, {"days": "Sat", "time": "2:00pm"}, {"days": "Sun", "time": "Closed"}], "id": "5321200071", "name": "USPS COLLECTION BOX - PO LOBBY", "address": {"city": "MILWAUKEE", "state": "WI", "street": "2650 N MARTIN LUTHER KING DR", "postcode": "53212"}}},
{"geometry": {"type": "Point", "coordinates": [-88.005975141, 43.060761792]}, "type": "Feature", "properties": {"collection_times": [{"days": "Mon-Fri", "time": "12:30pm"}, {"days": "Sat", "time": "11:30am"}, {"days": "Sun", "time": "Closed"}], "id": "5321300003", "name": "USPS COLLECTION BOX - BLUE BOX", "address": {"city": "WAUWATOSA", "state": "WI", "street": "7500 W NORTH AVE", "postcode": "53213"}}},
{"geometry": {"type": "Point", "coordinates": [-87.9918813679, 43.0362165764]}, "type": "Feature", "properties": {"collection_times": [{"days": "Mon-Fri", "time": "4:00pm"}, {"days": "Sat", "time": "12:30pm"}, {"days": "Sun", "time": "Closed"}], "id": "5321300006", "name": "USPS COLLECTION BOX - BLUE BOX", "address": {"city": "WAUWATOSA", "state": "WI", "street": "6326 W BLUEMOUND RD", "postcode": "53213"}}},
{"geometry": {"type": "Point", "coordinates": [-87.9918813679, 43.0362165764]}, "type": "Feature", "properties": {"collection_times": [{"days": "Mon-Fri", "time": "4:00pm"}, {"days": "Sat", "time": "12:30pm"}, {"days": "Sun", "time": "Closed"}], "id": "5321300007", "name": "USPS COLLECTION BOX - BLUE BOX", "address": {"city": "WAUWATOSA", "state": "WI", "street": "6326 W BLUEMOUND RD", "postcode": "53213"}}},
{"geometry": {"type": "Point", "coordinates": [-87.9909003673, 43.0569464892]}, "type": "Feature", "properties": {"collection_times": [{"days": "Mon-Sat", "time": "12:30pm"}, {"days": "Sun", "time": "Closed"}], "id": "5321300016", "name": "USPS COLLECTION BOX - BLUE BOX", "address": {"city": "WAUWATOSA", "state": "WI", "street": "6298 W LLOYD ST", "postcode": "53213"}}},
{"geometry": {"type": "Point", "coordinates": [-88.0164990201, 43.0527166192]}, "type": "Feature", "properties": {"collection_times": [{"days": "Mon-Sat", "time": "12:30pm"}, {"days": "Sun", "time": "Closed"}], "id": "5321300019", "name": "USPS COLLECTION BOX - BLUE BOX", "address": {"city": "WAUWATOSA", "state": "WI", "street": "1730 LUDINGTON AVE", "postcode": "53213"}}},
{"geometry": {"type": "Point", "coordinates": [-87.9983805445, 43.0465118683]}, "type": "Feature", "properties": {"collection_times": [{"days": "Mon-Sat", "time": "12:30pm"}, {"days": "Sun", "time": "Closed"}], "id": "5321300036", "name": "USPS COLLECTION BOX - BLUE BOX", "address": {"city": "WAUWATOSA", "state": "WI", "street": "6950 W STATE ST", "postcode": "53213"}}},
{"geometry": {"type": "Point", "coordinates": [-88.0048596107, 43.0515039551]}, "type": "Feature", "properties": {"collection_times": [{"days": "Mon-Sat", "time": "12:30pm"}, {"days": "Sun", "time": "Closed"}], "id": "5321300040", "name": "USPS COLLECTION BOX - BLUE BOX", "address": {"city": "WAUWATOSA", "state": "WI", "street": "7400 HARWOOD AVE", "postcode": "53213"}}},
{"geometry": {"type": "Point", "coordinates": [-88.0018742764, 43.049245228]}, "type": "Feature", "properties": {"collection_times": [{"days": "Mon-Fri", "time": "3:00pm"}, {"days": "Sat", "time": "11:30am"}, {"days": "Sun", "time": "Closed"}], "id": "5321300045", "name": "USPS COLLECTION BOX - BLUE BOX", "address": {"city": "WAUWATOSA", "state": "WI", "street": "7635 W ROZMUS WAY", "postcode": "53213"}}},
{"geometry": {"type": "Point", "coordinates": [-88.0077375473, 43.0351402979]}, "type": "Feature", "properties": {"collection_times": [{"days": "Mon-Fri", "time": "4:00pm"}, {"days": "Sat", "time": "12:30pm"}, {"days": "Sun", "time": "Closed"}], "id": "5321300050", "name": "USPS COLLECTION BOX - BLUE BOX", "address": {"city": "WAUWATOSA", "state": "WI", "street": "7635 W BLUEMOUND RD", "postcode": "53213"}}},
{"geometry": {"type": "Point", "coordinates": [-87.996469969, 43.0397220755]}, "type": "Feature", "properties": {"collection_times": [{"days": "Mon-Fri", "time": "4:00pm"}, {"days": "Sat", "time": "12:30pm"}, {"days": "Sun", "time": "Closed"}], "id": "5321300060", "name": "USPS COLLECTION BOX - BLUE BOX", "address": {"city": "WAUWATOSA", "state": "WI", "street": "6744 W WELLS ST", "postcode": "53213"}}},
{"geometry": {"type": "Point", "coordinates": [-88.0061431212, 43.048970057]}, "type": "Feature", "properties": {"collection_times": [{"days": "Mon-Fri", "time": "2:30pm"}, {"days": "Sat", "time": "12:30pm"}, {"days": "Sun", "time": "Closed"}], "id": "5321300062", "name": "USPS COLLECTION BOX - BLUE BOX", "address": {"city": "WAUWATOSA", "state": "WI", "street": "7430 W STATE ST", "postcode": "53213"}}},
{"geometry": {"type": "Point", "coordinates": [-87.9960205414, 43.0456790652]}, "type": "Feature", "properties": {"collection_times": [{"days": "Mon-Sat", "time": "12:30pm"}, {"days": "Sun", "time": "Closed"}], "id": "5321300063", "name": "USPS COLLECTION BOX - BLUE BOX", "address": {"city": "WAUWATOSA", "state": "WI", "street": "6700 W STATE ST", "postcode": "53213"}}},
{"geometry": {"type": "Point", "coordinates": [-88.0490040904, 43.0163499636]}, "type": "Feature", "properties": {"collection_times": [{"days": "Mon-Fri", "time": "3:15pm"}, {"days": "Sat", "time": "1:00pm"}, {"days": "Sun", "time": "Closed"}], "id": "5321400009", "name": "USPS COLLECTION BOX - BLUE BOX", "address": {"city": "MILWAUKEE", "state": "WI", "street": "10909 W GREENFIELD AVE", "postcode": "53214"}}},
{"geometry": {"type": "Point", "coordinates": [-87.9884744461, 43.0167580844]}, "type": "Feature", "properties": {"collection_times": [{"days": "Mon-Sat", "time": "1:00pm"}, {"days": "Sun", "time": "Closed"}], "id": "5321400013", "name": "USPS COLLECTION BOX - BLUE BOX", "address": {"city": "MILWAUKEE", "state": "WI", "street": "6027 W GREENFIELD AVE", "postcode": "53214"}}},
{"geometry": {"type": "Point", "coordinates": [-87.9737560707, 43.0174548473]}, "type": "Feature", "properties": {"collection_times": [{"days": "Mon-Sat", "time": "1:00pm"}, {"days": "Sun", "time": "Closed"}], "id": "5321400019", "name": "USPS COLLECTION BOX - BLUE BOX", "address": {"city": "MILWAUKEE", "state": "WI", "street": "4755 W BELOIT RD", "postcode": "53214"}}},
{"geometry": {"type": "Point", "coordinates": [-88.0619779197, 43.0284243741]}, "type": "Feature", "properties": {"collection_times": [{"days": "Mon-Sat", "time": "1:00pm"}, {"days": "Sun", "time": "Closed"}], "id": "5321400021", "name": "USPS COLLECTION BOX - BLUE BOX", "address": {"city": "MILWAUKEE", "state": "WI", "street": "301 S CURTIS RD", "postcode": "53214"}}},
{"geometry": {"type": "Point", "coordinates": [-88.0169761896, 43.0129612744]}, "type": "Feature", "properties": {"collection_times": [{"days": "Mon-Sat", "time": "1:00pm"}, {"days": "Sun", "time": "Closed"}], "id": "5321400029", "name": "USPS COLLECTION BOX - BLUE BOX", "address": {"city": "MILWAUKEE", "state": "WI", "street": "8398 W LAPHAM ST", "postcode": "53214"}}},
{"geometry": {"type": "Point", "coordinates": [-87.9978215884, 43.0122643036]}, "type": "Feature", "properties": {"collection_times": [{"days": "Mon-Sat", "time": "1:00pm"}, {"days": "Sun", "time": "Closed"}], "id": "5321400030", "name": "USPS COLLECTION BOX - BLUE BOX", "address": {"city": "MILWAUKEE", "state": "WI", "street": "1698 S 68TH ST", "postcode": "53214"}}},
{"geometry": {"type": "Point", "coordinates": [-88.0271980284, 43.0299351939]}, "type": "Feature", "properties": {"collection_times": [{"days": "Mon-Sat", "time": "1:00pm"}, {"days": "Sun", "time": "Closed"}], "id": "5321400047", "name": "USPS COLLECTION BOX - BLUE BOX", "address": {"city": "MILWAUKEE", "state": "WI", "street": "198 S 92ND ST", "postcode": "53214"}}},
{"geometry": {"type": "Point", "coordinates": [-88.0605876246, 43.0164741743]}, "type": "Feature", "properties": {"collection_times": [{"days": "Mon-Sat", "time": "1:00pm"}, {"days": "Sun", "time": "Closed"}], "id": "5321400049", "name": "USPS COLLECTION BOX - BLUE BOX", "address": {"city": "MILWAUKEE", "state": "WI", "street": "11834 W GREENFIELD AVE", "postcode": "53214"}}},
{"geometry": {"type": "Point", "coordinates": [-88.027915481, 43.016568811]}, "type": "Feature", "properties": {"collection_times": [{"days": "Mon-Fri", "time": "3:30pm"}, {"days": "Sat", "time": "1:00pm"}, {"days": "Sun", "time": "Closed"}], "id": "5321400058", "name": "USPS COLLECTION BOX - BLUE BOX", "address": {"city": "MILWAUKEE", "state": "WI", "street": "9220 W GREENFIELD AVE", "postcode": "53214"}}},
{"geometry": {"type": "Point", "coordinates": [-88.027915481, 43.016568811]}, "type": "Feature", "properties": {"collection_times": [{"days": "Mon-Fri", "time": "3:30pm"}, {"days": "Sat", "time": "1:00pm"}, {"days": "Sun", "time": "Closed"}], "id": "5321400060", "name": "USPS COLLECTION BOX - BLUE BOX", "address": {"city": "MILWAUKEE", "state": "WI", "street": "9220 W GREENFIELD AVE", "postcode": "53214"}}},
{"geometry": {"type": "Point", "coordinates": [-88.0056368148, 43.0166468863]}, "type": "Feature", "properties": {"collection_times": [{"days": "Mon-Fri", "time": "5:00pm"}, {"days": "Sat", "time": "3:15pm"}, {"days": "Sun", "time": "Closed"}], "id": "5321400064", "name": "USPS COLLECTION BOX - BLUE BOX", "address": {"city": "MILWAUKEE", "state": "WI", "street": "7440 W GREENFIELD AVE", "postcode": "53214"}}},
{"geometry": {"type": "Point", "coordinates": [-88.0056368148, 43.0166468863]}, "type": "Feature", "properties": {"collection_times": [{"days": "Mon-Fri", "time": "5:00pm"}, {"days": "Sat", "time": "3:15pm"}, {"days": "Sun", "time": "Closed"}], "id": "5321400065", "name": "USPS COLLECTION BOX - BLUE BOX", "address": {"city": "MILWAUKEE", "state": "WI", "street": "7440 W GREENFIELD AVE", "postcode": "53214"}}},
{"geometry": {"type": "Point", "coordinates": [-88.0059493865, 43.0167038076]}, "type": "Feature", "properties": {"collection_times": [{"days": "Mon-Fri", "time": "5:00pm"}, {"days": "Sat", "time": "3:15pm"}, {"days": "Sun", "time": "Closed"}], "id": "5321400066", "name": "USPS COLLECTION BOX - BLUE BOX", "address": {"city": "MILWAUKEE", "state": "WI", "street": "1398 S 75TH ST", "postcode": "53214"}}},
{"geometry": {"type": "Point", "coordinates": [-88.0056368148, 43.0166468863]}, "type": "Feature", "properties": {"collection_times": [{"days": "Mon-Fri", "time": "5:00pm"}, {"days": "Sat", "time": "3:15pm"}, {"days": "Sun", "time": "Closed"}], "id": "5321400078", "name": "USPS COLLECTION BOX - PO LOBBY", "address": {"city": "MILWAUKEE", "state": "WI", "street": "7440 W GREENFIELD AVE", "postcode": "53214"}}},
{"geometry": {"type": "Point", "coordinates": [-87.9857275817, 43.026086188]}, "type": "Feature", "properties": {"collection_times": [{"days": "Mon-Sat", "time": "1:00pm"}, {"days": "Sun", "time": "Closed"}], "id": "5321400082", "name": "USPS COLLECTION BOX - BLUE BOX", "address": {"city": "MILWAUKEE", "state": "WI", "street": "601 S HAWLEY RD", "postcode": "53214"}}},
{"geometry": {"type": "Point", "coordinates": [-87.9479025026, 43.01499311]}, "type": "Feature", "properties": {"collection_times": [{"days": "Mon-Sat", "time": "12:00pm"}, {"days": "Sun", "time": "Closed"}], "id": "5321500001", "name": "USPS COLLECTION BOX - BLUE BOX", "address": {"city": "MILWAUKEE", "state": "WI", "street": "1545 S LAYTON BLVD", "postcode": "53215"}}},
{"geometry": {"type": "Point", "coordinates": [-87.9405471899, 42.9883914174]}, "type": "Feature", "properties": {"collection_times": [{"days": "Mon-Sat", "time": "12:00pm"}, {"days": "Sun", "time": "Closed"}], "id": "5321500003", "name": "USPS COLLECTION BOX - BLUE BOX", "address": {"city": "MILWAUKEE", "state": "WI", "street": "2025 W OKLAHOMA AVE", "postcode": "53215"}}},
{"geometry": {"type": "Point", "coordinates": [-87.9506637543, 42.9912801896]}, "type": "Feature", "properties": {"collection_times": [{"days": "Mon-Sat", "time": "12:00pm"}, {"days": "Sun", "time": "Closed"}], "id": "5321500009", "name": "USPS COLLECTION BOX - BLUE BOX", "address": {"city": "MILWAUKEE", "state": "WI", "street": "2901 W KINNICKINNIC RIVER PKWY", "postcode": "53215"}}},
{"geometry": {"type": "Point", "coordinates": [-87.9286759469, 42.9954315623]}, "type": "Feature", "properties": {"collection_times": [{"days": "Mon-Sat", "time": "12:00pm"}, {"days": "Sun", "time": "Closed"}], "id": "5321500024", "name": "USPS COLLECTION BOX - BLUE BOX", "address": {"city": "MILWAUKEE", "state": "WI", "street": "2701 S 13TH ST", "postcode": "53215"}}},
{"geometry": {"type": "Point", "coordinates": [-87.9489647996, 43.0004498121]}, "type": "Feature", "properties": {"collection_times": [{"days": "Mon-Sat", "time": "12:00pm"}, {"days": "Sun", "time": "Closed"}], "id": "5321500031", "name": "USPS COLLECTION BOX - BLUE BOX", "address": {"city": "MILWAUKEE", "state": "WI", "street": "2740 W FOREST HOME AVE", "postcode": "53215"}}},
{"geometry": {"type": "Point", "coordinates": [-87.9577569121, 43.0048751999]}, "type": "Feature", "properties": {"collection_times": [{"days": "Mon-Sat", "time": "12:00pm"}, {"days": "Sun", "time": "Closed"}], "id": "5321500033", "name": "USPS COLLECTION BOX - BLUE BOX", "address": {"city": "MILWAUKEE", "state": "WI", "street": "2198 S 35TH ST", "postcode": "53215"}}},
{"geometry": {"type": "Point", "coordinates": [-87.958113781, 42.988381002]}, "type": "Feature", "properties": {"collection_times": [{"days": "Mon-Sat", "time": "12:00pm"}, {"days": "Sun", "time": "Closed"}], "id": "5321500059", "name": "USPS COLLECTION BOX - BLUE BOX", "address": {"city": "MILWAUKEE", "state": "WI", "street": "3101 S 35TH ST", "postcode": "53215"}}},
{"geometry": {"type": "Point", "coordinates": [-87.9193505715, 42.9883921393]}, "type": "Feature", "properties": {"collection_times": [{"days": "Mon-Sat", "time": "12:00pm"}, {"days": "Sun", "time": "Closed"}], "id": "5321500068", "name": "USPS COLLECTION BOX - BLUE BOX", "address": {"city": "MILWAUKEE", "state": "WI", "street": "620 W OKLAHOMA AVE", "postcode": "53215"}}},
{"geometry": {"type": "Point", "coordinates": [-87.9188457215, 43.0028243134]}, "type": "Feature", "properties": {"collection_times": [{"days": "Mon-Sat", "time": "12:00pm"}, {"days": "Sun", "time": "Closed"}], "id": "5321500073", "name": "USPS COLLECTION BOX - BLUE BOX", "address": {"city": "MILWAUKEE", "state": "WI", "street": "2300 S 7TH ST", "postcode": "53215"}}},
{"geometry": {"type": "Point", "coordinates": [-87.92891956, 42.9825930466]}, "type": "Feature", "properties": {"collection_times": [{"days": "Mon-Sat", "time": "12:00pm"}, {"days": "Sun", "time": "Closed"}], "id": "5321500076", "name": "USPS COLLECTION BOX - BLUE BOX", "address": {"city": "MILWAUKEE", "state": "WI", "street": "3401 S 13TH ST", "postcode": "53215"}}},
{"geometry": {"type": "Point", "coordinates": [-87.9634683972, 43.0212119304]}, "type": "Feature", "properties": {"collection_times": [{"days": "Mon-Sat", "time": "12:00pm"}, {"days": "Sun", "time": "Closed"}], "id": "5321500081", "name": "USPS COLLECTION BOX - BLUE BOX", "address": {"city": "MILWAUKEE", "state": "WI", "street": "901 S 40TH ST", "postcode": "53215"}}},
{"geometry": {"type": "Point", "coordinates": [-87.9558158146, 42.9960481836]}, "type": "Feature", "properties": {"collection_times": [{"days": "Mon-Sat", "time": "12:00pm"}, {"days": "Sun", "time": "Closed"}], "id": "5321500083", "name": "USPS COLLECTION BOX - BLUE BOX", "address": {"city": "MILWAUKEE", "state": "WI", "street": "3301 W FOREST HOME AVE", "postcode": "53215"}}},
{"geometry": {"type": "Point", "coordinates": [-87.9310950215, 43.0775929322]}, "type": "Feature", "properties": {"collection_times": [{"days": "Mon-Sat", "time": "12:00pm"}, {"days": "Sun", "time": "Closed"}], "id": "5321500084", "name": "USPS COLLECTION BOX - BLUE BOX", "address": {"city": "MILWAUKEE", "state": "WI", "street": "3237 S 16TH ST", "postcode": "53215"}}},
{"geometry": {"type": "Point", "coordinates": [-87.9506648764, 42.9886528181]}, "type": "Feature", "properties": {"collection_times": [{"days": "Mon-Sat", "time": "12:00pm"}, {"days": "Sun", "time": "Closed"}], "id": "5321500085", "name": "USPS COLLECTION BOX - BLUE BOX", "address": {"city": "MILWAUKEE", "state": "WI", "street": "2900 W OKLAHOMA AVE", "postcode": "53215"}}},
{"geometry": {"type": "Point", "coordinates": [-87.969379291, 43.0843085377]}, "type": "Feature", "properties": {"collection_times": [{"days": "Mon-Sat", "time": "1:00pm"}, {"days": "Sun", "time": "Closed"}], "id": "5321600013", "name": "USPS COLLECTION BOX - BLUE BOX", "address": {"city": "MILWAUKEE", "state": "WI", "street": "4451 W FOND DU LAC AVE", "postcode": "53216"}}},
{"geometry": {"type": "Point", "coordinates": [-87.9808354003, 43.0900536145]}, "type": "Feature", "properties": {"collection_times": [{"days": "Mon-Fri", "time": "4:30pm"}, {"days": "Sat", "time": "1:00pm"}, {"days": "Sun", "time": "Closed"}], "id": "5321600024", "name": "USPS COLLECTION BOX - BLUE BOX", "address": {"city": "MILWAUKEE", "state": "WI", "street": "5408 W CAPITOL DR", "postcode": "53216"}}},
{"geometry": {"type": "Point", "coordinates": [-87.984351919, 43.0825920816]}, "type": "Feature", "properties": {"collection_times": [{"days": "Mon-Sat", "time": "1:00pm"}, {"days": "Sun", "time": "Closed"}], "id": "5321600032", "name": "USPS COLLECTION BOX - BLUE BOX", "address": {"city": "MILWAUKEE", "state": "WI", "street": "3498 N 57TH ST", "postcode": "53216"}}},
{"geometry": {"type": "Point", "coordinates": [-87.9571473268, 43.0886323052]}, "type": "Feature", "properties": {"collection_times": [{"days": "Mon-Fri", "time": "5:00pm"}, {"days": "Sat", "time": "2:00pm"}, {"days": "Sun", "time": "Closed"}], "id": "5321600034", "name": "USPS COLLECTION BOX - BLUE BOX", "address": {"city": "MILWAUKEE", "state": "WI", "street": "3931 N 35TH ST", "postcode": "53216"}}},
{"geometry": {"type": "Point", "coordinates": [-87.9870986513, 43.089893696]}, "type": "Feature", "properties": {"collection_times": [{"days": "Mon-Fri", "time": "4:15pm"}, {"days": "Sat", "time": "1:00pm"}, {"days": "Sun", "time": "Closed"}], "id": "5321600036", "name": "USPS COLLECTION BOX - BLUE BOX", "address": {"city": "MILWAUKEE", "state": "WI", "street": "3999 N 60TH ST", "postcode": "53216"}}},
{"geometry": {"type": "Point", "coordinates": [-87.9584817045, 43.0760834765]}, "type": "Feature", "properties": {"collection_times": [{"days": "Mon-Fri", "time": "4:15pm"}, {"days": "Sat", "time": "1:00pm"}, {"days": "Sun", "time": "Closed"}], "id": "5321600052", "name": "USPS COLLECTION BOX - BLUE BOX", "address": {"city": "MILWAUKEE", "state": "WI", "street": "3536 W FOND DU LAC AVE", "postcode": "53216"}}},
{"geometry": {"type": "Point", "coordinates": [-87.9797240707, 43.0754111038]}, "type": "Feature", "properties": {"collection_times": [{"days": "Mon-Fri", "time": "5:00pm"}, {"days": "Sat", "time": "1:00pm"}, {"days": "Sun", "time": "Closed"}], "id": "5321600060", "name": "USPS COLLECTION BOX - BLUE BOX", "address": {"city": "MILWAUKEE", "state": "WI", "street": "3101 N 53RD ST", "postcode": "53216"}}},
{"geometry": {"type": "Point", "coordinates": [-87.9571473268, 43.0886323052]}, "type": "Feature", "properties": {"collection_times": [{"days": "Mon-Fri", "time": "5:00pm"}, {"days": "Sat", "time": "4:00pm"}, {"days": "Sun", "time": "Closed"}], "id": "5321600061", "name": "USPS COLLECTION BOX - BLUE BOX", "address": {"city": "MILWAUKEE", "state": "WI", "street": "3931 N 35TH ST", "postcode": "53216"}}},
{"geometry": {"type": "Point", "coordinates": [-87.9116944945, 43.1198470434]}, "type": "Feature", "properties": {"collection_times": [{"days": "Mon-Fri", "time": "6:00pm"}, {"days": "Sat", "time": "4:00pm"}, {"days": "Sun", "time": "Closed"}], "id": "5321700000", "name": "USPS COLLECTION BOX - BLUE BOX", "address": {"city": "MILWAUKEE", "state": "WI", "street": "5651 N LYDELL AVE", "postcode": "53217"}}},
{"geometry": {"type": "Point", "coordinates": [-87.9116944945, 43.1198470434]}, "type": "Feature", "properties": {"collection_times": [{"days": "Mon-Fri", "time": "6:00pm"}, {"days": "Sat", "time": "4:00pm"}, {"days": "Sun", "time": "Closed"}], "id": "5321700001", "name": "USPS COLLECTION BOX - BLUE BOX", "address": {"city": "MILWAUKEE", "state": "WI", "street": "5651 N LYDELL AVE", "postcode": "53217"}}},
{"geometry": {"type": "Point", "coordinates": [-87.9116944945, 43.1198470434]}, "type": "Feature", "properties": {"collection_times": [{"days": "Mon-Fri", "time": "6:00pm"}, {"days": "Sat", "time": "4:00pm"}, {"days": "Sun", "time": "Closed"}], "id": "5321700002", "name": "USPS COLLECTION BOX - BLUE BOX", "address": {"city": "MILWAUKEE", "state": "WI", "street": "5651 N LYDELL AVE", "postcode": "53217"}}},
{"geometry": {"type": "Point", "coordinates": [-87.9116944945, 43.1198470434]}, "type": "Feature", "properties": {"collection_times": [{"days": "Mon-Fri", "time": "6:00pm"}, {"days": "Sat", "time": "4:00pm"}, {"days": "Sun", "time": "Closed"}], "id": "5321700008", "name": "USPS COLLECTION BOX - PO LOBBY", "address": {"city": "MILWAUKEE", "state": "WI", "street": "5651 N LYDELL AVE", "postcode": "53217"}}},
{"geometry": {"type": "Point", "coordinates": [-87.9166650102, 43.1106879325]}, "type": "Feature", "properties": {"collection_times": [{"days": "Mon-Fri", "time": "5:30pm"}, {"days": "Sat", "time": "10:30am"}, {"days": "Sun", "time": "Closed"}], "id": "5321700012", "name": "USPS COLLECTION BOX - BLUE BOX", "address": {"city": "MILWAUKEE", "state": "WI", "street": "5150 N PORT WASHINGTON RD", "postcode": "53217"}}},
{"geometry": {"type": "Point", "coordinates": [-87.9150408901, 43.1785421752]}, "type": "Feature", "properties": {"collection_times": [{"days": "Mon-Fri", "time": "5:00pm"}, {"days": "Sat", "time": "12:00pm"}, {"days": "Sun", "time": "Closed"}], "id": "5321700025", "name": "USPS COLLECTION BOX - BLUE BOX", "address": {"city": "MILWAUKEE", "state": "WI", "street": "601 W GLENCOE PL", "postcode": "53217"}}},
{"geometry": {"type": "Point", "coordinates": [-87.9019201603, 43.1548033723]}, "type": "Feature", "properties": {"collection_times": [{"days": "Mon-Sat", "time": "12:00pm"}, {"days": "Sun", "time": "Closed"}], "id": "5321700030", "name": "USPS COLLECTION BOX - BLUE BOX", "address": {"city": "MILWAUKEE", "state": "WI", "street": "7598 N SANTA MONICA BLVD", "postcode": "53217"}}},
{"geometry": {"type": "Point", "coordinates": [-87.9133367624, 43.1460035963]}, "type": "Feature", "properties": {"collection_times": [{"days": "Mon-Fri", "time": "4:30pm"}, {"days": "Sat", "time": "11:30am"}, {"days": "Sun", "time": "Closed"}], "id": "5321700032", "name": "USPS COLLECTION BOX - BLUE BOX", "address": {"city": "MILWAUKEE", "state": "WI", "street": "7102 N PORT WASHINGTON RD", "postcode": "53217"}}},
{"geometry": {"type": "Point", "coordinates": [-87.9163755066, 43.1210199715]}, "type": "Feature", "properties": {"collection_times": [{"days": "Mon-Fri", "time": "4:00pm"}, {"days": "Sat", "time": "11:00am"}, {"days": "Sun", "time": "Closed"}], "id": "5321700034", "name": "USPS COLLECTION BOX - BLUE BOX", "address": {"city": "MILWAUKEE", "state": "WI", "street": "5800 N PORT WASHINGTON RD", "postcode": "53217"}}},
{"geometry": {"type": "Point", "coordinates": [-87.9000074103, 43.1132582143]}, "type": "Feature", "properties": {"collection_times": [{"days": "Mon-Fri", "time": "5:00pm"}, {"days": "Sat", "time": "11:00am"}, {"days": "Sun", "time": "Closed"}], "id": "5321700038", "name": "USPS COLLECTION BOX - BLUE BOX", "address": {"city": "MILWAUKEE", "state": "WI", "street": "5300 N MARLBOROUGH DR", "postcode": "53217"}}},
{"geometry": {"type": "Point", "coordinates": [-87.9168064951, 43.1178429589]}, "type": "Feature", "properties": {"collection_times": [{"days": "Mon-Fri", "time": "5:30pm"}, {"days": "Sat", "time": "10:00am"}, {"days": "Sun", "time": "Closed"}], "id": "5321700046", "name": "USPS COLLECTION BOX - BLUE BOX", "address": {"city": "MILWAUKEE", "state": "WI", "street": "5555 N PORT WASHINGTON RD", "postcode": "53217"}}},
{"geometry": {"type": "Point", "coordinates": [-87.911789574, 43.1623002688]}, "type": "Feature", "properties": {"collection_times": [{"days": "Mon-Fri", "time": "5:00pm"}, {"days": "Sat", "time": "12:00pm"}, {"days": "Sun", "time": "Closed"}], "id": "5321700053", "name": "USPS COLLECTION BOX - BLUE BOX", "address": {"city": "MILWAUKEE", "state": "WI", "street": "8001 N PORT WASHINGTON RD", "postcode": "53217"}}},
{"geometry": {"type": "Point", "coordinates": [-87.9127903907, 43.1751375281]}, "type": "Feature", "properties": {"collection_times": [{"days": "Mon-Fri", "time": "5:00pm"}, {"days": "Sat", "time": "11:30am"}, {"days": "Sun", "time": "Closed"}], "id": "5321700059", "name": "USPS COLLECTION BOX - BLUE BOX", "address": {"city": "MILWAUKEE", "state": "WI", "street": "8709 N PORT WASHINGTON RD", "postcode": "53217"}}},
{"geometry": {"type": "Point", "coordinates": [-87.9131838398, 43.1777587996]}, "type": "Feature", "properties": {"collection_times": [{"days": "Mon-Fri", "time": "5:00pm"}, {"days": "Sat", "time": "11:00am"}, {"days": "Sun", "time": "Closed"}], "id": "5321700066", "name": "USPS COLLECTION BOX - BLUE BOX", "address": {"city": "MILWAUKEE", "state": "WI", "street": "8850 N PORT WASHINGTON RD", "postcode": "53217"}}},
{"geometry": {"type": "Point", "coordinates": [-87.9161682621, 43.1583331012]}, "type": "Feature", "properties": {"collection_times": [{"days": "Mon-Sat", "time": "12:00pm"}, {"days": "Sun", "time": "Closed"}], "id": "5321700068", "name": "USPS COLLECTION BOX - BLUE BOX", "address": {"city": "MILWAUKEE", "state": "WI", "street": "8400 N SANTA MONICA BLVD", "postcode": "53217"}}},
{"geometry": {"type": "Point", "coordinates": [-87.9116944945, 43.1198470434]}, "type": "Feature", "properties": {"collection_times": [{"days": "Mon-Fri", "time": "6:00pm"}, {"days": "Sat", "time": "4:00pm"}, {"days": "Sun", "time": "Closed"}], "id": "5321700072", "name": "USPS COLLECTION BOX - APC", "address": {"city": "MILWAUKEE", "state": "WI", "street": "5651 N LYDELL AVE", "postcode": "53217"}}},
{"geometry": {"type": "Point", "coordinates": [-87.9133367624, 43.1460035963]}, "type": "Feature", "properties": {"collection_times": [{"days": "Mon-Fri", "time": "4:30pm"}, {"days": "Sat", "time": "11:30am"}, {"days": "Sun", "time": "Closed"}], "id": "5321700073", "name": "USPS COLLECTION BOX - BLUE BOX", "address": {"city": "MILWAUKEE", "state": "WI", "street": "7102 N PORT WASHINGTON RD", "postcode": "53217"}}},
{"geometry": {"type": "Point", "coordinates": [-87.9047519794, 43.1185592514]}, "type": "Feature", "properties": {"collection_times": [{"days": "Mon-Fri", "time": "5:00pm"}, {"days": "Sat", "time": "11:00am"}, {"days": "Sun", "time": "Closed"}], "id": "5321700076", "name": "USPS COLLECTION BOX - BLUE BOX", "address": {"city": "MILWAUKEE", "state": "WI", "street": "424 E SILVER SPRING DR", "postcode": "53217"}}},
{"geometry": {"type": "Point", "coordinates": [-87.9931246578, 43.1031129059]}, "type": "Feature", "properties": {"collection_times": [{"days": "Mon-Fri", "time": "5:00pm"}, {"days": "Sat", "time": "4:00pm"}, {"days": "Sun", "time": "Closed"}], "id": "5321800002", "name": "USPS COLLECTION BOX - BLUE BOX", "address": {"city": "MILWAUKEE", "state": "WI", "street": "6501 W FOND DU LAC AVE", "postcode": "53218"}}},
{"geometry": {"type": "Point", "coordinates": [-88.0062925858, 43.1062753074]}, "type": "Feature", "properties": {"collection_times": [{"days": "Mon-Fri", "time": "1:30pm"}, {"days": "Sat", "time": "1:00pm"}, {"days": "Sun", "time": "Closed"}], "id": "5321800019", "name": "USPS COLLECTION BOX - BLUE BOX", "address": {"city": "MILWAUKEE", "state": "WI", "street": "4863 N 76TH ST", "postcode": "53218"}}},
{"geometry": {"type": "Point", "coordinates": [-87.9948961731, 43.1127211412]}, "type": "Feature", "properties": {"collection_times": [{"days": "Mon-Sat", "time": "1:00pm"}, {"days": "Sun", "time": "Closed"}], "id": "5321800022", "name": "USPS COLLECTION BOX - BLUE BOX", "address": {"city": "MILWAUKEE", "state": "WI", "street": "8000 W CONGRESS ST", "postcode": "53218"}}},
{"geometry": {"type": "Point", "coordinates": [-87.9799412455, 43.1121613247]}, "type": "Feature", "properties": {"collection_times": [{"days": "Mon-Sat", "time": "1:00pm"}, {"days": "Sun", "time": "Closed"}], "id": "5321800033", "name": "USPS COLLECTION BOX - BLUE BOX", "address": {"city": "MILWAUKEE", "state": "WI", "street": "5200 N 54TH ST", "postcode": "53218"}}},
{"geometry": {"type": "Point", "coordinates": [-87.9908211031, 43.119564012]}, "type": "Feature", "properties": {"collection_times": [{"days": "Mon-Sat", "time": "1:00pm"}, {"days": "Sun", "time": "Closed"}], "id": "5321800040", "name": "USPS COLLECTION BOX - BLUE BOX", "address": {"city": "MILWAUKEE", "state": "WI", "street": "6354 W SILVER SPRING DR", "postcode": "53218"}}},
{"geometry": {"type": "Point", "coordinates": [-88.0056983287, 43.1333315927]}, "type": "Feature", "properties": {"collection_times": [{"days": "Mon-Sat", "time": "1:00pm"}, {"days": "Sun", "time": "Closed"}], "id": "5321800042", "name": "USPS COLLECTION BOX - BLUE BOX", "address": {"city": "MILWAUKEE", "state": "WI", "street": "6330 N 76TH ST", "postcode": "53218"}}},
{"geometry": {"type": "Point", "coordinates": [-87.9936806238, 43.1339103887]}, "type": "Feature", "properties": {"collection_times": [{"days": "Mon-Fri", "time": "1:30pm"}, {"days": "Sat", "time": "1:00pm"}, {"days": "Sun", "time": "Closed"}], "id": "5321800049", "name": "USPS COLLECTION BOX - BLUE BOX", "address": {"city": "MILWAUKEE", "state": "WI", "street": "6601 W MILL RD", "postcode": "53218"}}},
{"geometry": {"type": "Point", "coordinates": [-87.9931246578, 43.1031129059]}, "type": "Feature", "properties": {"collection_times": [{"days": "Mon-Fri", "time": "5:00pm"}, {"days": "Sat", "time": "2:00pm"}, {"days": "Sun", "time": "Closed"}], "id": "5321800056", "name": "USPS COLLECTION BOX - BLUE BOX", "address": {"city": "MILWAUKEE", "state": "WI", "street": "6501 W FOND DU LAC AVE", "postcode": "53218"}}},
{"geometry": {"type": "Point", "coordinates": [-87.9685288965, 43.0030160016]}, "type": "Feature", "properties": {"collection_times": [{"days": "Mon-Fri", "time": "5:00pm"}, {"days": "Sat", "time": "3:00pm"}, {"days": "Sun", "time": "Closed"}], "id": "5321900000", "name": "USPS COLLECTION BOX - BLUE BOX", "address": {"city": "MILWAUKEE", "state": "WI", "street": "4300 W LINCOLN AVE", "postcode": "53219"}}},
{"geometry": {"type": "Point", "coordinates": [-87.9886012991, 42.9885490284]}, "type": "Feature", "properties": {"collection_times": [{"days": "Mon-Sat", "time": "12:00pm"}, {"days": "Sun", "time": "Closed"}], "id": "5321900008", "name": "USPS COLLECTION BOX - BLUE BOX", "address": {"city": "MILWAUKEE", "state": "WI", "street": "6030 W OKLAHOMA AVE", "postcode": "53219"}}},
{"geometry": {"type": "Point", "coordinates": [-88.004920068, 43.00284678]}, "type": "Feature", "properties": {"collection_times": [{"days": "Mon-Sat", "time": "12:00pm"}, {"days": "Sun", "time": "Closed"}], "id": "5321900012", "name": "USPS COLLECTION BOX - BLUE BOX", "address": {"city": "MILWAUKEE", "state": "WI", "street": "7330 W LINCOLN AVE", "postcode": "53219"}}},
{"geometry": {"type": "Point", "coordinates": [-88.0085220517, 42.9965212054]}, "type": "Feature", "properties": {"collection_times": [{"days": "Mon-Sat", "time": "12:00pm"}, {"days": "Sun", "time": "Closed"}], "id": "5321900014", "name": "USPS COLLECTION BOX - BLUE BOX", "address": {"city": "MILWAUKEE", "state": "WI", "street": "7621 W BELOIT RD", "postcode": "53219"}}},
{"geometry": {"type": "Point", "coordinates": [-87.9842015983, 43.0555567726]}, "type": "Feature", "properties": {"collection_times": [{"days": "Mon-Sat", "time": "12:00pm"}, {"days": "Sun", "time": "Closed"}], "id": "5321900021", "name": "USPS COLLECTION BOX - BLUE BOX", "address": {"city": "MILWAUKEE", "state": "WI", "street": "1901 S 57TH ST", "postcode": "53219"}}},
{"geometry": {"type": "Point", "coordinates": [-87.9976387185, 42.9956379013]}, "type": "Feature", "properties": {"collection_times": [{"days": "Mon-Sat", "time": "12:00pm"}, {"days": "Sun", "time": "Closed"}], "id": "5321900022", "name": "USPS COLLECTION BOX - BLUE BOX", "address": {"city": "MILWAUKEE", "state": "WI", "street": "2699 S 68TH ST", "postcode": "53219"}}},
{"geometry": {"type": "Point", "coordinates": [-87.9830827832, 42.9957209421]}, "type": "Feature", "properties": {"collection_times": [{"days": "Mon-Sat", "time": "12:00pm"}, {"days": "Sun", "time": "Closed"}], "id": "5321900024", "name": "USPS COLLECTION BOX - BLUE BOX", "address": {"city": "MILWAUKEE", "state": "WI", "street": "5500 W CLEVELAND AVE", "postcode": "53219"}}},
{"geometry": {"type": "Point", "coordinates": [-87.9930365107, 42.9955711029]}, "type": "Feature", "properties": {"collection_times": [{"days": "Mon-Sat", "time": "12:00pm"}, {"days": "Sun", "time": "Closed"}], "id": "5321900045", "name": "USPS COLLECTION BOX - BLUE BOX", "address": {"city": "MILWAUKEE", "state": "WI", "street": "3100 S 77TH ST", "postcode": "53219"}}},
{"geometry": {"type": "Point", "coordinates": [-87.969030141, 43.002937198]}, "type": "Feature", "properties": {"collection_times": [{"days": "Mon-Fri", "time": "5:00pm"}, {"days": "Sat", "time": "3:00pm"}, {"days": "Sun", "time": "Closed"}], "id": "5321900047", "name": "USPS COLLECTION BOX - PO LOBBY", "address": {"city": "MILWAUKEE", "state": "WI", "street": "4300 W LINCOLN AVE", "postcode": "53219"}}},
{"geometry": {"type": "Point", "coordinates": [-87.969030141, 43.002937198]}, "type": "Feature", "properties": {"collection_times": [{"days": "Mon-Fri", "time": "5:00pm"}, {"days": "Sat", "time": "3:00pm"}, {"days": "Sun", "time": "Closed"}], "id": "5321900048", "name": "USPS COLLECTION BOX - PO LOBBY", "address": {"city": "MILWAUKEE", "state": "WI", "street": "4300 W LINCOLN AVE", "postcode": "53219"}}},
{"geometry": {"type": "Point", "coordinates": [-87.9717166387, 42.988475545]}, "type": "Feature", "properties": {"collection_times": [{"days": "Mon-Sat", "time": "12:00pm"}, {"days": "Sun", "time": "Closed"}], "id": "5321900052", "name": "USPS COLLECTION BOX - BLUE BOX", "address": {"city": "MILWAUKEE", "state": "WI", "street": "3099 S 46TH ST", "postcode": "53219"}}},
{"geometry": {"type": "Point", "coordinates": [-87.9685288965, 43.0030160016]}, "type": "Feature", "properties": {"collection_times": [{"days": "Mon-Fri", "time": "5:00pm"}, {"days": "Sat", "time": "3:00pm"}, {"days": "Sun", "time": "Closed"}], "id": "5321900054", "name": "USPS COLLECTION BOX - APC", "address": {"city": "MILWAUKEE", "state": "WI", "street": "4300 W LINCOLN AVE", "postcode": "53219"}}},
{"geometry": {"type": "Point", "coordinates": [-88.0055575565, 42.9656566231]}, "type": "Feature", "properties": {"collection_times": [{"days": "Mon-Fri", "time": "5:00pm"}, {"days": "Sat", "time": "3:00pm"}, {"days": "Sun", "time": "Closed"}], "id": "5322000005", "name": "USPS COLLECTION BOX - BLUE BOX", "address": {"city": "GREENFIELD", "state": "WI", "street": "7353 W FOREST HOME AVE", "postcode": "53220"}}},
{"geometry": {"type": "Point", "coordinates": [-88.0081732265, 42.9727853606]}, "type": "Feature", "properties": {"collection_times": [{"days": "Mon-Fri", "time": "2:00pm"}, {"days": "Sat", "time": "1:00pm"}, {"days": "Sun", "time": "Closed"}], "id": "5322000006", "name": "USPS COLLECTION BOX - BLUE BOX", "address": {"city": "GREENFIELD", "state": "WI", "street": "3953 S 76TH ST", "postcode": "53220"}}},
{"geometry": {"type": "Point", "coordinates": [-87.9704437856, 42.9581034301]}, "type": "Feature", "properties": {"collection_times": [{"days": "Mon-Sat", "time": "1:00pm"}, {"days": "Sun", "time": "Closed"}], "id": "5322000018", "name": "USPS COLLECTION BOX - BLUE BOX", "address": {"city": "GREENFIELD", "state": "WI", "street": "4448 W LOOMIS RD", "postcode": "53220"}}},
{"geometry": {"type": "Point", "coordinates": [-87.9812196093, 42.9811279576]}, "type": "Feature", "properties": {"collection_times": [{"days": "Mon-Sat", "time": "1:00pm"}, {"days": "Sun", "time": "Closed"}], "id": "5322000021", "name": "USPS COLLECTION BOX - BLUE BOX", "address": {"city": "GREENFIELD", "state": "WI", "street": "5302 W FOREST HOME AVE", "postcode": "53220"}}},
{"geometry": {"type": "Point", "coordinates": [-87.9779660067, 42.9738434589]}, "type": "Feature", "properties": {"collection_times": [{"days": "Mon-Sat", "time": "1:00pm"}, {"days": "Sun", "time": "Closed"}], "id": "5322000024", "name": "USPS COLLECTION BOX - BLUE BOX", "address": {"city": "GREENFIELD", "state": "WI", "street": "5099 W HOWARD AVE", "postcode": "53220"}}},
{"geometry": {"type": "Point", "coordinates": [-88.0084818311, 42.9570032782]}, "type": "Feature", "properties": {"collection_times": [{"days": "Mon-Fri", "time": "2:00pm"}, {"days": "Sat", "time": "1:00pm"}, {"days": "Sun", "time": "Closed"}], "id": "5322000039", "name": "USPS COLLECTION BOX - BLUE BOX", "address": {"city": "GREENFIELD", "state": "WI", "street": "4811 S 76TH ST", "postcode": "53220"}}},
{"geometry": {"type": "Point", "coordinates": [-88.0084818311, 42.9570032782]}, "type": "Feature", "properties": {"collection_times": [{"days": "Mon-Fri", "time": "2:00pm"}, {"days": "Sat", "time": "1:00pm"}, {"days": "Sun", "time": "Closed"}], "id": "5322000040", "name": "USPS COLLECTION BOX - BLUE BOX", "address": {"city": "GREENFIELD", "state": "WI", "street": "4811 S 76TH ST", "postcode": "53220"}}},
{"geometry": {"type": "Point", "coordinates": [-88.0055575565, 42.9656566231]}, "type": "Feature", "properties": {"collection_times": [{"days": "Mon-Fri", "time": "5:00pm"}, {"days": "Sat", "time": "3:00pm"}, {"days": "Sun", "time": "Closed"}], "id": "5322000042", "name": "USPS COLLECTION BOX - APC", "address": {"city": "GREENFIELD", "state": "WI", "street": "7353 W FOREST HOME AVE", "postcode": "53220"}}},
{"geometry": {"type": "Point", "coordinates": [-87.9725593223, 42.9561089905]}, "type": "Feature", "properties": {"collection_times": [{"days": "Mon-Sat", "time": "1:00pm"}, {"days": "Sun", "time": "Closed"}], "id": "5322000044", "name": "USPS COLLECTION BOX - BLUE BOX", "address": {"city": "GREENFIELD", "state": "WI", "street": "4600 W LOOMIS RD", "postcode": "53220"}}},
{"geometry": {"type": "Point", "coordinates": [-88.0055575565, 42.9656566231]}, "type": "Feature", "properties": {"collection_times": [{"days": "Mon-Fri", "time": "5:00pm"}, {"days": "Sat", "time": "3:00pm"}, {"days": "Sun", "time": "Closed"}], "id": "5322000045", "name": "USPS COLLECTION BOX - PO LOBBY", "address": {"city": "GREENFIELD", "state": "WI", "street": "7353 W FOREST HOME AVE", "postcode": "53220"}}},
{"geometry": {"type": "Point", "coordinates": [-87.9296925064, 42.9313944581]}, "type": "Feature", "properties": {"collection_times": [{"days": "Mon-Sat", "time": "1:00pm"}, {"days": "Sun", "time": "Closed"}], "id": "5322100002", "name": "USPS COLLECTION BOX - BLUE BOX", "address": {"city": "MILWAUKEE", "state": "WI", "street": "6251 S 13TH ST", "postcode": "53221"}}},
{"geometry": {"type": "Point", "coordinates": [-87.9462117937, 42.9595161854]}, "type": "Feature", "properties": {"collection_times": [{"days": "Mon-Fri", "time": "4:05pm"}, {"days": "Sat-Sun", "time": "Closed"}], "id": "5322100003", "name": "USPS COLLECTION BOX - BLUE BOX", "address": {"city": "MILWAUKEE", "state": "WI", "street": "2500 W LAYTON AVE", "postcode": "53221"}}},
{"geometry": {"type": "Point", "coordinates": [-87.9492558076, 42.9420743361]}, "type": "Feature", "properties": {"collection_times": [{"days": "Mon-Sat", "time": "1:00pm"}, {"days": "Sun", "time": "Closed"}], "id": "5322100004", "name": "USPS COLLECTION BOX - BLUE BOX", "address": {"city": "MILWAUKEE", "state": "WI", "street": "5655 S 27TH ST", "postcode": "53221"}}},
{"geometry": {"type": "Point", "coordinates": [-87.9644172338, 42.9670662219]}, "type": "Feature", "properties": {"collection_times": [{"days": "Mon-Sat", "time": "1:00pm"}, {"days": "Sun", "time": "Closed"}], "id": "5322100006", "name": "USPS COLLECTION BOX - BLUE BOX", "address": {"city": "MILWAUKEE", "state": "WI", "street": "4280 S RAVINIA DR", "postcode": "53221"}}},
{"geometry": {"type": "Point", "coordinates": [-87.9389623675, 42.9744813273]}, "type": "Feature", "properties": {"collection_times": [{"days": "Mon-Sat", "time": "1:00pm"}, {"days": "Sun", "time": "Closed"}], "id": "5322100008", "name": "USPS COLLECTION BOX - BLUE BOX", "address": {"city": "MILWAUKEE", "state": "WI", "street": "3863 S 20TH ST", "postcode": "53221"}}},
{"geometry": {"type": "Point", "coordinates": [-87.9485690798, 42.9806576648]}, "type": "Feature", "properties": {"collection_times": [{"days": "Mon-Sat", "time": "1:00pm"}, {"days": "Sun", "time": "Closed"}], "id": "5322100012", "name": "USPS COLLECTION BOX - BLUE BOX", "address": {"city": "MILWAUKEE", "state": "WI", "street": "3555 S 27TH ST", "postcode": "53221"}}},
{"geometry": {"type": "Point", "coordinates": [-87.9574429863, 42.9511002554]}, "type": "Feature", "properties": {"collection_times": [{"days": "Mon-Sat", "time": "1:00pm"}, {"days": "Sun", "time": "Closed"}], "id": "5322100016", "name": "USPS COLLECTION BOX - BLUE BOX", "address": {"city": "MILWAUKEE", "state": "WI", "street": "5200 S TUCKAWAY BLVD", "postcode": "53221"}}},
{"geometry": {"type": "Point", "coordinates": [-87.9390280271, 42.9594324321]}, "type": "Feature", "properties": {"collection_times": [{"days": "Mon-Sat", "time": "1:00pm"}, {"days": "Sun", "time": "Closed"}], "id": "5322100021", "name": "USPS COLLECTION BOX - BLUE BOX", "address": {"city": "MILWAUKEE", "state": "WI", "street": "4699 S 20TH ST", "postcode": "53221"}}},
{"geometry": {"type": "Point", "coordinates": [-87.9486276046, 42.9763283678]}, "type": "Feature", "properties": {"collection_times": [{"days": "Mon-Sat", "time": "1:00pm"}, {"days": "Sun", "time": "Closed"}], "id": "5322100022", "name": "USPS COLLECTION BOX - BLUE BOX", "address": {"city": "MILWAUKEE", "state": "WI", "street": "3785 S 27TH ST", "postcode": "53221"}}},
{"geometry": {"type": "Point", "coordinates": [-87.9573569608, 42.9303410633]}, "type": "Feature", "properties": {"collection_times": [{"days": "Mon-Sat", "time": "1:00pm"}, {"days": "Sun", "time": "Closed"}], "id": "5322100027", "name": "USPS COLLECTION BOX - BLUE BOX", "address": {"city": "MILWAUKEE", "state": "WI", "street": "3311 W COLLEGE AVE", "postcode": "53221"}}},
{"geometry": {"type": "Point", "coordinates": [-87.9486861828, 42.9520797728]}, "type": "Feature", "properties": {"collection_times": [{"days": "Mon-Fri", "time": "5:00pm"}, {"days": "Sat", "time": "3:00pm"}, {"days": "Sun", "time": "Closed"}], "id": "5322100030", "name": "USPS COLLECTION BOX - BLUE BOX", "address": {"city": "MILWAUKEE", "state": "WI", "street": "2699 W EDGERTON AVE", "postcode": "53221"}}},
{"geometry": {"type": "Point", "coordinates": [-87.9486861828, 42.9520797728]}, "type": "Feature", "properties": {"collection_times": [{"days": "Mon-Fri", "time": "5:00pm"}, {"days": "Sat", "time": "3:00pm"}, {"days": "Sun", "time": "Closed"}], "id": "5322100031", "name": "USPS COLLECTION BOX - BLUE BOX", "address": {"city": "MILWAUKEE", "state": "WI", "street": "2699 W EDGERTON AVE", "postcode": "53221"}}},
{"geometry": {"type": "Point", "coordinates": [-87.948801643, 42.9660750951]}, "type": "Feature", "properties": {"collection_times": [{"days": "Mon-Fri", "time": "4:05pm"}, {"days": "Sat", "time": "1:00pm"}, {"days": "Sun", "time": "Closed"}], "id": "5322100036", "name": "USPS COLLECTION BOX - BLUE BOX", "address": {"city": "MILWAUKEE", "state": "WI", "street": "4333 S 27TH ST", "postcode": "53221"}}},
{"geometry": {"type": "Point", "coordinates": [-87.948703654, 42.951818455]}, "type": "Feature", "properties": {"collection_times": [{"days": "Mon-Fri", "time": "5:15pm"}, {"days": "Sat", "time": "3:00pm"}, {"days": "Sun", "time": "Closed"}], "id": "5322100037", "name": "USPS COLLECTION BOX - PO LOBBY", "address": {"city": "MILWAUKEE", "state": "WI", "street": "5114 S 27TH ST", "postcode": "53221"}}},
{"geometry": {"type": "Point", "coordinates": [-87.948703654, 42.951818455]}, "type": "Feature", "properties": {"collection_times": [{"days": "Mon-Fri", "time": "5:15pm"}, {"days": "Sat", "time": "3:00pm"}, {"days": "Sun", "time": "Closed"}], "id": "5322100038", "name": "USPS COLLECTION BOX - PO LOBBY", "address": {"city": "MILWAUKEE", "state": "WI", "street": "5114 S 27TH ST", "postcode": "53221"}}},
{"geometry": {"type": "Point", "coordinates": [-87.947946272, 42.9521271214]}, "type": "Feature", "properties": {"collection_times": [{"days": "Mon-Fri", "time": "5:00pm"}, {"days": "Sat", "time": "3:00pm"}, {"days": "Sun", "time": "Closed"}], "id": "5322100039", "name": "USPS COLLECTION BOX - BLUE BOX", "address": {"city": "MILWAUKEE", "state": "WI", "street": "2618 W EDGERTON AVE", "postcode": "53221"}}},
{"geometry": {"type": "Point", "coordinates": [-87.9487353056, 42.9518231009]}, "type": "Feature", "properties": {"collection_times": [{"days": "Mon-Fri", "time": "5:15pm"}, {"days": "Sat", "time": "3:00pm"}, {"days": "Sun", "time": "Closed"}], "id": "5322100041", "name": "USPS COLLECTION BOX - APC", "address": {"city": "MILWAUKEE", "state": "WI", "street": "5114 S 27TH ST", "postcode": "53221"}}},
{"geometry": {"type": "Point", "coordinates": [-88.0115523906, 43.0754032029]}, "type": "Feature", "properties": {"collection_times": [{"days": "Mon-Fri", "time": "12:30pm"}, {"days": "Sat", "time": "2:00pm"}, {"days": "Sun", "time": "Closed"}], "id": "5322200006", "name": "USPS COLLECTION BOX - BLUE BOX", "address": {"city": "MILWAUKEE", "state": "WI", "street": "7934 W BURLEIGH ST", "postcode": "53222"}}},
{"geometry": {"type": "Point", "coordinates": [-88.0149709391, 43.0678865069]}, "type": "Feature", "properties": {"collection_times": [{"days": "Mon-Fri", "time": "12:30pm"}, {"days": "Sat", "time": "2:15pm"}, {"days": "Sun", "time": "Closed"}], "id": "5322200007", "name": "USPS COLLECTION BOX - BLUE BOX", "address": {"city": "MILWAUKEE", "state": "WI", "street": "8201 W CENTER ST", "postcode": "53222"}}},
{"geometry": {"type": "Point", "coordinates": [-88.0162019652, 43.0897330726]}, "type": "Feature", "properties": {"collection_times": [{"days": "Mon-Fri", "time": "3:45pm"}, {"days": "Sat", "time": "1:45pm"}, {"days": "Sun", "time": "Closed"}], "id": "5322200010", "name": "USPS COLLECTION BOX - BLUE BOX", "address": {"city": "MILWAUKEE", "state": "WI", "street": "3998 N 83RD ST", "postcode": "53222"}}},
{"geometry": {"type": "Point", "coordinates": [-88.0192621361, 43.0898602166]}, "type": "Feature", "properties": {"collection_times": [{"days": "Mon-Fri", "time": "3:45pm"}, {"days": "Sat", "time": "1:30pm"}, {"days": "Sun", "time": "Closed"}], "id": "5322200012", "name": "USPS COLLECTION BOX - BLUE BOX", "address": {"city": "MILWAUKEE", "state": "WI", "street": "8500 W CAPITOL DR", "postcode": "53222"}}},
{"geometry": {"type": "Point", "coordinates": [-88.0227400609, 43.0898805994]}, "type": "Feature", "properties": {"collection_times": [{"days": "Mon-Fri", "time": "12:30pm"}, {"days": "Sat", "time": "1:30pm"}, {"days": "Sun", "time": "Closed"}], "id": "5322200014", "name": "USPS COLLECTION BOX - BLUE BOX", "address": {"city": "MILWAUKEE", "state": "WI", "street": "4001 N 88TH ST", "postcode": "53222"}}},
{"geometry": {"type": "Point", "coordinates": [-88.025378034, 43.0751595856]}, "type": "Feature", "properties": {"collection_times": [{"days": "Mon-Fri", "time": "4:00pm"}, {"days": "Sat", "time": "2:30pm"}, {"days": "Sun", "time": "Closed"}], "id": "5322200015", "name": "USPS COLLECTION BOX - BLUE BOX", "address": {"city": "MILWAUKEE", "state": "WI", "street": "9000 W BURLEIGH ST", "postcode": "53222"}}},
{"geometry": {"type": "Point", "coordinates": [-88.0277667042, 43.075148198]}, "type": "Feature", "properties": {"collection_times": [{"days": "Mon-Fri", "time": "12:30pm"}, {"days": "Sat", "time": "2:30pm"}, {"days": "Sun", "time": "Closed"}], "id": "5322200016", "name": "USPS COLLECTION BOX - BLUE BOX", "address": {"city": "MILWAUKEE", "state": "WI", "street": "3101 N 92ND ST", "postcode": "53222"}}},
{"geometry": {"type": "Point", "coordinates": [-88.032653739, 43.0676280648]}, "type": "Feature", "properties": {"collection_times": [{"days": "Mon-Fri", "time": "12:30pm"}, {"days": "Sat", "time": "2:30pm"}, {"days": "Sun", "time": "Closed"}], "id": "5322200021", "name": "USPS COLLECTION BOX - BLUE BOX", "address": {"city": "MILWAUKEE", "state": "WI", "street": "9599 W CENTER ST", "postcode": "53222"}}},
{"geometry": {"type": "Point", "coordinates": [-88.0344508936, 43.0823686116]}, "type": "Feature", "properties": {"collection_times": [{"days": "Mon-Fri", "time": "12:30pm"}, {"days": "Sat", "time": "3:30pm"}, {"days": "Sun", "time": "Closed"}], "id": "5322200022", "name": "USPS COLLECTION BOX - BLUE BOX", "address": {"city": "MILWAUKEE", "state": "WI", "street": "9750 W KEEFE AVE", "postcode": "53222"}}},
{"geometry": {"type": "Point", "coordinates": [-88.0457891765, 43.089577509]}, "type": "Feature", "properties": {"collection_times": [{"days": "Mon-Fri", "time": "1:30pm"}, {"days": "Sat", "time": "3:15pm"}, {"days": "Sun", "time": "Closed"}], "id": "5322200023", "name": "USPS COLLECTION BOX - BLUE BOX", "address": {"city": "MILWAUKEE", "state": "WI", "street": "3998 N 107TH ST", "postcode": "53222"}}},
{"geometry": {"type": "Point", "coordinates": [-88.0656909096, 43.0744119555]}, "type": "Feature", "properties": {"collection_times": [{"days": "Mon-Fri", "time": "4:00pm"}, {"days": "Sat", "time": "3:15pm"}, {"days": "Sun", "time": "Closed"}], "id": "5322200024", "name": "USPS COLLECTION BOX - BLUE BOX", "address": {"city": "MILWAUKEE", "state": "WI", "street": "12201 W BURLEIGH ST", "postcode": "53222"}}},
{"geometry": {"type": "Point", "coordinates": [-88.0663048653, 43.084774676]}, "type": "Feature", "properties": {"collection_times": [{"days": "Mon-Fri", "time": "4:15pm"}, {"days": "Sat", "time": "3:15pm"}, {"days": "Sun", "time": "Closed"}], "id": "5322200026", "name": "USPS COLLECTION BOX - BLUE BOX", "address": {"city": "MILWAUKEE", "state": "WI", "street": "3636 N 124TH ST", "postcode": "53222"}}},
{"geometry": {"type": "Point", "coordinates": [-88.0663048653, 43.084774676]}, "type": "Feature", "properties": {"collection_times": [{"days": "Mon-Fri", "time": "4:15pm"}, {"days": "Sat", "time": "3:15pm"}, {"days": "Sun", "time": "Closed"}], "id": "5322200027", "name": "USPS COLLECTION BOX - BLUE BOX", "address": {"city": "MILWAUKEE", "state": "WI", "street": "3636 N 124TH ST", "postcode": "53222"}}},
{"geometry": {"type": "Point", "coordinates": [-88.0469489126, 43.0749052032]}, "type": "Feature", "properties": {"collection_times": [{"days": "Mon-Fri", "time": "12:30pm"}, {"days": "Sat", "time": "2:45pm"}, {"days": "Sun", "time": "Closed"}], "id": "5322200031", "name": "USPS COLLECTION BOX - BLUE BOX", "address": {"city": "MILWAUKEE", "state": "WI", "street": "10704 W BURLEIGH ST", "postcode": "53222"}}},
{"geometry": {"type": "Point", "coordinates": [-88.0370372776, 43.0894982312]}, "type": "Feature", "properties": {"collection_times": [{"days": "Mon-Fri", "time": "4:30pm"}, {"days": "Sat", "time": "3:30pm"}, {"days": "Sun", "time": "Closed"}], "id": "5322200037", "name": "USPS COLLECTION BOX - BLUE BOX", "address": {"city": "MILWAUKEE", "state": "WI", "street": "9921 W CAPITOL DR", "postcode": "53222"}}},
{"geometry": {"type": "Point", "coordinates": [-88.0381741011, 43.0897608481]}, "type": "Feature", "properties": {"collection_times": [{"days": "Mon-Fri", "time": "1:30pm"}, {"days": "Sat", "time": "3:30pm"}, {"days": "Sun", "time": "Closed"}], "id": "5322200038", "name": "USPS COLLECTION BOX - BLUE BOX", "address": {"city": "MILWAUKEE", "state": "WI", "street": "10012 W CAPITOL DR", "postcode": "53222"}}},
{"geometry": {"type": "Point", "coordinates": [-88.0177126249, 43.0811485347]}, "type": "Feature", "properties": {"collection_times": [{"days": "Mon-Fri", "time": "3:45pm"}, {"days": "Sat", "time": "2:00pm"}, {"days": "Sun", "time": "Closed"}], "id": "5322200043", "name": "USPS COLLECTION BOX - BLUE BOX", "address": {"city": "MILWAUKEE", "state": "WI", "street": "8405 W LISBON AVE", "postcode": "53222"}}},
{"geometry": {"type": "Point", "coordinates": [-88.0381717352, 43.089100757]}, "type": "Feature", "properties": {"collection_times": [{"days": "Mon-Fri", "time": "4:30pm"}, {"days": "Sat", "time": "3:30pm"}, {"days": "Sun", "time": "Closed"}], "id": "5322200048", "name": "USPS COLLECTION BOX - BLUE BOX", "address": {"city": "MILWAUKEE", "state": "WI", "street": "10031 W LISBON AVE", "postcode": "53222"}}},
{"geometry": {"type": "Point", "coordinates": [-88.0479678184, 43.0697712075]}, "type": "Feature", "properties": {"collection_times": [{"days": "Mon-Fri", "time": "4:00pm"}, {"days": "Sat", "time": "2:45pm"}, {"days": "Sun", "time": "Closed"}], "id": "5322200052", "name": "USPS COLLECTION BOX - BLUE BOX", "address": {"city": "MILWAUKEE", "state": "WI", "street": "2825 N MAYFAIR RD", "postcode": "53222"}}},
{"geometry": {"type": "Point", "coordinates": [-88.0479678184, 43.0697712075]}, "type": "Feature", "properties": {"collection_times": [{"days": "Mon-Fri", "time": "4:00pm"}, {"days": "Sat", "time": "2:45pm"}, {"days": "Sun", "time": "Closed"}], "id": "5322200053", "name": "USPS COLLECTION BOX - BLUE BOX", "address": {"city": "MILWAUKEE", "state": "WI", "street": "2825 N MAYFAIR RD", "postcode": "53222"}}},
{"geometry": {"type": "Point", "coordinates": [-88.0480387959, 43.0743315143]}, "type": "Feature", "properties": {"collection_times": [{"days": "Mon-Fri", "time": "2:15pm"}, {"days": "Sat", "time": "2:45pm"}, {"days": "Sun", "time": "Closed"}], "id": "5322200060", "name": "USPS COLLECTION BOX - BLUE BOX", "address": {"city": "MILWAUKEE", "state": "WI", "street": "3077 N MAYFAIR RD", "postcode": "53222"}}},
{"geometry": {"type": "Point", "coordinates": [-88.0084144024, 43.0899773296]}, "type": "Feature", "properties": {"collection_times": [{"days": "Mon-Fri", "time": "12:30pm"}, {"days": "Sat", "time": "1:45pm"}, {"days": "Sun", "time": "Closed"}], "id": "5322200065", "name": "USPS COLLECTION BOX - BLUE BOX", "address": {"city": "MILWAUKEE", "state": "WI", "street": "7600 W CAPITOL DR", "postcode": "53222"}}},
{"geometry": {"type": "Point", "coordinates": [-88.0289522176, 43.0895437906]}, "type": "Feature", "properties": {"collection_times": [{"days": "Mon-Fri", "time": "1:30pm"}, {"days": "Sat", "time": "3:45pm"}, {"days": "Sun", "time": "Closed"}], "id": "5322200066", "name": "USPS COLLECTION BOX - BLUE BOX", "address": {"city": "MILWAUKEE", "state": "WI", "street": "3998 N 93RD ST", "postcode": "53222"}}},
{"geometry": {"type": "Point", "coordinates": [-88.035192012, 43.07158359]}, "type": "Feature", "properties": {"collection_times": [{"days": "Mon-Fri", "time": "12:30pm"}, {"days": "Sat", "time": "2:30pm"}, {"days": "Sun", "time": "Closed"}], "id": "5322200067", "name": "USPS COLLECTION BOX - BLUE BOX", "address": {"city": "MILWAUKEE", "state": "WI", "street": "2900 N MENOMONEE RIVER PKWY", "postcode": "53222"}}},
{"geometry": {"type": "Point", "coordinates": [-88.0480249482, 43.0793447661]}, "type": "Feature", "properties": {"collection_times": [{"days": "Mon-Fri", "time": "4:00pm"}, {"days": "Sat", "time": "2:45pm"}, {"days": "Sun", "time": "Closed"}], "id": "5322200069", "name": "USPS COLLECTION BOX - BLUE BOX", "address": {"city": "MILWAUKEE", "state": "WI", "street": "3333 N MAYFAIR RD", "postcode": "53222"}}},
{"geometry": {"type": "Point", "coordinates": [-88.0282060011, 43.0853693955]}, "type": "Feature", "properties": {"collection_times": [{"days": "Mon-Sat", "time": "12:30pm"}, {"days": "Sun", "time": "Closed"}], "id": "5322200070", "name": "USPS COLLECTION BOX - BLUE BOX", "address": {"city": "MILWAUKEE", "state": "WI", "street": "9210 W LISBON AVE", "postcode": "53222"}}},
{"geometry": {"type": "Point", "coordinates": [-88.0275831032, 43.086239792]}, "type": "Feature", "properties": {"collection_times": [{"days": "Mon-Fri", "time": "12:30pm"}, {"days": "Sat-Sun", "time": "Closed"}], "id": "5322200072", "name": "USPS COLLECTION BOX - BLUE BOX", "address": {"city": "MILWAUKEE", "state": "WI", "street": "3800 N 92ND ST", "postcode": "53222"}}},
{"geometry": {"type": "Point", "coordinates": [-88.0098044329, 43.1631830606]}, "type": "Feature", "properties": {"collection_times": [{"days": "Mon-Fri", "time": "4:30pm"}, {"days": "Sat", "time": "12:30pm"}, {"days": "Sun", "time": "Closed"}], "id": "5322300008", "name": "USPS COLLECTION BOX - BLUE BOX", "address": {"city": "MILWAUKEE", "state": "WI", "street": "8047 W BRADLEY RD", "postcode": "53223"}}},
{"geometry": {"type": "Point", "coordinates": [-88.0055805304, 43.134706309]}, "type": "Feature", "properties": {"collection_times": [{"days": "Mon-Sat", "time": "12:30pm"}, {"days": "Sun", "time": "Closed"}], "id": "5322300016", "name": "USPS COLLECTION BOX - BLUE BOX", "address": {"city": "MILWAUKEE", "state": "WI", "street": "6444 N 76TH ST", "postcode": "53223"}}},
{"geometry": {"type": "Point", "coordinates": [-88.0031324907, 43.1486177884]}, "type": "Feature", "properties": {"collection_times": [{"days": "Mon-Sat", "time": "12:30pm"}, {"days": "Sun", "time": "Closed"}], "id": "5322300022", "name": "USPS COLLECTION BOX - BLUE BOX", "address": {"city": "MILWAUKEE", "state": "WI", "street": "7401 W GOOD HOPE RD", "postcode": "53223"}}},
{"geometry": {"type": "Point", "coordinates": [-88.0044999912, 43.1819429254]}, "type": "Feature", "properties": {"collection_times": [{"days": "Mon-Fri", "time": "3:30pm"}, {"days": "Sat", "time": "12:30pm"}, {"days": "Sun", "time": "Closed"}], "id": "5322300025", "name": "USPS COLLECTION BOX - BLUE BOX", "address": {"city": "MILWAUKEE", "state": "WI", "street": "9001 N 76TH ST", "postcode": "53223"}}},
{"geometry": {"type": "Point", "coordinates": [-87.9796817294, 43.1340497372]}, "type": "Feature", "properties": {"collection_times": [{"days": "Mon-Sat", "time": "12:30pm"}, {"days": "Sun", "time": "Closed"}], "id": "5322300034", "name": "USPS COLLECTION BOX - BLUE BOX", "address": {"city": "MILWAUKEE", "state": "WI", "street": "6401 N 54TH ST", "postcode": "53223"}}},
{"geometry": {"type": "Point", "coordinates": [-87.9645292249, 43.1863611057]}, "type": "Feature", "properties": {"collection_times": [{"days": "Mon-Fri", "time": "3:15pm"}, {"days": "Sat", "time": "12:30pm"}, {"days": "Sun", "time": "Closed"}], "id": "5322300041", "name": "USPS COLLECTION BOX - BLUE BOX", "address": {"city": "MILWAUKEE", "state": "WI", "street": "4301 W SCHROEDER DR", "postcode": "53223"}}},
{"geometry": {"type": "Point", "coordinates": [-87.9951447282, 43.1776446382]}, "type": "Feature", "properties": {"collection_times": [{"days": "Mon-Fri", "time": "5:00pm"}, {"days": "Sat", "time": "3:00pm"}, {"days": "Sun", "time": "Closed"}], "id": "5322300045", "name": "USPS COLLECTION BOX - BLUE BOX", "address": {"city": "MILWAUKEE", "state": "WI", "street": "6825 W BROWN DEER RD", "postcode": "53223"}}},
{"geometry": {"type": "Point", "coordinates": [-87.9951447282, 43.1776446382]}, "type": "Feature", "properties": {"collection_times": [{"days": "Mon-Fri", "time": "5:00pm"}, {"days": "Sat", "time": "3:00pm"}, {"days": "Sun", "time": "Closed"}], "id": "5322300046", "name": "USPS COLLECTION BOX - BLUE BOX", "address": {"city": "MILWAUKEE", "state": "WI", "street": "6825 W BROWN DEER RD", "postcode": "53223"}}},
{"geometry": {"type": "Point", "coordinates": [-87.994940622, 43.177640347]}, "type": "Feature", "properties": {"collection_times": [{"days": "Mon-Fri", "time": "5:00pm"}, {"days": "Sat", "time": "2:00pm"}, {"days": "Sun", "time": "Closed"}], "id": "5322300049", "name": "USPS COLLECTION BOX - PO LOBBY", "address": {"city": "MILWAUKEE", "state": "WI", "street": "6825 W BROWN DEER RD", "postcode": "53223"}}},
{"geometry": {"type": "Point", "coordinates": [-87.9951447282, 43.1776446382]}, "type": "Feature", "properties": {"collection_times": [{"days": "Mon-Fri", "time": "5:00pm"}, {"days": "Sat", "time": "3:00pm"}, {"days": "Sun", "time": "Closed"}], "id": "5322300051", "name": "USPS COLLECTION BOX - BLUE BOX", "address": {"city": "MILWAUKEE", "state": "WI", "street": "6825 W BROWN DEER RD", "postcode": "53223"}}},
{"geometry": {"type": "Point", "coordinates": [-87.9951447282, 43.1776446382]}, "type": "Feature", "properties": {"collection_times": [{"days": "Mon-Fri", "time": "5:00pm"}, {"days": "Sat", "time": "3:00pm"}, {"days": "Sun", "time": "Closed"}], "id": "5322300063", "name": "USPS COLLECTION BOX - BLUE BOX", "address": {"city": "MILWAUKEE", "state": "WI", "street": "6825 W BROWN DEER RD", "postcode": "53223"}}},
{"geometry": {"type": "Point", "coordinates": [-87.984598327, 43.177173899]}, "type": "Feature", "properties": {"collection_times": [{"days": "Mon-Sat", "time": "12:30pm"}, {"days": "Sun", "time": "Closed"}], "id": "5322300066", "name": "USPS COLLECTION BOX - BLUE BOX", "address": {"city": "MILWAUKEE", "state": "WI", "street": "8799 N 60TH ST", "postcode": "53223"}}},
{"geometry": {"type": "Point", "coordinates": [-87.9951447282, 43.1776446382]}, "type": "Feature", "properties": {"collection_times": [{"days": "Mon-Fri", "time": "5:00pm"}, {"days": "Sat-Sun", "time": "Closed"}], "id": "5322300069", "name": "USPS COLLECTION BOX - APC", "address": {"city": "MILWAUKEE", "state": "WI", "street": "6825 W BROWN DEER RD", "postcode": "53223"}}},
{"geometry": {"type": "Point", "coordinates": [-87.9867585967, 43.1630763551]}, "type": "Feature", "properties": {"collection_times": [{"days": "Mon-Fri", "time": "5:00pm"}, {"days": "Sat", "time": "3:30pm"}, {"days": "Sun", "time": "Closed"}], "id": "5322300070", "name": "USPS COLLECTION BOX - BLUE BOX", "address": {"city": "MILWAUKEE", "state": "WI", "street": "6215 W BRADLEY RD", "postcode": "53223"}}},
{"geometry": {"type": "Point", "coordinates": [-87.9867585967, 43.1630763551]}, "type": "Feature", "properties": {"collection_times": [{"days": "Mon-Fri", "time": "5:00pm"}, {"days": "Sat", "time": "3:30pm"}, {"days": "Sun", "time": "Closed"}], "id": "5322300071", "name": "USPS COLLECTION BOX - BLUE BOX", "address": {"city": "MILWAUKEE", "state": "WI", "street": "6215 W BRADLEY RD", "postcode": "53223"}}},
{"geometry": {"type": "Point", "coordinates": [-88.0294227882, 43.1647966456]}, "type": "Feature", "properties": {"collection_times": [{"days": "Mon-Sat", "time": "12:30pm"}, {"days": "Sun", "time": "Closed"}], "id": "5322400005", "name": "USPS COLLECTION BOX - BLUE BOX", "address": {"city": "MILWAUKEE", "state": "WI", "street": "8099 N 94TH ST", "postcode": "53224"}}},
{"geometry": {"type": "Point", "coordinates": [-88.0544581806, 43.158986884]}, "type": "Feature", "properties": {"collection_times": [{"days": "Mon-Fri", "time": "4:00pm"}, {"days": "Sat", "time": "12:30pm"}, {"days": "Sun", "time": "Closed"}], "id": "5322400007", "name": "USPS COLLECTION BOX - BLUE BOX", "address": {"city": "MILWAUKEE", "state": "WI", "street": "11400 N LAKE PARK DRIVE", "postcode": "53224"}}},
{"geometry": {"type": "Point", "coordinates": [-88.0451139164, 43.150865155]}, "type": "Feature", "properties": {"collection_times": [{"days": "Mon-Fri", "time": "4:30pm"}, {"days": "Sat", "time": "12:30pm"}, {"days": "Sun", "time": "Closed"}], "id": "5322400013", "name": "USPS COLLECTION BOX - BLUE BOX", "address": {"city": "MILWAUKEE", "state": "WI", "street": "10701 W PARK PL", "postcode": "53224"}}},
{"geometry": {"type": "Point", "coordinates": [-88.0403249812, 43.1629549149]}, "type": "Feature", "properties": {"collection_times": [{"days": "Mon-Fri", "time": "4:30pm"}, {"days": "Sat", "time": "12:30pm"}, {"days": "Sun", "time": "Closed"}], "id": "5322400016", "name": "USPS COLLECTION BOX - BLUE BOX", "address": {"city": "MILWAUKEE", "state": "WI", "street": "11400 W LIBERTY DR", "postcode": "53224"}}},
{"geometry": {"type": "Point", "coordinates": [-88.0259990875, 43.1187788315]}, "type": "Feature", "properties": {"collection_times": [{"days": "Mon-Fri", "time": "5:00pm"}, {"days": "Sat", "time": "4:00pm"}, {"days": "Sun", "time": "Closed"}], "id": "5322500002", "name": "USPS COLLECTION BOX - BLUE BOX", "address": {"city": "MILWAUKEE", "state": "WI", "street": "5555 N 91ST ST", "postcode": "53225"}}},
{"geometry": {"type": "Point", "coordinates": [-88.0259990875, 43.1187788315]}, "type": "Feature", "properties": {"collection_times": [{"days": "Mon-Fri", "time": "5:00pm"}, {"days": "Sat", "time": "12:00pm"}, {"days": "Sun", "time": "Closed"}], "id": "5322500006", "name": "USPS COLLECTION BOX - PO LOBBY", "address": {"city": "MILWAUKEE", "state": "WI", "street": "5555 N 91ST ST", "postcode": "53225"}}},
{"geometry": {"type": "Point", "coordinates": [-88.0259990875, 43.1187788315]}, "type": "Feature", "properties": {"collection_times": [{"days": "Mon-Fri", "time": "5:00pm"}, {"days": "Sat", "time": "4:00pm"}, {"days": "Sun", "time": "Closed"}], "id": "5322500007", "name": "USPS COLLECTION BOX - BLUE BOX", "address": {"city": "MILWAUKEE", "state": "WI", "street": "5555 N 91ST ST", "postcode": "53225"}}},
{"geometry": {"type": "Point", "coordinates": [-88.0301860133, 43.1319740177]}, "type": "Feature", "properties": {"collection_times": [{"days": "Mon-Fri", "time": "12:15pm"}, {"days": "Sat", "time": "12:30pm"}, {"days": "Sun", "time": "Closed"}], "id": "5322500016", "name": "USPS COLLECTION BOX - BLUE BOX", "address": {"city": "MILWAUKEE", "state": "WI", "street": "6298 N 95TH ST", "postcode": "53225"}}},
{"geometry": {"type": "Point", "coordinates": [-88.0377238757, 43.0971813739]}, "type": "Feature", "properties": {"collection_times": [{"days": "Mon-Fri", "time": "1:00pm"}, {"days": "Sat", "time": "1:15pm"}, {"days": "Sun", "time": "Closed"}], "id": "5322500017", "name": "USPS COLLECTION BOX - BLUE BOX", "address": {"city": "MILWAUKEE", "state": "WI", "street": "4413 N 100TH ST", "postcode": "53225"}}},
{"geometry": {"type": "Point", "coordinates": [-88.0557205038, 43.1227122084]}, "type": "Feature", "properties": {"collection_times": [{"days": "Mon-Fri", "time": "4:45pm"}, {"days": "Sat", "time": "1:00pm"}, {"days": "Sun", "time": "Closed"}], "id": "5322500020", "name": "USPS COLLECTION BOX - BLUE BOX", "address": {"city": "MILWAUKEE", "state": "WI", "street": "11515 W CARMEN AVE", "postcode": "53225"}}},
{"geometry": {"type": "Point", "coordinates": [-88.059305174, 43.1158819444]}, "type": "Feature", "properties": {"collection_times": [{"days": "Mon-Fri", "time": "5:00pm"}, {"days": "Sat", "time": "1:00pm"}, {"days": "Sun", "time": "Closed"}], "id": "5322500024", "name": "USPS COLLECTION BOX - BLUE BOX", "address": {"city": "MILWAUKEE", "state": "WI", "street": "5430 N 118TH CT", "postcode": "53225"}}},
{"geometry": {"type": "Point", "coordinates": [-88.0610297406, 43.104627171]}, "type": "Feature", "properties": {"collection_times": [{"days": "Mon-Fri", "time": "4:45pm"}, {"days": "Sat", "time": "1:15pm"}, {"days": "Sun", "time": "Closed"}], "id": "5322500027", "name": "USPS COLLECTION BOX - BLUE BOX", "address": {"city": "MILWAUKEE", "state": "WI", "street": "11899 W HAMPTON AVE", "postcode": "53225"}}},
{"geometry": {"type": "Point", "coordinates": [-88.0402628752, 43.1195543891]}, "type": "Feature", "properties": {"collection_times": [{"days": "Mon-Fri", "time": "12:15pm"}, {"days": "Sat", "time": "12:45pm"}, {"days": "Sun", "time": "Closed"}], "id": "5322500029", "name": "USPS COLLECTION BOX - BLUE BOX", "address": {"city": "MILWAUKEE", "state": "WI", "street": "10202 W SILVER SPRING DR", "postcode": "53225"}}},
{"geometry": {"type": "Point", "coordinates": [-88.0265207724, 43.105041129]}, "type": "Feature", "properties": {"collection_times": [{"days": "Mon-Fri", "time": "3:30pm"}, {"days": "Sat", "time": "3:45pm"}, {"days": "Sun", "time": "Closed"}], "id": "5322500031", "name": "USPS COLLECTION BOX - BLUE BOX", "address": {"city": "MILWAUKEE", "state": "WI", "street": "9120 W HAMPTON AVE", "postcode": "53225"}}},
{"geometry": {"type": "Point", "coordinates": [-88.0468925087, 43.1049157354]}, "type": "Feature", "properties": {"collection_times": [{"days": "Mon-Fri", "time": "4:45pm"}, {"days": "Sat", "time": "1:15pm"}, {"days": "Sun", "time": "Closed"}], "id": "5322500033", "name": "USPS COLLECTION BOX - BLUE BOX", "address": {"city": "MILWAUKEE", "state": "WI", "street": "10722 W HAMPTON AVE", "postcode": "53225"}}},
{"geometry": {"type": "Point", "coordinates": [-88.0259990875, 43.1187788315]}, "type": "Feature", "properties": {"collection_times": [{"days": "Mon-Fri", "time": "5:00pm"}, {"days": "Sat", "time": "4:00pm"}, {"days": "Sun", "time": "Closed"}], "id": "5322500038", "name": "USPS COLLECTION BOX - BLUE BOX", "address": {"city": "MILWAUKEE", "state": "WI", "street": "5555 N 91ST ST", "postcode": "53225"}}},
{"geometry": {"type": "Point", "coordinates": [-88.0259990875, 43.1187788315]}, "type": "Feature", "properties": {"collection_times": [{"days": "Mon-Fri", "time": "5:00pm"}, {"days": "Sat", "time": "12:00pm"}, {"days": "Sun", "time": "Closed"}], "id": "5322500039", "name": "USPS COLLECTION BOX - PO LOBBY", "address": {"city": "MILWAUKEE", "state": "WI", "street": "5555 N 91ST ST", "postcode": "53225"}}},
{"geometry": {"type": "Point", "coordinates": [-88.0628006472, 43.0327362298]}, "type": "Feature", "properties": {"collection_times": [{"days": "Mon-Fri", "time": "4:00pm"}, {"days": "Sat", "time": "12:30pm"}, {"days": "Sun", "time": "Closed"}], "id": "5322600011", "name": "USPS COLLECTION BOX - BLUE BOX", "address": {"city": "WAUWATOSA", "state": "WI", "street": "200 N 121ST ST", "postcode": "53226"}}},
{"geometry": {"type": "Point", "coordinates": [-88.0601522957, 43.0331207728]}, "type": "Feature", "properties": {"collection_times": [{"days": "Mon-Fri", "time": "4:00pm"}, {"days": "Sat", "time": "12:30pm"}, {"days": "Sun", "time": "Closed"}], "id": "5322600013", "name": "USPS COLLECTION BOX - BLUE BOX", "address": {"city": "WAUWATOSA", "state": "WI", "street": "11815 W DEARBOURN AVE", "postcode": "53226"}}},
{"geometry": {"type": "Point", "coordinates": [-88.0559042901, 43.035884165]}, "type": "Feature", "properties": {"collection_times": [{"days": "Mon-Fri", "time": "4:00pm"}, {"days": "Sat", "time": "12:30pm"}, {"days": "Sun", "time": "Closed"}], "id": "5322600014", "name": "USPS COLLECTION BOX - BLUE BOX", "address": {"city": "WAUWATOSA", "state": "WI", "street": "11430 W BLUEMOUND RD", "postcode": "53226"}}},
{"geometry": {"type": "Point", "coordinates": [-88.0266137955, 43.0605086982]}, "type": "Feature", "properties": {"collection_times": [{"days": "Mon-Fri", "time": "3:00pm"}, {"days": "Sat", "time": "11:30am"}, {"days": "Sun", "time": "Closed"}], "id": "5322600033", "name": "USPS COLLECTION BOX - BLUE BOX", "address": {"city": "WAUWATOSA", "state": "WI", "street": "9128 W NORTH AVE", "postcode": "53226"}}},
{"geometry": {"type": "Point", "coordinates": [-88.0473645093, 43.041763471]}, "type": "Feature", "properties": {"collection_times": [{"days": "Mon-Fri", "time": "4:00pm"}, {"days": "Sat", "time": "12:30pm"}, {"days": "Sun", "time": "Closed"}], "id": "5322600041", "name": "USPS COLLECTION BOX - BLUE BOX", "address": {"city": "WAUWATOSA", "state": "WI", "street": "933 N MAYFAIR RD", "postcode": "53226"}}},
{"geometry": {"type": "Point", "coordinates": [-88.0473645093, 43.041763471]}, "type": "Feature", "properties": {"collection_times": [{"days": "Mon-Fri", "time": "4:00pm"}, {"days": "Sat", "time": "12:30pm"}, {"days": "Sun", "time": "Closed"}], "id": "5322600042", "name": "USPS COLLECTION BOX - BLUE BOX", "address": {"city": "WAUWATOSA", "state": "WI", "street": "933 N MAYFAIR RD", "postcode": "53226"}}},
{"geometry": {"type": "Point", "coordinates": [-88.0441515928, 43.034933066]}, "type": "Feature", "properties": {"collection_times": [{"days": "Mon-Fri", "time": "3:00pm"}, {"days": "Sat", "time": "12:30pm"}, {"days": "Sun", "time": "Closed"}], "id": "5322600045", "name": "USPS COLLECTION BOX - BLUE BOX", "address": {"city": "WAUWATOSA", "state": "WI", "street": "10520 W BLUEMOUND RD", "postcode": "53226"}}},
{"geometry": {"type": "Point", "coordinates": [-88.0318131787, 43.0641590881]}, "type": "Feature", "properties": {"collection_times": [{"days": "Mon-Fri", "time": "12:00pm"}, {"days": "Sat", "time": "11:30am"}, {"days": "Sun", "time": "Closed"}], "id": "5322600047", "name": "USPS COLLECTION BOX - BLUE BOX", "address": {"city": "WAUWATOSA", "state": "WI", "street": "9599 WILSON BLVD", "postcode": "53226"}}},
{"geometry": {"type": "Point", "coordinates": [-88.047634224, 43.0638871696]}, "type": "Feature", "properties": {"collection_times": [{"days": "Mon-Fri", "time": "3:00pm"}, {"days": "Sat", "time": "11:30am"}, {"days": "Sun", "time": "Closed"}], "id": "5322600058", "name": "USPS COLLECTION BOX - BLUE BOX", "address": {"city": "WAUWATOSA", "state": "WI", "street": "2500 N MAYFAIR RD", "postcode": "53226"}}},
{"geometry": {"type": "Point", "coordinates": [-88.047634224, 43.0638871696]}, "type": "Feature", "properties": {"collection_times": [{"days": "Mon-Fri", "time": "3:00pm"}, {"days": "Sat", "time": "11:30am"}, {"days": "Sun", "time": "Closed"}], "id": "5322600060", "name": "USPS COLLECTION BOX - BLUE BOX", "address": {"city": "WAUWATOSA", "state": "WI", "street": "2500 N MAYFAIR RD", "postcode": "53226"}}},
{"geometry": {"type": "Point", "coordinates": [-88.0478388759, 43.0520114445]}, "type": "Feature", "properties": {"collection_times": [{"days": "Mon-Fri", "time": "5:00pm"}, {"days": "Sat", "time": "3:00pm"}, {"days": "Sun", "time": "Closed"}], "id": "5322600066", "name": "USPS COLLECTION BOX - BLUE BOX", "address": {"city": "WAUWATOSA", "state": "WI", "street": "1655 N MAYFAIR RD", "postcode": "53226"}}},
{"geometry": {"type": "Point", "coordinates": [-88.0478388759, 43.0520114445]}, "type": "Feature", "properties": {"collection_times": [{"days": "Mon-Fri", "time": "5:00pm"}, {"days": "Sat", "time": "3:00pm"}, {"days": "Sun", "time": "Closed"}], "id": "5322600067", "name": "USPS COLLECTION BOX - BLUE BOX", "address": {"city": "WAUWATOSA", "state": "WI", "street": "1655 N MAYFAIR RD", "postcode": "53226"}}},
{"geometry": {"type": "Point", "coordinates": [-88.04806715, 43.052492894]}, "type": "Feature", "properties": {"collection_times": [{"days": "Mon-Fri", "time": "5:00pm"}, {"days": "Sat", "time": "3:00pm"}, {"days": "Sun", "time": "Closed"}], "id": "5322600075", "name": "USPS COLLECTION BOX - PO LOBBY", "address": {"city": "WAUWATOSA", "state": "WI", "street": "1655 N MAYFAIR RD", "postcode": "53226"}}},
{"geometry": {"type": "Point", "coordinates": [-88.0596270619, 43.0599443674]}, "type": "Feature", "properties": {"collection_times": [{"days": "Mon-Fri", "time": "3:30pm"}, {"days": "Sat", "time": "11:30am"}, {"days": "Sun", "time": "Closed"}], "id": "5322600076", "name": "USPS COLLECTION BOX - BLUE BOX", "address": {"city": "WAUWATOSA", "state": "WI", "street": "11707 W NORTH AVE", "postcode": "53226"}}},
{"geometry": {"type": "Point", "coordinates": [-88.0475159281, 43.0583213477]}, "type": "Feature", "properties": {"collection_times": [{"days": "Mon-Fri", "time": "3:30pm"}, {"days": "Sat", "time": "11:30am"}, {"days": "Sun", "time": "Closed"}], "id": "5322600077", "name": "USPS COLLECTION BOX - BLUE BOX", "address": {"city": "WAUWATOSA", "state": "WI", "street": "2200 N MAYFAIR RD", "postcode": "53226"}}},
{"geometry": {"type": "Point", "coordinates": [-88.0576290845, 43.0601793193]}, "type": "Feature", "properties": {"collection_times": [{"days": "Mon-Fri", "time": "3:30pm"}, {"days": "Sat", "time": "11:30am"}, {"days": "Sun", "time": "Closed"}], "id": "5322600081", "name": "USPS COLLECTION BOX - BLUE BOX", "address": {"city": "WAUWATOSA", "state": "WI", "street": "11600 W NORTH AVE", "postcode": "53226"}}},
{"geometry": {"type": "Point", "coordinates": [-88.0273401576, 43.0384627058]}, "type": "Feature", "properties": {"collection_times": [{"days": "Mon-Fri", "time": "3:00pm"}, {"days": "Sat-Sun", "time": "Closed"}], "id": "5322600082", "name": "USPS COLLECTION BOX - BLUE BOX", "address": {"city": "WAUWATOSA", "state": "WI", "street": "9200 W WISCONSIN AVE", "postcode": "53226"}}},
{"geometry": {"type": "Point", "coordinates": [-88.0431105889, 43.0601750444]}, "type": "Feature", "properties": {"collection_times": [{"days": "Mon-Fri", "time": "3:30pm"}, {"days": "Sat", "time": "11:30am"}, {"days": "Sun", "time": "Closed"}], "id": "5322600093", "name": "USPS COLLECTION BOX - BLUE BOX", "address": {"city": "WAUWATOSA", "state": "WI", "street": "10425 W NORTH AVE", "postcode": "53226"}}},
{"geometry": {"type": "Point", "coordinates": [-88.0200922362, 43.0424274776]}, "type": "Feature", "properties": {"collection_times": [{"days": "Mon-Fri", "time": "3:00pm"}, {"days": "Sat-Sun", "time": "Closed"}], "id": "5322600097", "name": "USPS COLLECTION BOX - BLUE BOX", "address": {"city": "WAUWATOSA", "state": "WI", "street": "9000 CONNELL AVE", "postcode": "53226"}}},
{"geometry": {"type": "Point", "coordinates": [-88.0473917174, 43.0450308037]}, "type": "Feature", "properties": {"collection_times": [{"days": "Mon-Fri", "time": "4:00pm"}, {"days": "Sat-Sun", "time": "Closed"}], "id": "5322600099", "name": "USPS COLLECTION BOX - BLUE BOX", "address": {"city": "WAUWATOSA", "state": "WI", "street": "1155 N MAYFAIR RD", "postcode": "53226"}}},
{"geometry": {"type": "Point", "coordinates": [-88.0206161534, 43.0457690036]}, "type": "Feature", "properties": {"collection_times": [{"days": "Mon-Fri", "time": "3:00pm"}, {"days": "Sat-Sun", "time": "Closed"}], "id": "5322600103", "name": "USPS COLLECTION BOX - BLUE BOX", "address": {"city": "WAUWATOSA", "state": "WI", "street": "8701 W WATERTOWN PLANK RD", "postcode": "53226"}}},
{"geometry": {"type": "Point", "coordinates": [-88.0473361183, 43.0324038997]}, "type": "Feature", "properties": {"collection_times": [{"days": "Mon-Fri", "time": "3:00pm"}, {"days": "Sat", "time": "11:30am"}, {"days": "Sun", "time": "Closed"}], "id": "5322600106", "name": "USPS COLLECTION BOX - BLUE BOX", "address": {"city": "WAUWATOSA", "state": "WI", "street": "201 N MAYFAIR RD", "postcode": "53226"}}},
{"geometry": {"type": "Point", "coordinates": [-88.0478388759, 43.0520114445]}, "type": "Feature", "properties": {"collection_times": [{"days": "Mon-Fri", "time": "5:00pm"}, {"days": "Sat", "time": "3:00pm"}, {"days": "Sun", "time": "Closed"}], "id": "5322600108", "name": "USPS COLLECTION BOX - APC", "address": {"city": "WAUWATOSA", "state": "WI", "street": "1655 N MAYFAIR RD", "postcode": "53226"}}},
{"geometry": {"type": "Point", "coordinates": [-88.0479275978, 43.0669072638]}, "type": "Feature", "properties": {"collection_times": [{"days": "Mon-Fri", "time": "3:30pm"}, {"days": "Sat-Sun", "time": "Closed"}], "id": "5322600110", "name": "USPS COLLECTION BOX - BLUE BOX", "address": {"city": "WAUWATOSA", "state": "WI", "street": "2675 N MAYFAIR RD", "postcode": "53226"}}},
{"geometry": {"type": "Point", "coordinates": [-88.0463360516, 43.0412015835]}, "type": "Feature", "properties": {"collection_times": [{"days": "Mon-Fri", "time": "4:00pm"}, {"days": "Sat", "time": "12:30pm"}, {"days": "Sun", "time": "Closed"}], "id": "5322600111", "name": "USPS COLLECTION BOX - BLUE BOX", "address": {"city": "WAUWATOSA", "state": "WI", "street": "10700 W RESEARCH DR", "postcode": "53226"}}},
{"geometry": {"type": "Point", "coordinates": [-88.0367130299, 43.0373061788]}, "type": "Feature", "properties": {"collection_times": [{"days": "Mon-Fri", "time": "2:30pm"}, {"days": "Sat", "time": "12:30pm"}, {"days": "Sun", "time": "Closed"}], "id": "5322600112", "name": "USPS COLLECTION BOX - BLUE BOX", "address": {"city": "WAUWATOSA", "state": "WI", "street": "601 N 99TH ST", "postcode": "53226"}}},
{"geometry": {"type": "Point", "coordinates": [-88.0567087022, 43.0054466308]}, "type": "Feature", "properties": {"collection_times": [{"days": "Mon-Fri", "time": "4:45pm"}, {"days": "Sat", "time": "1:00pm"}, {"days": "Sun", "time": "Closed"}], "id": "5322700001", "name": "USPS COLLECTION BOX - BLUE BOX", "address": {"city": "MILWAUKEE", "state": "WI", "street": "2135 S 116TH ST", "postcode": "53227"}}},
{"geometry": {"type": "Point", "coordinates": [-88.0263422883, 42.9955637069]}, "type": "Feature", "properties": {"collection_times": [{"days": "Mon-Sat", "time": "1:00pm"}, {"days": "Sun", "time": "Closed"}], "id": "5322700006", "name": "USPS COLLECTION BOX - BLUE BOX", "address": {"city": "MILWAUKEE", "state": "WI", "street": "9124 W CLEVELAND AVE", "postcode": "53227"}}},
{"geometry": {"type": "Point", "coordinates": [-88.0472001981, 42.9966149614]}, "type": "Feature", "properties": {"collection_times": [{"days": "Mon-Sat", "time": "1:00pm"}, {"days": "Sun", "time": "Closed"}], "id": "5322700007", "name": "USPS COLLECTION BOX - BLUE BOX", "address": {"city": "MILWAUKEE", "state": "WI", "street": "2601 S 108TH ST", "postcode": "53227"}}},
{"geometry": {"type": "Point", "coordinates": [-88.0259520229, 43.0055466741]}, "type": "Feature", "properties": {"collection_times": [{"days": "Mon-Sat", "time": "1:00pm"}, {"days": "Sun", "time": "Closed"}], "id": "5322700020", "name": "USPS COLLECTION BOX - BLUE BOX", "address": {"city": "MILWAUKEE", "state": "WI", "street": "9101 W NATIONAL AVE", "postcode": "53227"}}},
{"geometry": {"type": "Point", "coordinates": [-88.02918243, 43.0026512988]}, "type": "Feature", "properties": {"collection_times": [{"days": "Mon-Fri", "time": "4:00pm"}, {"days": "Sat", "time": "1:00pm"}, {"days": "Sun", "time": "Closed"}], "id": "5322700032", "name": "USPS COLLECTION BOX - BLUE BOX", "address": {"city": "MILWAUKEE", "state": "WI", "street": "9333 W LINCOLN AVE", "postcode": "53227"}}},
{"geometry": {"type": "Point", "coordinates": [-88.0411303156, 43.0009241787]}, "type": "Feature", "properties": {"collection_times": [{"days": "Mon-Fri", "time": "4:45pm"}, {"days": "Sat", "time": "1:00pm"}, {"days": "Sun", "time": "Closed"}], "id": "5322700040", "name": "USPS COLLECTION BOX - BLUE BOX", "address": {"city": "MILWAUKEE", "state": "WI", "street": "2400 S 102ND ST", "postcode": "53227"}}},
{"geometry": {"type": "Point", "coordinates": [-88.0431870172, 42.9960317139]}, "type": "Feature", "properties": {"collection_times": [{"days": "Mon-Sat", "time": "1:00pm"}, {"days": "Sun", "time": "Closed"}], "id": "5322700041", "name": "USPS COLLECTION BOX - BLUE BOX", "address": {"city": "MILWAUKEE", "state": "WI", "street": "10282 W NATIONAL AVE", "postcode": "53227"}}},
{"geometry": {"type": "Point", "coordinates": [-88.0558043036, 42.9953653765]}, "type": "Feature", "properties": {"collection_times": [{"days": "Mon-Sat", "time": "1:00pm"}, {"days": "Sun", "time": "Closed"}], "id": "5322700048", "name": "USPS COLLECTION BOX - BLUE BOX", "address": {"city": "MILWAUKEE", "state": "WI", "street": "11515 W CLEVELAND AVE", "postcode": "53227"}}},
{"geometry": {"type": "Point", "coordinates": [-88.04189209, 42.9974409002]}, "type": "Feature", "properties": {"collection_times": [{"days": "Mon-Fri", "time": "4:45pm"}, {"days": "Sat", "time": "1:00pm"}, {"days": "Sun", "time": "Closed"}], "id": "5322700062", "name": "USPS COLLECTION BOX - BLUE BOX", "address": {"city": "MILWAUKEE", "state": "WI", "street": "2550 S 102ND ST", "postcode": "53227"}}},
{"geometry": {"type": "Point", "coordinates": [-88.0199387887, 43.0089162494]}, "type": "Feature", "properties": {"collection_times": [{"days": "Mon-Fri", "time": "4:30pm"}, {"days": "Sat", "time": "1:00pm"}, {"days": "Sun", "time": "Closed"}], "id": "5322700066", "name": "USPS COLLECTION BOX - BLUE BOX", "address": {"city": "MILWAUKEE", "state": "WI", "street": "8600 W NATIONAL AVE", "postcode": "53227"}}},
{"geometry": {"type": "Point", "coordinates": [-88.0176411768, 42.9879387316]}, "type": "Feature", "properties": {"collection_times": [{"days": "Mon-Sat", "time": "1:00pm"}, {"days": "Sun", "time": "Closed"}], "id": "5322700069", "name": "USPS COLLECTION BOX - BLUE BOX", "address": {"city": "MILWAUKEE", "state": "WI", "street": "3023 S 84TH ST", "postcode": "53227"}}},
{"geometry": {"type": "Point", "coordinates": [-88.0304706723, 42.9847909843]}, "type": "Feature", "properties": {"collection_times": [{"days": "Mon-Fri", "time": "4:00pm"}, {"days": "Sat", "time": "12:00pm"}, {"days": "Sun", "time": "Closed"}], "id": "5322700070", "name": "USPS COLLECTION BOX - BLUE BOX", "address": {"city": "MILWAUKEE", "state": "WI", "street": "9431 W BELOIT RD", "postcode": "53227"}}},
{"geometry": {"type": "Point", "coordinates": [-88.0508270302, 42.9880192793]}, "type": "Feature", "properties": {"collection_times": [{"days": "Mon-Fri", "time": "5:00pm"}, {"days": "Sat", "time": "3:00pm"}, {"days": "Sun", "time": "Closed"}], "id": "5322700074", "name": "USPS COLLECTION BOX - BLUE BOX", "address": {"city": "MILWAUKEE", "state": "WI", "street": "11015 W OKLAHOMA AVE", "postcode": "53227"}}},
{"geometry": {"type": "Point", "coordinates": [-88.050400587, 42.9879916356]}, "type": "Feature", "properties": {"collection_times": [{"days": "Mon-Fri", "time": "5:00pm"}, {"days": "Sat", "time": "3:00pm"}, {"days": "Sun", "time": "Closed"}], "id": "5322700075", "name": "USPS COLLECTION BOX - BLUE BOX", "address": {"city": "MILWAUKEE", "state": "WI", "street": "11015 W OKLAHOMA AVE", "postcode": "53227"}}},
{"geometry": {"type": "Point", "coordinates": [-88.050290252, 42.987991993]}, "type": "Feature", "properties": {"collection_times": [{"days": "Mon-Fri", "time": "5:00pm"}, {"days": "Sat", "time": "2:30pm"}, {"days": "Sun", "time": "Closed"}], "id": "5322700082", "name": "USPS COLLECTION BOX - PO LOBBY", "address": {"city": "MILWAUKEE", "state": "WI", "street": "11015 W OKLAHOMA AVE", "postcode": "53227"}}},
{"geometry": {"type": "Point", "coordinates": [-88.050290252, 42.987991993]}, "type": "Feature", "properties": {"collection_times": [{"days": "Mon-Fri", "time": "5:00pm"}, {"days": "Sat", "time": "2:30pm"}, {"days": "Sun", "time": "Closed"}], "id": "5322700083", "name": "USPS COLLECTION BOX - PO LOBBY", "address": {"city": "MILWAUKEE", "state": "WI", "street": "11015 W OKLAHOMA AVE", "postcode": "53227"}}},
{"geometry": {"type": "Point", "coordinates": [-88.0276469762, 42.9735825371]}, "type": "Feature", "properties": {"collection_times": [{"days": "Mon-Sat", "time": "1:00pm"}, {"days": "Sun", "time": "Closed"}], "id": "5322800005", "name": "USPS COLLECTION BOX - BLUE BOX", "address": {"city": "GREENFIELD", "state": "WI", "street": "9199 W HOWARD AVE", "postcode": "53228"}}},
{"geometry": {"type": "Point", "coordinates": [-88.0476365899, 42.9678415483]}, "type": "Feature", "properties": {"collection_times": [{"days": "Mon-Fri", "time": "2:00pm"}, {"days": "Sat", "time": "1:00pm"}, {"days": "Sun", "time": "Closed"}], "id": "5322800008", "name": "USPS COLLECTION BOX - BLUE BOX", "address": {"city": "GREENFIELD", "state": "WI", "street": "4160 S 108TH ST", "postcode": "53228"}}},
{"geometry": {"type": "Point", "coordinates": [-87.9231220807, 43.0418977478]}, "type": "Feature", "properties": {"collection_times": [{"days": "Mon-Fri", "time": "1:00pm"}, {"days": "Sat-Sun", "time": "Closed"}], "id": "5323300017", "name": "USPS COLLECTION BOX - BLUE BOX", "address": {"city": "MILWAUKEE", "state": "WI", "street": "949 N 9TH ST", "postcode": "53233"}}},
{"geometry": {"type": "Point", "coordinates": [-87.933300057, 43.0387291813]}, "type": "Feature", "properties": {"collection_times": [{"days": "Mon-Fri", "time": "1:00pm"}, {"days": "Sat-Sun", "time": "Closed"}], "id": "5323300038", "name": "USPS COLLECTION BOX - BLUE BOX", "address": {"city": "MILWAUKEE", "state": "WI", "street": "1600 W WISCONSIN AVE", "postcode": "53233"}}},
{"geometry": {"type": "Point", "coordinates": [-87.9275863652, 43.0416238819]}, "type": "Feature", "properties": {"collection_times": [{"days": "Mon-Fri", "time": "1:00pm"}, {"days": "Sat-Sun", "time": "Closed"}], "id": "5323300039", "name": "USPS COLLECTION BOX - BLUE BOX", "address": {"city": "MILWAUKEE", "state": "WI", "street": "1218 W KILBOURN AVE", "postcode": "53233"}}},
{"geometry": {"type": "Point", "coordinates": [-87.9463828088, 43.0388244442]}, "type": "Feature", "properties": {"collection_times": [{"days": "Mon-Fri", "time": "1:00pm"}, {"days": "Sat-Sun", "time": "Closed"}], "id": "5323300050", "name": "USPS COLLECTION BOX - BLUE BOX", "address": {"city": "MILWAUKEE", "state": "WI", "street": "2600 W WISCONSIN AVE", "postcode": "53233"}}},
{"geometry": {"type": "Point", "coordinates": [-87.9231220807, 43.0418977478]}, "type": "Feature", "properties": {"collection_times": [{"days": "Mon-Fri", "time": "1:00pm"}, {"days": "Sat-Sun", "time": "Closed"}], "id": "5323300071", "name": "USPS COLLECTION BOX - BLUE BOX", "address": {"city": "MILWAUKEE", "state": "WI", "street": "949 N 9TH ST", "postcode": "53233"}}},
{"geometry": {"type": "Point", "coordinates": [-87.9213900262, 43.0388297328]}, "type": "Feature", "properties": {"collection_times": [{"days": "Mon-Fri", "time": "3:00pm"}, {"days": "Sat-Sun", "time": "Closed"}], "id": "5323300094", "name": "USPS COLLECTION BOX - BLUE BOX", "address": {"city": "MILWAUKEE", "state": "WI", "street": "735 W WISCONSIN AVE", "postcode": "53233"}}},
{"geometry": {"type": "Point", "coordinates": [-87.8793299202, 42.9804956603]}, "type": "Feature", "properties": {"collection_times": [{"days": "Mon-Fri", "time": "2:00pm"}, {"days": "Sat", "time": "2:30pm"}, {"days": "Sun", "time": "Closed"}], "id": "5323500001", "name": "USPS COLLECTION BOX - BLUE BOX", "address": {"city": "MILWAUKEE", "state": "WI", "street": "3501 S KINNICKINNIC AVE", "postcode": "53235"}}},
{"geometry": {"type": "Point", "coordinates": [-87.8727190792, 42.9670557512]}, "type": "Feature", "properties": {"collection_times": [{"days": "Mon-Fri", "time": "2:00pm"}, {"days": "Sat", "time": "2:30pm"}, {"days": "Sun", "time": "Closed"}], "id": "5323500007", "name": "USPS COLLECTION BOX - BLUE BOX", "address": {"city": "MILWAUKEE", "state": "WI", "street": "2998 E BOLIVAR AVE", "postcode": "53235"}}},
{"geometry": {"type": "Point", "coordinates": [-87.8775590306, 42.9595998732]}, "type": "Feature", "properties": {"collection_times": [{"days": "Mon-Fri", "time": "2:00pm"}, {"days": "Sat", "time": "2:30pm"}, {"days": "Sun", "time": "Closed"}], "id": "5323500013", "name": "USPS COLLECTION BOX - BLUE BOX", "address": {"city": "MILWAUKEE", "state": "WI", "street": "4698 S WHITNALL AVE", "postcode": "53235"}}},
{"geometry": {"type": "Point", "coordinates": [-87.909447295, 42.9444608495]}, "type": "Feature", "properties": {"collection_times": [{"days": "Mon-Fri", "time": "6:30pm"}, {"days": "Sat", "time": "6:00pm"}, {"days": "Sun", "time": "Closed"}], "id": "5323700000", "name": "USPS COLLECTION BOX - BLUE BOX", "address": {"city": "MILWAUKEE", "state": "WI", "street": "5500 S HOWELL AVE", "postcode": "53237"}}},
{"geometry": {"type": "Point", "coordinates": [-87.909444312, 42.944438263]}, "type": "Feature", "properties": {"collection_times": [{"days": "Mon-Fri", "time": "6:30pm"}, {"days": "Sat", "time": "6:00pm"}, {"days": "Sun", "time": "Closed"}], "id": "5323700005", "name": "USPS COLLECTION BOX - PO LOBBY", "address": {"city": "MILWAUKEE", "state": "WI", "street": "5500 S HOWELL AVE", "postcode": "53237"}}},
{"geometry": {"type": "Point", "coordinates": [-87.9094967122, 42.9447762485]}, "type": "Feature", "properties": {"collection_times": [{"days": "Mon-Fri", "time": "6:30pm"}, {"days": "Sat", "time": "6:00pm"}, {"days": "Sun", "time": "Closed"}], "id": "5323700008", "name": "USPS COLLECTION BOX - APC", "address": {"city": "MILWAUKEE", "state": "WI", "street": "5500 S HOWELL AVE", "postcode": "53237"}}},
{"geometry": {"type": "Point", "coordinates": [-87.909447295, 42.9444608495]}, "type": "Feature", "properties": {"collection_times": [{"days": "Mon-Fri", "time": "6:30pm"}, {"days": "Sat", "time": "6:00pm"}, {"days": "Sun", "time": "Closed"}], "id": "5323700009", "name": "USPS COLLECTION BOX - BLUE BOX", "address": {"city": "MILWAUKEE", "state": "WI", "street": "5500 S HOWELL AVE", "postcode": "53237"}}},
{"geometry": {"type": "Point", "coordinates": [-87.909447295, 42.9444608495]}, "type": "Feature", "properties": {"collection_times": [{"days": "Mon-Fri", "time": "6:30pm"}, {"days": "Sat", "time": "6:00pm"}, {"days": "Sun", "time": "Closed"}], "id": "5323700010", "name": "USPS COLLECTION BOX - BLUE BOX", "address": {"city": "MILWAUKEE", "state": "WI", "street": "5500 S HOWELL AVE", "postcode": "53237"}}}
]}
