{"type": "FeatureCollection", "features": [
{"geometry": {"type": "Point", "coordinates": [-87.7869573864, 42.7689849633]}, "type": "Feature", "properties": {"collection_times": [{"days": "Mon-Sat", "time": "12:00pm"}, {"days": "Sun", "time": "Closed"}], "id": "5340200004", "name": "USPS COLLECTION BOX - BLUE BOX", "address": {"city": "RACINE", "state": "WI", "street": "3900 ERIE ST", "postcode": "53402"}}},
{"geometry": {"type": "Point", "coordinates": [-87.7825354858, 42.7153992881]}, "type": "Feature", "properties": {"collection_times": [{"days": "Mon-Sat", "time": "12:00pm"}, {"days": "Sun", "time": "Closed"}], "id": "5340200006", "name": "USPS COLLECTION BOX - BLUE BOX", "address": {"city": "RACINE", "state": "WI", "street": "1400 N MAIN ST", "postcode": "53402"}}},
{"geometry": {"type": "Point", "coordinates": [-87.7943828199, 42.7511968093]}, "type": "Feature", "properties": {"collection_times": [{"days": "Mon-Sat", "time": "10:00am"}, {"days": "Sun", "time": "Closed"}], "id": "5340200009", "name": "USPS COLLECTION BOX - BLUE BOX", "address": {"city": "RACINE", "state": "WI", "street": "2426 GENEVA ST", "postcode": "53402"}}},
{"geometry": {"type": "Point", "coordinates": [-87.7818686767, 42.7700274113]}, "type": "Feature", "properties": {"collection_times": [{"days": "Mon-Sat", "time": "12:00pm"}, {"days": "Sun", "time": "Closed"}], "id": "5340200011", "name": "USPS COLLECTION BOX - BLUE BOX", "address": {"city": "RACINE", "state": "WI", "street": "4001 N MAIN ST", "postcode": "53402"}}},
{"geometry": {"type": "Point", "coordinates": [-87.7837657631, 42.7251977372]}, "type": "Feature", "properties": {"collection_times": [{"days": "Mon-Fri", "time": "12:00pm"}, {"days": "Sat-Sun", "time": "Closed"}], "id": "5340300005", "name": "USPS COLLECTION BOX - BLUE BOX", "address": {"city": "MOUNT PLEASANT", "state": "WI", "street": "730 WISCONSIN AVE", "postcode": "53403"}}},
{"geometry": {"type": "Point", "coordinates": [-87.7966107575, 42.712434421]}, "type": "Feature", "properties": {"collection_times": [{"days": "Mon-Sat", "time": "12:00pm"}, {"days": "Sun", "time": "Closed"}], "id": "5340300010", "name": "USPS COLLECTION BOX - BLUE BOX", "address": {"city": "MOUNT PLEASANT", "state": "WI", "street": "1405 16TH ST", "postcode": "53403"}}},
{"geometry": {"type": "Point", "coordinates": [-87.7816754812, 42.726975462]}, "type": "Feature", "properties": {"collection_times": [{"days": "Mon-Fri", "time": "5:00pm"}, {"days": "Sat", "time": "10:00am"}, {"days": "Sun", "time": "Closed"}], "id": "5340300012", "name": "USPS COLLECTION BOX - BLUE BOX", "address": {"city": "MOUNT PLEASANT", "state": "WI", "street": "600 LAKE AVE", "postcode": "53403"}}},
{"geometry": {"type": "Point", "coordinates": [-87.8573765677, 42.6772843502]}, "type": "Feature", "properties": {"collection_times": [{"days": "Mon-Sat", "time": "10:00am"}, {"days": "Sun", "time": "Closed"}], "id": "5340300022", "name": "USPS COLLECTION BOX - BLUE BOX", "address": {"city": "MOUNT PLEASANT", "state": "WI", "street": "6233 BANKERS RD", "postcode": "53403"}}},
{"geometry": {"type": "Point", "coordinates": [-87.7827247593, 42.7266397642]}, "type": "Feature", "properties": {"collection_times": [{"days": "Mon-Fri", "time": "5:00pm"}, {"days": "Sat", "time": "10:00am"}, {"days": "Sun", "time": "Closed"}], "id": "5340300023", "name": "USPS COLLECTION BOX - BLUE BOX", "address": {"city": "MOUNT PLEASANT", "state": "WI", "street": "603 MAIN ST", "postcode": "53403"}}},
{"geometry": {"type": "Point", "coordinates": [-87.7827247593, 42.7266397642]}, "type": "Feature", "properties": {"collection_times": [{"days": "Mon-Fri", "time": "5:00pm"}, {"days": "Sat", "time": "10:00am"}, {"days": "Sun", "time": "Closed"}], "id": "5340300027", "name": "USPS COLLECTION BOX - BLUE BOX", "address": {"city": "MOUNT PLEASANT", "state": "WI", "street": "603 MAIN ST", "postcode": "53403"}}},
{"geometry": {"type": "Point", "coordinates": [-87.7894893053, 42.7257289307]}, "type": "Feature", "properties": {"collection_times": [{"days": "Mon-Fri", "time": "12:00pm"}, {"days": "Sat-Sun", "time": "Closed"}], "id": "5340300028", "name": "USPS COLLECTION BOX - BLUE BOX", "address": {"city": "MOUNT PLEASANT", "state": "WI", "street": "730 WASHINGTON AVE", "postcode": "53403"}}},
{"geometry": {"type": "Point", "coordinates": [-87.8084269087, 42.7477804238]}, "type": "Feature", "properties": {"collection_times": [{"days": "Mon-Sat", "time": "12:00pm"}, {"days": "Sun", "time": "Closed"}], "id": "5340400004", "name": "USPS COLLECTION BOX - BLUE BOX", "address": {"city": "RACINE", "state": "WI", "street": "2210 RAPIDS DR", "postcode": "53404"}}},
{"geometry": {"type": "Point", "coordinates": [-87.8100878285, 42.784514243]}, "type": "Feature", "properties": {"collection_times": [{"days": "Mon-Fri", "time": "5:00pm"}, {"days": "Sat", "time": "3:00pm"}, {"days": "Sun", "time": "Closed"}], "id": "5340400017", "name": "USPS COLLECTION BOX - BLUE BOX", "address": {"city": "RACINE", "state": "WI", "street": "2635 4 MILE RD", "postcode": "53404"}}},
{"geometry": {"type": "Point", "coordinates": [-87.8100878285, 42.784514243]}, "type": "Feature", "properties": {"collection_times": [{"days": "Mon-Fri", "time": "5:00pm"}, {"days": "Sat", "time": "3:00pm"}, {"days": "Sun", "time": "Closed"}], "id": "5340400018", "name": "USPS COLLECTION BOX - BLUE BOX", "address": {"city": "RACINE", "state": "WI", "street": "2635 4 MILE RD", "postcode": "53404"}}},
{"geometry": {"type": "Point", "coordinates": [-87.8100878285, 42.784514243]}, "type": "Feature", "properties": {"collection_times": [{"days": "Mon-Fri", "time": "5:00pm"}, {"days": "Sat", "time": "3:00pm"}, {"days": "Sun", "time": "Closed"}], "id": "5340400019", "name": "USPS COLLECTION BOX - PO LOBBY", "address": {"city": "RACINE", "state": "WI", "street": "2635 4 MILE RD", "postcode": "53404"}}},
{"geometry": {"type": "Point", "coordinates": [-87.8100878285, 42.784514243]}, "type": "Feature", "properties": {"collection_times": [{"days": "Mon-Fri", "time": "5:00pm"}, {"days": "Sat", "time": "3:00pm"}, {"days": "Sun", "time": "Closed"}], "id": "5340400020", "name": "USPS COLLECTION BOX - PO LOBBY", "address": {"city": "RACINE", "state": "WI", "street": "2635 4 MILE RD", "postcode": "53404"}}},
{"geometry": {"type": "Point", "coordinates": [-87.8100878285, 42.784514243]}, "type": "Feature", "properties": {"collection_times": [{"days": "Mon-Fri", "time": "5:00pm"}, {"days": "Sat", "time": "3:00pm"}, {"days": "Sun", "time": "Closed"}], "id": "5340400021", "name": "USPS COLLECTION BOX - PO LOBBY", "address": {"city": "RACINE", "state": "WI", "street": "2635 4 MILE RD", "postcode": "53404"}}},
{"geometry": {"type": "Point", "coordinates": [-87.7987869761, 42.7441830456]}, "type": "Feature", "properties": {"collection_times": [{"days": "Mon-Sat", "time": "12:00pm"}, {"days": "Sun", "time": "Closed"}], "id": "5340400022", "name": "USPS COLLECTION BOX - BLUE BOX", "address": {"city": "RACINE", "state": "WI", "street": "1509 RAPIDS DR", "postcode": "53404"}}},
{"geometry": {"type": "Point", "coordinates": [-87.8100878285, 42.784514243]}, "type": "Feature", "properties": {"collection_times": [{"days": "Mon-Fri", "time": "5:00pm"}, {"days": "Sat", "time": "3:00pm"}, {"days": "Sun", "time": "Closed"}], "id": "5340400024", "name": "USPS COLLECTION BOX - APC", "address": {"city": "RACINE", "state": "WI", "street": "2635 4 MILE RD", "postcode": "53404"}}},
{"geometry": {"type": "Point", "coordinates": [-87.8161989491, 42.7195313638]}, "type": "Feature", "properties": {"collection_times": [{"days": "Mon-Sat", "time": "10:00am"}, {"days": "Sun", "time": "Closed"}], "id": "5340500007", "name": "USPS COLLECTION BOX - BLUE BOX", "address": {"city": "RACINE", "state": "WI", "street": "1122 WEST BLVD", "postcode": "53405"}}},
{"geometry": {"type": "Point", "coordinates": [-87.8259477139, 42.6990614418]}, "type": "Feature", "properties": {"collection_times": [{"days": "Mon-Sat", "time": "10:00am"}, {"days": "Sun", "time": "Closed"}], "id": "5340500010", "name": "USPS COLLECTION BOX - BLUE BOX", "address": {"city": "RACINE", "state": "WI", "street": "2704 LATHROP AVE", "postcode": "53405"}}},
{"geometry": {"type": "Point", "coordinates": [-87.8253633322, 42.6968670529]}, "type": "Feature", "properties": {"collection_times": [{"days": "Mon-Sat", "time": "10:00am"}, {"days": "Sun", "time": "Closed"}], "id": "5340500012", "name": "USPS COLLECTION BOX - BLUE BOX", "address": {"city": "RACINE", "state": "WI", "street": "3825 DURAND AVE", "postcode": "53405"}}},
{"geometry": {"type": "Point", "coordinates": [-87.8393116013, 42.7160392689]}, "type": "Feature", "properties": {"collection_times": [{"days": "Mon-Fri", "time": "5:00pm"}, {"days": "Sat", "time": "3:00pm"}, {"days": "Sun", "time": "Closed"}], "id": "5340600006", "name": "USPS COLLECTION BOX - APC", "address": {"city": "MOUNT PLEASANT", "state": "WI", "street": "1300 PERRY AVE", "postcode": "53406"}}},
{"geometry": {"type": "Point", "coordinates": [-87.8559655248, 42.719334225]}, "type": "Feature", "properties": {"collection_times": [{"days": "Mon-Sat", "time": "10:00am"}, {"days": "Sun", "time": "Closed"}], "id": "5340600010", "name": "USPS COLLECTION BOX - BLUE BOX", "address": {"city": "MOUNT PLEASANT", "state": "WI", "street": "6218 WASHINGTON AVE", "postcode": "53406"}}},
{"geometry": {"type": "Point", "coordinates": [-87.8393116013, 42.7160392689]}, "type": "Feature", "properties": {"collection_times": [{"days": "Mon-Fri", "time": "5:00pm"}, {"days": "Sat", "time": "3:00pm"}, {"days": "Sun", "time": "Closed"}], "id": "5340600020", "name": "USPS COLLECTION BOX - PO LOBBY", "address": {"city": "MOUNT PLEASANT", "state": "WI", "street": "1300 PERRY AVE", "postcode": "53406"}}},
{"geometry": {"type": "Point", "coordinates": [-87.8393777122, 42.7160588351]}, "type": "Feature", "properties": {"collection_times": [{"days": "Mon-Fri", "time": "5:00pm"}, {"days": "Sat", "time": "3:00pm"}, {"days": "Sun", "time": "Closed"}], "id": "5340600021", "name": "USPS COLLECTION BOX - BLUE BOX", "address": {"city": "MOUNT PLEASANT", "state": "WI", "street": "1300 PERRY AVE", "postcode": "53406"}}},
{"geometry": {"type": "Point", "coordinates": [-87.8393116013, 42.7160392689]}, "type": "Feature", "properties": {"collection_times": [{"days": "Mon-Fri", "time": "5:00pm"}, {"days": "Sat", "time": "3:00pm"}, {"days": "Sun", "time": "Closed"}], "id": "5340600022", "name": "USPS COLLECTION BOX - BLUE BOX", "address": {"city": "MOUNT PLEASANT", "state": "WI", "street": "1300 PERRY AVE", "postcode": "53406"}}},
{"geometry": {"type": "Point", "coordinates": [-87.8393116013, 42.7160392689]}, "type": "Feature", "properties": {"collection_times": [{"days": "Mon-Fri", "time": "5:00pm"}, {"days": "Sat", "time": "3:00pm"}, {"days": "Sun", "time": "Closed"}], "id": "5340600023", "name": "USPS COLLECTION BOX - BLUE BOX", "address": {"city": "MOUNT PLEASANT", "state": "WI", "street": "1300 PERRY AVE", "postcode": "53406"}}},
{"geometry": {"type": "Point", "coordinates": [-87.8393116013, 42.7160392689]}, "type": "Feature", "properties": {"collection_times": [{"days": "Mon-Fri", "time": "5:00pm"}, {"days": "Sat", "time": "3:00pm"}, {"days": "Sun", "time": "Closed"}], "id": "5340600024", "name": "USPS COLLECTION BOX - PO LOBBY", "address": {"city": "MOUNT PLEASANT", "state": "WI", "street": "1300 PERRY AVE", "postcode": "53406"}}},
{"geometry": {"type": "Point", "coordinates": [-87.8523411271, 42.697285495]}, "type": "Feature", "properties": {"collection_times": [{"days": "Mon-Sat", "time": "10:00am"}, {"days": "Sun", "time": "Closed"}], "id": "5340600026", "name": "USPS COLLECTION BOX - BLUE BOX", "address": {"city": "MOUNT PLEASANT", "state": "WI", "street": "6021 DURAND AVE", "postcode": "53406"}}},
{"geometry": {"type": "Point", "coordinates": [-87.8640794553, 42.7225246175]}, "type": "Feature", "properties": {"collection_times": [{"days": "Mon-Sat", "time": "10:00am"}, {"days": "Sun", "time": "Closed"}], "id": "5340600028", "name": "USPS COLLECTION BOX - BLUE BOX", "address": {"city": "MOUNT PLEASANT", "state": "WI", "street": "6949 MARINER DR", "postcode": "53406"}}},
{"geometry": {"type": "Point", "coordinates": [-87.8479241066, 42.737393426]}, "type": "Feature", "properties": {"collection_times": [{"days": "Mon-Sat", "time": "10:00am"}, {"days": "Sun", "time": "Closed"}], "id": "5340600030", "name": "USPS COLLECTION BOX - BLUE BOX", "address": {"city": "MOUNT PLEASANT", "state": "WI", "street": "5600 SPRING ST", "postcode": "53406"}}}
]}
