{"type": "FeatureCollection", "features": [
{"geometry": {"type": "Point", "coordinates": [-89.0714540209, 42.6042681491]}, "type": "Feature", "properties": {"collection_times": [{"days": "Mon-Fri", "time": "4:30pm"}, {"days": "Sat", "time": "10:30am"}, {"days": "Sun", "time": "Closed"}], "id": "5350100000", "name": "USPS COLLECTION BOX - BLUE BOX", "address": {"city": "AFTON", "state": "WI", "street": "5316 S COUNTY ROAD D", "postcode": "53501"}}},
{"geometry": {"type": "Point", "coordinates": [-89.0714540209, 42.6042681491]}, "type": "Feature", "properties": {"collection_times": [{"days": "Mon-Fri", "time": "4:30pm"}, {"days": "Sat", "time": "10:30am"}, {"days": "Sun", "time": "Closed"}], "id": "5350100001", "name": "USPS COLLECTION BOX - PO LOBBY", "address": {"city": "AFTON", "state": "WI", "street": "5316 S COUNTY ROAD D", "postcode": "53501"}}},
{"geometry": {"type": "Point", "coordinates": [-89.4390632939, 42.7098609162]}, "type": "Feature", "properties": {"collection_times": [{"days": "Mon-Fri", "time": "4:30pm"}, {"days": "Sat", "time": "11:15am"}, {"days": "Sun", "time": "Closed"}], "id": "5350200001", "name": "USPS COLLECTION BOX - BLUE BOX", "address": {"city": "ALBANY", "state": "WI", "street": "126 N WATER ST", "postcode": "53502"}}},
{"geometry": {"type": "Point", "coordinates": [-89.4392966814, 42.7352176414]}, "type": "Feature", "properties": {"collection_times": [{"days": "Mon-Sat", "time": "10:00am"}, {"days": "Sun", "time": "Closed"}], "id": "5350200002", "name": "USPS COLLECTION BOX - BLUE BOX", "address": {"city": "ALBANY", "state": "WI", "street": "700 N CINCINNATI ST", "postcode": "53502"}}},
{"geometry": {"type": "Point", "coordinates": [-89.4390632939, 42.7098609162]}, "type": "Feature", "properties": {"collection_times": [{"days": "Mon-Fri", "time": "4:30pm"}, {"days": "Sat", "time": "11:15am"}, {"days": "Sun", "time": "Closed"}], "id": "5350200003", "name": "USPS COLLECTION BOX - PO LOBBY", "address": {"city": "ALBANY", "state": "WI", "street": "126 N WATER ST POST OFFICE", "postcode": "53502"}}},
{"geometry": {"type": "Point", "coordinates": [-89.438400928, 42.708616816]}, "type": "Feature", "properties": {"collection_times": [{"days": "Mon-Fri", "time": "4:30pm"}, {"days": "Sat", "time": "11:15am"}, {"days": "Sun", "time": "Closed"}], "id": "5350200004", "name": "USPS COLLECTION BOX - PO LOBBY", "address": {"city": "ALBANY", "state": "WI", "street": "126 N WATER ST", "postcode": "53502"}}},
{"geometry": {"type": "Point", "coordinates": [-89.9128326224, 43.1650766702]}, "type": "Feature", "properties": {"collection_times": [{"days": "Mon-Fri", "time": "4:15pm"}, {"days": "Sat", "time": "10:00am"}, {"days": "Sun", "time": "Closed"}], "id": "5350300000", "name": "USPS COLLECTION BOX - BLUE BOX", "address": {"city": "ARENA", "state": "WI", "street": "611 SOUTH ST", "postcode": "53503"}}},
{"geometry": {"type": "Point", "coordinates": [-89.9128326224, 43.1650766702]}, "type": "Feature", "properties": {"collection_times": [{"days": "Mon-Fri", "time": "3:15pm"}, {"days": "Sat", "time": "9:00am"}, {"days": "Sun", "time": "Closed"}], "id": "5350300001", "name": "USPS COLLECTION BOX - PO LOBBY", "address": {"city": "ARENA", "state": "WI", "street": "611 SOUTH ST", "postcode": "53503"}}},
{"geometry": {"type": "Point", "coordinates": [-89.8645615425, 42.701284242]}, "type": "Feature", "properties": {"collection_times": [{"days": "Mon-Fri", "time": "4:30pm"}, {"days": "Sat", "time": "11:00am"}, {"days": "Sun", "time": "Closed"}], "id": "5350400000", "name": "USPS COLLECTION BOX - BLUE BOX", "address": {"city": "ARGYLE", "state": "WI", "street": "329 E MILWAUKEE ST", "postcode": "53504"}}},
{"geometry": {"type": "Point", "coordinates": [-89.8645615425, 42.701284242]}, "type": "Feature", "properties": {"collection_times": [{"days": "Mon-Fri", "time": "3:30pm"}, {"days": "Sat", "time": "11:00am"}, {"days": "Sun", "time": "Closed"}], "id": "5350400001", "name": "USPS COLLECTION BOX - PO LOBBY", "address": {"city": "ARGYLE", "state": "WI", "street": "329 E MILWAUKEE ST", "postcode": "53504"}}},
{"geometry": {"type": "Point", "coordinates": [-89.8645615425, 42.701284242]}, "type": "Feature", "properties": {"collection_times": [{"days": "Mon-Fri", "time": "3:30pm"}, {"days": "Sat", "time": "11:00am"}, {"days": "Sun", "time": "Closed"}], "id": "5350400002", "name": "USPS COLLECTION BOX - PO LOBBY", "address": {"city": "ARGYLE", "state": "WI", "street": "329 E MILWAUKEE ST", "postcode": "53504"}}},
{"geometry": {"type": "Point", "coordinates": [-88.8675300701, 42.6321674783]}, "type": "Feature", "properties": {"collection_times": [{"days": "Mon-Fri", "time": "4:45pm"}, {"days": "Sat", "time": "11:00am"}, {"days": "Sun", "time": "Closed"}], "id": "5350500000", "name": "USPS COLLECTION BOX - BLUE BOX", "address": {"city": "AVALON", "state": "WI", "street": "3109 S PLEASANT ST", "postcode": "53505"}}},
{"geometry": {"type": "Point", "coordinates": [-88.8675300701, 42.6321674783]}, "type": "Feature", "properties": {"collection_times": [{"days": "Mon-Fri", "time": "1:00pm"}, {"days": "Sat", "time": "11:00am"}, {"days": "Sun", "time": "Closed"}], "id": "5350500001", "name": "USPS COLLECTION BOX - PO LOBBY", "address": {"city": "AVALON", "state": "WI", "street": "3109 S PLEASANT ST", "postcode": "53505"}}},
{"geometry": {"type": "Point", "coordinates": [-88.8674732522, 42.6322603459]}, "type": "Feature", "properties": {"collection_times": [{"days": "Mon-Fri", "time": "1:00pm"}, {"days": "Sat", "time": "11:00am"}, {"days": "Sun", "time": "Closed"}], "id": "5350500002", "name": "USPS COLLECTION BOX - PO LOBBY", "address": {"city": "AVALON", "state": "WI", "street": "3109 S PLEASANT ST", "postcode": "53505"}}},
{"geometry": {"type": "Point", "coordinates": [-90.3259235558, 43.1825868375]}, "type": "Feature", "properties": {"collection_times": [{"days": "Mon-Fri", "time": "4:30pm"}, {"days": "Sat", "time": "10:30am"}, {"days": "Sun", "time": "Closed"}], "id": "5350600000", "name": "USPS COLLECTION BOX - BLUE BOX", "address": {"city": "AVOCA", "state": "WI", "street": "405 FRONT ST", "postcode": "53506"}}},
{"geometry": {"type": "Point", "coordinates": [-90.3259235558, 43.1825868375]}, "type": "Feature", "properties": {"collection_times": [{"days": "Mon-Fri", "time": "12:30pm"}, {"days": "Sat", "time": "10:30am"}, {"days": "Sun", "time": "Closed"}], "id": "5350600001", "name": "USPS COLLECTION BOX - PO LOBBY", "address": {"city": "AVOCA", "state": "WI", "street": "405 FRONT ST", "postcode": "53506"}}},
{"geometry": {"type": "Point", "coordinates": [-90.3259429222, 43.1807375426]}, "type": "Feature", "properties": {"collection_times": [{"days": "Mon-Sat", "time": "1:30pm"}, {"days": "Sun", "time": "Closed"}], "id": "5350600002", "name": "USPS COLLECTION BOX - BLUE BOX", "address": {"city": "AVOCA", "state": "WI", "street": "401 WISCONSIN ST", "postcode": "53506"}}},
{"geometry": {"type": "Point", "coordinates": [-89.8971387604, 43.0150185052]}, "type": "Feature", "properties": {"collection_times": [{"days": "Mon-Fri", "time": "3:45pm"}, {"days": "Sat", "time": "10:00am"}, {"days": "Sun", "time": "Closed"}], "id": "5350700000", "name": "USPS COLLECTION BOX - BLUE BOX", "address": {"city": "BARNEVELD", "state": "WI", "street": "202 W MAIN ST", "postcode": "53507"}}},
{"geometry": {"type": "Point", "coordinates": [-89.8971897284, 43.0149929212]}, "type": "Feature", "properties": {"collection_times": [{"days": "Mon-Fri", "time": "12:45pm"}, {"days": "Sat", "time": "10:00am"}, {"days": "Sun", "time": "Closed"}], "id": "5350700001", "name": "USPS COLLECTION BOX - PO LOBBY", "address": {"city": "BARNEVELD", "state": "WI", "street": "202 W MAIN ST", "postcode": "53507"}}},
{"geometry": {"type": "Point", "coordinates": [-89.8971387604, 43.0150185052]}, "type": "Feature", "properties": {"collection_times": [{"days": "Mon-Fri", "time": "12:45pm"}, {"days": "Sat", "time": "10:00am"}, {"days": "Sun", "time": "Closed"}], "id": "5350700002", "name": "USPS COLLECTION BOX - PO LOBBY", "address": {"city": "BARNEVELD", "state": "WI", "street": "202 W MAIN ST", "postcode": "53507"}}},
{"geometry": {"type": "Point", "coordinates": [-89.5330935407, 42.8679501273]}, "type": "Feature", "properties": {"collection_times": [{"days": "Mon-Sat", "time": "10:15am"}, {"days": "Sun", "time": "Closed"}], "id": "5350800000", "name": "USPS COLLECTION BOX - BLUE BOX", "address": {"city": "BELLEVILLE", "state": "WI", "street": "428 RIVER ST", "postcode": "53508"}}},
{"geometry": {"type": "Point", "coordinates": [-89.5340126998, 42.8585195785]}, "type": "Feature", "properties": {"collection_times": [{"days": "Mon-Fri", "time": "4:30pm"}, {"days": "Sat", "time": "11:00am"}, {"days": "Sun", "time": "Closed"}], "id": "5350800003", "name": "USPS COLLECTION BOX - PO LOBBY", "address": {"city": "BELLEVILLE", "state": "WI", "street": "102 S VINE ST", "postcode": "53508"}}},
{"geometry": {"type": "Point", "coordinates": [-89.5340126998, 42.8585195785]}, "type": "Feature", "properties": {"collection_times": [{"days": "Mon-Fri", "time": "4:30pm"}, {"days": "Sat", "time": "11:00am"}, {"days": "Sun", "time": "Closed"}], "id": "5350800005", "name": "USPS COLLECTION BOX - BLUE BOX", "address": {"city": "BELLEVILLE", "state": "WI", "street": "102 S VINE ST", "postcode": "53508"}}},
{"geometry": {"type": "Point", "coordinates": [-89.5329326583, 42.8754678316]}, "type": "Feature", "properties": {"collection_times": [{"days": "Mon-Sat", "time": "11:00am"}, {"days": "Sun", "time": "Closed"}], "id": "5350800006", "name": "USPS COLLECTION BOX - BLUE BOX", "address": {"city": "BELLEVILLE", "state": "WI", "street": "1019 RIVER ST", "postcode": "53508"}}},
{"geometry": {"type": "Point", "coordinates": [-90.3339178433, 42.7368260903]}, "type": "Feature", "properties": {"collection_times": [{"days": "Mon-Fri", "time": "4:00pm"}, {"days": "Sat", "time": "10:00am"}, {"days": "Sun", "time": "Closed"}], "id": "5351000000", "name": "USPS COLLECTION BOX - BLUE BOX", "address": {"city": "BELMONT", "state": "WI", "street": "112 S MOUND AVE", "postcode": "53510"}}},
{"geometry": {"type": "Point", "coordinates": [-90.3339178433, 42.7368260903]}, "type": "Feature", "properties": {"collection_times": [{"days": "Mon-Fri", "time": "3:15pm"}, {"days": "Sat", "time": "10:00am"}, {"days": "Sun", "time": "Closed"}], "id": "5351000002", "name": "USPS COLLECTION BOX - PO LOBBY", "address": {"city": "BELMONT", "state": "WI", "street": "112 S MOUND AVE", "postcode": "53510"}}},
{"geometry": {"type": "Point", "coordinates": [-90.333917299, 42.7368930487]}, "type": "Feature", "properties": {"collection_times": [{"days": "Mon-Sat", "time": "11:00am"}, {"days": "Sun", "time": "Closed"}], "id": "5351000004", "name": "USPS COLLECTION BOX - BLUE BOX", "address": {"city": "BELMONT", "state": "WI", "street": "102 W MOUND VIEW AVE", "postcode": "53510"}}},
{"geometry": {"type": "Point", "coordinates": [-89.046449186, 42.5016306955]}, "type": "Feature", "properties": {"collection_times": [{"days": "Mon-Fri", "time": "3:30pm"}, {"days": "Sat", "time": "2:00pm"}, {"days": "Sun", "time": "Closed"}], "id": "5351100000", "name": "USPS COLLECTION BOX - BLUE BOX", "address": {"city": "BELOIT", "state": "WI", "street": "599 8TH ST", "postcode": "53511"}}},
{"geometry": {"type": "Point", "coordinates": [-89.0335381281, 42.4998393036]}, "type": "Feature", "properties": {"collection_times": [{"days": "Mon-Fri", "time": "3:30pm"}, {"days": "Sat", "time": "2:00pm"}, {"days": "Sun", "time": "Closed"}], "id": "5351100006", "name": "USPS COLLECTION BOX - BLUE BOX", "address": {"city": "BELOIT", "state": "WI", "street": "419 PLEASANT ST", "postcode": "53511"}}},
{"geometry": {"type": "Point", "coordinates": [-89.0267461432, 42.4986212815]}, "type": "Feature", "properties": {"collection_times": [{"days": "Mon-Sat", "time": "9:30am"}, {"days": "Sun", "time": "Closed"}], "id": "5351100007", "name": "USPS COLLECTION BOX - BLUE BOX", "address": {"city": "BELOIT", "state": "WI", "street": "910 BROAD ST", "postcode": "53511"}}},
{"geometry": {"type": "Point", "coordinates": [-89.0241505899, 42.5072034083]}, "type": "Feature", "properties": {"collection_times": [{"days": "Mon-Sat", "time": "10:00am"}, {"days": "Sun", "time": "Closed"}], "id": "5351100016", "name": "USPS COLLECTION BOX - BLUE BOX", "address": {"city": "BELOIT", "state": "WI", "street": "950 WISCONSIN AVE", "postcode": "53511"}}},
{"geometry": {"type": "Point", "coordinates": [-88.9888896488, 42.5256939191]}, "type": "Feature", "properties": {"collection_times": [{"days": "Mon-Fri", "time": "3:30pm"}, {"days": "Sat", "time": "2:00pm"}, {"days": "Sun", "time": "Closed"}], "id": "5351100021", "name": "USPS COLLECTION BOX - BLUE BOX", "address": {"city": "BELOIT", "state": "WI", "street": "2700 CRANSTON RD", "postcode": "53511"}}},
{"geometry": {"type": "Point", "coordinates": [-89.0117543386, 42.5251149558]}, "type": "Feature", "properties": {"collection_times": [{"days": "Mon-Fri", "time": "3:30pm"}, {"days": "Sat", "time": "2:00pm"}, {"days": "Sun", "time": "Closed"}], "id": "5351100025", "name": "USPS COLLECTION BOX - BLUE BOX", "address": {"city": "BELOIT", "state": "WI", "street": "1901 PRAIRIE AVE", "postcode": "53511"}}},
{"geometry": {"type": "Point", "coordinates": [-89.0334924766, 42.5204540125]}, "type": "Feature", "properties": {"collection_times": [{"days": "Mon-Sat", "time": "2:00pm"}, {"days": "Sun", "time": "Closed"}], "id": "5351100027", "name": "USPS COLLECTION BOX - BLUE BOX", "address": {"city": "BELOIT", "state": "WI", "street": "74 ECLIPSE CTR", "postcode": "53511"}}},
{"geometry": {"type": "Point", "coordinates": [-89.005185392, 42.533057865]}, "type": "Feature", "properties": {"collection_times": [{"days": "Mon-Fri", "time": "3:30pm"}, {"days": "Sat", "time": "2:00pm"}, {"days": "Sun", "time": "Closed"}], "id": "5351100031", "name": "USPS COLLECTION BOX - BLUE BOX", "address": {"city": "BELOIT", "state": "WI", "street": "2200 CRANSTON RD", "postcode": "53511"}}},
{"geometry": {"type": "Point", "coordinates": [-89.0257691082, 42.5542491943]}, "type": "Feature", "properties": {"collection_times": [{"days": "Mon-Fri", "time": "3:30pm"}, {"days": "Sat", "time": "2:00pm"}, {"days": "Sun", "time": "Closed"}], "id": "5351100033", "name": "USPS COLLECTION BOX - BLUE BOX", "address": {"city": "BELOIT", "state": "WI", "street": "905 E INMAN PKWY", "postcode": "53511"}}},
{"geometry": {"type": "Point", "coordinates": [-89.0257691082, 42.5542491943]}, "type": "Feature", "properties": {"collection_times": [{"days": "Mon-Fri", "time": "3:30pm"}, {"days": "Sat", "time": "2:00pm"}, {"days": "Sun", "time": "Closed"}], "id": "5351100034", "name": "USPS COLLECTION BOX - BLUE BOX", "address": {"city": "BELOIT", "state": "WI", "street": "905 E INMAN PKWY", "postcode": "53511"}}},
{"geometry": {"type": "Point", "coordinates": [-89.0257691082, 42.5542491943]}, "type": "Feature", "properties": {"collection_times": [{"days": "Mon-Fri", "time": "3:30pm"}, {"days": "Sat", "time": "2:00pm"}, {"days": "Sun", "time": "Closed"}], "id": "5351100035", "name": "USPS COLLECTION BOX - BLUE BOX", "address": {"city": "BELOIT", "state": "WI", "street": "905 E INMAN PKWY", "postcode": "53511"}}},
{"geometry": {"type": "Point", "coordinates": [-89.0114024076, 42.5495295242]}, "type": "Feature", "properties": {"collection_times": [{"days": "Mon-Fri", "time": "3:30pm"}, {"days": "Sat", "time": "2:00pm"}, {"days": "Sun", "time": "Closed"}], "id": "5351100037", "name": "USPS COLLECTION BOX - BLUE BOX", "address": {"city": "BELOIT", "state": "WI", "street": "1905 E HUEBBE PKWY", "postcode": "53511"}}},
{"geometry": {"type": "Point", "coordinates": [-89.0114994322, 42.5456747352]}, "type": "Feature", "properties": {"collection_times": [{"days": "Mon-Fri", "time": "3:30pm"}, {"days": "Sat", "time": "2:00pm"}, {"days": "Sun", "time": "Closed"}], "id": "5351100040", "name": "USPS COLLECTION BOX - BLUE BOX", "address": {"city": "BELOIT", "state": "WI", "street": "2761 PRAIRIE AVE", "postcode": "53511"}}},
{"geometry": {"type": "Point", "coordinates": [-89.0114994322, 42.5456747352]}, "type": "Feature", "properties": {"collection_times": [{"days": "Mon-Fri", "time": "3:30pm"}, {"days": "Sat", "time": "2:00pm"}, {"days": "Sun", "time": "Closed"}], "id": "5351100041", "name": "USPS COLLECTION BOX - BLUE BOX", "address": {"city": "BELOIT", "state": "WI", "street": "2761 PRAIRIE AVE", "postcode": "53511"}}},
{"geometry": {"type": "Point", "coordinates": [-89.0436358369, 42.5235743485]}, "type": "Feature", "properties": {"collection_times": [{"days": "Mon-Sat", "time": "11:00am"}, {"days": "Sun", "time": "Closed"}], "id": "5351100042", "name": "USPS COLLECTION BOX - BLUE BOX", "address": {"city": "BELOIT", "state": "WI", "street": "1800 6TH ST", "postcode": "53511"}}},
{"geometry": {"type": "Point", "coordinates": [-89.0729849132, 42.5242319232]}, "type": "Feature", "properties": {"collection_times": [{"days": "Mon-Fri", "time": "3:30pm"}, {"days": "Sat", "time": "2:00pm"}, {"days": "Sun", "time": "Closed"}], "id": "5351100046", "name": "USPS COLLECTION BOX - BLUE BOX", "address": {"city": "BELOIT", "state": "WI", "street": "1877 MADISON RD", "postcode": "53511"}}},
{"geometry": {"type": "Point", "coordinates": [-89.0571954171, 42.5119194466]}, "type": "Feature", "properties": {"collection_times": [{"days": "Mon-Fri", "time": "3:30pm"}, {"days": "Sat", "time": "2:00pm"}, {"days": "Sun", "time": "Closed"}], "id": "5351100047", "name": "USPS COLLECTION BOX - BLUE BOX", "address": {"city": "BELOIT", "state": "WI", "street": "1164 MADISON RD", "postcode": "53511"}}},
{"geometry": {"type": "Point", "coordinates": [-89.0603793293, 42.5035778504]}, "type": "Feature", "properties": {"collection_times": [{"days": "Mon-Sat", "time": "10:00am"}, {"days": "Sun", "time": "Closed"}], "id": "5351100054", "name": "USPS COLLECTION BOX - BLUE BOX", "address": {"city": "BELOIT", "state": "WI", "street": "1825 SAINT LAWRENCE AVE", "postcode": "53511"}}},
{"geometry": {"type": "Point", "coordinates": [-89.0379094628, 42.4978097927]}, "type": "Feature", "properties": {"collection_times": [{"days": "Mon-Fri", "time": "5:45pm"}, {"days": "Sat", "time": "3:45pm"}, {"days": "Sun", "time": "Closed"}], "id": "5351100070", "name": "USPS COLLECTION BOX - BLUE BOX", "address": {"city": "BELOIT", "state": "WI", "street": "300 MILL ST", "postcode": "53511"}}},
{"geometry": {"type": "Point", "coordinates": [-89.0379094628, 42.4978097927]}, "type": "Feature", "properties": {"collection_times": [{"days": "Mon-Fri", "time": "5:45pm"}, {"days": "Sat", "time": "3:45pm"}, {"days": "Sun", "time": "Closed"}], "id": "5351100072", "name": "USPS COLLECTION BOX - BLUE BOX", "address": {"city": "BELOIT", "state": "WI", "street": "300 MILL ST", "postcode": "53511"}}},
{"geometry": {"type": "Point", "coordinates": [-89.037799679, 42.498486077]}, "type": "Feature", "properties": {"collection_times": [{"days": "Mon-Fri", "time": "6:00pm"}, {"days": "Sat", "time": "5:00pm"}, {"days": "Sun", "time": "Closed"}], "id": "5351100075", "name": "USPS COLLECTION BOX - PO LOBBY", "address": {"city": "BELOIT", "state": "WI", "street": "300 MILL ST", "postcode": "53511"}}},
{"geometry": {"type": "Point", "coordinates": [-89.037799679, 42.498486077]}, "type": "Feature", "properties": {"collection_times": [{"days": "Mon-Fri", "time": "6:00pm"}, {"days": "Sat", "time": "5:00pm"}, {"days": "Sun", "time": "Closed"}], "id": "5351100076", "name": "USPS COLLECTION BOX - PO LOBBY", "address": {"city": "BELOIT", "state": "WI", "street": "300 MILL ST", "postcode": "53511"}}},
{"geometry": {"type": "Point", "coordinates": [-88.9870828312, 42.5230847525]}, "type": "Feature", "properties": {"collection_times": [{"days": "Mon-Sat", "time": "10:00am"}, {"days": "Sun", "time": "Closed"}], "id": "5351100079", "name": "USPS COLLECTION BOX - BLUE BOX", "address": {"city": "BELOIT", "state": "WI", "street": "2785 MILWAUKEE RD", "postcode": "53511"}}},
{"geometry": {"type": "Point", "coordinates": [-89.0515969914, 42.5108198974]}, "type": "Feature", "properties": {"collection_times": [{"days": "Mon-Sat", "time": "9:00am"}, {"days": "Sun", "time": "Closed"}], "id": "5351100082", "name": "USPS COLLECTION BOX - BLUE BOX", "address": {"city": "BELOIT", "state": "WI", "street": "1107 LIBERTY AVE", "postcode": "53511"}}},
{"geometry": {"type": "Point", "coordinates": [-89.7479056199, 43.1369492934]}, "type": "Feature", "properties": {"collection_times": [{"days": "Mon-Fri", "time": "4:30pm"}, {"days": "Sat", "time": "10:30am"}, {"days": "Sun", "time": "Closed"}], "id": "5351500000", "name": "USPS COLLECTION BOX - BLUE BOX", "address": {"city": "BLACK EARTH", "state": "WI", "street": "1341 MILLS ST", "postcode": "53515"}}},
{"geometry": {"type": "Point", "coordinates": [-89.7479056199, 43.1369492934]}, "type": "Feature", "properties": {"collection_times": [{"days": "Mon-Fri", "time": "4:30pm"}, {"days": "Sat", "time": "10:30am"}, {"days": "Sun", "time": "Closed"}], "id": "5351500001", "name": "USPS COLLECTION BOX - PO LOBBY", "address": {"city": "BLACK EARTH", "state": "WI", "street": "1341 MILLS ST", "postcode": "53515"}}},
{"geometry": {"type": "Point", "coordinates": [-89.7479056199, 43.1369492934]}, "type": "Feature", "properties": {"collection_times": [{"days": "Mon-Fri", "time": "4:30pm"}, {"days": "Sat", "time": "10:30am"}, {"days": "Sun", "time": "Closed"}], "id": "5351500002", "name": "USPS COLLECTION BOX - PO LOBBY", "address": {"city": "BLACK EARTH", "state": "WI", "street": "1341 MILLS ST", "postcode": "53515"}}},
{"geometry": {"type": "Point", "coordinates": [-89.8629847617, 42.808393962]}, "type": "Feature", "properties": {"collection_times": [{"days": "Mon-Fri", "time": "4:45pm"}, {"days": "Sat", "time": "10:45am"}, {"days": "Sun", "time": "Closed"}], "id": "5351600000", "name": "USPS COLLECTION BOX - BLUE BOX", "address": {"city": "BLANCHARDVILLE", "state": "WI", "street": "606 S MAIN ST", "postcode": "53516"}}},
{"geometry": {"type": "Point", "coordinates": [-89.8629847617, 42.808393962]}, "type": "Feature", "properties": {"collection_times": [{"days": "Mon-Fri", "time": "3:45pm"}, {"days": "Sat", "time": "10:45am"}, {"days": "Sun", "time": "Closed"}], "id": "5351600001", "name": "USPS COLLECTION BOX - PO LOBBY", "address": {"city": "BLANCHARDVILLE", "state": "WI", "street": "606 S MAIN ST", "postcode": "53516"}}},
{"geometry": {"type": "Point", "coordinates": [-89.833127423, 43.0176512184]}, "type": "Feature", "properties": {"collection_times": [{"days": "Mon-Fri", "time": "4:30pm"}, {"days": "Sat", "time": "9:45am"}, {"days": "Sun", "time": "Closed"}], "id": "5351700000", "name": "USPS COLLECTION BOX - BLUE BOX", "address": {"city": "BLUE MOUNDS", "state": "WI", "street": "2965 JONES ST", "postcode": "53517"}}},
{"geometry": {"type": "Point", "coordinates": [-89.833207817, 43.01764978]}, "type": "Feature", "properties": {"collection_times": [{"days": "Mon-Fri", "time": "11:15am"}, {"days": "Sat", "time": "9:45am"}, {"days": "Sun", "time": "Closed"}], "id": "5351700001", "name": "USPS COLLECTION BOX - PO LOBBY", "address": {"city": "BLUE MOUNDS", "state": "WI", "street": "2965 JONES ST", "postcode": "53517"}}},
{"geometry": {"type": "Point", "coordinates": [-89.8295790904, 43.0211110453]}, "type": "Feature", "properties": {"collection_times": [{"days": "Mon-Fri", "time": "11:15am"}, {"days": "Sat", "time": "9:45am"}, {"days": "Sun", "time": "Closed"}], "id": "5351700002", "name": "USPS COLLECTION BOX - PO LOBBY", "address": {"city": "BLUE MOUNDS", "state": "WI", "street": "2965 JONES ST", "postcode": "53517"}}},
{"geometry": {"type": "Point", "coordinates": [-90.5670862685, 43.1857156796]}, "type": "Feature", "properties": {"collection_times": [{"days": "Mon-Fri", "time": "4:45pm"}, {"days": "Sat", "time": "10:00am"}, {"days": "Sun", "time": "Closed"}], "id": "5351800000", "name": "USPS COLLECTION BOX - BLUE BOX", "address": {"city": "BLUE RIVER", "state": "WI", "street": "105 EXCHANGE ST", "postcode": "53518"}}},
{"geometry": {"type": "Point", "coordinates": [-90.5670862685, 43.1857156796]}, "type": "Feature", "properties": {"collection_times": [{"days": "Mon-Fri", "time": "11:45am"}, {"days": "Sat", "time": "10:00am"}, {"days": "Sun", "time": "Closed"}], "id": "5351800001", "name": "USPS COLLECTION BOX - PO LOBBY", "address": {"city": "BLUE RIVER", "state": "WI", "street": "105 EXCHANGE ST", "postcode": "53518"}}},
{"geometry": {"type": "Point", "coordinates": [-90.5247061053, 43.1964407072]}, "type": "Feature", "properties": {"collection_times": [{"days": "Mon-Sat", "time": "1:00pm"}, {"days": "Sun", "time": "Closed"}], "id": "5351800003", "name": "USPS COLLECTION BOX - BLUE BOX", "address": {"city": "BLUE RIVER", "state": "WI", "street": "202 N EAST ST", "postcode": "53518"}}},
{"geometry": {"type": "Point", "coordinates": [-89.3768848534, 42.6153371668]}, "type": "Feature", "properties": {"collection_times": [{"days": "Mon-Fri", "time": "5:15pm"}, {"days": "Sat", "time": "11:15am"}, {"days": "Sun", "time": "Closed"}], "id": "5352000000", "name": "USPS COLLECTION BOX - BLUE BOX", "address": {"city": "BRODHEAD", "state": "WI", "street": "1507 1ST CENTER AVE", "postcode": "53520"}}},
{"geometry": {"type": "Point", "coordinates": [-89.3768848534, 42.6153371668]}, "type": "Feature", "properties": {"collection_times": [{"days": "Mon-Fri", "time": "5:15pm"}, {"days": "Sat", "time": "11:15am"}, {"days": "Sun", "time": "Closed"}], "id": "5352000001", "name": "USPS COLLECTION BOX - BLUE BOX", "address": {"city": "BRODHEAD", "state": "WI", "street": "1507 1ST CENTER AVE", "postcode": "53520"}}},
{"geometry": {"type": "Point", "coordinates": [-89.3781243083, 42.6197976956]}, "type": "Feature", "properties": {"collection_times": [{"days": "Mon-Fri", "time": "2:45pm"}, {"days": "Sat", "time": "12:45pm"}, {"days": "Sun", "time": "Closed"}], "id": "5352000003", "name": "USPS COLLECTION BOX - BLUE BOX", "address": {"city": "BRODHEAD", "state": "WI", "street": "1001 W EXCHANGE ST", "postcode": "53520"}}},
{"geometry": {"type": "Point", "coordinates": [-89.3768848534, 42.6153371668]}, "type": "Feature", "properties": {"collection_times": [{"days": "Mon-Fri", "time": "5:15pm"}, {"days": "Sat", "time": "11:15am"}, {"days": "Sun", "time": "Closed"}], "id": "5352000007", "name": "USPS COLLECTION BOX - PO LOBBY", "address": {"city": "BRODHEAD", "state": "WI", "street": "1507 1ST CENTER AVE -OUT OF TOWN MAI", "postcode": "53520"}}},
{"geometry": {"type": "Point", "coordinates": [-89.376808395, 42.614689607]}, "type": "Feature", "properties": {"collection_times": [{"days": "Mon-Fri", "time": "5:15pm"}, {"days": "Sat", "time": "11:15am"}, {"days": "Sun", "time": "Closed"}], "id": "5352000008", "name": "USPS COLLECTION BOX - PO LOBBY", "address": {"city": "BRODHEAD", "state": "WI", "street": "1507 1ST CENTER AVE", "postcode": "53520"}}},
{"geometry": {"type": "Point", "coordinates": [-89.3704494183, 42.8533209521]}, "type": "Feature", "properties": {"collection_times": [{"days": "Mon-Fri", "time": "4:00pm"}, {"days": "Sat", "time": "10:30am"}, {"days": "Sun", "time": "Closed"}], "id": "5352100000", "name": "USPS COLLECTION BOX - BLUE BOX", "address": {"city": "BROOKLYN", "state": "WI", "street": "218 COMMERCIAL ST", "postcode": "53521"}}},
{"geometry": {"type": "Point", "coordinates": [-89.3704494183, 42.8533209521]}, "type": "Feature", "properties": {"collection_times": [{"days": "Mon-Fri", "time": "10:45am"}, {"days": "Sat", "time": "10:30am"}, {"days": "Sun", "time": "Closed"}], "id": "5352100001", "name": "USPS COLLECTION BOX - PO LOBBY", "address": {"city": "BROOKLYN", "state": "WI", "street": "218 COMMERCIAL ST", "postcode": "53521"}}},
{"geometry": {"type": "Point", "coordinates": [-89.3704494183, 42.8533209521]}, "type": "Feature", "properties": {"collection_times": [{"days": "Mon-Fri", "time": "10:45am"}, {"days": "Sat", "time": "10:30am"}, {"days": "Sun", "time": "Closed"}], "id": "5352100002", "name": "USPS COLLECTION BOX - PO LOBBY", "address": {"city": "BROOKLYN", "state": "WI", "street": "218 COMMERCIAL ST", "postcode": "53521"}}},
{"geometry": {"type": "Point", "coordinates": [-89.7867453939, 42.5570639879]}, "type": "Feature", "properties": {"collection_times": [{"days": "Mon-Fri", "time": "4:45pm"}, {"days": "Sat", "time": "10:00am"}, {"days": "Sun", "time": "Closed"}], "id": "5352200000", "name": "USPS COLLECTION BOX - BLUE BOX", "address": {"city": "BROWNTOWN", "state": "WI", "street": "111 W MAIN ST", "postcode": "53522"}}},
{"geometry": {"type": "Point", "coordinates": [-89.7867453939, 42.5570639879]}, "type": "Feature", "properties": {"collection_times": [{"days": "Mon-Fri", "time": "11:30am"}, {"days": "Sat", "time": "10:00am"}, {"days": "Sun", "time": "Closed"}], "id": "5352200001", "name": "USPS COLLECTION BOX - PO LOBBY", "address": {"city": "BROWNTOWN", "state": "WI", "street": "111 W MAIN ST", "postcode": "53522"}}},
{"geometry": {"type": "Point", "coordinates": [-89.0159511996, 43.004202158]}, "type": "Feature", "properties": {"collection_times": [{"days": "Mon-Fri", "time": "4:30pm"}, {"days": "Sat", "time": "11:00am"}, {"days": "Sun", "time": "Closed"}], "id": "5352300001", "name": "USPS COLLECTION BOX - BLUE BOX", "address": {"city": "CAMBRIDGE", "state": "WI", "street": "107 PARK ST", "postcode": "53523"}}},
{"geometry": {"type": "Point", "coordinates": [-89.0159511996, 43.004202158]}, "type": "Feature", "properties": {"collection_times": [{"days": "Mon-Fri", "time": "4:30pm"}, {"days": "Sat", "time": "11:00am"}, {"days": "Sun", "time": "Closed"}], "id": "5352300002", "name": "USPS COLLECTION BOX - PO LOBBY", "address": {"city": "CAMBRIDGE", "state": "WI", "street": "107 PARK ST", "postcode": "53523"}}},
{"geometry": {"type": "Point", "coordinates": [-89.0159511996, 43.004202158]}, "type": "Feature", "properties": {"collection_times": [{"days": "Mon-Fri", "time": "4:30pm"}, {"days": "Sat", "time": "11:00am"}, {"days": "Sun", "time": "Closed"}], "id": "5352300003", "name": "USPS COLLECTION BOX - PO LOBBY", "address": {"city": "CAMBRIDGE", "state": "WI", "street": "107 PARK ST", "postcode": "53523"}}},
{"geometry": {"type": "Point", "coordinates": [-88.8613878912, 42.5553435314]}, "type": "Feature", "properties": {"collection_times": [{"days": "Mon-Fri", "time": "4:45pm"}, {"days": "Sat", "time": "11:00am"}, {"days": "Sun", "time": "Closed"}], "id": "5352500001", "name": "USPS COLLECTION BOX - BLUE BOX", "address": {"city": "CLINTON", "state": "WI", "street": "301 CROSS ST", "postcode": "53525"}}},
{"geometry": {"type": "Point", "coordinates": [-88.862781197, 42.5565619897]}, "type": "Feature", "properties": {"collection_times": [{"days": "Mon-Fri", "time": "4:15pm"}, {"days": "Sat", "time": "11:00am"}, {"days": "Sun", "time": "Closed"}], "id": "5352500003", "name": "USPS COLLECTION BOX - PO LOBBY", "address": {"city": "CLINTON", "state": "WI", "street": "243 ALLEN ST", "postcode": "53525"}}},
{"geometry": {"type": "Point", "coordinates": [-88.862781197, 42.5565619897]}, "type": "Feature", "properties": {"collection_times": [{"days": "Mon-Fri", "time": "4:15pm"}, {"days": "Sat", "time": "11:00am"}, {"days": "Sun", "time": "Closed"}], "id": "5352500004", "name": "USPS COLLECTION BOX - PO LOBBY", "address": {"city": "CLINTON", "state": "WI", "street": "243 ALLEN ST", "postcode": "53525"}}},
{"geometry": {"type": "Point", "coordinates": [-88.86303136, 42.5641635684]}, "type": "Feature", "properties": {"collection_times": [{"days": "Mon-Sat", "time": "10:00am"}, {"days": "Sun", "time": "Closed"}], "id": "5352500005", "name": "USPS COLLECTION BOX - BLUE BOX", "address": {"city": "CLINTON", "state": "WI", "street": "500 PECK AVE", "postcode": "53525"}}},
{"geometry": {"type": "Point", "coordinates": [-90.3350162002, 42.9672503571]}, "type": "Feature", "properties": {"collection_times": [{"days": "Mon-Fri", "time": "4:30pm"}, {"days": "Sat", "time": "10:00am"}, {"days": "Sun", "time": "Closed"}], "id": "5352600000", "name": "USPS COLLECTION BOX - BLUE BOX", "address": {"city": "COBB", "state": "WI", "street": "106 DIVISION ST", "postcode": "53526"}}},
{"geometry": {"type": "Point", "coordinates": [-90.3350162002, 42.9672503571]}, "type": "Feature", "properties": {"collection_times": [{"days": "Mon-Fri", "time": "12:00pm"}, {"days": "Sat", "time": "10:00am"}, {"days": "Sun", "time": "Closed"}], "id": "5352600001", "name": "USPS COLLECTION BOX - PO LOBBY", "address": {"city": "COBB", "state": "WI", "street": "106 DIVISION ST", "postcode": "53526"}}},
{"geometry": {"type": "Point", "coordinates": [-89.2099965098, 43.0867854597]}, "type": "Feature", "properties": {"collection_times": [{"days": "Mon-Fri", "time": "4:45pm"}, {"days": "Sat", "time": "12:00pm"}, {"days": "Sun", "time": "Closed"}], "id": "5352700000", "name": "USPS COLLECTION BOX - BLUE BOX", "address": {"city": "COTTAGE GROVE", "state": "WI", "street": "451 W COTTAGE GROVE RD", "postcode": "53527"}}},
{"geometry": {"type": "Point", "coordinates": [-89.2003603067, 42.9994241867]}, "type": "Feature", "properties": {"collection_times": [{"days": "Mon-Sat", "time": "12:00pm"}, {"days": "Sun", "time": "Closed"}], "id": "5352700002", "name": "USPS COLLECTION BOX - BLUE BOX", "address": {"city": "COTTAGE GROVE", "state": "WI", "street": "2762 COUNTY ROAD N", "postcode": "53527"}}},
{"geometry": {"type": "Point", "coordinates": [-89.2099965098, 43.0867854597]}, "type": "Feature", "properties": {"collection_times": [{"days": "Mon-Fri", "time": "4:45pm"}, {"days": "Sat", "time": "12:00pm"}, {"days": "Sun", "time": "Closed"}], "id": "5352700005", "name": "USPS COLLECTION BOX - PO LOBBY", "address": {"city": "COTTAGE GROVE", "state": "WI", "street": "451 W COTTAGE GROVE RD", "postcode": "53527"}}},
{"geometry": {"type": "Point", "coordinates": [-89.2099965098, 43.0867854597]}, "type": "Feature", "properties": {"collection_times": [{"days": "Mon-Fri", "time": "4:45pm"}, {"days": "Sat", "time": "12:00pm"}, {"days": "Sun", "time": "Closed"}], "id": "5352700006", "name": "USPS COLLECTION BOX - PO LOBBY", "address": {"city": "COTTAGE GROVE", "state": "WI", "street": "451 W COTTAGE GROVE RD", "postcode": "53527"}}},
{"geometry": {"type": "Point", "coordinates": [-89.6494399208, 43.114410164]}, "type": "Feature", "properties": {"collection_times": [{"days": "Mon-Fri", "time": "4:30pm"}, {"days": "Sat", "time": "11:00am"}, {"days": "Sun", "time": "Closed"}], "id": "5352800002", "name": "USPS COLLECTION BOX - BLUE BOX", "address": {"city": "CROSS PLAINS", "state": "WI", "street": "2012 PARK ST", "postcode": "53528"}}},
{"geometry": {"type": "Point", "coordinates": [-89.6494399208, 43.114410164]}, "type": "Feature", "properties": {"collection_times": [{"days": "Mon-Fri", "time": "4:30pm"}, {"days": "Sat", "time": "11:00am"}, {"days": "Sun", "time": "Closed"}], "id": "5352800003", "name": "USPS COLLECTION BOX - BLUE BOX", "address": {"city": "CROSS PLAINS", "state": "WI", "street": "2012 PARK ST", "postcode": "53528"}}},
{"geometry": {"type": "Point", "coordinates": [-89.6494399208, 43.114410164]}, "type": "Feature", "properties": {"collection_times": [{"days": "Mon-Fri", "time": "4:30pm"}, {"days": "Sat", "time": "11:00am"}, {"days": "Sun", "time": "Closed"}], "id": "5352800005", "name": "USPS COLLECTION BOX - PO LOBBY", "address": {"city": "CROSS PLAINS", "state": "WI", "street": "2012 PARK ST", "postcode": "53528"}}},
{"geometry": {"type": "Point", "coordinates": [-89.5162998489, 43.235802112]}, "type": "Feature", "properties": {"collection_times": [{"days": "Mon-Fri", "time": "4:00pm"}, {"days": "Sat", "time": "10:00am"}, {"days": "Sun", "time": "Closed"}], "id": "5352900000", "name": "USPS COLLECTION BOX - BLUE BOX", "address": {"city": "DANE", "state": "WI", "street": "104 DANE ST", "postcode": "53529"}}},
{"geometry": {"type": "Point", "coordinates": [-89.5642231059, 43.1927125838]}, "type": "Feature", "properties": {"collection_times": [{"days": "Mon-Sat", "time": "11:00am"}, {"days": "Sun", "time": "Closed"}], "id": "5352900001", "name": "USPS COLLECTION BOX - BLUE BOX", "address": {"city": "DANE", "state": "WI", "street": "6157 COUNTY HIGHWAY P", "postcode": "53529"}}},
{"geometry": {"type": "Point", "coordinates": [-89.5162998489, 43.235802112]}, "type": "Feature", "properties": {"collection_times": [{"days": "Mon-Fri", "time": "1:45pm"}, {"days": "Sat", "time": "10:00am"}, {"days": "Sun", "time": "Closed"}], "id": "5352900002", "name": "USPS COLLECTION BOX - PO LOBBY", "address": {"city": "DANE", "state": "WI", "street": "104 DANE ST", "postcode": "53529"}}},
{"geometry": {"type": "Point", "coordinates": [-90.1165898831, 42.6776994504]}, "type": "Feature", "properties": {"collection_times": [{"days": "Mon-Sat", "time": "2:00pm"}, {"days": "Sun", "time": "Closed"}], "id": "5353000000", "name": "USPS COLLECTION BOX - BLUE BOX", "address": {"city": "DARLINGTON", "state": "WI", "street": "149 WELLS ST", "postcode": "53530"}}},
{"geometry": {"type": "Point", "coordinates": [-90.1164481588, 42.6794140493]}, "type": "Feature", "properties": {"collection_times": [{"days": "Mon-Fri", "time": "5:00pm"}, {"days": "Sat", "time": "3:30pm"}, {"days": "Sun", "time": "Closed"}], "id": "5353000001", "name": "USPS COLLECTION BOX - BLUE BOX", "address": {"city": "DARLINGTON", "state": "WI", "street": "320 WELLS ST", "postcode": "53530"}}},
{"geometry": {"type": "Point", "coordinates": [-90.1178708058, 42.6804959525]}, "type": "Feature", "properties": {"collection_times": [{"days": "Mon-Fri", "time": "5:00pm"}, {"days": "Sat", "time": "3:15pm"}, {"days": "Sun", "time": "Closed"}], "id": "5353000003", "name": "USPS COLLECTION BOX - BLUE BOX", "address": {"city": "DARLINGTON", "state": "WI", "street": "245 MAIN ST", "postcode": "53530"}}},
{"geometry": {"type": "Point", "coordinates": [-90.1178708058, 42.6804959525]}, "type": "Feature", "properties": {"collection_times": [{"days": "Mon-Fri", "time": "5:00pm"}, {"days": "Sat", "time": "3:15pm"}, {"days": "Sun", "time": "Closed"}], "id": "5353000004", "name": "USPS COLLECTION BOX - BLUE BOX", "address": {"city": "DARLINGTON", "state": "WI", "street": "245 MAIN ST", "postcode": "53530"}}},
{"geometry": {"type": "Point", "coordinates": [-90.1164481588, 42.6794140493]}, "type": "Feature", "properties": {"collection_times": [{"days": "Mon-Fri", "time": "5:00pm"}, {"days": "Sat", "time": "3:30pm"}, {"days": "Sun", "time": "Closed"}], "id": "5353000005", "name": "USPS COLLECTION BOX - PO LOBBY", "address": {"city": "DARLINGTON", "state": "WI", "street": "320 WELLS ST", "postcode": "53530"}}},
{"geometry": {"type": "Point", "coordinates": [-89.0761016712, 43.0543819783]}, "type": "Feature", "properties": {"collection_times": [{"days": "Mon-Fri", "time": "4:30pm"}, {"days": "Sat", "time": "11:00am"}, {"days": "Sun", "time": "Closed"}], "id": "5353100000", "name": "USPS COLLECTION BOX - BLUE BOX", "address": {"city": "DEERFIELD", "state": "WI", "street": "16 W NELSON ST", "postcode": "53531"}}},
{"geometry": {"type": "Point", "coordinates": [-89.0761016712, 43.0543819783]}, "type": "Feature", "properties": {"collection_times": [{"days": "Mon-Fri", "time": "4:30pm"}, {"days": "Sat", "time": "11:00am"}, {"days": "Sun", "time": "Closed"}], "id": "5353100001", "name": "USPS COLLECTION BOX - PO LOBBY", "address": {"city": "DEERFIELD", "state": "WI", "street": "16 W NELSON ST", "postcode": "53531"}}},
{"geometry": {"type": "Point", "coordinates": [-89.0761016712, 43.0543819783]}, "type": "Feature", "properties": {"collection_times": [{"days": "Mon-Fri", "time": "4:30pm"}, {"days": "Sat", "time": "11:00am"}, {"days": "Sun", "time": "Closed"}], "id": "5353100002", "name": "USPS COLLECTION BOX - PO LOBBY", "address": {"city": "DEERFIELD", "state": "WI", "street": "16 W NELSON ST", "postcode": "53531"}}},
{"geometry": {"type": "Point", "coordinates": [-89.3436338966, 43.2413135746]}, "type": "Feature", "properties": {"collection_times": [{"days": "Mon-Fri", "time": "4:30pm"}, {"days": "Sat", "time": "11:00am"}, {"days": "Sun", "time": "Closed"}], "id": "5353200002", "name": "USPS COLLECTION BOX - BLUE BOX", "address": {"city": "DEFOREST", "state": "WI", "street": "619 S MAIN ST", "postcode": "53532"}}},
{"geometry": {"type": "Point", "coordinates": [-89.3436338966, 43.2413135746]}, "type": "Feature", "properties": {"collection_times": [{"days": "Mon-Fri", "time": "4:30pm"}, {"days": "Sat", "time": "11:00am"}, {"days": "Sun", "time": "Closed"}], "id": "5353200003", "name": "USPS COLLECTION BOX - BLUE BOX", "address": {"city": "DEFOREST", "state": "WI", "street": "619 S MAIN ST", "postcode": "53532"}}},
{"geometry": {"type": "Point", "coordinates": [-89.3438158756, 43.2499175303]}, "type": "Feature", "properties": {"collection_times": [{"days": "Mon-Sat", "time": "10:00am"}, {"days": "Sun", "time": "Closed"}], "id": "5353200004", "name": "USPS COLLECTION BOX - BLUE BOX", "address": {"city": "DEFOREST", "state": "WI", "street": "321 N MAIN ST", "postcode": "53532"}}},
{"geometry": {"type": "Point", "coordinates": [-89.3436338966, 43.2413135746]}, "type": "Feature", "properties": {"collection_times": [{"days": "Mon-Fri", "time": "4:30pm"}, {"days": "Sat", "time": "11:30am"}, {"days": "Sun", "time": "Closed"}], "id": "5353200006", "name": "USPS COLLECTION BOX - PO LOBBY", "address": {"city": "DEFOREST", "state": "WI", "street": "619 S MAIN ST", "postcode": "53532"}}},
{"geometry": {"type": "Point", "coordinates": [-89.3436338966, 43.2413135746]}, "type": "Feature", "properties": {"collection_times": [{"days": "Mon-Fri", "time": "4:30pm"}, {"days": "Sat", "time": "11:30am"}, {"days": "Sun", "time": "Closed"}], "id": "5353200007", "name": "USPS COLLECTION BOX - PO LOBBY", "address": {"city": "DEFOREST", "state": "WI", "street": "619 S MAIN ST", "postcode": "53532"}}},
{"geometry": {"type": "Point", "coordinates": [-90.1305231034, 42.9593825129]}, "type": "Feature", "properties": {"collection_times": [{"days": "Mon-Fri", "time": "3:00pm"}, {"days": "Sat", "time": "2:00pm"}, {"days": "Sun", "time": "Closed"}], "id": "5353300005", "name": "USPS COLLECTION BOX - BLUE BOX", "address": {"city": "DODGEVILLE", "state": "WI", "street": "139 S IOWA ST", "postcode": "53533"}}},
{"geometry": {"type": "Point", "coordinates": [-90.1305065121, 42.9615406298]}, "type": "Feature", "properties": {"collection_times": [{"days": "Mon-Fri", "time": "3:00pm"}, {"days": "Sat", "time": "2:00pm"}, {"days": "Sun", "time": "Closed"}], "id": "5353300006", "name": "USPS COLLECTION BOX - BLUE BOX", "address": {"city": "DODGEVILLE", "state": "WI", "street": "222 N IOWA ST", "postcode": "53533"}}},
{"geometry": {"type": "Point", "coordinates": [-90.1338675978, 42.9640400532]}, "type": "Feature", "properties": {"collection_times": [{"days": "Mon-Fri", "time": "3:00pm"}, {"days": "Sat", "time": "2:00pm"}, {"days": "Sun", "time": "Closed"}], "id": "5353300007", "name": "USPS COLLECTION BOX - BLUE BOX", "address": {"city": "DODGEVILLE", "state": "WI", "street": "316 W SPRING ST", "postcode": "53533"}}},
{"geometry": {"type": "Point", "coordinates": [-90.1262274975, 42.9741392929]}, "type": "Feature", "properties": {"collection_times": [{"days": "Mon-Fri", "time": "5:00pm"}, {"days": "Sat", "time": "11:30am"}, {"days": "Sun", "time": "Closed"}], "id": "5353300011", "name": "USPS COLLECTION BOX - BLUE BOX", "address": {"city": "DODGEVILLE", "state": "WI", "street": "1121 N JOHNS ST", "postcode": "53533"}}},
{"geometry": {"type": "Point", "coordinates": [-90.1262274975, 42.9741392929]}, "type": "Feature", "properties": {"collection_times": [{"days": "Mon-Fri", "time": "5:00pm"}, {"days": "Sat", "time": "11:30am"}, {"days": "Sun", "time": "Closed"}], "id": "5353300012", "name": "USPS COLLECTION BOX - PO LOBBY", "address": {"city": "DODGEVILLE", "state": "WI", "street": "1121 N JOHNS ST", "postcode": "53533"}}},
{"geometry": {"type": "Point", "coordinates": [-90.1262274975, 42.9741392929]}, "type": "Feature", "properties": {"collection_times": [{"days": "Mon-Fri", "time": "5:00pm"}, {"days": "Sat", "time": "11:30am"}, {"days": "Sun", "time": "Closed"}], "id": "5353300013", "name": "USPS COLLECTION BOX - PO LOBBY", "address": {"city": "DODGEVILLE", "state": "WI", "street": "1121 N JOHNS ST", "postcode": "53533"}}},
{"geometry": {"type": "Point", "coordinates": [-89.069575978, 42.8364464355]}, "type": "Feature", "properties": {"collection_times": [{"days": "Mon-Fri", "time": "5:00pm"}, {"days": "Sat", "time": "2:30pm"}, {"days": "Sun", "time": "Closed"}], "id": "5353400000", "name": "USPS COLLECTION BOX - BLUE BOX", "address": {"city": "EDGERTON", "state": "WI", "street": "104 SWIFT ST", "postcode": "53534"}}},
{"geometry": {"type": "Point", "coordinates": [-89.069575978, 42.8364464355]}, "type": "Feature", "properties": {"collection_times": [{"days": "Mon-Fri", "time": "5:00pm"}, {"days": "Sat", "time": "2:30pm"}, {"days": "Sun", "time": "Closed"}], "id": "5353400001", "name": "USPS COLLECTION BOX - BLUE BOX", "address": {"city": "EDGERTON", "state": "WI", "street": "104 SWIFT ST", "postcode": "53534"}}},
{"geometry": {"type": "Point", "coordinates": [-89.0592017567, 42.8462735673]}, "type": "Feature", "properties": {"collection_times": [{"days": "Mon-Sat", "time": "8:30am"}, {"days": "Sun", "time": "Closed"}], "id": "5353400003", "name": "USPS COLLECTION BOX - BLUE BOX", "address": {"city": "EDGERTON", "state": "WI", "street": "1211 N MAIN ST", "postcode": "53534"}}},
{"geometry": {"type": "Point", "coordinates": [-89.0718465731, 42.8349068848]}, "type": "Feature", "properties": {"collection_times": [{"days": "Mon-Sat", "time": "2:30pm"}, {"days": "Sun", "time": "Closed"}], "id": "5353400012", "name": "USPS COLLECTION BOX - BLUE BOX", "address": {"city": "EDGERTON", "state": "WI", "street": "12 ALBION ST", "postcode": "53534"}}},
{"geometry": {"type": "Point", "coordinates": [-89.069575978, 42.8364464355]}, "type": "Feature", "properties": {"collection_times": [{"days": "Mon-Fri", "time": "5:00pm"}, {"days": "Sat", "time": "2:30pm"}, {"days": "Sun", "time": "Closed"}], "id": "5353400014", "name": "USPS COLLECTION BOX - PO LOBBY", "address": {"city": "EDGERTON", "state": "WI", "street": "104 SWIFT ST", "postcode": "53534"}}},
{"geometry": {"type": "Point", "coordinates": [-90.2648807534, 42.9678782911]}, "type": "Feature", "properties": {"collection_times": [{"days": "Mon-Sat", "time": "10:00am"}, {"days": "Sun", "time": "Closed"}], "id": "5353500001", "name": "USPS COLLECTION BOX - BLUE BOX", "address": {"city": "EDMUND", "state": "WI", "street": "3156 N MAIN ST", "postcode": "53535"}}},
{"geometry": {"type": "Point", "coordinates": [-89.3012920412, 42.7801225376]}, "type": "Feature", "properties": {"collection_times": [{"days": "Mon-Fri", "time": "5:00pm"}, {"days": "Sat", "time": "11:30am"}, {"days": "Sun", "time": "Closed"}], "id": "5353600001", "name": "USPS COLLECTION BOX - BLUE BOX", "address": {"city": "EVANSVILLE", "state": "WI", "street": "16 S 1ST ST", "postcode": "53536"}}},
{"geometry": {"type": "Point", "coordinates": [-89.2991405517, 42.7803742249]}, "type": "Feature", "properties": {"collection_times": [{"days": "Mon-Sat", "time": "2:00pm"}, {"days": "Sun", "time": "Closed"}], "id": "5353600002", "name": "USPS COLLECTION BOX - BLUE BOX", "address": {"city": "EVANSVILLE", "state": "WI", "street": "2 N MADISON ST", "postcode": "53536"}}},
{"geometry": {"type": "Point", "coordinates": [-89.3012920412, 42.7801225376]}, "type": "Feature", "properties": {"collection_times": [{"days": "Mon-Fri", "time": "5:00pm"}, {"days": "Sat", "time": "11:30am"}, {"days": "Sun", "time": "Closed"}], "id": "5353600012", "name": "USPS COLLECTION BOX - BLUE BOX", "address": {"city": "EVANSVILLE", "state": "WI", "street": "16 S 1ST ST", "postcode": "53536"}}},
{"geometry": {"type": "Point", "coordinates": [-89.2647788168, 42.7621940864]}, "type": "Feature", "properties": {"collection_times": [{"days": "Mon-Sat", "time": "11:00am"}, {"days": "Sun", "time": "Closed"}], "id": "5353600013", "name": "USPS COLLECTION BOX - BLUE BOX", "address": {"city": "EVANSVILLE", "state": "WI", "street": "8 N COUNTY ROAD M", "postcode": "53536"}}},
{"geometry": {"type": "Point", "coordinates": [-89.3012920412, 42.7801225376]}, "type": "Feature", "properties": {"collection_times": [{"days": "Mon-Fri", "time": "5:00pm"}, {"days": "Sat", "time": "11:30am"}, {"days": "Sun", "time": "Closed"}], "id": "5353600014", "name": "USPS COLLECTION BOX - PO LOBBY", "address": {"city": "EVANSVILLE", "state": "WI", "street": "16 S 1ST ST", "postcode": "53536"}}},
{"geometry": {"type": "Point", "coordinates": [-89.3012920412, 42.7801225376]}, "type": "Feature", "properties": {"collection_times": [{"days": "Mon-Fri", "time": "5:00pm"}, {"days": "Sat", "time": "11:30am"}, {"days": "Sun", "time": "Closed"}], "id": "5353600015", "name": "USPS COLLECTION BOX - PO LOBBY", "address": {"city": "EVANSVILLE", "state": "WI", "street": "16 S 1ST ST", "postcode": "53536"}}},
{"geometry": {"type": "Point", "coordinates": [-89.2110425586, 42.6704669367]}, "type": "Feature", "properties": {"collection_times": [{"days": "Mon-Fri", "time": "4:30pm"}, {"days": "Sat", "time": "10:30am"}, {"days": "Sun", "time": "Closed"}], "id": "5353700000", "name": "USPS COLLECTION BOX - BLUE BOX", "address": {"city": "FOOTVILLE", "state": "WI", "street": "212 DEPOT ST", "postcode": "53537"}}},
{"geometry": {"type": "Point", "coordinates": [-89.2110425586, 42.6704669367]}, "type": "Feature", "properties": {"collection_times": [{"days": "Mon-Fri", "time": "12:00pm"}, {"days": "Sat", "time": "10:30am"}, {"days": "Sun", "time": "Closed"}], "id": "5353700002", "name": "USPS COLLECTION BOX - PO LOBBY", "address": {"city": "FOOTVILLE", "state": "WI", "street": "212 DEPOT ST", "postcode": "53537"}}},
{"geometry": {"type": "Point", "coordinates": [-88.8326593761, 42.9180284371]}, "type": "Feature", "properties": {"collection_times": [{"days": "Mon-Fri", "time": "1:00pm"}, {"days": "Sat", "time": "11:00am"}, {"days": "Sun", "time": "Closed"}], "id": "5353800000", "name": "USPS COLLECTION BOX - BLUE BOX", "address": {"city": "FORT ATKINSON", "state": "WI", "street": "1012 WHITEWATER AVE", "postcode": "53538"}}},
{"geometry": {"type": "Point", "coordinates": [-88.8457555161, 42.9127763731]}, "type": "Feature", "properties": {"collection_times": [{"days": "Mon-Fri", "time": "1:00pm"}, {"days": "Sat", "time": "11:00am"}, {"days": "Sun", "time": "Closed"}], "id": "5353800001", "name": "USPS COLLECTION BOX - BLUE BOX", "address": {"city": "FORT ATKINSON", "state": "WI", "street": "609 HILLTOP TRL W", "postcode": "53538"}}},
{"geometry": {"type": "Point", "coordinates": [-88.8494154825, 42.9136556011]}, "type": "Feature", "properties": {"collection_times": [{"days": "Mon-Fri", "time": "3:00pm"}, {"days": "Sat", "time": "11:00am"}, {"days": "Sun", "time": "Closed"}], "id": "5353800002", "name": "USPS COLLECTION BOX - BLUE BOX", "address": {"city": "FORT ATKINSON", "state": "WI", "street": "1220 JANESVILLE AVE", "postcode": "53538"}}},
{"geometry": {"type": "Point", "coordinates": [-88.8508033039, 42.9096999493]}, "type": "Feature", "properties": {"collection_times": [{"days": "Mon-Fri", "time": "3:00pm"}, {"days": "Sat", "time": "11:00am"}, {"days": "Sun", "time": "Closed"}], "id": "5353800003", "name": "USPS COLLECTION BOX - BLUE BOX", "address": {"city": "FORT ATKINSON", "state": "WI", "street": "1425 JANESVILLE AVE", "postcode": "53538"}}},
{"geometry": {"type": "Point", "coordinates": [-88.8433466218, 42.9307223164]}, "type": "Feature", "properties": {"collection_times": [{"days": "Mon-Fri", "time": "1:00pm"}, {"days": "Sat", "time": "11:00am"}, {"days": "Sun", "time": "Closed"}], "id": "5353800006", "name": "USPS COLLECTION BOX - BLUE BOX", "address": {"city": "FORT ATKINSON", "state": "WI", "street": "500 BARRIE ST", "postcode": "53538"}}},
{"geometry": {"type": "Point", "coordinates": [-88.8460224722, 42.933631932]}, "type": "Feature", "properties": {"collection_times": [{"days": "Mon-Fri", "time": "3:00pm"}, {"days": "Sat", "time": "11:00am"}, {"days": "Sun", "time": "Closed"}], "id": "5353800008", "name": "USPS COLLECTION BOX - BLUE BOX", "address": {"city": "FORT ATKINSON", "state": "WI", "street": "800 MADISON AVE", "postcode": "53538"}}},
{"geometry": {"type": "Point", "coordinates": [-88.8430128301, 42.9396756872]}, "type": "Feature", "properties": {"collection_times": [{"days": "Mon-Sat", "time": "11:00am"}, {"days": "Sun", "time": "Closed"}], "id": "5353800009", "name": "USPS COLLECTION BOX - BLUE BOX", "address": {"city": "FORT ATKINSON", "state": "WI", "street": "503 W CRAMER ST", "postcode": "53538"}}},
{"geometry": {"type": "Point", "coordinates": [-88.8357491846, 42.9292379869]}, "type": "Feature", "properties": {"collection_times": [{"days": "Mon-Fri", "time": "3:00pm"}, {"days": "Sat", "time": "11:00am"}, {"days": "Sun", "time": "Closed"}], "id": "5353800013", "name": "USPS COLLECTION BOX - BLUE BOX", "address": {"city": "FORT ATKINSON", "state": "WI", "street": "100 EDWARD ST", "postcode": "53538"}}},
{"geometry": {"type": "Point", "coordinates": [-88.8397888938, 42.9310307498]}, "type": "Feature", "properties": {"collection_times": [{"days": "Mon-Fri", "time": "3:00pm"}, {"days": "Sat", "time": "11:00am"}, {"days": "Sun", "time": "Closed"}], "id": "5353800015", "name": "USPS COLLECTION BOX - BLUE BOX", "address": {"city": "FORT ATKINSON", "state": "WI", "street": "328 WASHINGTON ST", "postcode": "53538"}}},
{"geometry": {"type": "Point", "coordinates": [-88.8370875053, 42.9290695312]}, "type": "Feature", "properties": {"collection_times": [{"days": "Mon-Fri", "time": "3:00pm"}, {"days": "Sat", "time": "11:00am"}, {"days": "Sun", "time": "Closed"}], "id": "5353800016", "name": "USPS COLLECTION BOX - BLUE BOX", "address": {"city": "FORT ATKINSON", "state": "WI", "street": "101 N MAIN ST", "postcode": "53538"}}},
{"geometry": {"type": "Point", "coordinates": [-88.8384007738, 42.9266200049]}, "type": "Feature", "properties": {"collection_times": [{"days": "Mon-Fri", "time": "3:00pm"}, {"days": "Sat", "time": "11:00am"}, {"days": "Sun", "time": "Closed"}], "id": "5353800018", "name": "USPS COLLECTION BOX - BLUE BOX", "address": {"city": "FORT ATKINSON", "state": "WI", "street": "220 GRANT ST", "postcode": "53538"}}},
{"geometry": {"type": "Point", "coordinates": [-88.8366229451, 42.9269023833]}, "type": "Feature", "properties": {"collection_times": [{"days": "Mon-Fri", "time": "5:00pm"}, {"days": "Sat", "time": "3:00pm"}, {"days": "Sun", "time": "Closed"}], "id": "5353800020", "name": "USPS COLLECTION BOX - BLUE BOX", "address": {"city": "FORT ATKINSON", "state": "WI", "street": "24 MILWAUKEE AVE E", "postcode": "53538"}}},
{"geometry": {"type": "Point", "coordinates": [-88.8366229451, 42.9269023833]}, "type": "Feature", "properties": {"collection_times": [{"days": "Mon-Fri", "time": "5:00pm"}, {"days": "Sat", "time": "3:00pm"}, {"days": "Sun", "time": "Closed"}], "id": "5353800021", "name": "USPS COLLECTION BOX - BLUE BOX", "address": {"city": "FORT ATKINSON", "state": "WI", "street": "24 MILWAUKEE AVE E", "postcode": "53538"}}},
{"geometry": {"type": "Point", "coordinates": [-88.8366229451, 42.9269023833]}, "type": "Feature", "properties": {"collection_times": [{"days": "Mon-Fri", "time": "5:00pm"}, {"days": "Sat", "time": "3:00pm"}, {"days": "Sun", "time": "Closed"}], "id": "5353800022", "name": "USPS COLLECTION BOX - BLUE BOX", "address": {"city": "FORT ATKINSON", "state": "WI", "street": "24 MILWAUKEE AVE E", "postcode": "53538"}}},
{"geometry": {"type": "Point", "coordinates": [-88.8366229451, 42.9269023833]}, "type": "Feature", "properties": {"collection_times": [{"days": "Mon-Fri", "time": "5:00pm"}, {"days": "Sat", "time": "3:00pm"}, {"days": "Sun", "time": "Closed"}], "id": "5353800023", "name": "USPS COLLECTION BOX - BLUE BOX", "address": {"city": "FORT ATKINSON", "state": "WI", "street": "24 MILWAUKEE AVE E", "postcode": "53538"}}},
{"geometry": {"type": "Point", "coordinates": [-88.8366229451, 42.9269023833]}, "type": "Feature", "properties": {"collection_times": [{"days": "Mon-Fri", "time": "5:00pm"}, {"days": "Sat", "time": "3:00pm"}, {"days": "Sun", "time": "Closed"}], "id": "5353800025", "name": "USPS COLLECTION BOX - PO LOBBY", "address": {"city": "FORT ATKINSON", "state": "WI", "street": "24 MILWAUKEE AVE E", "postcode": "53538"}}},
{"geometry": {"type": "Point", "coordinates": [-88.8366229451, 42.9269023833]}, "type": "Feature", "properties": {"collection_times": [{"days": "Mon-Fri", "time": "5:00pm"}, {"days": "Sat", "time": "3:00pm"}, {"days": "Sun", "time": "Closed"}], "id": "5353800026", "name": "USPS COLLECTION BOX - PO LOBBY", "address": {"city": "FORT ATKINSON", "state": "WI", "street": "24 MILWAUKEE AVE E", "postcode": "53538"}}},
{"geometry": {"type": "Point", "coordinates": [-90.2929660324, 43.2233103378]}, "type": "Feature", "properties": {"collection_times": [{"days": "Mon-Fri", "time": "4:30pm"}, {"days": "Sat", "time": "11:00am"}, {"days": "Sun", "time": "Closed"}], "id": "5354000000", "name": "USPS COLLECTION BOX - BLUE BOX", "address": {"city": "GOTHAM", "state": "WI", "street": "32826 N 1ST ST", "postcode": "53540"}}},
{"geometry": {"type": "Point", "coordinates": [-90.2929660324, 43.2233103378]}, "type": "Feature", "properties": {"collection_times": [{"days": "Mon-Fri", "time": "4:30pm"}, {"days": "Sat", "time": "11:00am"}, {"days": "Sun", "time": "Closed"}], "id": "5354000001", "name": "USPS COLLECTION BOX - PO LOBBY", "address": {"city": "GOTHAM", "state": "WI", "street": "32826 N 1ST ST", "postcode": "53540"}}},
{"geometry": {"type": "Point", "coordinates": [-90.0357848532, 42.5657776624]}, "type": "Feature", "properties": {"collection_times": [{"days": "Mon-Fri", "time": "4:00pm"}, {"days": "Sat", "time": "10:00am"}, {"days": "Sun", "time": "Closed"}], "id": "5354100000", "name": "USPS COLLECTION BOX - BLUE BOX", "address": {"city": "GRATIOT", "state": "WI", "street": "5801 PHILIPPS ST", "postcode": "53541"}}},
{"geometry": {"type": "Point", "coordinates": [-90.0296669947, 42.5804468415]}, "type": "Feature", "properties": {"collection_times": [{"days": "Mon-Fri", "time": "12:00pm"}, {"days": "Sat", "time": "10:00am"}, {"days": "Sun", "time": "Closed"}], "id": "5354100001", "name": "USPS COLLECTION BOX - PO LOBBY", "address": {"city": "GRATIOT", "state": "WI", "street": "5801 PHILIPPS ST", "postcode": "53541"}}},
{"geometry": {"type": "Point", "coordinates": [-90.0357848532, 42.5657776624]}, "type": "Feature", "properties": {"collection_times": [{"days": "Mon-Fri", "time": "12:00pm"}, {"days": "Sat", "time": "10:00am"}, {"days": "Sun", "time": "Closed"}], "id": "5354100003", "name": "USPS COLLECTION BOX - PO LOBBY", "address": {"city": "GRATIOT", "state": "WI", "street": "5801 PHILIPPS ST", "postcode": "53541"}}},
{"geometry": {"type": "Point", "coordinates": [-90.0239398765, 42.5746921452]}, "type": "Feature", "properties": {"collection_times": [{"days": "Mon-Sat", "time": "1:00pm"}, {"days": "Sun", "time": "Closed"}], "id": "5354100004", "name": "USPS COLLECTION BOX - BLUE BOX", "address": {"city": "GRATIOT", "state": "WI", "street": "10360 BRIDGE ST", "postcode": "53541"}}},
{"geometry": {"type": "Point", "coordinates": [-89.1630213899, 42.6372364574]}, "type": "Feature", "properties": {"collection_times": [{"days": "Mon-Sat", "time": "12:00pm"}, {"days": "Sun", "time": "Closed"}], "id": "5354200000", "name": "USPS COLLECTION BOX - BLUE BOX", "address": {"city": "HANOVER", "state": "WI", "street": "8219 W HIGH ST", "postcode": "53542"}}},
{"geometry": {"type": "Point", "coordinates": [-90.3805003629, 43.0465539176]}, "type": "Feature", "properties": {"collection_times": [{"days": "Mon-Fri", "time": "5:00pm"}, {"days": "Sat", "time": "10:00am"}, {"days": "Sun", "time": "Closed"}], "id": "5354300000", "name": "USPS COLLECTION BOX - BLUE BOX", "address": {"city": "HIGHLAND", "state": "WI", "street": "803 DODGEVILLE ST", "postcode": "53543"}}},
{"geometry": {"type": "Point", "coordinates": [-90.3659265694, 43.0468421678]}, "type": "Feature", "properties": {"collection_times": [{"days": "Mon-Fri", "time": "3:30pm"}, {"days": "Sat", "time": "10:00am"}, {"days": "Sun", "time": "Closed"}], "id": "5354300001", "name": "USPS COLLECTION BOX - PO LOBBY", "address": {"city": "HIGHLAND", "state": "WI", "street": "803 DODGEVILLE ST", "postcode": "53543"}}},
{"geometry": {"type": "Point", "coordinates": [-89.9348187721, 42.8770377354]}, "type": "Feature", "properties": {"collection_times": [{"days": "Mon-Fri", "time": "4:15pm"}, {"days": "Sat", "time": "9:30am"}, {"days": "Sun", "time": "Closed"}], "id": "5354400000", "name": "USPS COLLECTION BOX - BLUE BOX", "address": {"city": "HOLLANDALE", "state": "WI", "street": "309 MAIN ST", "postcode": "53544"}}},
{"geometry": {"type": "Point", "coordinates": [-89.9348187721, 42.8770377354]}, "type": "Feature", "properties": {"collection_times": [{"days": "Mon-Fri", "time": "11:30am"}, {"days": "Sat", "time": "10:00am"}, {"days": "Sun", "time": "Closed"}], "id": "5354400001", "name": "USPS COLLECTION BOX - PO LOBBY", "address": {"city": "HOLLANDALE", "state": "WI", "street": "309 MAIN ST", "postcode": "53544"}}},
{"geometry": {"type": "Point", "coordinates": [-89.9159882149, 42.8797941328]}, "type": "Feature", "properties": {"collection_times": [{"days": "Mon-Sat", "time": "12:00pm"}, {"days": "Sun", "time": "Closed"}], "id": "5354400002", "name": "USPS COLLECTION BOX - BLUE BOX", "address": {"city": "HOLLANDALE", "state": "WI", "street": "501 2ND AVE", "postcode": "53544"}}},
{"geometry": {"type": "Point", "coordinates": [-89.0227305546, 42.683125892]}, "type": "Feature", "properties": {"collection_times": [{"days": "Mon-Fri", "time": "4:30pm"}, {"days": "Sat", "time": "1:00pm"}, {"days": "Sun", "time": "Closed"}], "id": "5354500000", "name": "USPS COLLECTION BOX - BLUE BOX", "address": {"city": "JANESVILLE", "state": "WI", "street": "1 N MAIN ST", "postcode": "53545"}}},
{"geometry": {"type": "Point", "coordinates": [-89.0196876587, 42.6804906358]}, "type": "Feature", "properties": {"collection_times": [{"days": "Mon-Fri", "time": "1:30pm"}, {"days": "Sat", "time": "1:00pm"}, {"days": "Sun", "time": "Closed"}], "id": "5354500002", "name": "USPS COLLECTION BOX - BLUE BOX", "address": {"city": "JANESVILLE", "state": "WI", "street": "203 S MAIN ST", "postcode": "53545"}}},
{"geometry": {"type": "Point", "coordinates": [-89.0212592137, 42.6819253443]}, "type": "Feature", "properties": {"collection_times": [{"days": "Mon-Fri", "time": "3:30pm"}, {"days": "Sat", "time": "1:30pm"}, {"days": "Sun", "time": "Closed"}], "id": "5354500003", "name": "USPS COLLECTION BOX - BLUE BOX", "address": {"city": "JANESVILLE", "state": "WI", "street": "51 S MAIN ST", "postcode": "53545"}}},
{"geometry": {"type": "Point", "coordinates": [-89.0027238673, 42.6788252335]}, "type": "Feature", "properties": {"collection_times": [{"days": "Mon-Sat", "time": "1:00pm"}, {"days": "Sun", "time": "Closed"}], "id": "5354500004", "name": "USPS COLLECTION BOX - BLUE BOX", "address": {"city": "JANESVILLE", "state": "WI", "street": "501 S RANDALL AVE", "postcode": "53545"}}},
{"geometry": {"type": "Point", "coordinates": [-89.0014810749, 42.7133239929]}, "type": "Feature", "properties": {"collection_times": [{"days": "Mon-Fri", "time": "3:30pm"}, {"days": "Sat", "time": "12:45pm"}, {"days": "Sun", "time": "Closed"}], "id": "5354500025", "name": "USPS COLLECTION BOX - BLUE BOX", "address": {"city": "JANESVILLE", "state": "WI", "street": "2525 MILTON AVE", "postcode": "53545"}}},
{"geometry": {"type": "Point", "coordinates": [-89.006693851, 42.7016216925]}, "type": "Feature", "properties": {"collection_times": [{"days": "Mon-Fri", "time": "3:00pm"}, {"days": "Sat", "time": "1:00pm"}, {"days": "Sun", "time": "Closed"}], "id": "5354500038", "name": "USPS COLLECTION BOX - BLUE BOX", "address": {"city": "JANESVILLE", "state": "WI", "street": "1336 CRESTON PARK DR", "postcode": "53545"}}},
{"geometry": {"type": "Point", "coordinates": [-89.0227305546, 42.683125892]}, "type": "Feature", "properties": {"collection_times": [{"days": "Mon-Fri", "time": "4:30pm"}, {"days": "Sat", "time": "1:00pm"}, {"days": "Sun", "time": "Closed"}], "id": "5354500058", "name": "USPS COLLECTION BOX - BLUE BOX", "address": {"city": "JANESVILLE", "state": "WI", "street": "1 N MAIN ST", "postcode": "53545"}}},
{"geometry": {"type": "Point", "coordinates": [-89.022168384, 42.682603099]}, "type": "Feature", "properties": {"collection_times": [{"days": "Mon-Fri", "time": "3:00pm"}, {"days": "Sat", "time": "11:30am"}, {"days": "Sun", "time": "Closed"}], "id": "5354500062", "name": "USPS COLLECTION BOX - BLUE BOX", "address": {"city": "JANESVILLE", "state": "WI", "street": "20 S MAIN ST", "postcode": "53545"}}},
{"geometry": {"type": "Point", "coordinates": [-89.0059558743, 42.7052018168]}, "type": "Feature", "properties": {"collection_times": [{"days": "Mon-Sat", "time": "6:00pm"}, {"days": "Sun", "time": "Closed"}], "id": "5354500066", "name": "USPS COLLECTION BOX - PO LOBBY", "address": {"city": "JANESVILLE", "state": "WI", "street": "1818 MILTON AVE", "postcode": "53545"}}},
{"geometry": {"type": "Point", "coordinates": [-89.0059558743, 42.7052018168]}, "type": "Feature", "properties": {"collection_times": [{"days": "Mon-Sat", "time": "5:30pm"}, {"days": "Sun", "time": "Closed"}], "id": "5354500072", "name": "USPS COLLECTION BOX - BLUE BOX", "address": {"city": "JANESVILLE", "state": "WI", "street": "1818 MILTON AVE", "postcode": "53545"}}},
{"geometry": {"type": "Point", "coordinates": [-89.0203739825, 42.6839672806]}, "type": "Feature", "properties": {"collection_times": [{"days": "Mon-Fri", "time": "3:00pm"}, {"days": "Sat", "time": "1:00pm"}, {"days": "Sun", "time": "Closed"}], "id": "5354500073", "name": "USPS COLLECTION BOX - BLUE BOX", "address": {"city": "JANESVILLE", "state": "WI", "street": "1 PARKER PL", "postcode": "53545"}}},
{"geometry": {"type": "Point", "coordinates": [-89.0059558743, 42.7052018168]}, "type": "Feature", "properties": {"collection_times": [{"days": "Mon-Sat", "time": "6:00pm"}, {"days": "Sun", "time": "Closed"}], "id": "5354500076", "name": "USPS COLLECTION BOX - APC", "address": {"city": "JANESVILLE", "state": "WI", "street": "1818 MILTON AVE", "postcode": "53545"}}},
{"geometry": {"type": "Point", "coordinates": [-89.022168384, 42.682603099]}, "type": "Feature", "properties": {"collection_times": [{"days": "Mon-Fri", "time": "2:00pm"}, {"days": "Sat-Sun", "time": "Closed"}], "id": "5354500078", "name": "USPS COLLECTION BOX - PO LOBBY", "address": {"city": "JANESVILLE", "state": "WI", "street": "20 S MAIN ST", "postcode": "53545"}}},
{"geometry": {"type": "Point", "coordinates": [-89.030974135, 42.6539110602]}, "type": "Feature", "properties": {"collection_times": [{"days": "Mon-Sat", "time": "12:00pm"}, {"days": "Sun", "time": "Closed"}], "id": "5354600000", "name": "USPS COLLECTION BOX - BLUE BOX", "address": {"city": "JANESVILLE", "state": "WI", "street": "1717 CENTER AVE", "postcode": "53546"}}},
{"geometry": {"type": "Point", "coordinates": [-89.0311875641, 42.6513264805]}, "type": "Feature", "properties": {"collection_times": [{"days": "Mon-Sat", "time": "12:00pm"}, {"days": "Sun", "time": "Closed"}], "id": "5354600001", "name": "USPS COLLECTION BOX - BLUE BOX", "address": {"city": "JANESVILLE", "state": "WI", "street": "1900 CENTER AVE", "postcode": "53546"}}},
{"geometry": {"type": "Point", "coordinates": [-89.0178513336, 42.666930079]}, "type": "Feature", "properties": {"collection_times": [{"days": "Mon-Fri", "time": "2:45pm"}, {"days": "Sat", "time": "1:00pm"}, {"days": "Sun", "time": "Closed"}], "id": "5354600005", "name": "USPS COLLECTION BOX - BLUE BOX", "address": {"city": "JANESVILLE", "state": "WI", "street": "1002 S JACKSON ST", "postcode": "53546"}}},
{"geometry": {"type": "Point", "coordinates": [-88.9751023433, 42.6996516648]}, "type": "Feature", "properties": {"collection_times": [{"days": "Mon-Fri", "time": "2:30pm"}, {"days": "Sat", "time": "1:00pm"}, {"days": "Sun", "time": "Closed"}], "id": "5354600006", "name": "USPS COLLECTION BOX - BLUE BOX", "address": {"city": "JANESVILLE", "state": "WI", "street": "3515 E MILWAUKEE ST", "postcode": "53546"}}},
{"geometry": {"type": "Point", "coordinates": [-88.9796708079, 42.7162351756]}, "type": "Feature", "properties": {"collection_times": [{"days": "Mon-Sat", "time": "10:00am"}, {"days": "Sun", "time": "Closed"}], "id": "5354600010", "name": "USPS COLLECTION BOX - BLUE BOX", "address": {"city": "JANESVILLE", "state": "WI", "street": "2900 DEERFIELD DR", "postcode": "53546"}}},
{"geometry": {"type": "Point", "coordinates": [-89.0434519314, 42.6793771885]}, "type": "Feature", "properties": {"collection_times": [{"days": "Mon-Sat", "time": "10:00am"}, {"days": "Sun", "time": "Closed"}], "id": "5354800000", "name": "USPS COLLECTION BOX - BLUE BOX", "address": {"city": "JANESVILLE", "state": "WI", "street": "1902 W COURT ST", "postcode": "53548"}}},
{"geometry": {"type": "Point", "coordinates": [-89.0247222443, 42.6802083043]}, "type": "Feature", "properties": {"collection_times": [{"days": "Mon-Fri", "time": "3:30pm"}, {"days": "Sat", "time": "1:00pm"}, {"days": "Sun", "time": "Closed"}], "id": "5354800002", "name": "USPS COLLECTION BOX - BLUE BOX", "address": {"city": "JANESVILLE", "state": "WI", "street": "200 W COURT ST", "postcode": "53548"}}},
{"geometry": {"type": "Point", "coordinates": [-89.0247222443, 42.6802083043]}, "type": "Feature", "properties": {"collection_times": [{"days": "Mon-Fri", "time": "3:30pm"}, {"days": "Sat", "time": "1:00pm"}, {"days": "Sun", "time": "Closed"}], "id": "5354800003", "name": "USPS COLLECTION BOX - BLUE BOX", "address": {"city": "JANESVILLE", "state": "WI", "street": "200 W COURT ST", "postcode": "53548"}}},
{"geometry": {"type": "Point", "coordinates": [-89.0247222443, 42.6802083043]}, "type": "Feature", "properties": {"collection_times": [{"days": "Mon-Fri", "time": "3:30pm"}, {"days": "Sat", "time": "1:00pm"}, {"days": "Sun", "time": "Closed"}], "id": "5354800004", "name": "USPS COLLECTION BOX - BLUE BOX", "address": {"city": "JANESVILLE", "state": "WI", "street": "200 W COURT ST", "postcode": "53548"}}},
{"geometry": {"type": "Point", "coordinates": [-89.0369955426, 42.6940611815]}, "type": "Feature", "properties": {"collection_times": [{"days": "Mon-Sat", "time": "1:00pm"}, {"days": "Sun", "time": "Closed"}], "id": "5354800010", "name": "USPS COLLECTION BOX - BLUE BOX", "address": {"city": "JANESVILLE", "state": "WI", "street": "1010 N WASHINGTON ST", "postcode": "53548"}}},
{"geometry": {"type": "Point", "coordinates": [-88.8058121656, 43.0050675655]}, "type": "Feature", "properties": {"collection_times": [{"days": "Mon-Fri", "time": "5:00pm"}, {"days": "Sat", "time": "12:00pm"}, {"days": "Sun", "time": "Closed"}], "id": "5354900000", "name": "USPS COLLECTION BOX - BLUE BOX", "address": {"city": "JEFFERSON", "state": "WI", "street": "122 S CENTER AVE", "postcode": "53549"}}},
{"geometry": {"type": "Point", "coordinates": [-88.8058121656, 43.0050675655]}, "type": "Feature", "properties": {"collection_times": [{"days": "Mon-Fri", "time": "5:00pm"}, {"days": "Sat", "time": "12:00pm"}, {"days": "Sun", "time": "Closed"}], "id": "5354900001", "name": "USPS COLLECTION BOX - BLUE BOX", "address": {"city": "JEFFERSON", "state": "WI", "street": "122 S CENTER AVE", "postcode": "53549"}}},
{"geometry": {"type": "Point", "coordinates": [-88.8058121656, 43.0050675655]}, "type": "Feature", "properties": {"collection_times": [{"days": "Mon-Fri", "time": "5:00pm"}, {"days": "Sat", "time": "12:00pm"}, {"days": "Sun", "time": "Closed"}], "id": "5354900002", "name": "USPS COLLECTION BOX - BLUE BOX", "address": {"city": "JEFFERSON", "state": "WI", "street": "122 S CENTER AVE", "postcode": "53549"}}},
{"geometry": {"type": "Point", "coordinates": [-88.8058121656, 43.0050675655]}, "type": "Feature", "properties": {"collection_times": [{"days": "Mon-Fri", "time": "5:00pm"}, {"days": "Sat", "time": "12:00pm"}, {"days": "Sun", "time": "Closed"}], "id": "5354900003", "name": "USPS COLLECTION BOX - BLUE BOX", "address": {"city": "JEFFERSON", "state": "WI", "street": "122 S CENTER AVE", "postcode": "53549"}}},
{"geometry": {"type": "Point", "coordinates": [-88.8058121656, 43.0050675655]}, "type": "Feature", "properties": {"collection_times": [{"days": "Mon-Fri", "time": "5:00pm"}, {"days": "Sat", "time": "12:00pm"}, {"days": "Sun", "time": "Closed"}], "id": "5354900004", "name": "USPS COLLECTION BOX - BLUE BOX", "address": {"city": "JEFFERSON", "state": "WI", "street": "122 S CENTER AVE", "postcode": "53549"}}},
{"geometry": {"type": "Point", "coordinates": [-88.80912, 42.990788]}, "type": "Feature", "properties": {"collection_times": [{"days": "Mon-Sat", "time": "12:00pm"}, {"days": "Sun", "time": "Closed"}], "id": "5354900007", "name": "USPS COLLECTION BOX - BLUE BOX", "address": {"city": "JEFFERSON", "state": "WI", "street": "159 COLLINS RD", "postcode": "53549"}}},
{"geometry": {"type": "Point", "coordinates": [-88.8253152813, 43.0060378033]}, "type": "Feature", "properties": {"collection_times": [{"days": "Mon-Sat", "time": "12:00pm"}, {"days": "Sun", "time": "Closed"}], "id": "5354900010", "name": "USPS COLLECTION BOX - BLUE BOX", "address": {"city": "JEFFERSON", "state": "WI", "street": "921 W RACINE ST", "postcode": "53549"}}},
{"geometry": {"type": "Point", "coordinates": [-88.8058121656, 43.0050675655]}, "type": "Feature", "properties": {"collection_times": [{"days": "Mon-Fri", "time": "5:00pm"}, {"days": "Sat", "time": "12:00pm"}, {"days": "Sun", "time": "Closed"}], "id": "5354900030", "name": "USPS COLLECTION BOX - PO LOBBY", "address": {"city": "JEFFERSON", "state": "WI", "street": "122 S CENTER AVE", "postcode": "53549"}}},
{"geometry": {"type": "Point", "coordinates": [-88.8058121656, 43.0050675655]}, "type": "Feature", "properties": {"collection_times": [{"days": "Mon-Fri", "time": "5:00pm"}, {"days": "Sat", "time": "12:00pm"}, {"days": "Sun", "time": "Closed"}], "id": "5354900031", "name": "USPS COLLECTION BOX - PO LOBBY", "address": {"city": "JEFFERSON", "state": "WI", "street": "122 S CENTER AVE", "postcode": "53549"}}},
{"geometry": {"type": "Point", "coordinates": [-88.8058121656, 43.0050675655]}, "type": "Feature", "properties": {"collection_times": [{"days": "Mon-Fri", "time": "5:00pm"}, {"days": "Sat", "time": "12:00pm"}, {"days": "Sun", "time": "Closed"}], "id": "5354900033", "name": "USPS COLLECTION BOX - BLUE BOX", "address": {"city": "JEFFERSON", "state": "WI", "street": "122 S CENTER AVE", "postcode": "53549"}}},
{"geometry": {"type": "Point", "coordinates": [-88.8058121656, 43.0050675655]}, "type": "Feature", "properties": {"collection_times": [{"days": "Mon-Fri", "time": "5:00pm"}, {"days": "Sat", "time": "12:00pm"}, {"days": "Sun", "time": "Closed"}], "id": "5354900036", "name": "USPS COLLECTION BOX - BLUE BOX", "address": {"city": "JEFFERSON", "state": "WI", "street": "122 S CENTER AVE", "postcode": "53549"}}},
{"geometry": {"type": "Point", "coordinates": [-89.5038969351, 42.5887225298]}, "type": "Feature", "properties": {"collection_times": [{"days": "Mon-Fri", "time": "4:30pm"}, {"days": "Sat", "time": "9:30am"}, {"days": "Sun", "time": "Closed"}], "id": "5355000000", "name": "USPS COLLECTION BOX - BLUE BOX", "address": {"city": "JUDA", "state": "WI", "street": "W2899 COUNTY ROAD KS", "postcode": "53550"}}},
{"geometry": {"type": "Point", "coordinates": [-89.4957217374, 42.5561291113]}, "type": "Feature", "properties": {"collection_times": [{"days": "Mon-Sat", "time": "9:30am"}, {"days": "Sun", "time": "Closed"}], "id": "5355000001", "name": "USPS COLLECTION BOX - BLUE BOX", "address": {"city": "JUDA", "state": "WI", "street": "W2616 W STATE ROAD 11 & 81", "postcode": "53550"}}},
{"geometry": {"type": "Point", "coordinates": [-89.4889089342, 42.5600929267]}, "type": "Feature", "properties": {"collection_times": [{"days": "Mon-Fri", "time": "10:45am"}, {"days": "Sat", "time": "9:30am"}, {"days": "Sun", "time": "Closed"}], "id": "5355000002", "name": "USPS COLLECTION BOX - PO LOBBY", "address": {"city": "JUDA", "state": "WI", "street": "W2899 COUNTY ROAD KS", "postcode": "53550"}}},
{"geometry": {"type": "Point", "coordinates": [-89.4889089342, 42.5600929267]}, "type": "Feature", "properties": {"collection_times": [{"days": "Mon-Fri", "time": "10:45am"}, {"days": "Sat", "time": "9:30am"}, {"days": "Sun", "time": "Closed"}], "id": "5355000003", "name": "USPS COLLECTION BOX - PO LOBBY", "address": {"city": "JUDA", "state": "WI", "street": "W2899 COUNTY ROAD KS", "postcode": "53550"}}},
{"geometry": {"type": "Point", "coordinates": [-88.9099958794, 43.0816121488]}, "type": "Feature", "properties": {"collection_times": [{"days": "Mon-Fri", "time": "5:00pm"}, {"days": "Sat", "time": "11:30am"}, {"days": "Sun", "time": "Closed"}], "id": "5355100001", "name": "USPS COLLECTION BOX - BLUE BOX", "address": {"city": "LAKE MILLS", "state": "WI", "street": "155 E OAK ST", "postcode": "53551"}}},
{"geometry": {"type": "Point", "coordinates": [-88.9099451081, 43.0816380667]}, "type": "Feature", "properties": {"collection_times": [{"days": "Mon-Fri", "time": "5:00pm"}, {"days": "Sat", "time": "11:30am"}, {"days": "Sun", "time": "Closed"}], "id": "5355100003", "name": "USPS COLLECTION BOX - BLUE BOX", "address": {"city": "LAKE MILLS", "state": "WI", "street": "155 E OAK ST", "postcode": "53551"}}},
{"geometry": {"type": "Point", "coordinates": [-88.9098343797, 43.0793440594]}, "type": "Feature", "properties": {"collection_times": [{"days": "Mon-Sat", "time": "11:30am"}, {"days": "Sun", "time": "Closed"}], "id": "5355100004", "name": "USPS COLLECTION BOX - BLUE BOX", "address": {"city": "LAKE MILLS", "state": "WI", "street": "105 S MADISON ST", "postcode": "53551"}}},
{"geometry": {"type": "Point", "coordinates": [-88.9098281839, 43.089974209]}, "type": "Feature", "properties": {"collection_times": [{"days": "Mon-Sat", "time": "9:45am"}, {"days": "Sun", "time": "Closed"}], "id": "5355100006", "name": "USPS COLLECTION BOX - BLUE BOX", "address": {"city": "LAKE MILLS", "state": "WI", "street": ". W7636 HWY V", "postcode": "53551"}}},
{"geometry": {"type": "Point", "coordinates": [-88.9099451081, 43.0816380667]}, "type": "Feature", "properties": {"collection_times": [{"days": "Mon-Fri", "time": "5:00pm"}, {"days": "Sat", "time": "11:30am"}, {"days": "Sun", "time": "Closed"}], "id": "5355100008", "name": "USPS COLLECTION BOX - PO LOBBY", "address": {"city": "LAKE MILLS", "state": "WI", "street": "155 E OAK ST", "postcode": "53551"}}},
{"geometry": {"type": "Point", "coordinates": [-90.2702461398, 42.9152984608]}, "type": "Feature", "properties": {"collection_times": [{"days": "Mon-Fri", "time": "4:00pm"}, {"days": "Sat", "time": "10:15am"}, {"days": "Sun", "time": "Closed"}], "id": "5355300000", "name": "USPS COLLECTION BOX - BLUE BOX", "address": {"city": "LINDEN", "state": "WI", "street": "509 MAIN ST", "postcode": "53553"}}},
{"geometry": {"type": "Point", "coordinates": [-90.2728480062, 42.9174950341]}, "type": "Feature", "properties": {"collection_times": [{"days": "Mon-Fri", "time": "12:15pm"}, {"days": "Sat", "time": "10:15am"}, {"days": "Sun", "time": "Closed"}], "id": "5355300001", "name": "USPS COLLECTION BOX - PO LOBBY", "address": {"city": "LINDEN", "state": "WI", "street": "509 MAIN ST", "postcode": "53553"}}},
{"geometry": {"type": "Point", "coordinates": [-90.4310216336, 42.9021028995]}, "type": "Feature", "properties": {"collection_times": [{"days": "Mon-Fri", "time": "4:00pm"}, {"days": "Sat", "time": "9:30am"}, {"days": "Sun", "time": "Closed"}], "id": "5355400000", "name": "USPS COLLECTION BOX - BLUE BOX", "address": {"city": "LIVINGSTON", "state": "WI", "street": "295 N CENTER ST", "postcode": "53554"}}},
{"geometry": {"type": "Point", "coordinates": [-90.4310216336, 42.9021028995]}, "type": "Feature", "properties": {"collection_times": [{"days": "Mon-Fri", "time": "11:45am"}, {"days": "Sat", "time": "9:30am"}, {"days": "Sun", "time": "Closed"}], "id": "5355400001", "name": "USPS COLLECTION BOX - BLUE BOX", "address": {"city": "LIVINGSTON", "state": "WI", "street": "295 N CENTER ST", "postcode": "53554"}}},
{"geometry": {"type": "Point", "coordinates": [-90.4525053598, 42.9031586922]}, "type": "Feature", "properties": {"collection_times": [{"days": "Mon-Sat", "time": "9:00am"}, {"days": "Sun", "time": "Closed"}], "id": "5355400003", "name": "USPS COLLECTION BOX - BLUE BOX", "address": {"city": "LIVINGSTON", "state": "WI", "street": "216 STATE ROAD 80", "postcode": "53554"}}},
{"geometry": {"type": "Point", "coordinates": [-89.5276134185, 43.3145594493]}, "type": "Feature", "properties": {"collection_times": [{"days": "Mon-Fri", "time": "5:00pm"}, {"days": "Sat", "time": "11:00am"}, {"days": "Sun", "time": "Closed"}], "id": "5355500001", "name": "USPS COLLECTION BOX - BLUE BOX", "address": {"city": "LODI", "state": "WI", "street": "113 1ST ST", "postcode": "53555"}}},
{"geometry": {"type": "Point", "coordinates": [-89.5302158907, 43.3178297762]}, "type": "Feature", "properties": {"collection_times": [{"days": "Mon-Sat", "time": "12:30pm"}, {"days": "Sun", "time": "Closed"}], "id": "5355500005", "name": "USPS COLLECTION BOX - BLUE BOX", "address": {"city": "LODI", "state": "WI", "street": "805 N MAIN ST", "postcode": "53555"}}},
{"geometry": {"type": "Point", "coordinates": [-89.5416205175, 43.3730535569]}, "type": "Feature", "properties": {"collection_times": [{"days": "Mon-Sat", "time": "11:00am"}, {"days": "Sun", "time": "Closed"}], "id": "5355500006", "name": "USPS COLLECTION BOX - BLUE BOX", "address": {"city": "LODI", "state": "WI", "street": "N2695 PARK ST", "postcode": "53555"}}},
{"geometry": {"type": "Point", "coordinates": [-89.5253624588, 43.3121727044]}, "type": "Feature", "properties": {"collection_times": [{"days": "Mon-Sat", "time": "9:00am"}, {"days": "Sun", "time": "Closed"}], "id": "5355500007", "name": "USPS COLLECTION BOX - BLUE BOX", "address": {"city": "LODI", "state": "WI", "street": "113 S MAIN ST", "postcode": "53555"}}},
{"geometry": {"type": "Point", "coordinates": [-89.5276134185, 43.3145594493]}, "type": "Feature", "properties": {"collection_times": [{"days": "Mon-Fri", "time": "5:00pm"}, {"days": "Sat", "time": "11:00am"}, {"days": "Sun", "time": "Closed"}], "id": "5355500008", "name": "USPS COLLECTION BOX - PO LOBBY", "address": {"city": "LODI", "state": "WI", "street": "113 1ST ST", "postcode": "53555"}}},
{"geometry": {"type": "Point", "coordinates": [-89.5276134185, 43.3145594493]}, "type": "Feature", "properties": {"collection_times": [{"days": "Mon-Fri", "time": "5:00pm"}, {"days": "Sat", "time": "11:00am"}, {"days": "Sun", "time": "Closed"}], "id": "5355500009", "name": "USPS COLLECTION BOX - PO LOBBY", "address": {"city": "LODI", "state": "WI", "street": "113 1ST ST", "postcode": "53555"}}},
{"geometry": {"type": "Point", "coordinates": [-90.197974784, 43.1838563143]}, "type": "Feature", "properties": {"collection_times": [{"days": "Mon-Fri", "time": "4:30pm"}, {"days": "Sat", "time": "11:00am"}, {"days": "Sun", "time": "Closed"}], "id": "5355600000", "name": "USPS COLLECTION BOX - BLUE BOX", "address": {"city": "LONE ROCK", "state": "WI", "street": "103 S OAK ST", "postcode": "53556"}}},
{"geometry": {"type": "Point", "coordinates": [-90.197974784, 43.1838563143]}, "type": "Feature", "properties": {"collection_times": [{"days": "Mon-Fri", "time": "4:30pm"}, {"days": "Sat", "time": "11:00am"}, {"days": "Sun", "time": "Closed"}], "id": "5355600001", "name": "USPS COLLECTION BOX - PO LOBBY", "address": {"city": "LONE ROCK", "state": "WI", "street": "103 S OAK ST", "postcode": "53556"}}},
{"geometry": {"type": "Point", "coordinates": [-90.197974784, 43.1838563143]}, "type": "Feature", "properties": {"collection_times": [{"days": "Mon-Fri", "time": "4:30pm"}, {"days": "Sat", "time": "11:00am"}, {"days": "Sun", "time": "Closed"}], "id": "5355600002", "name": "USPS COLLECTION BOX - PO LOBBY", "address": {"city": "LONE ROCK", "state": "WI", "street": "103 S OAK ST", "postcode": "53556"}}},
{"geometry": {"type": "Point", "coordinates": [-88.8206423085, 43.3394184228]}, "type": "Feature", "properties": {"collection_times": [{"days": "Mon-Fri", "time": "4:15pm"}, {"days": "Sat", "time": "10:15am"}, {"days": "Sun", "time": "Closed"}], "id": "5355700000", "name": "USPS COLLECTION BOX - BLUE BOX", "address": {"city": "LOWELL", "state": "WI", "street": "105 N RIVER ST", "postcode": "53557"}}},
{"geometry": {"type": "Point", "coordinates": [-88.8206423085, 43.3394184228]}, "type": "Feature", "properties": {"collection_times": [{"days": "Mon-Fri", "time": "12:45pm"}, {"days": "Sat", "time": "10:15am"}, {"days": "Sun", "time": "Closed"}], "id": "5355700002", "name": "USPS COLLECTION BOX - PO LOBBY", "address": {"city": "LOWELL", "state": "WI", "street": "105 N RIVER ST", "postcode": "53557"}}},
{"geometry": {"type": "Point", "coordinates": [-89.3013610365, 43.016024159]}, "type": "Feature", "properties": {"collection_times": [{"days": "Mon-Sat", "time": "10:00am"}, {"days": "Sun", "time": "Closed"}], "id": "5355800001", "name": "USPS COLLECTION BOX - BLUE BOX", "address": {"city": "MCFARLAND", "state": "WI", "street": "5709 US HIGHWAY 51", "postcode": "53558"}}},
{"geometry": {"type": "Point", "coordinates": [-89.302669068, 43.014101808]}, "type": "Feature", "properties": {"collection_times": [{"days": "Mon-Fri", "time": "11:30am"}, {"days": "Sat", "time": "11:00am"}, {"days": "Sun", "time": "Closed"}], "id": "5355800004", "name": "USPS COLLECTION BOX - BLUE BOX", "address": {"city": "MCFARLAND", "state": "WI", "street": "5922 US HIGHWAY 51", "postcode": "53558"}}},
{"geometry": {"type": "Point", "coordinates": [-89.2895589615, 43.013916617]}, "type": "Feature", "properties": {"collection_times": [{"days": "Mon-Fri", "time": "4:45pm"}, {"days": "Sat", "time": "11:00am"}, {"days": "Sun", "time": "Closed"}], "id": "5355800005", "name": "USPS COLLECTION BOX - PO LOBBY", "address": {"city": "MCFARLAND", "state": "WI", "street": "5315 LONG ST", "postcode": "53558"}}},
{"geometry": {"type": "Point", "coordinates": [-89.2895589615, 43.013916617]}, "type": "Feature", "properties": {"collection_times": [{"days": "Mon-Fri", "time": "4:45pm"}, {"days": "Sat", "time": "11:00am"}, {"days": "Sun", "time": "Closed"}], "id": "5355800006", "name": "USPS COLLECTION BOX - PO LOBBY", "address": {"city": "MCFARLAND", "state": "WI", "street": "5315 LONG ST", "postcode": "53558"}}},
{"geometry": {"type": "Point", "coordinates": [-89.2929801011, 43.0131460691]}, "type": "Feature", "properties": {"collection_times": [{"days": "Mon-Sat", "time": "2:00pm"}, {"days": "Sun", "time": "Closed"}], "id": "5355800007", "name": "USPS COLLECTION BOX - BLUE BOX", "address": {"city": "MCFARLAND", "state": "WI", "street": "6001 EXCHANGE ST", "postcode": "53558"}}},
{"geometry": {"type": "Point", "coordinates": [-89.2895589615, 43.013916617]}, "type": "Feature", "properties": {"collection_times": [{"days": "Mon-Fri", "time": "4:45pm"}, {"days": "Sat", "time": "11:00am"}, {"days": "Sun", "time": "Closed"}], "id": "5355800009", "name": "USPS COLLECTION BOX - BLUE BOX", "address": {"city": "MCFARLAND", "state": "WI", "street": "5315 LONG ST", "postcode": "53558"}}},
{"geometry": {"type": "Point", "coordinates": [-89.065085278, 43.1678825451]}, "type": "Feature", "properties": {"collection_times": [{"days": "Mon-Fri", "time": "4:15pm"}, {"days": "Sat", "time": "12:00pm"}, {"days": "Sun", "time": "Closed"}], "id": "5355900000", "name": "USPS COLLECTION BOX - BLUE BOX", "address": {"city": "MARSHALL", "state": "WI", "street": "102 S BEEBE ST", "postcode": "53559"}}},
{"geometry": {"type": "Point", "coordinates": [-89.065085278, 43.1678825451]}, "type": "Feature", "properties": {"collection_times": [{"days": "Mon-Fri", "time": "4:15pm"}, {"days": "Sat", "time": "12:00pm"}, {"days": "Sun", "time": "Closed"}], "id": "5355900001", "name": "USPS COLLECTION BOX - PO LOBBY", "address": {"city": "MARSHALL", "state": "WI", "street": "102 S BEEBE ST", "postcode": "53559"}}},
{"geometry": {"type": "Point", "coordinates": [-89.065085278, 43.1678825451]}, "type": "Feature", "properties": {"collection_times": [{"days": "Mon-Fri", "time": "4:15pm"}, {"days": "Sat", "time": "12:00pm"}, {"days": "Sun", "time": "Closed"}], "id": "5355900003", "name": "USPS COLLECTION BOX - BLUE BOX", "address": {"city": "MARSHALL", "state": "WI", "street": "102 S BEEBE ST", "postcode": "53559"}}},
{"geometry": {"type": "Point", "coordinates": [-89.0743780295, 43.1658127634]}, "type": "Feature", "properties": {"collection_times": [{"days": "Mon-Sat", "time": "11:00am"}, {"days": "Sun", "time": "Closed"}], "id": "5355900004", "name": "USPS COLLECTION BOX - BLUE BOX", "address": {"city": "MARSHALL", "state": "WI", "street": "605 WATERLOO RD", "postcode": "53559"}}},
{"geometry": {"type": "Point", "coordinates": [-89.7935084493, 43.1761344626]}, "type": "Feature", "properties": {"collection_times": [{"days": "Mon-Fri", "time": "4:30pm"}, {"days": "Sat", "time": "11:00am"}, {"days": "Sun", "time": "Closed"}], "id": "5356000000", "name": "USPS COLLECTION BOX - BLUE BOX", "address": {"city": "MAZOMANIE", "state": "WI", "street": "37 CRESCENT ST", "postcode": "53560"}}},
{"geometry": {"type": "Point", "coordinates": [-89.7935084493, 43.1761344626]}, "type": "Feature", "properties": {"collection_times": [{"days": "Mon-Fri", "time": "4:30pm"}, {"days": "Sat", "time": "11:00am"}, {"days": "Sun", "time": "Closed"}], "id": "5356000003", "name": "USPS COLLECTION BOX - PO LOBBY", "address": {"city": "MAZOMANIE", "state": "WI", "street": "37 CRESCENT ST", "postcode": "53560"}}},
{"geometry": {"type": "Point", "coordinates": [-89.7935084493, 43.1761344626]}, "type": "Feature", "properties": {"collection_times": [{"days": "Mon-Fri", "time": "4:30pm"}, {"days": "Sat", "time": "11:00am"}, {"days": "Sun", "time": "Closed"}], "id": "5356000004", "name": "USPS COLLECTION BOX - PO LOBBY", "address": {"city": "MAZOMANIE", "state": "WI", "street": "37 CRESCENT ST", "postcode": "53560"}}},
{"geometry": {"type": "Point", "coordinates": [-89.623593926, 43.3732095348]}, "type": "Feature", "properties": {"collection_times": [{"days": "Mon-Fri", "time": "4:00pm"}, {"days": "Sat", "time": "11:00am"}, {"days": "Sun", "time": "Closed"}], "id": "5356100000", "name": "USPS COLLECTION BOX - BLUE BOX", "address": {"city": "MERRIMAC", "state": "WI", "street": "110 SCHOOL ST", "postcode": "53561"}}},
{"geometry": {"type": "Point", "coordinates": [-89.623593926, 43.3732095348]}, "type": "Feature", "properties": {"collection_times": [{"days": "Mon-Fri", "time": "3:30pm"}, {"days": "Sat", "time": "9:50am"}, {"days": "Sun", "time": "Closed"}], "id": "5356100001", "name": "USPS COLLECTION BOX - PO LOBBY", "address": {"city": "MERRIMAC", "state": "WI", "street": "110 SCHOOL ST", "postcode": "53561"}}},
{"geometry": {"type": "Point", "coordinates": [-89.5141330201, 43.0958818726]}, "type": "Feature", "properties": {"collection_times": [{"days": "Mon-Fri", "time": "5:00pm"}, {"days": "Sat", "time": "3:30pm"}, {"days": "Sun", "time": "Closed"}], "id": "5356200000", "name": "USPS COLLECTION BOX - BLUE BOX", "address": {"city": "MIDDLETON", "state": "WI", "street": "1900 CAYUGA ST", "postcode": "53562"}}},
{"geometry": {"type": "Point", "coordinates": [-89.5092437982, 43.0951355403]}, "type": "Feature", "properties": {"collection_times": [{"days": "Mon-Sat", "time": "1:00pm"}, {"days": "Sun", "time": "Closed"}], "id": "5356200002", "name": "USPS COLLECTION BOX - BLUE BOX", "address": {"city": "MIDDLETON", "state": "WI", "street": "7425 HUBBARD AVE", "postcode": "53562"}}},
{"geometry": {"type": "Point", "coordinates": [-89.5265981019, 43.0900078426]}, "type": "Feature", "properties": {"collection_times": [{"days": "Mon-Fri", "time": "3:00pm"}, {"days": "Sat-Sun", "time": "Closed"}], "id": "5356200003", "name": "USPS COLLECTION BOX - BLUE BOX", "address": {"city": "MIDDLETON", "state": "WI", "street": "8383 GREENWAY BLVD", "postcode": "53562"}}},
{"geometry": {"type": "Point", "coordinates": [-89.4864127963, 43.1017750263]}, "type": "Feature", "properties": {"collection_times": [{"days": "Mon-Sat", "time": "1:00pm"}, {"days": "Sun", "time": "Closed"}], "id": "5356200004", "name": "USPS COLLECTION BOX - BLUE BOX", "address": {"city": "MIDDLETON", "state": "WI", "street": "2540 ALLEN BLVD", "postcode": "53562"}}},
{"geometry": {"type": "Point", "coordinates": [-89.5361728207, 43.0986357693]}, "type": "Feature", "properties": {"collection_times": [{"days": "Mon-Fri", "time": "3:00pm"}, {"days": "Sat", "time": "1:00pm"}, {"days": "Sun", "time": "Closed"}], "id": "5356200009", "name": "USPS COLLECTION BOX - BLUE BOX", "address": {"city": "MIDDLETON", "state": "WI", "street": "2001 PLEASANT VIEW RD", "postcode": "53562"}}},
{"geometry": {"type": "Point", "coordinates": [-89.5361728207, 43.0986357693]}, "type": "Feature", "properties": {"collection_times": [{"days": "Mon-Fri", "time": "3:00pm"}, {"days": "Sat", "time": "1:00pm"}, {"days": "Sun", "time": "Closed"}], "id": "5356200010", "name": "USPS COLLECTION BOX - BLUE BOX", "address": {"city": "MIDDLETON", "state": "WI", "street": "2001 PLEASANT VIEW RD", "postcode": "53562"}}},
{"geometry": {"type": "Point", "coordinates": [-89.5141330201, 43.0958818726]}, "type": "Feature", "properties": {"collection_times": [{"days": "Mon-Fri", "time": "5:00pm"}, {"days": "Sat", "time": "3:30pm"}, {"days": "Sun", "time": "Closed"}], "id": "5356200014", "name": "USPS COLLECTION BOX - BLUE BOX", "address": {"city": "MIDDLETON", "state": "WI", "street": "1900 CAYUGA ST", "postcode": "53562"}}},
{"geometry": {"type": "Point", "coordinates": [-89.5098566777, 43.1094405534]}, "type": "Feature", "properties": {"collection_times": [{"days": "Mon-Fri", "time": "3:00pm"}, {"days": "Sat", "time": "1:00pm"}, {"days": "Sun", "time": "Closed"}], "id": "5356200020", "name": "USPS COLLECTION BOX - BLUE BOX", "address": {"city": "MIDDLETON", "state": "WI", "street": "3207 PARMENTER ST", "postcode": "53562"}}},
{"geometry": {"type": "Point", "coordinates": [-89.5265981019, 43.0900078426]}, "type": "Feature", "properties": {"collection_times": [{"days": "Mon-Fri", "time": "3:00pm"}, {"days": "Sat-Sun", "time": "Closed"}], "id": "5356200021", "name": "USPS COLLECTION BOX - BLUE BOX", "address": {"city": "MIDDLETON", "state": "WI", "street": "8383 GREENWAY BLVD", "postcode": "53562"}}},
{"geometry": {"type": "Point", "coordinates": [-89.5140632798, 43.0958814778]}, "type": "Feature", "properties": {"collection_times": [{"days": "Mon-Fri", "time": "5:30pm"}, {"days": "Sat", "time": "3:30pm"}, {"days": "Sun", "time": "Closed"}], "id": "5356200023", "name": "USPS COLLECTION BOX - PO LOBBY", "address": {"city": "MIDDLETON", "state": "WI", "street": "7613 ELMWOOD AVE", "postcode": "53562"}}},
{"geometry": {"type": "Point", "coordinates": [-89.5140632798, 43.0958814778]}, "type": "Feature", "properties": {"collection_times": [{"days": "Mon-Fri", "time": "5:30pm"}, {"days": "Sat", "time": "3:30pm"}, {"days": "Sun", "time": "Closed"}], "id": "5356200024", "name": "USPS COLLECTION BOX - PO LOBBY", "address": {"city": "MIDDLETON", "state": "WI", "street": "7613 ELMWOOD AVE", "postcode": "53562"}}},
{"geometry": {"type": "Point", "coordinates": [-89.5141330201, 43.0958818726]}, "type": "Feature", "properties": {"collection_times": [{"days": "Mon-Fri", "time": "5:00pm"}, {"days": "Sat", "time": "3:30pm"}, {"days": "Sun", "time": "Closed"}], "id": "5356200028", "name": "USPS COLLECTION BOX - BLUE BOX", "address": {"city": "MIDDLETON", "state": "WI", "street": "1900 CAYUGA ST", "postcode": "53562"}}},
{"geometry": {"type": "Point", "coordinates": [-89.5141330201, 43.0958818726]}, "type": "Feature", "properties": {"collection_times": [{"days": "Mon-Fri", "time": "5:00pm"}, {"days": "Sat", "time": "3:30pm"}, {"days": "Sun", "time": "Closed"}], "id": "5356200029", "name": "USPS COLLECTION BOX - BLUE BOX", "address": {"city": "MIDDLETON", "state": "WI", "street": "1900 CAYUGA ST", "postcode": "53562"}}},
{"geometry": {"type": "Point", "coordinates": [-89.5140632798, 43.0958814778]}, "type": "Feature", "properties": {"collection_times": [{"days": "Mon-Fri", "time": "5:30pm"}, {"days": "Sat", "time": "3:30pm"}, {"days": "Sun", "time": "Closed"}], "id": "5356200031", "name": "USPS COLLECTION BOX - APC", "address": {"city": "MIDDLETON", "state": "WI", "street": "7613 ELMWOOD AVE", "postcode": "53562"}}},
{"geometry": {"type": "Point", "coordinates": [-89.519341496, 43.0991949404]}, "type": "Feature", "properties": {"collection_times": [{"days": "Mon-Fri", "time": "3:00pm"}, {"days": "Sat-Sun", "time": "Closed"}], "id": "5356200032", "name": "USPS COLLECTION BOX - BLUE BOX", "address": {"city": "MIDDLETON", "state": "WI", "street": "2275 DEMING WAY", "postcode": "53562"}}},
{"geometry": {"type": "Point", "coordinates": [-89.5141330201, 43.0958818726]}, "type": "Feature", "properties": {"collection_times": [{"days": "Mon-Fri", "time": "5:00pm"}, {"days": "Sat", "time": "3:30pm"}, {"days": "Sun", "time": "Closed"}], "id": "5356200034", "name": "USPS COLLECTION BOX - BLUE BOX", "address": {"city": "MIDDLETON", "state": "WI", "street": "1900 CAYUGA ST", "postcode": "53562"}}},
{"geometry": {"type": "Point", "coordinates": [-89.5141330201, 43.0958818726]}, "type": "Feature", "properties": {"collection_times": [{"days": "Mon-Fri", "time": "5:00pm"}, {"days": "Sat", "time": "3:30pm"}, {"days": "Sun", "time": "Closed"}], "id": "5356200035", "name": "USPS COLLECTION BOX - BLUE BOX", "address": {"city": "MIDDLETON", "state": "WI", "street": "1900 CAYUGA ST", "postcode": "53562"}}},
{"geometry": {"type": "Point", "coordinates": [-89.4976595295, 43.1069423638]}, "type": "Feature", "properties": {"collection_times": [{"days": "Mon-Sat", "time": "1:00pm"}, {"days": "Sun", "time": "Closed"}], "id": "5356200036", "name": "USPS COLLECTION BOX - BLUE BOX", "address": {"city": "MIDDLETON", "state": "WI", "street": "6719 FRANK LLOYD WRIGHT AVE", "postcode": "53562"}}},
{"geometry": {"type": "Point", "coordinates": [-88.9634365762, 42.7812679379]}, "type": "Feature", "properties": {"collection_times": [{"days": "Mon-Fri", "time": "1:45pm"}, {"days": "Sat", "time": "1:15pm"}, {"days": "Sun", "time": "Closed"}], "id": "5356300000", "name": "USPS COLLECTION BOX - BLUE BOX", "address": {"city": "MILTON", "state": "WI", "street": "230 MERCHANT ROW", "postcode": "53563"}}},
{"geometry": {"type": "Point", "coordinates": [-88.9388734852, 42.7747258081]}, "type": "Feature", "properties": {"collection_times": [{"days": "Mon-Fri", "time": "1:45pm"}, {"days": "Sat", "time": "1:15pm"}, {"days": "Sun", "time": "Closed"}], "id": "5356300001", "name": "USPS COLLECTION BOX - BLUE BOX", "address": {"city": "MILTON", "state": "WI", "street": "237 PARKVIEW DR", "postcode": "53563"}}},
{"geometry": {"type": "Point", "coordinates": [-88.937001429, 42.7717441807]}, "type": "Feature", "properties": {"collection_times": [{"days": "Mon-Sat", "time": "11:00am"}, {"days": "Sun", "time": "Closed"}], "id": "5356300002", "name": "USPS COLLECTION BOX - BLUE BOX", "address": {"city": "MILTON", "state": "WI", "street": "727 S JANESVILLE ST", "postcode": "53563"}}},
{"geometry": {"type": "Point", "coordinates": [-88.9525297638, 42.778070746]}, "type": "Feature", "properties": {"collection_times": [{"days": "Mon-Fri", "time": "5:00pm"}, {"days": "Sat", "time": "11:30am"}, {"days": "Sun", "time": "Closed"}], "id": "5356300003", "name": "USPS COLLECTION BOX - BLUE BOX", "address": {"city": "MILTON", "state": "WI", "street": "150 HILLTOP DR", "postcode": "53563"}}},
{"geometry": {"type": "Point", "coordinates": [-88.9525297638, 42.778070746]}, "type": "Feature", "properties": {"collection_times": [{"days": "Mon-Fri", "time": "4:50pm"}, {"days": "Sat", "time": "11:30am"}, {"days": "Sun", "time": "Closed"}], "id": "5356300005", "name": "USPS COLLECTION BOX - PO LOBBY", "address": {"city": "MILTON", "state": "WI", "street": "150 HILLTOP DR", "postcode": "53563"}}},
{"geometry": {"type": "Point", "coordinates": [-88.9525297638, 42.778070746]}, "type": "Feature", "properties": {"collection_times": [{"days": "Mon-Fri", "time": "4:50pm"}, {"days": "Sat", "time": "11:30am"}, {"days": "Sun", "time": "Closed"}], "id": "5356300006", "name": "USPS COLLECTION BOX - PO LOBBY", "address": {"city": "MILTON", "state": "WI", "street": "150 HILLTOP DR", "postcode": "53563"}}},
{"geometry": {"type": "Point", "coordinates": [-90.17886, 42.86027]}, "type": "Feature", "properties": {"collection_times": [{"days": "Mon-Fri", "time": "4:30pm"}, {"days": "Sat", "time": "3:00pm"}, {"days": "Sun", "time": "Closed"}], "id": "5356500000", "name": "USPS COLLECTION BOX - BLUE BOX", "address": {"city": "MINERAL POINT", "state": "WI", "street": "199 JAIL ALY", "postcode": "53565"}}},
{"geometry": {"type": "Point", "coordinates": [-90.1800016436, 42.8661255428]}, "type": "Feature", "properties": {"collection_times": [{"days": "Mon-Sat", "time": "2:30pm"}, {"days": "Sun", "time": "Closed"}], "id": "5356500001", "name": "USPS COLLECTION BOX - BLUE BOX", "address": {"city": "MINERAL POINT", "state": "WI", "street": "300 W COMMERCE ST", "postcode": "53565"}}},
{"geometry": {"type": "Point", "coordinates": [-90.1801290961, 42.8599862796]}, "type": "Feature", "properties": {"collection_times": [{"days": "Mon-Sat", "time": "2:30pm"}, {"days": "Sun", "time": "Closed"}], "id": "5356500002", "name": "USPS COLLECTION BOX - BLUE BOX", "address": {"city": "MINERAL POINT", "state": "WI", "street": "203 HIGH ST", "postcode": "53565"}}},
{"geometry": {"type": "Point", "coordinates": [-90.17886, 42.86027]}, "type": "Feature", "properties": {"collection_times": [{"days": "Mon-Fri", "time": "4:30pm"}, {"days": "Sat", "time": "3:00pm"}, {"days": "Sun", "time": "Closed"}], "id": "5356500003", "name": "USPS COLLECTION BOX - BLUE BOX", "address": {"city": "MINERAL POINT", "state": "WI", "street": "199 JAIL ALY", "postcode": "53565"}}},
{"geometry": {"type": "Point", "coordinates": [-90.1821310495, 42.860595644]}, "type": "Feature", "properties": {"collection_times": [{"days": "Mon-Fri", "time": "4:30pm"}, {"days": "Sat", "time": "11:00am"}, {"days": "Sun", "time": "Closed"}], "id": "5356500004", "name": "USPS COLLECTION BOX - PO LOBBY", "address": {"city": "MINERAL POINT", "state": "WI", "street": "269 HIGH ST", "postcode": "53565"}}},
{"geometry": {"type": "Point", "coordinates": [-90.1753025255, 42.8703077655]}, "type": "Feature", "properties": {"collection_times": [{"days": "Mon-Sat", "time": "10:00am"}, {"days": "Sun", "time": "Closed"}], "id": "5356500005", "name": "USPS COLLECTION BOX - BLUE BOX", "address": {"city": "MINERAL POINT", "state": "WI", "street": "622 DODGE ST", "postcode": "53565"}}},
{"geometry": {"type": "Point", "coordinates": [-89.6381942519, 42.601024487]}, "type": "Feature", "properties": {"collection_times": [{"days": "Mon-Fri", "time": "5:00pm"}, {"days": "Sat", "time": "3:30pm"}, {"days": "Sun", "time": "Closed"}], "id": "5356600000", "name": "USPS COLLECTION BOX - BLUE BOX", "address": {"city": "MONROE", "state": "WI", "street": "1724 11TH ST", "postcode": "53566"}}},
{"geometry": {"type": "Point", "coordinates": [-89.6381942519, 42.601024487]}, "type": "Feature", "properties": {"collection_times": [{"days": "Mon-Fri", "time": "5:00pm"}, {"days": "Sat", "time": "3:30pm"}, {"days": "Sun", "time": "Closed"}], "id": "5356600002", "name": "USPS COLLECTION BOX - BLUE BOX", "address": {"city": "MONROE", "state": "WI", "street": "1724 11TH ST", "postcode": "53566"}}},
{"geometry": {"type": "Point", "coordinates": [-89.6381942519, 42.601024487]}, "type": "Feature", "properties": {"collection_times": [{"days": "Mon-Fri", "time": "5:00pm"}, {"days": "Sat", "time": "3:30pm"}, {"days": "Sun", "time": "Closed"}], "id": "5356600003", "name": "USPS COLLECTION BOX - BLUE BOX", "address": {"city": "MONROE", "state": "WI", "street": "1724 11TH ST", "postcode": "53566"}}},
{"geometry": {"type": "Point", "coordinates": [-89.6325283806, 42.6039546763]}, "type": "Feature", "properties": {"collection_times": [{"days": "Mon-Sat", "time": "12:00pm"}, {"days": "Sun", "time": "Closed"}], "id": "5356600011", "name": "USPS COLLECTION BOX - BLUE BOX", "address": {"city": "MONROE", "state": "WI", "street": "800 22ND AVE", "postcode": "53566"}}},
{"geometry": {"type": "Point", "coordinates": [-89.639790659, 42.602124089]}, "type": "Feature", "properties": {"collection_times": [{"days": "Mon-Fri", "time": "3:00pm"}, {"days": "Sat", "time": "2:00pm"}, {"days": "Sun", "time": "Closed"}], "id": "5356600023", "name": "USPS COLLECTION BOX - BLUE BOX", "address": {"city": "MONROE", "state": "WI", "street": "1601 10TH ST", "postcode": "53566"}}},
{"geometry": {"type": "Point", "coordinates": [-89.6511935578, 42.6036001051]}, "type": "Feature", "properties": {"collection_times": [{"days": "Mon-Fri", "time": "3:00pm"}, {"days": "Sat", "time": "2:00pm"}, {"days": "Sun", "time": "Closed"}], "id": "5356600028", "name": "USPS COLLECTION BOX - BLUE BOX", "address": {"city": "MONROE", "state": "WI", "street": "725 8TH ST", "postcode": "53566"}}},
{"geometry": {"type": "Point", "coordinates": [-89.6465079309, 42.602971349]}, "type": "Feature", "properties": {"collection_times": [{"days": "Mon-Sat", "time": "12:00pm"}, {"days": "Sun", "time": "Closed"}], "id": "5356600033", "name": "USPS COLLECTION BOX - BLUE BOX", "address": {"city": "MONROE", "state": "WI", "street": "1019 9TH ST", "postcode": "53566"}}},
{"geometry": {"type": "Point", "coordinates": [-89.6381942519, 42.601024487]}, "type": "Feature", "properties": {"collection_times": [{"days": "Mon-Fri", "time": "5:00pm"}, {"days": "Sat", "time": "2:00pm"}, {"days": "Sun", "time": "Closed"}], "id": "5356600034", "name": "USPS COLLECTION BOX - PO LOBBY", "address": {"city": "MONROE", "state": "WI", "street": "1724 11TH ST", "postcode": "53566"}}},
{"geometry": {"type": "Point", "coordinates": [-89.6381942519, 42.601024487]}, "type": "Feature", "properties": {"collection_times": [{"days": "Mon-Fri", "time": "5:00pm"}, {"days": "Sat", "time": "2:00pm"}, {"days": "Sun", "time": "Closed"}], "id": "5356600035", "name": "USPS COLLECTION BOX - PO LOBBY", "address": {"city": "MONROE", "state": "WI", "street": "1724 11TH ST", "postcode": "53566"}}},
{"geometry": {"type": "Point", "coordinates": [-89.6381942519, 42.601024487]}, "type": "Feature", "properties": {"collection_times": [{"days": "Mon-Fri", "time": "5:00pm"}, {"days": "Sat", "time": "2:00pm"}, {"days": "Sun", "time": "Closed"}], "id": "5356600036", "name": "USPS COLLECTION BOX - PO LOBBY", "address": {"city": "MONROE", "state": "WI", "street": "1724 11TH ST", "postcode": "53566"}}},
{"geometry": {"type": "Point", "coordinates": [-89.6552119813, 42.6065895139]}, "type": "Feature", "properties": {"collection_times": [{"days": "Mon-Sat", "time": "1:00pm"}, {"days": "Sun", "time": "Closed"}], "id": "5356600038", "name": "USPS COLLECTION BOX - BLUE BOX", "address": {"city": "MONROE", "state": "WI", "street": "300 6TH AVE W", "postcode": "53566"}}},
{"geometry": {"type": "Point", "coordinates": [-89.6381942519, 42.601024487]}, "type": "Feature", "properties": {"collection_times": [{"days": "Mon-Fri", "time": "5:00pm"}, {"days": "Sat", "time": "3:30pm"}, {"days": "Sun", "time": "Closed"}], "id": "5356600040", "name": "USPS COLLECTION BOX - BLUE BOX", "address": {"city": "MONROE", "state": "WI", "street": "1724 11TH ST", "postcode": "53566"}}},
{"geometry": {"type": "Point", "coordinates": [-89.6561414388, 42.6034324891]}, "type": "Feature", "properties": {"collection_times": [{"days": "Mon-Fri", "time": "3:00pm"}, {"days": "Sat", "time": "2:00pm"}, {"days": "Sun", "time": "Closed"}], "id": "5356600041", "name": "USPS COLLECTION BOX - BLUE BOX", "address": {"city": "MONROE", "state": "WI", "street": "246 8TH ST", "postcode": "53566"}}},
{"geometry": {"type": "Point", "coordinates": [-90.4335260777, 42.9751606468]}, "type": "Feature", "properties": {"collection_times": [{"days": "Mon-Fri", "time": "4:30pm"}, {"days": "Sat", "time": "10:15am"}, {"days": "Sun", "time": "Closed"}], "id": "5356900000", "name": "USPS COLLECTION BOX - BLUE BOX", "address": {"city": "MONTFORT", "state": "WI", "street": "105 S FOUNTAIN ST", "postcode": "53569"}}},
{"geometry": {"type": "Point", "coordinates": [-90.4335260777, 42.9751606468]}, "type": "Feature", "properties": {"collection_times": [{"days": "Mon-Fri", "time": "11:15am"}, {"days": "Sat", "time": "10:00am"}, {"days": "Sun", "time": "Closed"}], "id": "5356900001", "name": "USPS COLLECTION BOX - PO LOBBY", "address": {"city": "MONTFORT", "state": "WI", "street": "105 S FOUNTAIN ST", "postcode": "53569"}}},
{"geometry": {"type": "Point", "coordinates": [-89.5942783756, 42.7471201375]}, "type": "Feature", "properties": {"collection_times": [{"days": "Mon-Fri", "time": "4:15pm"}, {"days": "Sat", "time": "10:00am"}, {"days": "Sun", "time": "Closed"}], "id": "5357000000", "name": "USPS COLLECTION BOX - BLUE BOX", "address": {"city": "MONTICELLO", "state": "WI", "street": "102 E NORTH AVE", "postcode": "53570"}}},
{"geometry": {"type": "Point", "coordinates": [-89.5942783756, 42.7471201375]}, "type": "Feature", "properties": {"collection_times": [{"days": "Mon-Fri", "time": "4:15pm"}, {"days": "Sat", "time": "10:00am"}, {"days": "Sun", "time": "Closed"}], "id": "5357000001", "name": "USPS COLLECTION BOX - PO LOBBY", "address": {"city": "MONTICELLO", "state": "WI", "street": "102 E NORTH AVE", "postcode": "53570"}}},
{"geometry": {"type": "Point", "coordinates": [-89.3589001407, 43.277859482]}, "type": "Feature", "properties": {"collection_times": [{"days": "Mon-Fri", "time": "4:30pm"}, {"days": "Sat", "time": "10:30am"}, {"days": "Sun", "time": "Closed"}], "id": "5357100000", "name": "USPS COLLECTION BOX - BLUE BOX", "address": {"city": "MORRISONVILLE", "state": "WI", "street": "4676 COUNTY ROAD DM", "postcode": "53571"}}},
{"geometry": {"type": "Point", "coordinates": [-89.3589001407, 43.277859482]}, "type": "Feature", "properties": {"collection_times": [{"days": "Mon-Fri", "time": "4:30pm"}, {"days": "Sat", "time": "10:30am"}, {"days": "Sun", "time": "Closed"}], "id": "5357100001", "name": "USPS COLLECTION BOX - PO LOBBY", "address": {"city": "MORRISONVILLE", "state": "WI", "street": "4676 COUNTY ROAD DM", "postcode": "53571"}}},
{"geometry": {"type": "Point", "coordinates": [-89.7397359532, 43.0079109881]}, "type": "Feature", "properties": {"collection_times": [{"days": "Mon-Fri", "time": "4:30pm"}, {"days": "Sat", "time": "11:30am"}, {"days": "Sun", "time": "Closed"}], "id": "5357200000", "name": "USPS COLLECTION BOX - BLUE BOX", "address": {"city": "MOUNT HOREB", "state": "WI", "street": "108 S 1ST ST", "postcode": "53572"}}},
{"geometry": {"type": "Point", "coordinates": [-89.7397359532, 43.0079109881]}, "type": "Feature", "properties": {"collection_times": [{"days": "Mon-Fri", "time": "4:30pm"}, {"days": "Sat", "time": "11:30am"}, {"days": "Sun", "time": "Closed"}], "id": "5357200001", "name": "USPS COLLECTION BOX - BLUE BOX", "address": {"city": "MOUNT HOREB", "state": "WI", "street": "108 S 1ST ST", "postcode": "53572"}}},
{"geometry": {"type": "Point", "coordinates": [-89.7349350476, 42.9636898169]}, "type": "Feature", "properties": {"collection_times": [{"days": "Mon-Fri", "time": "2:30pm"}, {"days": "Sat", "time": "1:30pm"}, {"days": "Sun", "time": "Closed"}], "id": "5357200003", "name": "USPS COLLECTION BOX - BLUE BOX", "address": {"city": "MOUNT HOREB", "state": "WI", "street": "1240 BUSINESS HIGHWAY 18 & 151", "postcode": "53572"}}},
{"geometry": {"type": "Point", "coordinates": [-89.7397359532, 43.0079109881]}, "type": "Feature", "properties": {"collection_times": [{"days": "Mon-Fri", "time": "4:30pm"}, {"days": "Sat", "time": "11:30am"}, {"days": "Sun", "time": "Closed"}], "id": "5357200006", "name": "USPS COLLECTION BOX - PO LOBBY", "address": {"city": "MOUNT HOREB", "state": "WI", "street": "108 S 1ST ST", "postcode": "53572"}}},
{"geometry": {"type": "Point", "coordinates": [-89.7397359532, 43.0079109881]}, "type": "Feature", "properties": {"collection_times": [{"days": "Mon-Fri", "time": "4:30pm"}, {"days": "Sat", "time": "11:30am"}, {"days": "Sun", "time": "Closed"}], "id": "5357200007", "name": "USPS COLLECTION BOX - PO LOBBY", "address": {"city": "MOUNT HOREB", "state": "WI", "street": "108 S 1ST ST", "postcode": "53572"}}},
{"geometry": {"type": "Point", "coordinates": [-90.4432295214, 43.1943410766]}, "type": "Feature", "properties": {"collection_times": [{"days": "Mon-Fri", "time": "3:45pm"}, {"days": "Sat", "time": "10:15am"}, {"days": "Sun", "time": "Closed"}], "id": "5357300000", "name": "USPS COLLECTION BOX - BLUE BOX", "address": {"city": "MUSCODA", "state": "WI", "street": "1025 N WISCONSIN AVE", "postcode": "53573"}}},
{"geometry": {"type": "Point", "coordinates": [-90.4432295214, 43.1943410766]}, "type": "Feature", "properties": {"collection_times": [{"days": "Mon-Fri", "time": "4:00pm"}, {"days": "Sat", "time": "10:30am"}, {"days": "Sun", "time": "Closed"}], "id": "5357300001", "name": "USPS COLLECTION BOX - PO LOBBY", "address": {"city": "MUSCODA", "state": "WI", "street": "1025 N WISCONSIN AVE", "postcode": "53573"}}},
{"geometry": {"type": "Point", "coordinates": [-90.4432295214, 43.1943410766]}, "type": "Feature", "properties": {"collection_times": [{"days": "Mon-Fri", "time": "4:00pm"}, {"days": "Sat", "time": "10:30am"}, {"days": "Sun", "time": "Closed"}], "id": "5357300002", "name": "USPS COLLECTION BOX - PO LOBBY", "address": {"city": "MUSCODA", "state": "WI", "street": "1025 N WISCONSIN AVE", "postcode": "53573"}}},
{"geometry": {"type": "Point", "coordinates": [-89.6304665134, 42.8146675277]}, "type": "Feature", "properties": {"collection_times": [{"days": "Mon-Fri", "time": "4:30pm"}, {"days": "Sat", "time": "10:30am"}, {"days": "Sun", "time": "Closed"}], "id": "5357400000", "name": "USPS COLLECTION BOX - BLUE BOX", "address": {"city": "NEW GLARUS", "state": "WI", "street": "10 6TH AVE", "postcode": "53574"}}},
{"geometry": {"type": "Point", "coordinates": [-89.6316798733, 42.8141712518]}, "type": "Feature", "properties": {"collection_times": [{"days": "Mon-Sat", "time": "12:15pm"}, {"days": "Sun", "time": "Closed"}], "id": "5357400001", "name": "USPS COLLECTION BOX - BLUE BOX", "address": {"city": "NEW GLARUS", "state": "WI", "street": "619 STATE ROAD 69", "postcode": "53574"}}},
{"geometry": {"type": "Point", "coordinates": [-89.6304665134, 42.8146675277]}, "type": "Feature", "properties": {"collection_times": [{"days": "Mon-Fri", "time": "4:30pm"}, {"days": "Sat", "time": "10:30am"}, {"days": "Sun", "time": "Closed"}], "id": "5357400002", "name": "USPS COLLECTION BOX - PO LOBBY", "address": {"city": "NEW GLARUS", "state": "WI", "street": "10 6TH AVE", "postcode": "53574"}}},
{"geometry": {"type": "Point", "coordinates": [-89.632860481, 42.814546485]}, "type": "Feature", "properties": {"collection_times": [{"days": "Mon-Fri", "time": "4:30pm"}, {"days": "Sat", "time": "10:30am"}, {"days": "Sun", "time": "Closed"}], "id": "5357400003", "name": "USPS COLLECTION BOX - PO LOBBY", "address": {"city": "NEW GLARUS", "state": "WI", "street": "10 6TH AVE", "postcode": "53574"}}},
{"geometry": {"type": "Point", "coordinates": [-89.38338062, 42.9383503813]}, "type": "Feature", "properties": {"collection_times": [{"days": "Mon-Sat", "time": "9:30am"}, {"days": "Sun", "time": "Closed"}], "id": "5357500000", "name": "USPS COLLECTION BOX - BLUE BOX", "address": {"city": "OREGON", "state": "WI", "street": "787 N MAIN ST", "postcode": "53575"}}},
{"geometry": {"type": "Point", "coordinates": [-89.3818841769, 42.926856752]}, "type": "Feature", "properties": {"collection_times": [{"days": "Mon-Fri", "time": "5:00pm"}, {"days": "Sat", "time": "2:00pm"}, {"days": "Sun", "time": "Closed"}], "id": "5357500004", "name": "USPS COLLECTION BOX - BLUE BOX", "address": {"city": "OREGON", "state": "WI", "street": "252 BROOK ST", "postcode": "53575"}}},
{"geometry": {"type": "Point", "coordinates": [-89.3818841769, 42.926856752]}, "type": "Feature", "properties": {"collection_times": [{"days": "Mon-Fri", "time": "5:00pm"}, {"days": "Sat", "time": "2:00pm"}, {"days": "Sun", "time": "Closed"}], "id": "5357500005", "name": "USPS COLLECTION BOX - BLUE BOX", "address": {"city": "OREGON", "state": "WI", "street": "252 BROOK ST", "postcode": "53575"}}},
{"geometry": {"type": "Point", "coordinates": [-89.3818841769, 42.926856752]}, "type": "Feature", "properties": {"collection_times": [{"days": "Mon-Fri", "time": "5:00pm"}, {"days": "Sat", "time": "2:00pm"}, {"days": "Sun", "time": "Closed"}], "id": "5357500006", "name": "USPS COLLECTION BOX - PO LOBBY", "address": {"city": "OREGON", "state": "WI", "street": "252 BROOK ST", "postcode": "53575"}}},
{"geometry": {"type": "Point", "coordinates": [-89.388624384, 42.932284785]}, "type": "Feature", "properties": {"collection_times": [{"days": "Mon-Fri", "time": "5:00pm"}, {"days": "Sat", "time": "2:00pm"}, {"days": "Sun", "time": "Closed"}], "id": "5357500007", "name": "USPS COLLECTION BOX - PO LOBBY", "address": {"city": "OREGON", "state": "WI", "street": "252 BROOKS BRKS", "postcode": "53575"}}},
{"geometry": {"type": "Point", "coordinates": [-89.2571401701, 42.6292511069]}, "type": "Feature", "properties": {"collection_times": [{"days": "Mon-Fri", "time": "4:15pm"}, {"days": "Sat", "time": "11:15am"}, {"days": "Sun", "time": "Closed"}], "id": "5357600000", "name": "USPS COLLECTION BOX - BLUE BOX", "address": {"city": "ORFORDVILLE", "state": "WI", "street": "108 N RICHARDS ST", "postcode": "53576"}}},
{"geometry": {"type": "Point", "coordinates": [-89.2571401701, 42.6292511069]}, "type": "Feature", "properties": {"collection_times": [{"days": "Mon-Fri", "time": "4:15pm"}, {"days": "Sat", "time": "11:15am"}, {"days": "Sun", "time": "Closed"}], "id": "5357600001", "name": "USPS COLLECTION BOX - PO LOBBY", "address": {"city": "ORFORDVILLE", "state": "WI", "street": "108 N RICHARDS ST", "postcode": "53576"}}},
{"geometry": {"type": "Point", "coordinates": [-90.0439925511, 43.278887477]}, "type": "Feature", "properties": {"collection_times": [{"days": "Mon-Fri", "time": "4:30pm"}, {"days": "Sat", "time": "10:45am"}, {"days": "Sun", "time": "Closed"}], "id": "5357700000", "name": "USPS COLLECTION BOX - BLUE BOX", "address": {"city": "PLAIN", "state": "WI", "street": "1050 MAIN ST", "postcode": "53577"}}},
{"geometry": {"type": "Point", "coordinates": [-90.0439925511, 43.278887477]}, "type": "Feature", "properties": {"collection_times": [{"days": "Mon-Fri", "time": "3:30pm"}, {"days": "Sat", "time": "10:45am"}, {"days": "Sun", "time": "Closed"}], "id": "5357700001", "name": "USPS COLLECTION BOX - PO LOBBY", "address": {"city": "PLAIN", "state": "WI", "street": "1050 MAIN ST", "postcode": "53577"}}},
{"geometry": {"type": "Point", "coordinates": [-89.7228619836, 43.2904629622]}, "type": "Feature", "properties": {"collection_times": [{"days": "Mon-Fri", "time": "4:30pm"}, {"days": "Sat", "time": "10:30am"}, {"days": "Sun", "time": "Closed"}], "id": "5357800000", "name": "USPS COLLECTION BOX - BLUE BOX", "address": {"city": "PRAIRIE DU SAC", "state": "WI", "street": "285 WASHINGTON ST", "postcode": "53578"}}},
{"geometry": {"type": "Point", "coordinates": [-89.7228619836, 43.2904629622]}, "type": "Feature", "properties": {"collection_times": [{"days": "Mon-Fri", "time": "4:30pm"}, {"days": "Sat", "time": "10:30am"}, {"days": "Sun", "time": "Closed"}], "id": "5357800001", "name": "USPS COLLECTION BOX - BLUE BOX", "address": {"city": "PRAIRIE DU SAC", "state": "WI", "street": "285 WASHINGTON ST", "postcode": "53578"}}},
{"geometry": {"type": "Point", "coordinates": [-89.7231711114, 43.2922349601]}, "type": "Feature", "properties": {"collection_times": [{"days": "Mon-Sat", "time": "9:30am"}, {"days": "Sun", "time": "Closed"}], "id": "5357800004", "name": "USPS COLLECTION BOX - BLUE BOX", "address": {"city": "PRAIRIE DU SAC", "state": "WI", "street": "645 3RD ST", "postcode": "53578"}}},
{"geometry": {"type": "Point", "coordinates": [-89.7197586352, 43.2898660393]}, "type": "Feature", "properties": {"collection_times": [{"days": "Mon-Sat", "time": "9:30am"}, {"days": "Sun", "time": "Closed"}], "id": "5357800007", "name": "USPS COLLECTION BOX - BLUE BOX", "address": {"city": "PRAIRIE DU SAC", "state": "WI", "street": "431 WATER ST", "postcode": "53578"}}},
{"geometry": {"type": "Point", "coordinates": [-89.7195036302, 43.2825078189]}, "type": "Feature", "properties": {"collection_times": [{"days": "Mon-Sat", "time": "9:00am"}, {"days": "Sun", "time": "Closed"}], "id": "5357800008", "name": "USPS COLLECTION BOX - BLUE BOX", "address": {"city": "PRAIRIE DU SAC", "state": "WI", "street": "35 PRAIRIE AVE", "postcode": "53578"}}},
{"geometry": {"type": "Point", "coordinates": [-89.7228619836, 43.2904629622]}, "type": "Feature", "properties": {"collection_times": [{"days": "Mon-Fri", "time": "4:00pm"}, {"days": "Sat", "time": "10:30am"}, {"days": "Sun", "time": "Closed"}], "id": "5357800009", "name": "USPS COLLECTION BOX - PO LOBBY", "address": {"city": "PRAIRIE DU SAC", "state": "WI", "street": "285 WASHINGTON ST", "postcode": "53578"}}},
{"geometry": {"type": "Point", "coordinates": [-88.8447699396, 43.3049434497]}, "type": "Feature", "properties": {"collection_times": [{"days": "Mon-Fri", "time": "4:45pm"}, {"days": "Sat", "time": "10:15am"}, {"days": "Sun", "time": "Closed"}], "id": "5357900000", "name": "USPS COLLECTION BOX - BLUE BOX", "address": {"city": "REESEVILLE", "state": "WI", "street": "200 S MAIN ST", "postcode": "53579"}}},
{"geometry": {"type": "Point", "coordinates": [-88.8447699396, 43.3049434497]}, "type": "Feature", "properties": {"collection_times": [{"days": "Mon-Fri", "time": "3:30pm"}, {"days": "Sat", "time": "10:15am"}, {"days": "Sun", "time": "Closed"}], "id": "5357900001", "name": "USPS COLLECTION BOX - PO LOBBY", "address": {"city": "REESEVILLE", "state": "WI", "street": "200 S MAIN ST", "postcode": "53579"}}},
{"geometry": {"type": "Point", "coordinates": [-90.3958652182, 42.8430944618]}, "type": "Feature", "properties": {"collection_times": [{"days": "Mon-Fri", "time": "4:30pm"}, {"days": "Sat", "time": "9:30am"}, {"days": "Sun", "time": "Closed"}], "id": "5358000000", "name": "USPS COLLECTION BOX - BLUE BOX", "address": {"city": "REWEY", "state": "WI", "street": "511 MAIN ST", "postcode": "53580"}}},
{"geometry": {"type": "Point", "coordinates": [-90.3958652182, 42.8430944618]}, "type": "Feature", "properties": {"collection_times": [{"days": "Mon-Fri", "time": "12:45pm"}, {"days": "Sat", "time": "9:30am"}, {"days": "Sun", "time": "Closed"}], "id": "5358000001", "name": "USPS COLLECTION BOX - PO LOBBY", "address": {"city": "REWEY", "state": "WI", "street": "511 MAIN ST", "postcode": "53580"}}},
{"geometry": {"type": "Point", "coordinates": [-90.3851741237, 43.3366064723]}, "type": "Feature", "properties": {"collection_times": [{"days": "Mon-Fri", "time": "5:00pm"}, {"days": "Sat", "time": "2:00pm"}, {"days": "Sun", "time": "Closed"}], "id": "5358100002", "name": "USPS COLLECTION BOX - BLUE BOX", "address": {"city": "RICHLAND CENTER", "state": "WI", "street": "213 N CENTRAL AVE", "postcode": "53581"}}},
{"geometry": {"type": "Point", "coordinates": [-90.3853269831, 43.3363107882]}, "type": "Feature", "properties": {"collection_times": [{"days": "Mon-Fri", "time": "4:45pm"}, {"days": "Sat", "time": "12:00pm"}, {"days": "Sun", "time": "Closed"}], "id": "5358100012", "name": "USPS COLLECTION BOX - BLUE BOX", "address": {"city": "RICHLAND CENTER", "state": "WI", "street": "182 N CENTRAL AVE", "postcode": "53581"}}},
{"geometry": {"type": "Point", "coordinates": [-90.3851741237, 43.3366064723]}, "type": "Feature", "properties": {"collection_times": [{"days": "Mon-Fri", "time": "4:45pm"}, {"days": "Sat", "time": "3:30pm"}, {"days": "Sun", "time": "Closed"}], "id": "5358100015", "name": "USPS COLLECTION BOX - PO LOBBY", "address": {"city": "RICHLAND CENTER", "state": "WI", "street": "213 N CENTRAL AVE", "postcode": "53581"}}},
{"geometry": {"type": "Point", "coordinates": [-90.3851741237, 43.3366064723]}, "type": "Feature", "properties": {"collection_times": [{"days": "Mon-Fri", "time": "5:00pm"}, {"days": "Sat", "time": "2:00pm"}, {"days": "Sun", "time": "Closed"}], "id": "5358100016", "name": "USPS COLLECTION BOX - BLUE BOX", "address": {"city": "RICHLAND CENTER", "state": "WI", "street": "213 N CENTRAL AVE", "postcode": "53581"}}},
{"geometry": {"type": "Point", "coordinates": [-90.3619642599, 43.3182844635]}, "type": "Feature", "properties": {"collection_times": [{"days": "Mon-Sat", "time": "9:00am"}, {"days": "Sun", "time": "Closed"}], "id": "5358100017", "name": "USPS COLLECTION BOX - BLUE BOX", "address": {"city": "RICHLAND CENTER", "state": "WI", "street": "2410 US HWY 14 E", "postcode": "53581"}}},
{"geometry": {"type": "Point", "coordinates": [-89.9908847373, 43.0012997422]}, "type": "Feature", "properties": {"collection_times": [{"days": "Mon-Fri", "time": "4:00pm"}, {"days": "Sat", "time": "10:30am"}, {"days": "Sun", "time": "Closed"}], "id": "5358200000", "name": "USPS COLLECTION BOX - BLUE BOX", "address": {"city": "RIDGEWAY", "state": "WI", "street": "613 MAIN ST", "postcode": "53582"}}},
{"geometry": {"type": "Point", "coordinates": [-89.9908847373, 43.0012997422]}, "type": "Feature", "properties": {"collection_times": [{"days": "Mon-Fri", "time": "4:00pm"}, {"days": "Sat", "time": "10:30am"}, {"days": "Sun", "time": "Closed"}], "id": "5358200001", "name": "USPS COLLECTION BOX - PO LOBBY", "address": {"city": "RIDGEWAY", "state": "WI", "street": "613 MAIN ST", "postcode": "53582"}}},
{"geometry": {"type": "Point", "coordinates": [-89.9908847373, 43.0012997422]}, "type": "Feature", "properties": {"collection_times": [{"days": "Mon-Fri", "time": "4:00pm"}, {"days": "Sat", "time": "10:30am"}, {"days": "Sun", "time": "Closed"}], "id": "5358200002", "name": "USPS COLLECTION BOX - PO LOBBY", "address": {"city": "RIDGEWAY", "state": "WI", "street": "613 MAIN ST", "postcode": "53582"}}},
{"geometry": {"type": "Point", "coordinates": [-89.7234537976, 43.2709214658]}, "type": "Feature", "properties": {"collection_times": [{"days": "Mon-Sat", "time": "2:00pm"}, {"days": "Sun", "time": "Closed"}], "id": "5358300003", "name": "USPS COLLECTION BOX - BLUE BOX", "address": {"city": "SAUK CITY", "state": "WI", "street": "110 PHILLIPS BLVD", "postcode": "53583"}}},
{"geometry": {"type": "Point", "coordinates": [-89.7210720021, 43.2726689113]}, "type": "Feature", "properties": {"collection_times": [{"days": "Mon-Fri", "time": "4:30pm"}, {"days": "Sat", "time": "10:30am"}, {"days": "Sun", "time": "Closed"}], "id": "5358300004", "name": "USPS COLLECTION BOX - BLUE BOX", "address": {"city": "SAUK CITY", "state": "WI", "street": "739 WATER ST", "postcode": "53583"}}},
{"geometry": {"type": "Point", "coordinates": [-89.7303992971, 43.2712370837]}, "type": "Feature", "properties": {"collection_times": [{"days": "Mon-Sat", "time": "10:00am"}, {"days": "Sun", "time": "Closed"}], "id": "5358300006", "name": "USPS COLLECTION BOX - BLUE BOX", "address": {"city": "SAUK CITY", "state": "WI", "street": "724 PHILLIPS BLVD", "postcode": "53583"}}},
{"geometry": {"type": "Point", "coordinates": [-89.7210720021, 43.2726689113]}, "type": "Feature", "properties": {"collection_times": [{"days": "Mon-Fri", "time": "4:30pm"}, {"days": "Sat", "time": "10:30am"}, {"days": "Sun", "time": "Closed"}], "id": "5358300007", "name": "USPS COLLECTION BOX - BLUE BOX", "address": {"city": "SAUK CITY", "state": "WI", "street": "739 WATER ST", "postcode": "53583"}}},
{"geometry": {"type": "Point", "coordinates": [-89.7210720021, 43.2726689113]}, "type": "Feature", "properties": {"collection_times": [{"days": "Mon-Fri", "time": "4:30pm"}, {"days": "Sat", "time": "10:30am"}, {"days": "Sun", "time": "Closed"}], "id": "5358300008", "name": "USPS COLLECTION BOX - PO LOBBY", "address": {"city": "SAUK CITY", "state": "WI", "street": "739 WATER ST", "postcode": "53583"}}},
{"geometry": {"type": "Point", "coordinates": [-89.7210720021, 43.2726689113]}, "type": "Feature", "properties": {"collection_times": [{"days": "Mon-Fri", "time": "4:30pm"}, {"days": "Sat", "time": "10:30am"}, {"days": "Sun", "time": "Closed"}], "id": "5358300009", "name": "USPS COLLECTION BOX - PO LOBBY", "address": {"city": "SAUK CITY", "state": "WI", "street": "739 WATER ST", "postcode": "53583"}}},
{"geometry": {"type": "Point", "coordinates": [-89.7210720021, 43.2726689113]}, "type": "Feature", "properties": {"collection_times": [{"days": "Mon-Fri", "time": "4:30pm"}, {"days": "Sat", "time": "10:30am"}, {"days": "Sun", "time": "Closed"}], "id": "5358300010", "name": "USPS COLLECTION BOX - BLUE BOX", "address": {"city": "SAUK CITY", "state": "WI", "street": "739 WATER ST", "postcode": "53583"}}},
{"geometry": {"type": "Point", "coordinates": [-89.7259479603, 43.2712082322]}, "type": "Feature", "properties": {"collection_times": [{"days": "Mon-Sat", "time": "12:30pm"}, {"days": "Sun", "time": "Closed"}], "id": "5358300011", "name": "USPS COLLECTION BOX - BLUE BOX", "address": {"city": "SAUK CITY", "state": "WI", "street": "333 PHILLIPS BLVD", "postcode": "53583"}}},
{"geometry": {"type": "Point", "coordinates": [-90.2925785315, 43.2786308312]}, "type": "Feature", "properties": {"collection_times": [{"days": "Mon-Fri", "time": "4:15pm"}, {"days": "Sat", "time": "9:30am"}, {"days": "Sun", "time": "Closed"}], "id": "5358400000", "name": "USPS COLLECTION BOX - BLUE BOX", "address": {"city": "SEXTONVILLE", "state": "WI", "street": "28844 COUNTY HWY B", "postcode": "53584"}}},
{"geometry": {"type": "Point", "coordinates": [-90.2925785315, 43.2786308312]}, "type": "Feature", "properties": {"collection_times": [{"days": "Mon-Fri", "time": "10:00am"}, {"days": "Sat", "time": "9:30am"}, {"days": "Sun", "time": "Closed"}], "id": "5358400001", "name": "USPS COLLECTION BOX - PO LOBBY", "address": {"city": "SEXTONVILLE", "state": "WI", "street": "28844 COUNTY HWY B", "postcode": "53584"}}},
{"geometry": {"type": "Point", "coordinates": [-88.7307806535, 42.5039710033]}, "type": "Feature", "properties": {"collection_times": [{"days": "Mon-Fri", "time": "4:30pm"}, {"days": "Sat", "time": "10:45am"}, {"days": "Sun", "time": "Closed"}], "id": "5358500000", "name": "USPS COLLECTION BOX - BLUE BOX", "address": {"city": "SHARON", "state": "WI", "street": "199 WALWORTH ST", "postcode": "53585"}}},
{"geometry": {"type": "Point", "coordinates": [-88.73068703, 42.5024949772]}, "type": "Feature", "properties": {"collection_times": [{"days": "Mon-Fri", "time": "3:00pm"}, {"days": "Sat", "time": "10:45am"}, {"days": "Sun", "time": "Closed"}], "id": "5358500002", "name": "USPS COLLECTION BOX - PO LOBBY", "address": {"city": "SHARON", "state": "WI", "street": "199 WALWORTH ST", "postcode": "53585"}}},
{"geometry": {"type": "Point", "coordinates": [-90.2315478487, 42.5727022776]}, "type": "Feature", "properties": {"collection_times": [{"days": "Mon-Fri", "time": "4:30pm"}, {"days": "Sat", "time": "11:00am"}, {"days": "Sun", "time": "Closed"}], "id": "5358600000", "name": "USPS COLLECTION BOX - BLUE BOX", "address": {"city": "SHULLSBURG", "state": "WI", "street": "147 W MAIN ST", "postcode": "53586"}}},
{"geometry": {"type": "Point", "coordinates": [-90.2315478487, 42.5727022776]}, "type": "Feature", "properties": {"collection_times": [{"days": "Mon-Fri", "time": "4:30pm"}, {"days": "Sat", "time": "11:00am"}, {"days": "Sun", "time": "Closed"}], "id": "5358600002", "name": "USPS COLLECTION BOX - PO LOBBY", "address": {"city": "SHULLSBURG", "state": "WI", "street": "147 W MAIN ST", "postcode": "53586"}}},
{"geometry": {"type": "Point", "coordinates": [-90.2284531697, 42.5718236168]}, "type": "Feature", "properties": {"collection_times": [{"days": "Mon-Fri", "time": "4:30pm"}, {"days": "Sat", "time": "11:00am"}, {"days": "Sun", "time": "Closed"}], "id": "5358600003", "name": "USPS COLLECTION BOX - BLUE BOX", "address": {"city": "SHULLSBURG", "state": "WI", "street": "234 W MAIN ST", "postcode": "53586"}}},
{"geometry": {"type": "Point", "coordinates": [-89.8799820167, 42.5689737075]}, "type": "Feature", "properties": {"collection_times": [{"days": "Mon-Fri", "time": "4:30pm"}, {"days": "Sat", "time": "10:00am"}, {"days": "Sun", "time": "Closed"}], "id": "5358700000", "name": "USPS COLLECTION BOX - BLUE BOX", "address": {"city": "SOUTH WAYNE", "state": "WI", "street": "202 W CENTER ST", "postcode": "53587"}}},
{"geometry": {"type": "Point", "coordinates": [-89.8799820167, 42.5689737075]}, "type": "Feature", "properties": {"collection_times": [{"days": "Mon-Fri", "time": "2:00pm"}, {"days": "Sat", "time": "10:00am"}, {"days": "Sun", "time": "Closed"}], "id": "5358700001", "name": "USPS COLLECTION BOX - PO LOBBY", "address": {"city": "SOUTH WAYNE", "state": "WI", "street": "202 W CENTER ST", "postcode": "53587"}}},
{"geometry": {"type": "Point", "coordinates": [-90.0692621799, 43.1759559445]}, "type": "Feature", "properties": {"collection_times": [{"days": "Mon-Fri", "time": "5:00pm"}, {"days": "Sat", "time": "11:30am"}, {"days": "Sun", "time": "Closed"}], "id": "5358800000", "name": "USPS COLLECTION BOX - BLUE BOX", "address": {"city": "SPRING GREEN", "state": "WI", "street": "150 S WASHINGTON ST", "postcode": "53588"}}},
{"geometry": {"type": "Point", "coordinates": [-90.0692621799, 43.1759559445]}, "type": "Feature", "properties": {"collection_times": [{"days": "Mon-Fri", "time": "5:00pm"}, {"days": "Sat", "time": "11:30am"}, {"days": "Sun", "time": "Closed"}], "id": "5358800002", "name": "USPS COLLECTION BOX - PO LOBBY", "address": {"city": "SPRING GREEN", "state": "WI", "street": "150 S WASHINGTON ST", "postcode": "53588"}}},
{"geometry": {"type": "Point", "coordinates": [-90.0692621799, 43.1759559445]}, "type": "Feature", "properties": {"collection_times": [{"days": "Mon-Fri", "time": "5:00pm"}, {"days": "Sat", "time": "11:30am"}, {"days": "Sun", "time": "Closed"}], "id": "5358800005", "name": "USPS COLLECTION BOX - BLUE BOX", "address": {"city": "SPRING GREEN", "state": "WI", "street": "150 S WASHINGTON ST", "postcode": "53588"}}},
{"geometry": {"type": "Point", "coordinates": [-89.2115675765, 42.9260219646]}, "type": "Feature", "properties": {"collection_times": [{"days": "Mon-Sat", "time": "10:00am"}, {"days": "Sun", "time": "Closed"}], "id": "5358900008", "name": "USPS COLLECTION BOX - BLUE BOX", "address": {"city": "STOUGHTON", "state": "WI", "street": "1800 US HIGHWAY 51/138", "postcode": "53589"}}},
{"geometry": {"type": "Point", "coordinates": [-89.2186429375, 42.9167471846]}, "type": "Feature", "properties": {"collection_times": [{"days": "Mon-Fri", "time": "5:00pm"}, {"days": "Sat", "time": "2:00pm"}, {"days": "Sun", "time": "Closed"}], "id": "5358900014", "name": "USPS COLLECTION BOX - PO LOBBY", "address": {"city": "STOUGHTON", "state": "WI", "street": "246 E MAIN ST", "postcode": "53589"}}},
{"geometry": {"type": "Point", "coordinates": [-89.2186429375, 42.9167471846]}, "type": "Feature", "properties": {"collection_times": [{"days": "Mon-Fri", "time": "5:00pm"}, {"days": "Sat", "time": "2:00pm"}, {"days": "Sun", "time": "Closed"}], "id": "5358900015", "name": "USPS COLLECTION BOX - PO LOBBY", "address": {"city": "STOUGHTON", "state": "WI", "street": "246 E MAIN ST", "postcode": "53589"}}},
{"geometry": {"type": "Point", "coordinates": [-89.2186429375, 42.9167471846]}, "type": "Feature", "properties": {"collection_times": [{"days": "Mon-Fri", "time": "5:00pm"}, {"days": "Sat", "time": "2:00pm"}, {"days": "Sun", "time": "Closed"}], "id": "5358900017", "name": "USPS COLLECTION BOX - BLUE BOX", "address": {"city": "STOUGHTON", "state": "WI", "street": "246 E MAIN ST", "postcode": "53589"}}},
{"geometry": {"type": "Point", "coordinates": [-89.2173168405, 42.9321635059]}, "type": "Feature", "properties": {"collection_times": [{"days": "Mon-Sat", "time": "4:00pm"}, {"days": "Sun", "time": "Closed"}], "id": "5358900018", "name": "USPS COLLECTION BOX - BLUE BOX", "address": {"city": "STOUGHTON", "state": "WI", "street": "541 BUSINESS PARK CIR", "postcode": "53589"}}},
{"geometry": {"type": "Point", "coordinates": [-89.2186429375, 42.9167471846]}, "type": "Feature", "properties": {"collection_times": [{"days": "Mon-Fri", "time": "5:00pm"}, {"days": "Sat", "time": "2:00pm"}, {"days": "Sun", "time": "Closed"}], "id": "5358900025", "name": "USPS COLLECTION BOX - BLUE BOX", "address": {"city": "STOUGHTON", "state": "WI", "street": "246 E MAIN ST", "postcode": "53589"}}},
{"geometry": {"type": "Point", "coordinates": [-89.2173168405, 42.9321635059]}, "type": "Feature", "properties": {"collection_times": [{"days": "Mon-Sat", "time": "4:00pm"}, {"days": "Sun", "time": "Closed"}], "id": "5358900027", "name": "USPS COLLECTION BOX - BLUE BOX", "address": {"city": "STOUGHTON", "state": "WI", "street": "541 BUSINESS PARK CIR", "postcode": "53589"}}},
{"geometry": {"type": "Point", "coordinates": [-89.2202387491, 42.9167637461]}, "type": "Feature", "properties": {"collection_times": [{"days": "Mon-Sat", "time": "2:00pm"}, {"days": "Sun", "time": "Closed"}], "id": "5358900028", "name": "USPS COLLECTION BOX - BLUE BOX", "address": {"city": "STOUGHTON", "state": "WI", "street": "100 E MAIN ST", "postcode": "53589"}}},
{"geometry": {"type": "Point", "coordinates": [-89.229828804, 43.1810188876]}, "type": "Feature", "properties": {"collection_times": [{"days": "Mon-Fri", "time": "3:00pm"}, {"days": "Sat", "time": "2:00pm"}, {"days": "Sun", "time": "Closed"}], "id": "5359000002", "name": "USPS COLLECTION BOX - BLUE BOX", "address": {"city": "SUN PRAIRIE", "state": "WI", "street": "1026 W MAIN ST", "postcode": "53590"}}},
{"geometry": {"type": "Point", "coordinates": [-89.229828804, 43.1810188876]}, "type": "Feature", "properties": {"collection_times": [{"days": "Mon-Fri", "time": "3:00pm"}, {"days": "Sat", "time": "2:00pm"}, {"days": "Sun", "time": "Closed"}], "id": "5359000003", "name": "USPS COLLECTION BOX - BLUE BOX", "address": {"city": "SUN PRAIRIE", "state": "WI", "street": "1026 W MAIN ST", "postcode": "53590"}}},
{"geometry": {"type": "Point", "coordinates": [-89.2422583473, 43.1874448676]}, "type": "Feature", "properties": {"collection_times": [{"days": "Mon-Fri", "time": "1:00pm"}, {"days": "Sat", "time": "2:00pm"}, {"days": "Sun", "time": "Closed"}], "id": "5359000016", "name": "USPS COLLECTION BOX - BLUE BOX", "address": {"city": "SUN PRAIRIE", "state": "WI", "street": "1706 WINDSOR ST", "postcode": "53590"}}},
{"geometry": {"type": "Point", "coordinates": [-89.2114091434, 43.1830454432]}, "type": "Feature", "properties": {"collection_times": [{"days": "Mon-Fri", "time": "3:00pm"}, {"days": "Sat", "time": "1:00pm"}, {"days": "Sun", "time": "Closed"}], "id": "5359000019", "name": "USPS COLLECTION BOX - BLUE BOX", "address": {"city": "SUN PRAIRIE", "state": "WI", "street": "240 E MAIN ST", "postcode": "53590"}}},
{"geometry": {"type": "Point", "coordinates": [-89.2424097661, 43.1742134715]}, "type": "Feature", "properties": {"collection_times": [{"days": "Mon-Fri", "time": "5:00pm"}, {"days": "Sat", "time": "4:00pm"}, {"days": "Sun", "time": "Closed"}], "id": "5359000024", "name": "USPS COLLECTION BOX - BLUE BOX", "address": {"city": "SUN PRAIRIE", "state": "WI", "street": "1715 LINNERUD DR", "postcode": "53590"}}},
{"geometry": {"type": "Point", "coordinates": [-89.2424097661, 43.1742134715]}, "type": "Feature", "properties": {"collection_times": [{"days": "Mon-Fri", "time": "5:00pm"}, {"days": "Sat", "time": "4:00pm"}, {"days": "Sun", "time": "Closed"}], "id": "5359000025", "name": "USPS COLLECTION BOX - BLUE BOX", "address": {"city": "SUN PRAIRIE", "state": "WI", "street": "1715 LINNERUD DR", "postcode": "53590"}}},
{"geometry": {"type": "Point", "coordinates": [-89.2138105501, 43.1833045112]}, "type": "Feature", "properties": {"collection_times": [{"days": "Mon-Fri", "time": "3:00pm"}, {"days": "Sat", "time": "1:00pm"}, {"days": "Sun", "time": "Closed"}], "id": "5359000028", "name": "USPS COLLECTION BOX - BLUE BOX", "address": {"city": "SUN PRAIRIE", "state": "WI", "street": "100 W MAIN ST", "postcode": "53590"}}},
{"geometry": {"type": "Point", "coordinates": [-89.2095341535, 43.1987646019]}, "type": "Feature", "properties": {"collection_times": [{"days": "Mon-Fri", "time": "3:00pm"}, {"days": "Sat", "time": "1:00pm"}, {"days": "Sun", "time": "Closed"}], "id": "5359000029", "name": "USPS COLLECTION BOX - BLUE BOX", "address": {"city": "SUN PRAIRIE", "state": "WI", "street": "100 WILBURN RD", "postcode": "53590"}}},
{"geometry": {"type": "Point", "coordinates": [-89.2095341535, 43.1987646019]}, "type": "Feature", "properties": {"collection_times": [{"days": "Mon-Fri", "time": "3:00pm"}, {"days": "Sat", "time": "1:00pm"}, {"days": "Sun", "time": "Closed"}], "id": "5359000030", "name": "USPS COLLECTION BOX - BLUE BOX", "address": {"city": "SUN PRAIRIE", "state": "WI", "street": "100 WILBURN RD", "postcode": "53590"}}},
{"geometry": {"type": "Point", "coordinates": [-89.2114091434, 43.1830454432]}, "type": "Feature", "properties": {"collection_times": [{"days": "Mon-Fri", "time": "3:00pm"}, {"days": "Sat", "time": "1:00pm"}, {"days": "Sun", "time": "Closed"}], "id": "5359000031", "name": "USPS COLLECTION BOX - BLUE BOX", "address": {"city": "SUN PRAIRIE", "state": "WI", "street": "240 E MAIN ST", "postcode": "53590"}}},
{"geometry": {"type": "Point", "coordinates": [-89.2121390291, 43.1985670478]}, "type": "Feature", "properties": {"collection_times": [{"days": "Mon-Sat", "time": "1:00pm"}, {"days": "Sun", "time": "Closed"}], "id": "5359000034", "name": "USPS COLLECTION BOX - BLUE BOX", "address": {"city": "SUN PRAIRIE", "state": "WI", "street": "9 TOWER DR", "postcode": "53590"}}},
{"geometry": {"type": "Point", "coordinates": [-89.2549834369, 43.1872390327]}, "type": "Feature", "properties": {"collection_times": [{"days": "Mon-Sat", "time": "1:00pm"}, {"days": "Sun", "time": "Closed"}], "id": "5359000035", "name": "USPS COLLECTION BOX - BLUE BOX", "address": {"city": "SUN PRAIRIE", "state": "WI", "street": "2311 WINDSOR ST", "postcode": "53590"}}},
{"geometry": {"type": "Point", "coordinates": [-89.2424097661, 43.1742134715]}, "type": "Feature", "properties": {"collection_times": [{"days": "Mon-Fri", "time": "6:00pm"}, {"days": "Sat", "time": "4:00pm"}, {"days": "Sun", "time": "Closed"}], "id": "5359000037", "name": "USPS COLLECTION BOX - PO LOBBY", "address": {"city": "SUN PRAIRIE", "state": "WI", "street": "1715 LINNERUD DR", "postcode": "53590"}}},
{"geometry": {"type": "Point", "coordinates": [-89.2065329866, 43.201096214]}, "type": "Feature", "properties": {"collection_times": [{"days": "Mon-Fri", "time": "3:00pm"}, {"days": "Sat", "time": "1:00pm"}, {"days": "Sun", "time": "Closed"}], "id": "5359000038", "name": "USPS COLLECTION BOX - BLUE BOX", "address": {"city": "SUN PRAIRIE", "state": "WI", "street": "210 BUSINESS PARK DR", "postcode": "53590"}}},
{"geometry": {"type": "Point", "coordinates": [-89.2424097661, 43.1742134715]}, "type": "Feature", "properties": {"collection_times": [{"days": "Mon-Fri", "time": "6:00pm"}, {"days": "Sat", "time": "4:00pm"}, {"days": "Sun", "time": "Closed"}], "id": "5359000039", "name": "USPS COLLECTION BOX - PO LOBBY", "address": {"city": "SUN PRAIRIE", "state": "WI", "street": "1715 LINNERUD DR", "postcode": "53590"}}},
{"geometry": {"type": "Point", "coordinates": [-89.2424097661, 43.1742134715]}, "type": "Feature", "properties": {"collection_times": [{"days": "Mon-Fri", "time": "6:00pm"}, {"days": "Sat", "time": "4:00pm"}, {"days": "Sun", "time": "Closed"}], "id": "5359000041", "name": "USPS COLLECTION BOX - APC", "address": {"city": "SUN PRAIRIE", "state": "WI", "street": "1715 LINNERUD DR", "postcode": "53590"}}},
{"geometry": {"type": "Point", "coordinates": [-89.5265151059, 42.9933224844]}, "type": "Feature", "properties": {"collection_times": [{"days": "Mon-Fri", "time": "5:00pm"}, {"days": "Sat", "time": "3:45pm"}, {"days": "Sun", "time": "Closed"}], "id": "5359300000", "name": "USPS COLLECTION BOX - BLUE BOX", "address": {"city": "VERONA", "state": "WI", "street": "100 ENTERPRISE DR", "postcode": "53593"}}},
{"geometry": {"type": "Point", "coordinates": [-89.5334519773, 42.9897097277]}, "type": "Feature", "properties": {"collection_times": [{"days": "Mon-Sat", "time": "3:00pm"}, {"days": "Sun", "time": "Closed"}], "id": "5359300001", "name": "USPS COLLECTION BOX - BLUE BOX", "address": {"city": "VERONA", "state": "WI", "street": "118 S MAIN ST", "postcode": "53593"}}},
{"geometry": {"type": "Point", "coordinates": [-89.5265151059, 42.9933224844]}, "type": "Feature", "properties": {"collection_times": [{"days": "Mon-Fri", "time": "5:00pm"}, {"days": "Sat", "time": "3:45pm"}, {"days": "Sun", "time": "Closed"}], "id": "5359300002", "name": "USPS COLLECTION BOX - BLUE BOX", "address": {"city": "VERONA", "state": "WI", "street": "100 ENTERPRISE DR", "postcode": "53593"}}},
{"geometry": {"type": "Point", "coordinates": [-89.5334981127, 42.991602462]}, "type": "Feature", "properties": {"collection_times": [{"days": "Mon-Sat", "time": "11:00am"}, {"days": "Sun", "time": "Closed"}], "id": "5359300003", "name": "USPS COLLECTION BOX - BLUE BOX", "address": {"city": "VERONA", "state": "WI", "street": "108 N MAIN ST", "postcode": "53593"}}},
{"geometry": {"type": "Point", "coordinates": [-89.5426151774, 42.9888012152]}, "type": "Feature", "properties": {"collection_times": [{"days": "Mon-Sat", "time": "1:00pm"}, {"days": "Sun", "time": "Closed"}], "id": "5359300004", "name": "USPS COLLECTION BOX - BLUE BOX", "address": {"city": "VERONA", "state": "WI", "street": "507 W VERONA AVE", "postcode": "53593"}}},
{"geometry": {"type": "Point", "coordinates": [-89.5265151059, 42.9933224844]}, "type": "Feature", "properties": {"collection_times": [{"days": "Mon-Fri", "time": "5:30pm"}, {"days": "Sat", "time": "3:00pm"}, {"days": "Sun", "time": "Closed"}], "id": "5359300005", "name": "USPS COLLECTION BOX - PO LOBBY", "address": {"city": "VERONA", "state": "WI", "street": "100 ENTERPRISE DR", "postcode": "53593"}}},
{"geometry": {"type": "Point", "coordinates": [-89.5265151059, 42.9933224844]}, "type": "Feature", "properties": {"collection_times": [{"days": "Mon-Fri", "time": "5:30pm"}, {"days": "Sat", "time": "3:00pm"}, {"days": "Sun", "time": "Closed"}], "id": "5359300006", "name": "USPS COLLECTION BOX - PO LOBBY", "address": {"city": "VERONA", "state": "WI", "street": "100 ENTERPRISE DR", "postcode": "53593"}}},
{"geometry": {"type": "Point", "coordinates": [-88.9903201122, 43.1926467729]}, "type": "Feature", "properties": {"collection_times": [{"days": "Mon-Sat", "time": "11:15am"}, {"days": "Sun", "time": "Closed"}], "id": "5359400000", "name": "USPS COLLECTION BOX - BLUE BOX", "address": {"city": "WATERLOO", "state": "WI", "street": "810 N MONROE ST", "postcode": "53594"}}},
{"geometry": {"type": "Point", "coordinates": [-88.9858923939, 43.1837977587]}, "type": "Feature", "properties": {"collection_times": [{"days": "Mon-Sat", "time": "10:00am"}, {"days": "Sun", "time": "Closed"}], "id": "5359400007", "name": "USPS COLLECTION BOX - BLUE BOX", "address": {"city": "WATERLOO", "state": "WI", "street": "362 E MADISON ST", "postcode": "53594"}}},
{"geometry": {"type": "Point", "coordinates": [-88.993563131, 43.1836812036]}, "type": "Feature", "properties": {"collection_times": [{"days": "Mon-Fri", "time": "2:30pm"}, {"days": "Sat", "time": "1:30pm"}, {"days": "Sun", "time": "Closed"}], "id": "5359400010", "name": "USPS COLLECTION BOX - BLUE BOX", "address": {"city": "WATERLOO", "state": "WI", "street": "300 W MADISON ST", "postcode": "53594"}}},
{"geometry": {"type": "Point", "coordinates": [-88.9925757528, 43.1838188211]}, "type": "Feature", "properties": {"collection_times": [{"days": "Mon-Fri", "time": "4:45pm"}, {"days": "Sat", "time": "1:30pm"}, {"days": "Sun", "time": "Closed"}], "id": "5359400011", "name": "USPS COLLECTION BOX - BLUE BOX", "address": {"city": "WATERLOO", "state": "WI", "street": "241 W MADISON ST", "postcode": "53594"}}},
{"geometry": {"type": "Point", "coordinates": [-88.9925757528, 43.1838188211]}, "type": "Feature", "properties": {"collection_times": [{"days": "Mon-Fri", "time": "4:45pm"}, {"days": "Sat", "time": "11:00am"}, {"days": "Sun", "time": "Closed"}], "id": "5359400012", "name": "USPS COLLECTION BOX - PO LOBBY", "address": {"city": "WATERLOO", "state": "WI", "street": "241 W MADISON ST", "postcode": "53594"}}},
{"geometry": {"type": "Point", "coordinates": [-88.9925757528, 43.1838188211]}, "type": "Feature", "properties": {"collection_times": [{"days": "Mon-Fri", "time": "4:45pm"}, {"days": "Sat", "time": "11:00am"}, {"days": "Sun", "time": "Closed"}], "id": "5359400013", "name": "USPS COLLECTION BOX - PO LOBBY", "address": {"city": "WATERLOO", "state": "WI", "street": "241 W MADISON ST", "postcode": "53594"}}},
{"geometry": {"type": "Point", "coordinates": [-89.4514330368, 43.1850824539]}, "type": "Feature", "properties": {"collection_times": [{"days": "Mon-Sat", "time": "10:30am"}, {"days": "Sun", "time": "Closed"}], "id": "5359700002", "name": "USPS COLLECTION BOX - BLUE BOX", "address": {"city": "WAUNAKEE", "state": "WI", "street": "100 MEADOW OAK TRL", "postcode": "53597"}}},
{"geometry": {"type": "Point", "coordinates": [-89.4634681249, 43.1924144782]}, "type": "Feature", "properties": {"collection_times": [{"days": "Mon-Fri", "time": "5:00pm"}, {"days": "Sat", "time": "12:00pm"}, {"days": "Sun", "time": "Closed"}], "id": "5359700003", "name": "USPS COLLECTION BOX - BLUE BOX", "address": {"city": "WAUNAKEE", "state": "WI", "street": "101 N KLEIN DR", "postcode": "53597"}}},
{"geometry": {"type": "Point", "coordinates": [-89.4634681249, 43.1924144782]}, "type": "Feature", "properties": {"collection_times": [{"days": "Mon-Fri", "time": "5:00pm"}, {"days": "Sat", "time": "12:00pm"}, {"days": "Sun", "time": "Closed"}], "id": "5359700005", "name": "USPS COLLECTION BOX - BLUE BOX", "address": {"city": "WAUNAKEE", "state": "WI", "street": "101 N KLEIN DR", "postcode": "53597"}}},
{"geometry": {"type": "Point", "coordinates": [-89.4634681249, 43.1924144782]}, "type": "Feature", "properties": {"collection_times": [{"days": "Mon-Fri", "time": "5:00pm"}, {"days": "Sat", "time": "12:00pm"}, {"days": "Sun", "time": "Closed"}], "id": "5359700006", "name": "USPS COLLECTION BOX - BLUE BOX", "address": {"city": "WAUNAKEE", "state": "WI", "street": "101 N KLEIN DR", "postcode": "53597"}}},
{"geometry": {"type": "Point", "coordinates": [-89.4524003608, 43.1918963422]}, "type": "Feature", "properties": {"collection_times": [{"days": "Mon-Sat", "time": "10:30am"}, {"days": "Sun", "time": "Closed"}], "id": "5359700009", "name": "USPS COLLECTION BOX - BLUE BOX", "address": {"city": "WAUNAKEE", "state": "WI", "street": "208 E MAIN ST", "postcode": "53597"}}},
{"geometry": {"type": "Point", "coordinates": [-89.4634681249, 43.1924144782]}, "type": "Feature", "properties": {"collection_times": [{"days": "Mon-Fri", "time": "5:30pm"}, {"days": "Sat", "time": "12:00pm"}, {"days": "Sun", "time": "Closed"}], "id": "5359700013", "name": "USPS COLLECTION BOX - PO LOBBY", "address": {"city": "WAUNAKEE", "state": "WI", "street": "101 N KLEIN DR", "postcode": "53597"}}},
{"geometry": {"type": "Point", "coordinates": [-89.4634681249, 43.1924144782]}, "type": "Feature", "properties": {"collection_times": [{"days": "Mon-Fri", "time": "5:30pm"}, {"days": "Sat", "time": "12:00pm"}, {"days": "Sun", "time": "Closed"}], "id": "5359700014", "name": "USPS COLLECTION BOX - PO LOBBY", "address": {"city": "WAUNAKEE", "state": "WI", "street": "101 N KLEIN DR", "postcode": "53597"}}},
{"geometry": {"type": "Point", "coordinates": [-89.3393911079, 43.2163776779]}, "type": "Feature", "properties": {"collection_times": [{"days": "Mon-Fri", "time": "4:00pm"}, {"days": "Sat", "time": "10:00am"}, {"days": "Sun", "time": "Closed"}], "id": "5359800000", "name": "USPS COLLECTION BOX - BLUE BOX", "address": {"city": "WINDSOR", "state": "WI", "street": "4436 WINDSOR RD", "postcode": "53598"}}},
{"geometry": {"type": "Point", "coordinates": [-89.3393911079, 43.2163776779]}, "type": "Feature", "properties": {"collection_times": [{"days": "Mon-Fri", "time": "12:30pm"}, {"days": "Sat", "time": "10:00am"}, {"days": "Sun", "time": "Closed"}], "id": "5359800003", "name": "USPS COLLECTION BOX - PO LOBBY", "address": {"city": "WINDSOR", "state": "WI", "street": "4436 WINDSOR RD", "postcode": "53598"}}},
{"geometry": {"type": "Point", "coordinates": [-89.8626693034, 42.6489049519]}, "type": "Feature", "properties": {"collection_times": [{"days": "Mon-Fri", "time": "4:00pm"}, {"days": "Sat", "time": "11:45am"}, {"days": "Sun", "time": "Closed"}], "id": "5359900000", "name": "USPS COLLECTION BOX - BLUE BOX", "address": {"city": "WOODFORD", "state": "WI", "street": "10700 MAIN ST", "postcode": "53599"}}},
{"geometry": {"type": "Point", "coordinates": [-89.8626693034, 42.6489049519]}, "type": "Feature", "properties": {"collection_times": [{"days": "Mon-Fri", "time": "4:00pm"}, {"days": "Sat", "time": "11:45am"}, {"days": "Sun", "time": "Closed"}], "id": "5359900001", "name": "USPS COLLECTION BOX - PO LOBBY", "address": {"city": "WOODFORD", "state": "WI", "street": "10700 MAIN ST", "postcode": "53599"}}}
]}
