{"type": "FeatureCollection", "features": [
{"geometry": {"type": "Point", "coordinates": [-89.3867792614, 43.0749910508]}, "type": "Feature", "properties": {"collection_times": [{"days": "Mon-Fri", "time": "2:00pm"}, {"days": "Sat", "time": "1:00pm"}, {"days": "Sun", "time": "Closed"}], "id": "5370300001", "name": "USPS COLLECTION BOX - BLUE BOX", "address": {"city": "MADISON", "state": "WI", "street": "100 N CARROLL ST", "postcode": "53703"}}},
{"geometry": {"type": "Point", "coordinates": [-89.383800245, 43.0727202934]}, "type": "Feature", "properties": {"collection_times": [{"days": "Mon-Fri", "time": "2:30pm"}, {"days": "Sat", "time": "1:00pm"}, {"days": "Sun", "time": "Closed"}], "id": "5370300003", "name": "USPS COLLECTION BOX - BLUE BOX", "address": {"city": "MADISON", "state": "WI", "street": "100 S CARROLL ST", "postcode": "53703"}}},
{"geometry": {"type": "Point", "coordinates": [-89.3870466098, 43.0697664756]}, "type": "Feature", "properties": {"collection_times": [{"days": "Mon-Sat", "time": "1:00pm"}, {"days": "Sun", "time": "Closed"}], "id": "5370300012", "name": "USPS COLLECTION BOX - BLUE BOX", "address": {"city": "MADISON", "state": "WI", "street": "401 W DOTY ST", "postcode": "53703"}}},
{"geometry": {"type": "Point", "coordinates": [-89.3615349168, 43.081460025]}, "type": "Feature", "properties": {"collection_times": [{"days": "Mon-Sat", "time": "1:00pm"}, {"days": "Sun", "time": "Closed"}], "id": "5370300021", "name": "USPS COLLECTION BOX - BLUE BOX", "address": {"city": "MADISON", "state": "WI", "street": "1204 RUTLEDGE ST", "postcode": "53703"}}},
{"geometry": {"type": "Point", "coordinates": [-89.3840915783, 43.0769990868]}, "type": "Feature", "properties": {"collection_times": [{"days": "Mon-Fri", "time": "2:00pm"}, {"days": "Sat", "time": "1:00pm"}, {"days": "Sun", "time": "Closed"}], "id": "5370300029", "name": "USPS COLLECTION BOX - BLUE BOX", "address": {"city": "MADISON", "state": "WI", "street": "100 N HAMILTON ST", "postcode": "53703"}}},
{"geometry": {"type": "Point", "coordinates": [-89.3923937503, 43.0767418744]}, "type": "Feature", "properties": {"collection_times": [{"days": "Mon-Sat", "time": "1:00pm"}, {"days": "Sun", "time": "Closed"}], "id": "5370300031", "name": "USPS COLLECTION BOX - BLUE BOX", "address": {"city": "MADISON", "state": "WI", "street": "199 LANGDON ST", "postcode": "53703"}}},
{"geometry": {"type": "Point", "coordinates": [-89.3860375458, 43.0733733175]}, "type": "Feature", "properties": {"collection_times": [{"days": "Mon-Fri", "time": "3:00pm"}, {"days": "Sat-Sun", "time": "Closed"}], "id": "5370300032", "name": "USPS COLLECTION BOX - BLUE BOX", "address": {"city": "MADISON", "state": "WI", "street": "2 S CARROLL ST", "postcode": "53703"}}},
{"geometry": {"type": "Point", "coordinates": [-89.3860375458, 43.0733733175]}, "type": "Feature", "properties": {"collection_times": [{"days": "Mon-Fri", "time": "3:00pm"}, {"days": "Sat-Sun", "time": "Closed"}], "id": "5370300033", "name": "USPS COLLECTION BOX - BLUE BOX", "address": {"city": "MADISON", "state": "WI", "street": "2 S CARROLL ST", "postcode": "53703"}}},
{"geometry": {"type": "Point", "coordinates": [-89.3838668161, 43.079039691]}, "type": "Feature", "properties": {"collection_times": [{"days": "Mon-Sat", "time": "1:00pm"}, {"days": "Sun", "time": "Closed"}], "id": "5370300037", "name": "USPS COLLECTION BOX - BLUE BOX", "address": {"city": "MADISON", "state": "WI", "street": "301 E JOHNSON ST", "postcode": "53703"}}},
{"geometry": {"type": "Point", "coordinates": [-89.3760932457, 43.0844125847]}, "type": "Feature", "properties": {"collection_times": [{"days": "Mon-Sat", "time": "1:00pm"}, {"days": "Sun", "time": "Closed"}], "id": "5370300039", "name": "USPS COLLECTION BOX - BLUE BOX", "address": {"city": "MADISON", "state": "WI", "street": "901 E JOHNSON ST", "postcode": "53703"}}},
{"geometry": {"type": "Point", "coordinates": [-89.3850119204, 43.0724872813]}, "type": "Feature", "properties": {"collection_times": [{"days": "Mon-Fri", "time": "3:00pm"}, {"days": "Sat-Sun", "time": "Closed"}], "id": "5370300048", "name": "USPS COLLECTION BOX - BLUE BOX", "address": {"city": "MADISON", "state": "WI", "street": "123 W MAIN ST", "postcode": "53703"}}},
{"geometry": {"type": "Point", "coordinates": [-89.3845836893, 43.0728149609]}, "type": "Feature", "properties": {"collection_times": [{"days": "Mon-Fri", "time": "3:00pm"}, {"days": "Sat", "time": "1:00pm"}, {"days": "Sun", "time": "Closed"}], "id": "5370300049", "name": "USPS COLLECTION BOX - BLUE BOX", "address": {"city": "MADISON", "state": "WI", "street": "110 E MAIN ST", "postcode": "53703"}}},
{"geometry": {"type": "Point", "coordinates": [-89.3845836893, 43.0728149609]}, "type": "Feature", "properties": {"collection_times": [{"days": "Mon-Fri", "time": "3:00pm"}, {"days": "Sat", "time": "1:00pm"}, {"days": "Sun", "time": "Closed"}], "id": "5370300051", "name": "USPS COLLECTION BOX - BLUE BOX", "address": {"city": "MADISON", "state": "WI", "street": "110 E MAIN ST", "postcode": "53703"}}},
{"geometry": {"type": "Point", "coordinates": [-89.3874129874, 43.0752491311]}, "type": "Feature", "properties": {"collection_times": [{"days": "Mon-Fri", "time": "3:00pm"}, {"days": "Sat", "time": "1:00pm"}, {"days": "Sun", "time": "Closed"}], "id": "5370300065", "name": "USPS COLLECTION BOX - BLUE BOX", "address": {"city": "MADISON", "state": "WI", "street": "121 W DAYTON ST", "postcode": "53703"}}},
{"geometry": {"type": "Point", "coordinates": [-89.3917545279, 43.0748687648]}, "type": "Feature", "properties": {"collection_times": [{"days": "Mon-Fri", "time": "3:00pm"}, {"days": "Sat", "time": "1:00pm"}, {"days": "Sun", "time": "Closed"}], "id": "5370300066", "name": "USPS COLLECTION BOX - BLUE BOX", "address": {"city": "MADISON", "state": "WI", "street": "302 W GORHAM ST", "postcode": "53703"}}},
{"geometry": {"type": "Point", "coordinates": [-89.3946583602, 43.0738967866]}, "type": "Feature", "properties": {"collection_times": [{"days": "Mon-Fri", "time": "3:00pm"}, {"days": "Sat", "time": "1:00pm"}, {"days": "Sun", "time": "Closed"}], "id": "5370300067", "name": "USPS COLLECTION BOX - BLUE BOX", "address": {"city": "MADISON", "state": "WI", "street": "409 W GILMAN ST", "postcode": "53703"}}},
{"geometry": {"type": "Point", "coordinates": [-89.3820250688, 43.0760666618]}, "type": "Feature", "properties": {"collection_times": [{"days": "Mon-Fri", "time": "2:30pm"}, {"days": "Sat-Sun", "time": "Closed"}], "id": "5370300071", "name": "USPS COLLECTION BOX - BLUE BOX", "address": {"city": "MADISON", "state": "WI", "street": "201 E WASHINGTON AVE", "postcode": "53703"}}},
{"geometry": {"type": "Point", "coordinates": [-89.3819931502, 43.0731294161]}, "type": "Feature", "properties": {"collection_times": [{"days": "Mon-Fri", "time": "5:00pm"}, {"days": "Sat", "time": "11:00am"}, {"days": "Sun", "time": "Closed"}], "id": "5370300076", "name": "USPS COLLECTION BOX - PO LOBBY", "address": {"city": "MADISON", "state": "WI", "street": "215 MARTIN LUTHER KING JR BLVD", "postcode": "53703"}}},
{"geometry": {"type": "Point", "coordinates": [-89.3819931502, 43.0731294161]}, "type": "Feature", "properties": {"collection_times": [{"days": "Mon-Fri", "time": "5:00pm"}, {"days": "Sat", "time": "11:00am"}, {"days": "Sun", "time": "Closed"}], "id": "5370300077", "name": "USPS COLLECTION BOX - PO LOBBY", "address": {"city": "MADISON", "state": "WI", "street": "215 MARTIN LUTHER KING JR BLVD", "postcode": "53703"}}},
{"geometry": {"type": "Point", "coordinates": [-89.3945240935, 43.0674833648]}, "type": "Feature", "properties": {"collection_times": [{"days": "Mon-Fri", "time": "3:00pm"}, {"days": "Sat", "time": "1:00pm"}, {"days": "Sun", "time": "Closed"}], "id": "5370300087", "name": "USPS COLLECTION BOX - BLUE BOX", "address": {"city": "MADISON", "state": "WI", "street": "660 W WASHINGTON AVE", "postcode": "53703"}}},
{"geometry": {"type": "Point", "coordinates": [-89.3626871188, 43.0843973121]}, "type": "Feature", "properties": {"collection_times": [{"days": "Mon-Sat", "time": "1:00pm"}, {"days": "Sun", "time": "Closed"}], "id": "5370300089", "name": "USPS COLLECTION BOX - BLUE BOX", "address": {"city": "MADISON", "state": "WI", "street": "1255 WILLIAMSON ST", "postcode": "53703"}}},
{"geometry": {"type": "Point", "coordinates": [-89.3834788056, 43.0710286929]}, "type": "Feature", "properties": {"collection_times": [{"days": "Mon-Fri", "time": "3:00pm"}, {"days": "Sat", "time": "1:00pm"}, {"days": "Sun", "time": "Closed"}], "id": "5370300095", "name": "USPS COLLECTION BOX - BLUE BOX", "address": {"city": "MADISON", "state": "WI", "street": "131 W WILSON ST", "postcode": "53703"}}},
{"geometry": {"type": "Point", "coordinates": [-89.3786546989, 43.0744308828]}, "type": "Feature", "properties": {"collection_times": [{"days": "Mon-Fri", "time": "2:00pm"}, {"days": "Sat-Sun", "time": "Closed"}], "id": "5370300100", "name": "USPS COLLECTION BOX - BLUE BOX", "address": {"city": "MADISON", "state": "WI", "street": "149 E WILSON ST", "postcode": "53703"}}},
{"geometry": {"type": "Point", "coordinates": [-89.3818784137, 43.0771920772]}, "type": "Feature", "properties": {"collection_times": [{"days": "Mon-Fri", "time": "4:00pm"}, {"days": "Sat", "time": "5:00pm"}, {"days": "Sun", "time": "Closed"}], "id": "5370300103", "name": "USPS COLLECTION BOX - BLUE BOX", "address": {"city": "MADISON", "state": "WI", "street": "5 E WILSON ST", "postcode": "53703"}}},
{"geometry": {"type": "Point", "coordinates": [-89.3818784137, 43.0771920772]}, "type": "Feature", "properties": {"collection_times": [{"days": "Mon-Fri", "time": "4:00pm"}, {"days": "Sat", "time": "5:00pm"}, {"days": "Sun", "time": "Closed"}], "id": "5370300104", "name": "USPS COLLECTION BOX - BLUE BOX", "address": {"city": "MADISON", "state": "WI", "street": "5 E WILSON ST", "postcode": "53703"}}},
{"geometry": {"type": "Point", "coordinates": [-89.3818784137, 43.0771920772]}, "type": "Feature", "properties": {"collection_times": [{"days": "Mon-Fri", "time": "4:00pm"}, {"days": "Sat", "time": "5:00pm"}, {"days": "Sun", "time": "Closed"}], "id": "5370300105", "name": "USPS COLLECTION BOX - BLUE BOX", "address": {"city": "MADISON", "state": "WI", "street": "5 E WILSON ST", "postcode": "53703"}}},
{"geometry": {"type": "Point", "coordinates": [-89.3817871686, 43.0771225112]}, "type": "Feature", "properties": {"collection_times": [{"days": "Mon-Fri", "time": "4:00pm"}, {"days": "Sat", "time": "5:00pm"}, {"days": "Sun", "time": "Closed"}], "id": "5370300106", "name": "USPS COLLECTION BOX - BLUE BOX", "address": {"city": "MADISON", "state": "WI", "street": "10 W DOTY ST", "postcode": "53703"}}},
{"geometry": {"type": "Point", "coordinates": [-89.3817871686, 43.0771225112]}, "type": "Feature", "properties": {"collection_times": [{"days": "Mon-Fri", "time": "4:00pm"}, {"days": "Sat", "time": "5:00pm"}, {"days": "Sun", "time": "Closed"}], "id": "5370300108", "name": "USPS COLLECTION BOX - BLUE BOX", "address": {"city": "MADISON", "state": "WI", "street": "10 W DOTY ST", "postcode": "53703"}}},
{"geometry": {"type": "Point", "coordinates": [-89.3817871686, 43.0771225112]}, "type": "Feature", "properties": {"collection_times": [{"days": "Mon-Fri", "time": "4:00pm"}, {"days": "Sat", "time": "5:00pm"}, {"days": "Sun", "time": "Closed"}], "id": "5370300110", "name": "USPS COLLECTION BOX - BLUE BOX", "address": {"city": "MADISON", "state": "WI", "street": "10 W DOTY ST", "postcode": "53703"}}},
{"geometry": {"type": "Point", "coordinates": [-89.3817871686, 43.0771225112]}, "type": "Feature", "properties": {"collection_times": [{"days": "Mon-Fri", "time": "4:00pm"}, {"days": "Sat", "time": "5:00pm"}, {"days": "Sun", "time": "Closed"}], "id": "5370300111", "name": "USPS COLLECTION BOX - BLUE BOX", "address": {"city": "MADISON", "state": "WI", "street": "10 W DOTY ST", "postcode": "53703"}}},
{"geometry": {"type": "Point", "coordinates": [-89.3862362829, 43.079931642]}, "type": "Feature", "properties": {"collection_times": [{"days": "Mon-Fri", "time": "2:00pm"}, {"days": "Sat-Sun", "time": "Closed"}], "id": "5370300116", "name": "USPS COLLECTION BOX - BLUE BOX", "address": {"city": "MADISON", "state": "WI", "street": "150 E GILMAN ST", "postcode": "53703"}}},
{"geometry": {"type": "Point", "coordinates": [-89.39421889, 43.067508207]}, "type": "Feature", "properties": {"collection_times": [{"days": "Mon-Fri", "time": "3:00pm"}, {"days": "Sat-Sun", "time": "Closed"}], "id": "5370300117", "name": "USPS COLLECTION BOX - BLUE BOX", "address": {"city": "MADISON", "state": "WI", "street": "675 W WASHINGTON AVE", "postcode": "53703"}}},
{"geometry": {"type": "Point", "coordinates": [-89.39421889, 43.067508207]}, "type": "Feature", "properties": {"collection_times": [{"days": "Mon-Fri", "time": "3:00pm"}, {"days": "Sat-Sun", "time": "Closed"}], "id": "5370300118", "name": "USPS COLLECTION BOX - BLUE BOX", "address": {"city": "MADISON", "state": "WI", "street": "675 W WASHINGTON AVE", "postcode": "53703"}}},
{"geometry": {"type": "Point", "coordinates": [-89.3882491567, 43.0733942277]}, "type": "Feature", "properties": {"collection_times": [{"days": "Mon-Fri", "time": "3:00pm"}, {"days": "Sat", "time": "1:00pm"}, {"days": "Sun", "time": "Closed"}], "id": "5370300122", "name": "USPS COLLECTION BOX - BLUE BOX", "address": {"city": "MADISON", "state": "WI", "street": "301 W MIFFLIN ST", "postcode": "53703"}}},
{"geometry": {"type": "Point", "coordinates": [-89.3808188698, 43.0787359123]}, "type": "Feature", "properties": {"collection_times": [{"days": "Mon-Fri", "time": "2:00pm"}, {"days": "Sat-Sun", "time": "Closed"}], "id": "5370300123", "name": "USPS COLLECTION BOX - BLUE BOX", "address": {"city": "MADISON", "state": "WI", "street": "100 N FRANKLIN ST", "postcode": "53703"}}},
{"geometry": {"type": "Point", "coordinates": [-89.3821341891, 43.0730777096]}, "type": "Feature", "properties": {"collection_times": [{"days": "Mon-Fri", "time": "1:00pm"}, {"days": "Sat-Sun", "time": "Closed"}], "id": "5370300127", "name": "USPS COLLECTION BOX - BLUE BOX", "address": {"city": "MADISON", "state": "WI", "street": "210 MARTIN LUTHER KING JR BLVD", "postcode": "53703"}}},
{"geometry": {"type": "Point", "coordinates": [-89.3716381408, 43.088935027]}, "type": "Feature", "properties": {"collection_times": [{"days": "Mon-Sat", "time": "1:00pm"}, {"days": "Sun", "time": "Closed"}], "id": "5370300134", "name": "USPS COLLECTION BOX - BLUE BOX", "address": {"city": "MADISON", "state": "WI", "street": "1200 E GORHAM ST", "postcode": "53703"}}},
{"geometry": {"type": "Point", "coordinates": [-89.3945240935, 43.0674833648]}, "type": "Feature", "properties": {"collection_times": [{"days": "Mon-Fri", "time": "3:00pm"}, {"days": "Sat", "time": "1:00pm"}, {"days": "Sun", "time": "Closed"}], "id": "5370300136", "name": "USPS COLLECTION BOX - BLUE BOX", "address": {"city": "MADISON", "state": "WI", "street": "660 W WASHINGTON AVE", "postcode": "53703"}}},
{"geometry": {"type": "Point", "coordinates": [-89.3819931502, 43.0731294161]}, "type": "Feature", "properties": {"collection_times": [{"days": "Mon-Fri", "time": "5:00pm"}, {"days": "Sat", "time": "11:00am"}, {"days": "Sun", "time": "Closed"}], "id": "5370300137", "name": "USPS COLLECTION BOX - PO LOBBY", "address": {"city": "MADISON", "state": "WI", "street": "215 MARTIN LUTHER KING JR BLVD", "postcode": "53703"}}},
{"geometry": {"type": "Point", "coordinates": [-89.3770067435, 43.0799201648]}, "type": "Feature", "properties": {"collection_times": [{"days": "Mon-Fri", "time": "5:00pm"}, {"days": "Sat", "time": "1:00pm"}, {"days": "Sun", "time": "Closed"}], "id": "5370300138", "name": "USPS COLLECTION BOX - PO LOBBY", "address": {"city": "MADISON", "state": "WI", "street": "702 E WASHINGTON AVE", "postcode": "53703"}}},
{"geometry": {"type": "Point", "coordinates": [-89.3834788056, 43.0710286929]}, "type": "Feature", "properties": {"collection_times": [{"days": "Mon-Fri", "time": "3:00pm"}, {"days": "Sat", "time": "1:00pm"}, {"days": "Sun", "time": "Closed"}], "id": "5370300139", "name": "USPS COLLECTION BOX - BLUE BOX", "address": {"city": "MADISON", "state": "WI", "street": "131 W WILSON ST", "postcode": "53703"}}},
{"geometry": {"type": "Point", "coordinates": [-89.3866550504, 43.0729368057]}, "type": "Feature", "properties": {"collection_times": [{"days": "Mon-Fri", "time": "3:00pm"}, {"days": "Sat-Sun", "time": "Closed"}], "id": "5370300143", "name": "USPS COLLECTION BOX - BLUE BOX", "address": {"city": "MADISON", "state": "WI", "street": "2 S CARROLL ST", "postcode": "53703"}}},
{"geometry": {"type": "Point", "coordinates": [-89.3821279504, 43.0760395769]}, "type": "Feature", "properties": {"collection_times": [{"days": "Mon-Fri", "time": "3:00pm"}, {"days": "Sat-Sun", "time": "Closed"}], "id": "5370300152", "name": "USPS COLLECTION BOX - BLUE BOX", "address": {"city": "MADISON", "state": "WI", "street": "2 S WEBSTER ST", "postcode": "53703"}}},
{"geometry": {"type": "Point", "coordinates": [-89.3821279504, 43.0760395769]}, "type": "Feature", "properties": {"collection_times": [{"days": "Mon-Fri", "time": "3:00pm"}, {"days": "Sat-Sun", "time": "Closed"}], "id": "5370300153", "name": "USPS COLLECTION BOX - BLUE BOX", "address": {"city": "MADISON", "state": "WI", "street": "2 S WEBSTER ST", "postcode": "53703"}}},
{"geometry": {"type": "Point", "coordinates": [-89.370493184, 43.0826571626]}, "type": "Feature", "properties": {"collection_times": [{"days": "Mon-Sat", "time": "1:00pm"}, {"days": "Sun", "time": "Closed"}], "id": "5370300154", "name": "USPS COLLECTION BOX - BLUE BOX", "address": {"city": "MADISON", "state": "WI", "street": "100 S BREARLY ST", "postcode": "53703"}}},
{"geometry": {"type": "Point", "coordinates": [-89.3882491567, 43.0733942277]}, "type": "Feature", "properties": {"collection_times": [{"days": "Mon-Fri", "time": "3:00pm"}, {"days": "Sat", "time": "1:00pm"}, {"days": "Sun", "time": "Closed"}], "id": "5370300155", "name": "USPS COLLECTION BOX - BLUE BOX", "address": {"city": "MADISON", "state": "WI", "street": "301 W MIFFLIN ST", "postcode": "53703"}}},
{"geometry": {"type": "Point", "coordinates": [-89.3845836893, 43.0728149609]}, "type": "Feature", "properties": {"collection_times": [{"days": "Mon-Fri", "time": "3:00pm"}, {"days": "Sat", "time": "1:00pm"}, {"days": "Sun", "time": "Closed"}], "id": "5370300156", "name": "USPS COLLECTION BOX - BLUE BOX", "address": {"city": "MADISON", "state": "WI", "street": "110 E MAIN ST", "postcode": "53703"}}},
{"geometry": {"type": "Point", "coordinates": [-89.3770067435, 43.0799201648]}, "type": "Feature", "properties": {"collection_times": [{"days": "Mon-Fri", "time": "5:00pm"}, {"days": "Sat", "time": "1:00pm"}, {"days": "Sun", "time": "Closed"}], "id": "5370300157", "name": "USPS COLLECTION BOX - BLUE BOX", "address": {"city": "MADISON", "state": "WI", "street": "702 E WASHINGTON AVE", "postcode": "53703"}}},
{"geometry": {"type": "Point", "coordinates": [-89.3638014662, 43.1130592249]}, "type": "Feature", "properties": {"collection_times": [{"days": "Mon-Fri", "time": "4:00pm"}, {"days": "Sat", "time": "2:00pm"}, {"days": "Sun", "time": "Closed"}], "id": "5370400003", "name": "USPS COLLECTION BOX - BLUE BOX", "address": {"city": "MADISON", "state": "WI", "street": "1202 N SHERMAN AVE", "postcode": "53704"}}},
{"geometry": {"type": "Point", "coordinates": [-89.3638014662, 43.1130592249]}, "type": "Feature", "properties": {"collection_times": [{"days": "Mon-Fri", "time": "4:00pm"}, {"days": "Sat", "time": "2:00pm"}, {"days": "Sun", "time": "Closed"}], "id": "5370400005", "name": "USPS COLLECTION BOX - BLUE BOX", "address": {"city": "MADISON", "state": "WI", "street": "1202 N SHERMAN AVE", "postcode": "53704"}}},
{"geometry": {"type": "Point", "coordinates": [-89.3472846908, 43.1386649155]}, "type": "Feature", "properties": {"collection_times": [{"days": "Mon-Sat", "time": "1:00pm"}, {"days": "Sun", "time": "Closed"}], "id": "5370400008", "name": "USPS COLLECTION BOX - BLUE BOX", "address": {"city": "MADISON", "state": "WI", "street": "4000 INTERNATIONAL LN", "postcode": "53704"}}},
{"geometry": {"type": "Point", "coordinates": [-89.3303230381, 43.1217974596]}, "type": "Feature", "properties": {"collection_times": [{"days": "Mon-Fri", "time": "1:00pm"}, {"days": "Sat", "time": "12:00pm"}, {"days": "Sun", "time": "Closed"}], "id": "5370400011", "name": "USPS COLLECTION BOX - BLUE BOX", "address": {"city": "MADISON", "state": "WI", "street": "1701 WRIGHT ST", "postcode": "53704"}}},
{"geometry": {"type": "Point", "coordinates": [-89.3533179482, 43.0923461005]}, "type": "Feature", "properties": {"collection_times": [{"days": "Mon-Sat", "time": "1:00pm"}, {"days": "Sun", "time": "Closed"}], "id": "5370400014", "name": "USPS COLLECTION BOX - BLUE BOX", "address": {"city": "MADISON", "state": "WI", "street": "2059 ATWOOD AVE", "postcode": "53704"}}},
{"geometry": {"type": "Point", "coordinates": [-89.3515874149, 43.0902446783]}, "type": "Feature", "properties": {"collection_times": [{"days": "Mon-Sat", "time": "1:00pm"}, {"days": "Sun", "time": "Closed"}], "id": "5370400020", "name": "USPS COLLECTION BOX - BLUE BOX", "address": {"city": "MADISON", "state": "WI", "street": "2038 JENIFER ST", "postcode": "53704"}}},
{"geometry": {"type": "Point", "coordinates": [-89.3078349964, 43.1244204515]}, "type": "Feature", "properties": {"collection_times": [{"days": "Mon-Fri", "time": "3:00pm"}, {"days": "Sat", "time": "1:00pm"}, {"days": "Sun", "time": "Closed"}], "id": "5370400024", "name": "USPS COLLECTION BOX - BLUE BOX", "address": {"city": "MADISON", "state": "WI", "street": "1 EAST TOWNE MALL", "postcode": "53704"}}},
{"geometry": {"type": "Point", "coordinates": [-89.3078321287, 43.1269885667]}, "type": "Feature", "properties": {"collection_times": [{"days": "Mon-Fri", "time": "3:00pm"}, {"days": "Sat", "time": "1:00pm"}, {"days": "Sun", "time": "Closed"}], "id": "5370400026", "name": "USPS COLLECTION BOX - BLUE BOX", "address": {"city": "MADISON", "state": "WI", "street": "4402 E TOWNE", "postcode": "53704"}}},
{"geometry": {"type": "Point", "coordinates": [-89.3635633424, 43.0948757775]}, "type": "Feature", "properties": {"collection_times": [{"days": "Mon-Sat", "time": "1:00pm"}, {"days": "Sun", "time": "Closed"}], "id": "5370400028", "name": "USPS COLLECTION BOX - BLUE BOX", "address": {"city": "MADISON", "state": "WI", "street": "1722 FORDEM AVE", "postcode": "53704"}}},
{"geometry": {"type": "Point", "coordinates": [-89.3507818198, 43.1029118029]}, "type": "Feature", "properties": {"collection_times": [{"days": "Mon-Sat", "time": "1:00pm"}, {"days": "Sun", "time": "Closed"}], "id": "5370400037", "name": "USPS COLLECTION BOX - BLUE BOX", "address": {"city": "MADISON", "state": "WI", "street": "2565 E JOHNSON ST", "postcode": "53704"}}},
{"geometry": {"type": "Point", "coordinates": [-89.3704224875, 43.1338390821]}, "type": "Feature", "properties": {"collection_times": [{"days": "Mon-Sat", "time": "2:00pm"}, {"days": "Sun", "time": "Closed"}], "id": "5370400042", "name": "USPS COLLECTION BOX - BLUE BOX", "address": {"city": "MADISON", "state": "WI", "street": "1438 NORTHPORT DR", "postcode": "53704"}}},
{"geometry": {"type": "Point", "coordinates": [-89.3635234708, 43.1289227046]}, "type": "Feature", "properties": {"collection_times": [{"days": "Mon-Fri", "time": "3:00pm"}, {"days": "Sat", "time": "1:00pm"}, {"days": "Sun", "time": "Closed"}], "id": "5370400051", "name": "USPS COLLECTION BOX - BLUE BOX", "address": {"city": "MADISON", "state": "WI", "street": "2929 N SHERMAN AVE", "postcode": "53704"}}},
{"geometry": {"type": "Point", "coordinates": [-89.3510719467, 43.1255825948]}, "type": "Feature", "properties": {"collection_times": [{"days": "Mon-Fri", "time": "3:00pm"}, {"days": "Sat", "time": "1:00pm"}, {"days": "Sun", "time": "Closed"}], "id": "5370400059", "name": "USPS COLLECTION BOX - BLUE BOX", "address": {"city": "MADISON", "state": "WI", "street": "2423 AMERICAN LN", "postcode": "53704"}}},
{"geometry": {"type": "Point", "coordinates": [-89.3510719467, 43.1255825948]}, "type": "Feature", "properties": {"collection_times": [{"days": "Mon-Fri", "time": "3:00pm"}, {"days": "Sat", "time": "1:00pm"}, {"days": "Sun", "time": "Closed"}], "id": "5370400087", "name": "USPS COLLECTION BOX - BLUE BOX", "address": {"city": "MADISON", "state": "WI", "street": "2423 AMERICAN LN", "postcode": "53704"}}},
{"geometry": {"type": "Point", "coordinates": [-89.3449737666, 43.1027578921]}, "type": "Feature", "properties": {"collection_times": [{"days": "Mon-Sat", "time": "12:00pm"}, {"days": "Sun", "time": "Closed"}], "id": "5370400089", "name": "USPS COLLECTION BOX - BLUE BOX", "address": {"city": "MADISON", "state": "WI", "street": "2801 E WASHINGTON AVE", "postcode": "53704"}}},
{"geometry": {"type": "Point", "coordinates": [-89.308892243, 43.1309417404]}, "type": "Feature", "properties": {"collection_times": [{"days": "Mon-Sat", "time": "1:00pm"}, {"days": "Sun", "time": "Closed"}], "id": "5370400095", "name": "USPS COLLECTION BOX - BLUE BOX", "address": {"city": "MADISON", "state": "WI", "street": "2502 INDEPENDENCE LN", "postcode": "53704"}}},
{"geometry": {"type": "Point", "coordinates": [-89.3953613057, 43.1338116517]}, "type": "Feature", "properties": {"collection_times": [{"days": "Mon-Fri", "time": "3:00pm"}, {"days": "Sat-Sun", "time": "Closed"}], "id": "5370400096", "name": "USPS COLLECTION BOX - BLUE BOX", "address": {"city": "MADISON", "state": "WI", "street": "301 TROY DR", "postcode": "53704"}}},
{"geometry": {"type": "Point", "coordinates": [-89.4560403477, 43.0722875496]}, "type": "Feature", "properties": {"collection_times": [{"days": "Mon-Fri", "time": "5:00pm"}, {"days": "Sat", "time": "3:45pm"}, {"days": "Sun", "time": "Closed"}], "id": "5370500001", "name": "USPS COLLECTION BOX - BLUE BOX", "address": {"city": "MADISON", "state": "WI", "street": "600 SAWYER TER", "postcode": "53705"}}},
{"geometry": {"type": "Point", "coordinates": [-89.4560403477, 43.0722875496]}, "type": "Feature", "properties": {"collection_times": [{"days": "Mon-Fri", "time": "5:00pm"}, {"days": "Sat", "time": "3:45pm"}, {"days": "Sun", "time": "Closed"}], "id": "5370500002", "name": "USPS COLLECTION BOX - BLUE BOX", "address": {"city": "MADISON", "state": "WI", "street": "600 SAWYER TER", "postcode": "53705"}}},
{"geometry": {"type": "Point", "coordinates": [-89.4560403477, 43.0722875496]}, "type": "Feature", "properties": {"collection_times": [{"days": "Mon-Fri", "time": "5:00pm"}, {"days": "Sat", "time": "3:45pm"}, {"days": "Sun", "time": "Closed"}], "id": "5370500005", "name": "USPS COLLECTION BOX - BLUE BOX", "address": {"city": "MADISON", "state": "WI", "street": "600 SAWYER TER", "postcode": "53705"}}},
{"geometry": {"type": "Point", "coordinates": [-89.4560403477, 43.0722875496]}, "type": "Feature", "properties": {"collection_times": [{"days": "Mon-Fri", "time": "5:00pm"}, {"days": "Sat", "time": "3:45pm"}, {"days": "Sun", "time": "Closed"}], "id": "5370500006", "name": "USPS COLLECTION BOX - BLUE BOX", "address": {"city": "MADISON", "state": "WI", "street": "600 SAWYER TER", "postcode": "53705"}}},
{"geometry": {"type": "Point", "coordinates": [-89.4560403477, 43.0722875496]}, "type": "Feature", "properties": {"collection_times": [{"days": "Mon-Fri", "time": "5:00pm"}, {"days": "Sat", "time": "3:45pm"}, {"days": "Sun", "time": "Closed"}], "id": "5370500007", "name": "USPS COLLECTION BOX - BLUE BOX", "address": {"city": "MADISON", "state": "WI", "street": "600 SAWYER TER", "postcode": "53705"}}},
{"geometry": {"type": "Point", "coordinates": [-89.4560403477, 43.0722875496]}, "type": "Feature", "properties": {"collection_times": [{"days": "Mon-Fri", "time": "5:00pm"}, {"days": "Sat", "time": "3:45pm"}, {"days": "Sun", "time": "Closed"}], "id": "5370500008", "name": "USPS COLLECTION BOX - BLUE BOX", "address": {"city": "MADISON", "state": "WI", "street": "600 SAWYER TER", "postcode": "53705"}}},
{"geometry": {"type": "Point", "coordinates": [-89.4365416129, 43.0680003179]}, "type": "Feature", "properties": {"collection_times": [{"days": "Mon-Sat", "time": "1:00pm"}, {"days": "Sun", "time": "Closed"}], "id": "5370500019", "name": "USPS COLLECTION BOX - BLUE BOX", "address": {"city": "MADISON", "state": "WI", "street": "2801 REGENT ST", "postcode": "53705"}}},
{"geometry": {"type": "Point", "coordinates": [-89.428742904, 43.0732644226]}, "type": "Feature", "properties": {"collection_times": [{"days": "Mon-Fri", "time": "2:30pm"}, {"days": "Sat", "time": "1:00pm"}, {"days": "Sun", "time": "Closed"}], "id": "5370500021", "name": "USPS COLLECTION BOX - BLUE BOX", "address": {"city": "MADISON", "state": "WI", "street": "600 HIGHLAND AVE", "postcode": "53705"}}},
{"geometry": {"type": "Point", "coordinates": [-89.4511996575, 43.0497555418]}, "type": "Feature", "properties": {"collection_times": [{"days": "Mon-Fri", "time": "3:00pm"}, {"days": "Sat", "time": "1:00pm"}, {"days": "Sun", "time": "Closed"}], "id": "5370500024", "name": "USPS COLLECTION BOX - BLUE BOX", "address": {"city": "MADISON", "state": "WI", "street": "702 N MIDVALE BLVD", "postcode": "53705"}}},
{"geometry": {"type": "Point", "coordinates": [-89.4512375122, 43.0685657723]}, "type": "Feature", "properties": {"collection_times": [{"days": "Mon-Sat", "time": "1:00pm"}, {"days": "Sun", "time": "Closed"}], "id": "5370500033", "name": "USPS COLLECTION BOX - BLUE BOX", "address": {"city": "MADISON", "state": "WI", "street": "202 N MIDVALE BLVD", "postcode": "53705"}}},
{"geometry": {"type": "Point", "coordinates": [-89.4448351859, 43.0607814556]}, "type": "Feature", "properties": {"collection_times": [{"days": "Mon-Sat", "time": "1:00pm"}, {"days": "Sun", "time": "Closed"}], "id": "5370500036", "name": "USPS COLLECTION BOX - BLUE BOX", "address": {"city": "MADISON", "state": "WI", "street": "4120 MINERAL POINT RD", "postcode": "53705"}}},
{"geometry": {"type": "Point", "coordinates": [-89.472069197, 43.0742725234]}, "type": "Feature", "properties": {"collection_times": [{"days": "Mon-Sat", "time": "1:00pm"}, {"days": "Sun", "time": "Closed"}], "id": "5370500038", "name": "USPS COLLECTION BOX - BLUE BOX", "address": {"city": "MADISON", "state": "WI", "street": "5372 OLD MIDDLETON RD", "postcode": "53705"}}},
{"geometry": {"type": "Point", "coordinates": [-89.4616472704, 43.0696555064]}, "type": "Feature", "properties": {"collection_times": [{"days": "Mon-Sat", "time": "1:00pm"}, {"days": "Sun", "time": "Closed"}], "id": "5370500042", "name": "USPS COLLECTION BOX - BLUE BOX", "address": {"city": "MADISON", "state": "WI", "street": "4914 REGENT ST", "postcode": "53705"}}},
{"geometry": {"type": "Point", "coordinates": [-89.4318418417, 43.0747920708]}, "type": "Feature", "properties": {"collection_times": [{"days": "Mon-Fri", "time": "3:00pm"}, {"days": "Sat", "time": "1:00pm"}, {"days": "Sun", "time": "Closed"}], "id": "5370500051", "name": "USPS COLLECTION BOX - BLUE BOX", "address": {"city": "MADISON", "state": "WI", "street": "2500 OVERLOOK TER", "postcode": "53705"}}},
{"geometry": {"type": "Point", "coordinates": [-89.455565959, 43.0725180382]}, "type": "Feature", "properties": {"collection_times": [{"days": "Mon-Fri", "time": "5:00pm"}, {"days": "Sat", "time": "3:30pm"}, {"days": "Sun", "time": "Closed"}], "id": "5370500064", "name": "USPS COLLECTION BOX - BLUE BOX", "address": {"city": "MADISON", "state": "WI", "street": "601 SAWYER TER", "postcode": "53705"}}},
{"geometry": {"type": "Point", "coordinates": [-89.4753024464, 43.0823496102]}, "type": "Feature", "properties": {"collection_times": [{"days": "Mon-Fri", "time": "3:00pm"}, {"days": "Sat", "time": "1:00pm"}, {"days": "Sun", "time": "Closed"}], "id": "5370500077", "name": "USPS COLLECTION BOX - BLUE BOX", "address": {"city": "MADISON", "state": "WI", "street": "5445 UNIVERSITY AVE", "postcode": "53705"}}},
{"geometry": {"type": "Point", "coordinates": [-89.455565959, 43.0725180382]}, "type": "Feature", "properties": {"collection_times": [{"days": "Mon-Fri", "time": "5:00pm"}, {"days": "Sat", "time": "3:30pm"}, {"days": "Sun", "time": "Closed"}], "id": "5370500080", "name": "USPS COLLECTION BOX - APC", "address": {"city": "MADISON", "state": "WI", "street": "601 SAWYER TER", "postcode": "53705"}}},
{"geometry": {"type": "Point", "coordinates": [-89.436106284, 43.0749549337]}, "type": "Feature", "properties": {"collection_times": [{"days": "Mon-Fri", "time": "3:00pm"}, {"days": "Sat", "time": "12:00pm"}, {"days": "Sun", "time": "Closed"}], "id": "5370500083", "name": "USPS COLLECTION BOX - BLUE BOX", "address": {"city": "MADISON", "state": "WI", "street": "2716 MARSHALL CT", "postcode": "53705"}}},
{"geometry": {"type": "Point", "coordinates": [-89.4588807821, 43.0711835694]}, "type": "Feature", "properties": {"collection_times": [{"days": "Mon-Fri", "time": "3:00pm"}, {"days": "Sat", "time": "1:00pm"}, {"days": "Sun", "time": "Closed"}], "id": "5370500084", "name": "USPS COLLECTION BOX - BLUE BOX", "address": {"city": "MADISON", "state": "WI", "street": "800 JOYCE ERDMAN PL", "postcode": "53705"}}},
{"geometry": {"type": "Point", "coordinates": [-89.4588807821, 43.0711835694]}, "type": "Feature", "properties": {"collection_times": [{"days": "Mon-Fri", "time": "3:00pm"}, {"days": "Sat", "time": "1:00pm"}, {"days": "Sun", "time": "Closed"}], "id": "5370500085", "name": "USPS COLLECTION BOX - BLUE BOX", "address": {"city": "MADISON", "state": "WI", "street": "800 JOYCE ERDMAN PL", "postcode": "53705"}}},
{"geometry": {"type": "Point", "coordinates": [-89.4388232679, 43.0861316613]}, "type": "Feature", "properties": {"collection_times": [{"days": "Mon-Sat", "time": "1:00pm"}, {"days": "Sun", "time": "Closed"}], "id": "5370500086", "name": "USPS COLLECTION BOX - BLUE BOX", "address": {"city": "MADISON", "state": "WI", "street": "611 EAGLE HTS", "postcode": "53705"}}},
{"geometry": {"type": "Point", "coordinates": [-89.4117519092, 43.0775378075]}, "type": "Feature", "properties": {"collection_times": [{"days": "Mon-Fri", "time": "2:00pm"}, {"days": "Sat", "time": "1:00pm"}, {"days": "Sun", "time": "Closed"}], "id": "5370600000", "name": "USPS COLLECTION BOX - BLUE BOX", "address": {"city": "MADISON", "state": "WI", "street": "1510 TRIPP CIR", "postcode": "53706"}}},
{"geometry": {"type": "Point", "coordinates": [-89.4061356187, 43.0750363508]}, "type": "Feature", "properties": {"collection_times": [{"days": "Mon-Fri", "time": "2:00pm"}, {"days": "Sat", "time": "1:00pm"}, {"days": "Sun", "time": "Closed"}], "id": "5370600001", "name": "USPS COLLECTION BOX - BLUE BOX", "address": {"city": "MADISON", "state": "WI", "street": "475 N CHARTER ST", "postcode": "53706"}}},
{"geometry": {"type": "Point", "coordinates": [-89.4033588827, 43.0758748527]}, "type": "Feature", "properties": {"collection_times": [{"days": "Mon-Fri", "time": "2:00pm"}, {"days": "Sat", "time": "1:00pm"}, {"days": "Sun", "time": "Closed"}], "id": "5370600004", "name": "USPS COLLECTION BOX - BLUE BOX", "address": {"city": "MADISON", "state": "WI", "street": "1065 OBSERVATORY DR", "postcode": "53706"}}},
{"geometry": {"type": "Point", "coordinates": [-89.4059738111, 43.0761931002]}, "type": "Feature", "properties": {"collection_times": [{"days": "Mon-Fri", "time": "2:00pm"}, {"days": "Sat", "time": "1:00pm"}, {"days": "Sun", "time": "Closed"}], "id": "5370600006", "name": "USPS COLLECTION BOX - BLUE BOX", "address": {"city": "MADISON", "state": "WI", "street": "1200 OBSERVATORY DR", "postcode": "53706"}}},
{"geometry": {"type": "Point", "coordinates": [-89.4135164151, 43.0750925711]}, "type": "Feature", "properties": {"collection_times": [{"days": "Mon-Fri", "time": "2:00pm"}, {"days": "Sat", "time": "1:00pm"}, {"days": "Sun", "time": "Closed"}], "id": "5370600007", "name": "USPS COLLECTION BOX - BLUE BOX", "address": {"city": "MADISON", "state": "WI", "street": "1645 LINDEN DR", "postcode": "53706"}}},
{"geometry": {"type": "Point", "coordinates": [-89.4006873097, 43.0608292207]}, "type": "Feature", "properties": {"collection_times": [{"days": "Mon-Fri", "time": "2:00pm"}, {"days": "Sat", "time": "1:00pm"}, {"days": "Sun", "time": "Closed"}], "id": "5370600014", "name": "USPS COLLECTION BOX - BLUE BOX", "address": {"city": "MADISON", "state": "WI", "street": "800 LANGDON ST", "postcode": "53706"}}},
{"geometry": {"type": "Point", "coordinates": [-89.4073645025, 43.0734016946]}, "type": "Feature", "properties": {"collection_times": [{"days": "Mon-Fri", "time": "2:00pm"}, {"days": "Sat-Sun", "time": "Closed"}], "id": "5370600017", "name": "USPS COLLECTION BOX - BLUE BOX", "address": {"city": "MADISON", "state": "WI", "street": "1300 UNIVERSITY AVE", "postcode": "53706"}}},
{"geometry": {"type": "Point", "coordinates": [-89.4008683024, 43.0627538949]}, "type": "Feature", "properties": {"collection_times": [{"days": "Mon-Fri", "time": "2:00pm"}, {"days": "Sat", "time": "1:00pm"}, {"days": "Sun", "time": "Closed"}], "id": "5370600019", "name": "USPS COLLECTION BOX - BLUE BOX", "address": {"city": "MADISON", "state": "WI", "street": "420 N PARK ST", "postcode": "53706"}}},
{"geometry": {"type": "Point", "coordinates": [-89.4961875869, 43.048710989]}, "type": "Feature", "properties": {"collection_times": [{"days": "Mon-Fri", "time": "5:00pm"}, {"days": "Sat", "time": "4:30pm"}, {"days": "Sun", "time": "Closed"}], "id": "5371100001", "name": "USPS COLLECTION BOX - BLUE BOX", "address": {"city": "FITCHBURG", "state": "WI", "street": "733 STRUCK ST", "postcode": "53711"}}},
{"geometry": {"type": "Point", "coordinates": [-89.4961875869, 43.048710989]}, "type": "Feature", "properties": {"collection_times": [{"days": "Mon-Fri", "time": "5:00pm"}, {"days": "Sat", "time": "4:30pm"}, {"days": "Sun", "time": "Closed"}], "id": "5371100002", "name": "USPS COLLECTION BOX - BLUE BOX", "address": {"city": "FITCHBURG", "state": "WI", "street": "733 STRUCK ST", "postcode": "53711"}}},
{"geometry": {"type": "Point", "coordinates": [-89.4961875869, 43.048710989]}, "type": "Feature", "properties": {"collection_times": [{"days": "Mon-Fri", "time": "5:00pm"}, {"days": "Sat", "time": "4:30pm"}, {"days": "Sun", "time": "Closed"}], "id": "5371100003", "name": "USPS COLLECTION BOX - BLUE BOX", "address": {"city": "FITCHBURG", "state": "WI", "street": "733 STRUCK ST", "postcode": "53711"}}},
{"geometry": {"type": "Point", "coordinates": [-89.4961875869, 43.048710989]}, "type": "Feature", "properties": {"collection_times": [{"days": "Mon-Fri", "time": "5:00pm"}, {"days": "Sat", "time": "4:30pm"}, {"days": "Sun", "time": "Closed"}], "id": "5371100004", "name": "USPS COLLECTION BOX - BLUE BOX", "address": {"city": "FITCHBURG", "state": "WI", "street": "733 STRUCK ST", "postcode": "53711"}}},
{"geometry": {"type": "Point", "coordinates": [-89.4171403168, 43.0648089141]}, "type": "Feature", "properties": {"collection_times": [{"days": "Mon-Fri", "time": "2:00pm"}, {"days": "Sat", "time": "1:00pm"}, {"days": "Sun", "time": "Closed"}], "id": "5371100007", "name": "USPS COLLECTION BOX - BLUE BOX", "address": {"city": "FITCHBURG", "state": "WI", "street": "1875 MONROE ST", "postcode": "53711"}}},
{"geometry": {"type": "Point", "coordinates": [-89.4354473925, 43.0528712121]}, "type": "Feature", "properties": {"collection_times": [{"days": "Mon-Fri", "time": "3:00pm"}, {"days": "Sat", "time": "1:00pm"}, {"days": "Sun", "time": "Closed"}], "id": "5371100009", "name": "USPS COLLECTION BOX - BLUE BOX", "address": {"city": "FITCHBURG", "state": "WI", "street": "3506 MONROE ST", "postcode": "53711"}}},
{"geometry": {"type": "Point", "coordinates": [-89.4553467023, 43.0390882806]}, "type": "Feature", "properties": {"collection_times": [{"days": "Mon-Sat", "time": "1:00pm"}, {"days": "Sun", "time": "Closed"}], "id": "5371100016", "name": "USPS COLLECTION BOX - BLUE BOX", "address": {"city": "FITCHBURG", "state": "WI", "street": "4604 HAMMERSLEY RD", "postcode": "53711"}}},
{"geometry": {"type": "Point", "coordinates": [-89.4587805179, 43.053711391]}, "type": "Feature", "properties": {"collection_times": [{"days": "Mon-Sat", "time": "1:00pm"}, {"days": "Sun", "time": "Closed"}], "id": "5371100017", "name": "USPS COLLECTION BOX - BLUE BOX", "address": {"city": "FITCHBURG", "state": "WI", "street": "4802 TOKAY BLVD", "postcode": "53711"}}},
{"geometry": {"type": "Point", "coordinates": [-89.4510458728, 43.0455039873]}, "type": "Feature", "properties": {"collection_times": [{"days": "Mon-Sat", "time": "1:00pm"}, {"days": "Sun", "time": "Closed"}], "id": "5371100023", "name": "USPS COLLECTION BOX - BLUE BOX", "address": {"city": "FITCHBURG", "state": "WI", "street": "901 S MIDVALE BLVD", "postcode": "53711"}}},
{"geometry": {"type": "Point", "coordinates": [-89.4126711703, 43.0015125347]}, "type": "Feature", "properties": {"collection_times": [{"days": "Mon-Fri", "time": "3:00pm"}, {"days": "Sat", "time": "1:00pm"}, {"days": "Sun", "time": "Closed"}], "id": "5371100035", "name": "USPS COLLECTION BOX - BLUE BOX", "address": {"city": "FITCHBURG", "state": "WI", "street": "6706 RAYMOND RD", "postcode": "53711"}}},
{"geometry": {"type": "Point", "coordinates": [-89.4682650235, 43.058283493]}, "type": "Feature", "properties": {"collection_times": [{"days": "Mon-Fri", "time": "2:00pm"}, {"days": "Sat", "time": "12:00pm"}, {"days": "Sun", "time": "Closed"}], "id": "5371100037", "name": "USPS COLLECTION BOX - BLUE BOX", "address": {"city": "FITCHBURG", "state": "WI", "street": "455 SCIENCE DR", "postcode": "53711"}}},
{"geometry": {"type": "Point", "coordinates": [-89.4555312508, 43.0336009717]}, "type": "Feature", "properties": {"collection_times": [{"days": "Mon-Fri", "time": "3:00pm"}, {"days": "Sat", "time": "1:00pm"}, {"days": "Sun", "time": "Closed"}], "id": "5371100042", "name": "USPS COLLECTION BOX - BLUE BOX", "address": {"city": "FITCHBURG", "state": "WI", "street": "4641 VERONA RD", "postcode": "53711"}}},
{"geometry": {"type": "Point", "coordinates": [-89.4728332606, 43.0516814864]}, "type": "Feature", "properties": {"collection_times": [{"days": "Mon-Fri", "time": "2:00pm"}, {"days": "Sat", "time": "12:00pm"}, {"days": "Sun", "time": "Closed"}], "id": "5371100044", "name": "USPS COLLECTION BOX - BLUE BOX", "address": {"city": "FITCHBURG", "state": "WI", "street": "418 WESTGATE MALL", "postcode": "53711"}}},
{"geometry": {"type": "Point", "coordinates": [-89.4735753263, 43.0528288692]}, "type": "Feature", "properties": {"collection_times": [{"days": "Mon-Fri", "time": "2:00pm"}, {"days": "Sat", "time": "12:00pm"}, {"days": "Sun", "time": "Closed"}], "id": "5371100047", "name": "USPS COLLECTION BOX - BLUE BOX", "address": {"city": "FITCHBURG", "state": "WI", "street": "620 S WHITNEY WAY", "postcode": "53711"}}},
{"geometry": {"type": "Point", "coordinates": [-89.4107918728, 43.0690632841]}, "type": "Feature", "properties": {"collection_times": [{"days": "Mon-Fri", "time": "1:00pm"}, {"days": "Sat-Sun", "time": "Closed"}], "id": "5371100049", "name": "USPS COLLECTION BOX - BLUE BOX", "address": {"city": "FITCHBURG", "state": "WI", "street": "1433 MONROE ST", "postcode": "53711"}}},
{"geometry": {"type": "Point", "coordinates": [-89.4269168399, 43.0139299011]}, "type": "Feature", "properties": {"collection_times": [{"days": "Mon-Fri", "time": "12:30pm"}, {"days": "Sat", "time": "12:00pm"}, {"days": "Sun", "time": "Closed"}], "id": "5371100054", "name": "USPS COLLECTION BOX - BLUE BOX", "address": {"city": "FITCHBURG", "state": "WI", "street": "2937 S FISH HATCHERY RD", "postcode": "53711"}}},
{"geometry": {"type": "Point", "coordinates": [-89.471708617, 43.0559033795]}, "type": "Feature", "properties": {"collection_times": [{"days": "Mon-Fri", "time": "2:00pm"}, {"days": "Sat", "time": "12:00pm"}, {"days": "Sun", "time": "Closed"}], "id": "5371100058", "name": "USPS COLLECTION BOX - BLUE BOX", "address": {"city": "FITCHBURG", "state": "WI", "street": "644 SCIENCE DR", "postcode": "53711"}}},
{"geometry": {"type": "Point", "coordinates": [-89.4543989496, 43.0141716215]}, "type": "Feature", "properties": {"collection_times": [{"days": "Mon-Fri", "time": "1:00pm"}, {"days": "Sat", "time": "12:00pm"}, {"days": "Sun", "time": "Closed"}], "id": "5371100061", "name": "USPS COLLECTION BOX - BLUE BOX", "address": {"city": "FITCHBURG", "state": "WI", "street": "5950 SEMINOLE CENTRE CT", "postcode": "53711"}}},
{"geometry": {"type": "Point", "coordinates": [-89.4961875869, 43.048710989]}, "type": "Feature", "properties": {"collection_times": [{"days": "Mon-Fri", "time": "6:00pm"}, {"days": "Sat", "time": "4:30pm"}, {"days": "Sun", "time": "Closed"}], "id": "5371100064", "name": "USPS COLLECTION BOX - PO LOBBY", "address": {"city": "FITCHBURG", "state": "WI", "street": "733 STRUCK ST", "postcode": "53711"}}},
{"geometry": {"type": "Point", "coordinates": [-89.4543989496, 43.0141716215]}, "type": "Feature", "properties": {"collection_times": [{"days": "Mon-Fri", "time": "1:00pm"}, {"days": "Sat", "time": "12:00pm"}, {"days": "Sun", "time": "Closed"}], "id": "5371100068", "name": "USPS COLLECTION BOX - BLUE BOX", "address": {"city": "FITCHBURG", "state": "WI", "street": "5950 SEMINOLE CENTRE CT", "postcode": "53711"}}},
{"geometry": {"type": "Point", "coordinates": [-89.4774549123, 43.0320069239]}, "type": "Feature", "properties": {"collection_times": [{"days": "Mon-Fri", "time": "3:00pm"}, {"days": "Sat", "time": "1:00pm"}, {"days": "Sun", "time": "Closed"}], "id": "5371100069", "name": "USPS COLLECTION BOX - BLUE BOX", "address": {"city": "FITCHBURG", "state": "WI", "street": "5718 RAYMOND RD", "postcode": "53711"}}},
{"geometry": {"type": "Point", "coordinates": [-89.4091568915, 43.0677982315]}, "type": "Feature", "properties": {"collection_times": [{"days": "Mon-Fri", "time": "1:00pm"}, {"days": "Sat", "time": "12:00pm"}, {"days": "Sun", "time": "Closed"}], "id": "5371100070", "name": "USPS COLLECTION BOX - BLUE BOX", "address": {"city": "FITCHBURG", "state": "WI", "street": "1400 REGENT ST", "postcode": "53711"}}},
{"geometry": {"type": "Point", "coordinates": [-89.4228050934, 43.0185786583]}, "type": "Feature", "properties": {"collection_times": [{"days": "Mon-Fri", "time": "3:30pm"}, {"days": "Sat", "time": "2:30pm"}, {"days": "Sun", "time": "Closed"}], "id": "5371100072", "name": "USPS COLLECTION BOX - BLUE BOX", "address": {"city": "FITCHBURG", "state": "WI", "street": "3000 CAHILL MAIN", "postcode": "53711"}}},
{"geometry": {"type": "Point", "coordinates": [-89.4269168399, 43.0139299011]}, "type": "Feature", "properties": {"collection_times": [{"days": "Mon-Fri", "time": "12:30pm"}, {"days": "Sat", "time": "12:00pm"}, {"days": "Sun", "time": "Closed"}], "id": "5371100076", "name": "USPS COLLECTION BOX - BLUE BOX", "address": {"city": "FITCHBURG", "state": "WI", "street": "2937 S FISH HATCHERY RD", "postcode": "53711"}}},
{"geometry": {"type": "Point", "coordinates": [-89.4961875869, 43.048710989]}, "type": "Feature", "properties": {"collection_times": [{"days": "Mon-Fri", "time": "6:00pm"}, {"days": "Sat", "time": "4:30pm"}, {"days": "Sun", "time": "Closed"}], "id": "5371100077", "name": "USPS COLLECTION BOX - APC", "address": {"city": "FITCHBURG", "state": "WI", "street": "733 STRUCK ST", "postcode": "53711"}}},
{"geometry": {"type": "Point", "coordinates": [-89.4228050934, 43.0185786583]}, "type": "Feature", "properties": {"collection_times": [{"days": "Mon-Fri", "time": "3:30pm"}, {"days": "Sat", "time": "2:30pm"}, {"days": "Sun", "time": "Closed"}], "id": "5371100078", "name": "USPS COLLECTION BOX - BLUE BOX", "address": {"city": "FITCHBURG", "state": "WI", "street": "3000 CAHILL MAIN", "postcode": "53711"}}},
{"geometry": {"type": "Point", "coordinates": [-89.3372712455, 43.0473210122]}, "type": "Feature", "properties": {"collection_times": [{"days": "Mon-Fri", "time": "3:00pm"}, {"days": "Sat", "time": "12:00pm"}, {"days": "Sun", "time": "Closed"}], "id": "5371300004", "name": "USPS COLLECTION BOX - BLUE BOX", "address": {"city": "MONONA", "state": "WI", "street": "802 W BROADWAY", "postcode": "53713"}}},
{"geometry": {"type": "Point", "coordinates": [-89.4113436142, 43.035237873]}, "type": "Feature", "properties": {"collection_times": [{"days": "Mon-Fri", "time": "1:00pm"}, {"days": "Sat", "time": "12:00pm"}, {"days": "Sun", "time": "Closed"}], "id": "5371300005", "name": "USPS COLLECTION BOX - BLUE BOX", "address": {"city": "MONONA", "state": "WI", "street": "1806 W BELTLINE HWY", "postcode": "53713"}}},
{"geometry": {"type": "Point", "coordinates": [-89.3517967559, 43.0468372308]}, "type": "Feature", "properties": {"collection_times": [{"days": "Mon-Fri", "time": "3:00pm"}, {"days": "Sat", "time": "12:00pm"}, {"days": "Sun", "time": "Closed"}], "id": "5371300013", "name": "USPS COLLECTION BOX - BLUE BOX", "address": {"city": "MONONA", "state": "WI", "street": "2301 W BROADWAY", "postcode": "53713"}}},
{"geometry": {"type": "Point", "coordinates": [-89.4112120956, 43.0310860834]}, "type": "Feature", "properties": {"collection_times": [{"days": "Mon-Fri", "time": "1:00pm"}, {"days": "Sat", "time": "12:00pm"}, {"days": "Sun", "time": "Closed"}], "id": "5371300017", "name": "USPS COLLECTION BOX - BLUE BOX", "address": {"city": "MONONA", "state": "WI", "street": "1802 GREENWAY CROSS", "postcode": "53713"}}},
{"geometry": {"type": "Point", "coordinates": [-89.4118012418, 43.0279328258]}, "type": "Feature", "properties": {"collection_times": [{"days": "Mon-Fri", "time": "3:00pm"}, {"days": "Sat", "time": "12:00pm"}, {"days": "Sun", "time": "Closed"}], "id": "5371300018", "name": "USPS COLLECTION BOX - BLUE BOX", "address": {"city": "MONONA", "state": "WI", "street": "2934 FISH HATCHERY RD", "postcode": "53713"}}},
{"geometry": {"type": "Point", "coordinates": [-89.3579855141, 43.0315644794]}, "type": "Feature", "properties": {"collection_times": [{"days": "Mon-Fri", "time": "1:00pm"}, {"days": "Sat", "time": "12:00pm"}, {"days": "Sun", "time": "Closed"}], "id": "5371300023", "name": "USPS COLLECTION BOX - BLUE BOX", "address": {"city": "MONONA", "state": "WI", "street": "9 MANOR DR", "postcode": "53713"}}},
{"geometry": {"type": "Point", "coordinates": [-89.3727544754, 43.0463644839]}, "type": "Feature", "properties": {"collection_times": [{"days": "Mon-Fri", "time": "3:00pm"}, {"days": "Sat-Sun", "time": "Closed"}], "id": "5371300026", "name": "USPS COLLECTION BOX - BLUE BOX", "address": {"city": "MONONA", "state": "WI", "street": "722 JOHN NOLEN DR", "postcode": "53713"}}},
{"geometry": {"type": "Point", "coordinates": [-89.3567908778, 43.0421356617]}, "type": "Feature", "properties": {"collection_times": [{"days": "Mon-Fri", "time": "3:00pm"}, {"days": "Sat", "time": "12:00pm"}, {"days": "Sun", "time": "Closed"}], "id": "5371300027", "name": "USPS COLLECTION BOX - BLUE BOX", "address": {"city": "MONONA", "state": "WI", "street": "6901 MANGROVE LN", "postcode": "53713"}}},
{"geometry": {"type": "Point", "coordinates": [-89.3831069978, 43.0529273882]}, "type": "Feature", "properties": {"collection_times": [{"days": "Mon-Fri", "time": "3:00pm"}, {"days": "Sat-Sun", "time": "Closed"}], "id": "5371300029", "name": "USPS COLLECTION BOX - BLUE BOX", "address": {"city": "MONONA", "state": "WI", "street": "128 E OLIN AVE", "postcode": "53713"}}},
{"geometry": {"type": "Point", "coordinates": [-89.3939054059, 43.0419858673]}, "type": "Feature", "properties": {"collection_times": [{"days": "Mon-Fri", "time": "1:00pm"}, {"days": "Sat", "time": "12:00pm"}, {"days": "Sun", "time": "Closed"}], "id": "5371300030", "name": "USPS COLLECTION BOX - BLUE BOX", "address": {"city": "MONONA", "state": "WI", "street": "2121 S PARK ST", "postcode": "53713"}}},
{"geometry": {"type": "Point", "coordinates": [-89.4061632267, 43.0322300047]}, "type": "Feature", "properties": {"collection_times": [{"days": "Mon-Fri", "time": "3:00pm"}, {"days": "Sat-Sun", "time": "Closed"}], "id": "5371300051", "name": "USPS COLLECTION BOX - BLUE BOX", "address": {"city": "MONONA", "state": "WI", "street": "1334 APPLEGATE RD", "postcode": "53713"}}},
{"geometry": {"type": "Point", "coordinates": [-89.4162668792, 43.0346420581]}, "type": "Feature", "properties": {"collection_times": [{"days": "Mon-Fri", "time": "3:00pm"}, {"days": "Sat", "time": "12:00pm"}, {"days": "Sun", "time": "Closed"}], "id": "5371300054", "name": "USPS COLLECTION BOX - BLUE BOX", "address": {"city": "MONONA", "state": "WI", "street": "2101 W BELTLINE HWY", "postcode": "53713"}}},
{"geometry": {"type": "Point", "coordinates": [-89.3482223997, 43.0457586444]}, "type": "Feature", "properties": {"collection_times": [{"days": "Mon-Fri", "time": "3:00pm"}, {"days": "Sat-Sun", "time": "Closed"}], "id": "5371300055", "name": "USPS COLLECTION BOX - BLUE BOX", "address": {"city": "MONONA", "state": "WI", "street": "6000 GISHOLT DR", "postcode": "53713"}}},
{"geometry": {"type": "Point", "coordinates": [-89.3093315141, 43.088281026]}, "type": "Feature", "properties": {"collection_times": [{"days": "Mon-Sat", "time": "1:00pm"}, {"days": "Sun", "time": "Closed"}], "id": "5371400005", "name": "USPS COLLECTION BOX - BLUE BOX", "address": {"city": "MADISON", "state": "WI", "street": "4229 ARGOSY CT", "postcode": "53714"}}},
{"geometry": {"type": "Point", "coordinates": [-89.3131056667, 43.0989735438]}, "type": "Feature", "properties": {"collection_times": [{"days": "Mon-Sat", "time": "1:00pm"}, {"days": "Sun", "time": "Closed"}], "id": "5371400011", "name": "USPS COLLECTION BOX - BLUE BOX", "address": {"city": "MADISON", "state": "WI", "street": "4112 MILWAUKEE ST", "postcode": "53714"}}},
{"geometry": {"type": "Point", "coordinates": [-89.3122287406, 43.1095061698]}, "type": "Feature", "properties": {"collection_times": [{"days": "Mon-Sat", "time": "11:00am"}, {"days": "Sun", "time": "Closed"}], "id": "5371400012", "name": "USPS COLLECTION BOX - BLUE BOX", "address": {"city": "MADISON", "state": "WI", "street": "4198 NAKOOSA TRL", "postcode": "53714"}}},
{"geometry": {"type": "Point", "coordinates": [-89.3182031299, 43.1020529747]}, "type": "Feature", "properties": {"collection_times": [{"days": "Mon-Sat", "time": "8:00pm"}, {"days": "Sun", "time": "Closed"}], "id": "5371400017", "name": "USPS COLLECTION BOX - BLUE BOX", "address": {"city": "MADISON", "state": "WI", "street": "205 CORPORATE DR", "postcode": "53714"}}},
{"geometry": {"type": "Point", "coordinates": [-89.3182031299, 43.1020529747]}, "type": "Feature", "properties": {"collection_times": [{"days": "Mon-Sat", "time": "8:00pm"}, {"days": "Sun", "time": "Closed"}], "id": "5371400019", "name": "USPS COLLECTION BOX - BLUE BOX", "address": {"city": "MADISON", "state": "WI", "street": "205 CORPORATE DR", "postcode": "53714"}}},
{"geometry": {"type": "Point", "coordinates": [-89.3182031299, 43.1020529747]}, "type": "Feature", "properties": {"collection_times": [{"days": "Mon-Sat", "time": "8:00pm"}, {"days": "Sun", "time": "Closed"}], "id": "5371400020", "name": "USPS COLLECTION BOX - BLUE BOX", "address": {"city": "MADISON", "state": "WI", "street": "205 CORPORATE DR", "postcode": "53714"}}},
{"geometry": {"type": "Point", "coordinates": [-89.315971606, 43.0984460584]}, "type": "Feature", "properties": {"collection_times": [{"days": "Mon-Sat", "time": "8:00pm"}, {"days": "Sun", "time": "Closed"}], "id": "5371400028", "name": "USPS COLLECTION BOX - PO LOBBY", "address": {"city": "MADISON", "state": "WI", "street": "3902 MILWAUKEE ST", "postcode": "53714"}}},
{"geometry": {"type": "Point", "coordinates": [-89.315971606, 43.0984460584]}, "type": "Feature", "properties": {"collection_times": [{"days": "Mon-Sat", "time": "8:00pm"}, {"days": "Sun", "time": "Closed"}], "id": "5371400029", "name": "USPS COLLECTION BOX - PO LOBBY", "address": {"city": "MADISON", "state": "WI", "street": "3902 MILWAUKEE ST", "postcode": "53714"}}},
{"geometry": {"type": "Point", "coordinates": [-89.3182031299, 43.1020529747]}, "type": "Feature", "properties": {"collection_times": [{"days": "Mon-Fri", "time": "4:00pm"}, {"days": "Sat", "time": "2:00pm"}, {"days": "Sun", "time": "Closed"}], "id": "5371400031", "name": "USPS COLLECTION BOX - PO LOBBY", "address": {"city": "MADISON", "state": "WI", "street": "205 CORPORATE DR", "postcode": "53714"}}},
{"geometry": {"type": "Point", "coordinates": [-89.315971606, 43.0984460584]}, "type": "Feature", "properties": {"collection_times": [{"days": "Mon-Sat", "time": "8:00pm"}, {"days": "Sun", "time": "Closed"}], "id": "5371400035", "name": "USPS COLLECTION BOX - APC", "address": {"city": "MADISON", "state": "WI", "street": "3902 MILWAUKEE ST", "postcode": "53714"}}},
{"geometry": {"type": "Point", "coordinates": [-89.3949474176, 43.0493673186]}, "type": "Feature", "properties": {"collection_times": [{"days": "Mon-Fri", "time": "5:00pm"}, {"days": "Sat", "time": "3:45pm"}, {"days": "Sun", "time": "Closed"}], "id": "5371500000", "name": "USPS COLLECTION BOX - BLUE BOX", "address": {"city": "MADISON", "state": "WI", "street": "820 W WINGRA DR", "postcode": "53715"}}},
{"geometry": {"type": "Point", "coordinates": [-89.3949474176, 43.0493673186]}, "type": "Feature", "properties": {"collection_times": [{"days": "Mon-Fri", "time": "5:00pm"}, {"days": "Sat", "time": "3:45pm"}, {"days": "Sun", "time": "Closed"}], "id": "5371500001", "name": "USPS COLLECTION BOX - BLUE BOX", "address": {"city": "MADISON", "state": "WI", "street": "820 W WINGRA DR", "postcode": "53715"}}},
{"geometry": {"type": "Point", "coordinates": [-89.3949474176, 43.0493673186]}, "type": "Feature", "properties": {"collection_times": [{"days": "Mon-Fri", "time": "5:00pm"}, {"days": "Sat", "time": "3:45pm"}, {"days": "Sun", "time": "Closed"}], "id": "5371500002", "name": "USPS COLLECTION BOX - BLUE BOX", "address": {"city": "MADISON", "state": "WI", "street": "820 W WINGRA DR", "postcode": "53715"}}},
{"geometry": {"type": "Point", "coordinates": [-89.3949474176, 43.0493673186]}, "type": "Feature", "properties": {"collection_times": [{"days": "Mon-Fri", "time": "5:00pm"}, {"days": "Sat", "time": "3:45pm"}, {"days": "Sun", "time": "Closed"}], "id": "5371500003", "name": "USPS COLLECTION BOX - BLUE BOX", "address": {"city": "MADISON", "state": "WI", "street": "820 W WINGRA DR", "postcode": "53715"}}},
{"geometry": {"type": "Point", "coordinates": [-89.4040480961, 43.0640397713]}, "type": "Feature", "properties": {"collection_times": [{"days": "Mon-Fri", "time": "1:00pm"}, {"days": "Sat", "time": "12:00pm"}, {"days": "Sun", "time": "Closed"}], "id": "5371500009", "name": "USPS COLLECTION BOX - BLUE BOX", "address": {"city": "MADISON", "state": "WI", "street": "301 S MILLS ST", "postcode": "53715"}}},
{"geometry": {"type": "Point", "coordinates": [-89.4085989392, 43.0620488514]}, "type": "Feature", "properties": {"collection_times": [{"days": "Mon-Fri", "time": "1:00pm"}, {"days": "Sat", "time": "12:00pm"}, {"days": "Sun", "time": "Closed"}], "id": "5371500013", "name": "USPS COLLECTION BOX - BLUE BOX", "address": {"city": "MADISON", "state": "WI", "street": "1330 DRAKE ST", "postcode": "53715"}}},
{"geometry": {"type": "Point", "coordinates": [-89.4010350996, 43.067104818]}, "type": "Feature", "properties": {"collection_times": [{"days": "Mon-Fri", "time": "3:00pm"}, {"days": "Sat-Sun", "time": "Closed"}], "id": "5371500019", "name": "USPS COLLECTION BOX - BLUE BOX", "address": {"city": "MADISON", "state": "WI", "street": "20 S PARK ST", "postcode": "53715"}}},
{"geometry": {"type": "Point", "coordinates": [-89.4008304477, 43.0671485875]}, "type": "Feature", "properties": {"collection_times": [{"days": "Mon-Fri", "time": "3:00pm"}, {"days": "Sat-Sun", "time": "Closed"}], "id": "5371500026", "name": "USPS COLLECTION BOX - BLUE BOX", "address": {"city": "MADISON", "state": "WI", "street": "1 S PARK ST", "postcode": "53715"}}},
{"geometry": {"type": "Point", "coordinates": [-89.3949474176, 43.0493673186]}, "type": "Feature", "properties": {"collection_times": [{"days": "Mon-Fri", "time": "5:30pm"}, {"days": "Sat", "time": "2:00pm"}, {"days": "Sun", "time": "Closed"}], "id": "5371500047", "name": "USPS COLLECTION BOX - PO LOBBY", "address": {"city": "MADISON", "state": "WI", "street": "820 W WINGRA DR", "postcode": "53715"}}},
{"geometry": {"type": "Point", "coordinates": [-89.3949474176, 43.0493673186]}, "type": "Feature", "properties": {"collection_times": [{"days": "Mon-Fri", "time": "5:30pm"}, {"days": "Sat", "time": "2:00pm"}, {"days": "Sun", "time": "Closed"}], "id": "5371500048", "name": "USPS COLLECTION BOX - PO LOBBY", "address": {"city": "MADISON", "state": "WI", "street": "820 W WINGRA DR", "postcode": "53715"}}},
{"geometry": {"type": "Point", "coordinates": [-89.4073390879, 43.0709222266]}, "type": "Feature", "properties": {"collection_times": [{"days": "Mon-Fri", "time": "1:00pm"}, {"days": "Sat", "time": "12:00pm"}, {"days": "Sun", "time": "Closed"}], "id": "5371500049", "name": "USPS COLLECTION BOX - BLUE BOX", "address": {"city": "MADISON", "state": "WI", "street": "136 N ORCHARD ST", "postcode": "53715"}}},
{"geometry": {"type": "Point", "coordinates": [-89.3973809394, 43.07451369]}, "type": "Feature", "properties": {"collection_times": [{"days": "Mon-Fri", "time": "5:00pm"}, {"days": "Sat", "time": "4:00pm"}, {"days": "Sun", "time": "Closed"}], "id": "5371500054", "name": "USPS COLLECTION BOX - PO LOBBY", "address": {"city": "MADISON", "state": "WI", "street": "441 N LAKE ST", "postcode": "53715"}}},
{"geometry": {"type": "Point", "coordinates": [-89.3973809394, 43.07451369]}, "type": "Feature", "properties": {"collection_times": [{"days": "Mon-Fri", "time": "5:00pm"}, {"days": "Sat", "time": "4:00pm"}, {"days": "Sun", "time": "Closed"}], "id": "5371500055", "name": "USPS COLLECTION BOX - PO LOBBY", "address": {"city": "MADISON", "state": "WI", "street": "441 N LAKE ST", "postcode": "53715"}}},
{"geometry": {"type": "Point", "coordinates": [-89.4024998978, 43.0598727323]}, "type": "Feature", "properties": {"collection_times": [{"days": "Mon-Fri", "time": "3:00pm"}, {"days": "Sat", "time": "12:00pm"}, {"days": "Sun", "time": "Closed"}], "id": "5371500056", "name": "USPS COLLECTION BOX - BLUE BOX", "address": {"city": "MADISON", "state": "WI", "street": "700 S BROOKS ST", "postcode": "53715"}}},
{"geometry": {"type": "Point", "coordinates": [-89.3973809394, 43.07451369]}, "type": "Feature", "properties": {"collection_times": [{"days": "Mon-Fri", "time": "5:00pm"}, {"days": "Sat", "time": "1:00pm"}, {"days": "Sun", "time": "Closed"}], "id": "5371500057", "name": "USPS COLLECTION BOX - BLUE BOX", "address": {"city": "MADISON", "state": "WI", "street": "441 N LAKE ST", "postcode": "53715"}}},
{"geometry": {"type": "Point", "coordinates": [-89.3973809394, 43.07451369]}, "type": "Feature", "properties": {"collection_times": [{"days": "Mon-Fri", "time": "5:00pm"}, {"days": "Sat", "time": "1:00pm"}, {"days": "Sun", "time": "Closed"}], "id": "5371500058", "name": "USPS COLLECTION BOX - BLUE BOX", "address": {"city": "MADISON", "state": "WI", "street": "441 N LAKE ST", "postcode": "53715"}}},
{"geometry": {"type": "Point", "coordinates": [-89.3973809394, 43.07451369]}, "type": "Feature", "properties": {"collection_times": [{"days": "Mon-Fri", "time": "5:00pm"}, {"days": "Sat", "time": "4:00pm"}, {"days": "Sun", "time": "Closed"}], "id": "5371500060", "name": "USPS COLLECTION BOX - APC", "address": {"city": "MADISON", "state": "WI", "street": "441 N LAKE ST", "postcode": "53715"}}},
{"geometry": {"type": "Point", "coordinates": [-89.3258541508, 43.0569496966]}, "type": "Feature", "properties": {"collection_times": [{"days": "Mon-Fri", "time": "5:30pm"}, {"days": "Sat", "time": "12:45pm"}, {"days": "Sun", "time": "Closed"}], "id": "5371600001", "name": "USPS COLLECTION BOX - BLUE BOX", "address": {"city": "MONONA", "state": "WI", "street": "112 OWEN RD", "postcode": "53716"}}},
{"geometry": {"type": "Point", "coordinates": [-89.3258541508, 43.0569496966]}, "type": "Feature", "properties": {"collection_times": [{"days": "Mon-Fri", "time": "5:30pm"}, {"days": "Sat", "time": "12:45pm"}, {"days": "Sun", "time": "Closed"}], "id": "5371600002", "name": "USPS COLLECTION BOX - BLUE BOX", "address": {"city": "MONONA", "state": "WI", "street": "112 OWEN RD", "postcode": "53716"}}},
{"geometry": {"type": "Point", "coordinates": [-89.3258541508, 43.0569496966]}, "type": "Feature", "properties": {"collection_times": [{"days": "Mon-Fri", "time": "5:30pm"}, {"days": "Sat", "time": "12:45pm"}, {"days": "Sun", "time": "Closed"}], "id": "5371600003", "name": "USPS COLLECTION BOX - BLUE BOX", "address": {"city": "MONONA", "state": "WI", "street": "112 OWEN RD", "postcode": "53716"}}},
{"geometry": {"type": "Point", "coordinates": [-89.3082591769, 43.0732136181]}, "type": "Feature", "properties": {"collection_times": [{"days": "Mon-Sat", "time": "1:00pm"}, {"days": "Sun", "time": "Closed"}], "id": "5371600005", "name": "USPS COLLECTION BOX - BLUE BOX", "address": {"city": "MONONA", "state": "WI", "street": "4402 E BUCKEYE RD", "postcode": "53716"}}},
{"geometry": {"type": "Point", "coordinates": [-89.3244091467, 43.0788761366]}, "type": "Feature", "properties": {"collection_times": [{"days": "Mon-Sat", "time": "1:00pm"}, {"days": "Sun", "time": "Closed"}], "id": "5371600011", "name": "USPS COLLECTION BOX - BLUE BOX", "address": {"city": "MONONA", "state": "WI", "street": "4112 MONONA DR", "postcode": "53716"}}},
{"geometry": {"type": "Point", "coordinates": [-89.3264329754, 43.0468620242]}, "type": "Feature", "properties": {"collection_times": [{"days": "Mon-Fri", "time": "3:00pm"}, {"days": "Sat-Sun", "time": "Closed"}], "id": "5371600022", "name": "USPS COLLECTION BOX - BLUE BOX", "address": {"city": "MONONA", "state": "WI", "street": "100 RIVER PL", "postcode": "53716"}}},
{"geometry": {"type": "Point", "coordinates": [-89.3004398181, 43.0843310664]}, "type": "Feature", "properties": {"collection_times": [{"days": "Mon-Sat", "time": "1:00pm"}, {"days": "Sun", "time": "Closed"}], "id": "5371600025", "name": "USPS COLLECTION BOX - BLUE BOX", "address": {"city": "MONONA", "state": "WI", "street": "4706 COTTAGE GROVE RD", "postcode": "53716"}}},
{"geometry": {"type": "Point", "coordinates": [-89.3244523921, 43.0473230836]}, "type": "Feature", "properties": {"collection_times": [{"days": "Mon-Fri", "time": "3:00pm"}, {"days": "Sat", "time": "1:30pm"}, {"days": "Sun", "time": "Closed"}], "id": "5371600026", "name": "USPS COLLECTION BOX - BLUE BOX", "address": {"city": "MONONA", "state": "WI", "street": "6508 MONONA DR", "postcode": "53716"}}},
{"geometry": {"type": "Point", "coordinates": [-89.3258541508, 43.0569496966]}, "type": "Feature", "properties": {"collection_times": [{"days": "Mon-Fri", "time": "5:30pm"}, {"days": "Sat", "time": "12:00pm"}, {"days": "Sun", "time": "Closed"}], "id": "5371600029", "name": "USPS COLLECTION BOX - PO LOBBY", "address": {"city": "MONONA", "state": "WI", "street": "112 OWEN RD", "postcode": "53716"}}},
{"geometry": {"type": "Point", "coordinates": [-89.3258541508, 43.0569496966]}, "type": "Feature", "properties": {"collection_times": [{"days": "Mon-Fri", "time": "5:30pm"}, {"days": "Sat", "time": "12:00pm"}, {"days": "Sun", "time": "Closed"}], "id": "5371600030", "name": "USPS COLLECTION BOX - PO LOBBY", "address": {"city": "MONONA", "state": "WI", "street": "112 OWEN RD", "postcode": "53716"}}},
{"geometry": {"type": "Point", "coordinates": [-89.3260737711, 43.0621624552]}, "type": "Feature", "properties": {"collection_times": [{"days": "Mon-Fri", "time": "3:00pm"}, {"days": "Sat", "time": "1:00pm"}, {"days": "Sun", "time": "Closed"}], "id": "5371600031", "name": "USPS COLLECTION BOX - BLUE BOX", "address": {"city": "MONONA", "state": "WI", "street": "5300 MONONA DR", "postcode": "53716"}}},
{"geometry": {"type": "Point", "coordinates": [-89.3229075596, 43.0837618875]}, "type": "Feature", "properties": {"collection_times": [{"days": "Mon-Sat", "time": "1:00pm"}, {"days": "Sun", "time": "Closed"}], "id": "5371600032", "name": "USPS COLLECTION BOX - BLUE BOX", "address": {"city": "MONONA", "state": "WI", "street": "204 COTTAGE GROVE RD", "postcode": "53716"}}},
{"geometry": {"type": "Point", "coordinates": [-89.5250506027, 43.076098855]}, "type": "Feature", "properties": {"collection_times": [{"days": "Mon-Fri", "time": "2:00pm"}, {"days": "Sat", "time": "12:00pm"}, {"days": "Sun", "time": "Closed"}], "id": "5371700000", "name": "USPS COLLECTION BOX - BLUE BOX", "address": {"city": "MADISON", "state": "WI", "street": "8007 EXCELSIOR DR", "postcode": "53717"}}},
{"geometry": {"type": "Point", "coordinates": [-89.5250506027, 43.076098855]}, "type": "Feature", "properties": {"collection_times": [{"days": "Mon-Fri", "time": "2:00pm"}, {"days": "Sat", "time": "12:00pm"}, {"days": "Sun", "time": "Closed"}], "id": "5371700001", "name": "USPS COLLECTION BOX - BLUE BOX", "address": {"city": "MADISON", "state": "WI", "street": "8007 EXCELSIOR DR", "postcode": "53717"}}},
{"geometry": {"type": "Point", "coordinates": [-89.5106220522, 43.0605429446]}, "type": "Feature", "properties": {"collection_times": [{"days": "Mon-Sat", "time": "1:00pm"}, {"days": "Sun", "time": "Closed"}], "id": "5371700003", "name": "USPS COLLECTION BOX - BLUE BOX", "address": {"city": "MADISON", "state": "WI", "street": "7455 MINERAL POINT RD", "postcode": "53717"}}},
{"geometry": {"type": "Point", "coordinates": [-89.5199536015, 43.0625109751]}, "type": "Feature", "properties": {"collection_times": [{"days": "Mon-Fri", "time": "1:00pm"}, {"days": "Sat", "time": "12:00pm"}, {"days": "Sun", "time": "Closed"}], "id": "5371700006", "name": "USPS COLLECTION BOX - BLUE BOX", "address": {"city": "MADISON", "state": "WI", "street": "7901 TREE LN", "postcode": "53717"}}},
{"geometry": {"type": "Point", "coordinates": [-89.524781902, 43.0714024978]}, "type": "Feature", "properties": {"collection_times": [{"days": "Mon-Sat", "time": "12:00pm"}, {"days": "Sun", "time": "Closed"}], "id": "5371700008", "name": "USPS COLLECTION BOX - BLUE BOX", "address": {"city": "MADISON", "state": "WI", "street": "525 JUNCTION RD", "postcode": "53717"}}},
{"geometry": {"type": "Point", "coordinates": [-89.5187055279, 43.060660007]}, "type": "Feature", "properties": {"collection_times": [{"days": "Mon-Fri", "time": "2:00pm"}, {"days": "Sat", "time": "1:00pm"}, {"days": "Sun", "time": "Closed"}], "id": "5371700009", "name": "USPS COLLECTION BOX - BLUE BOX", "address": {"city": "MADISON", "state": "WI", "street": "7810 MINERAL POINT RD", "postcode": "53717"}}},
{"geometry": {"type": "Point", "coordinates": [-89.5060401276, 43.0644244197]}, "type": "Feature", "properties": {"collection_times": [{"days": "Mon-Sat", "time": "1:00pm"}, {"days": "Sun", "time": "Closed"}], "id": "5371700010", "name": "USPS COLLECTION BOX - BLUE BOX", "address": {"city": "MADISON", "state": "WI", "street": "7201 TREE LN", "postcode": "53717"}}},
{"geometry": {"type": "Point", "coordinates": [-89.5250506027, 43.076098855]}, "type": "Feature", "properties": {"collection_times": [{"days": "Mon-Fri", "time": "2:00pm"}, {"days": "Sat", "time": "12:00pm"}, {"days": "Sun", "time": "Closed"}], "id": "5371700011", "name": "USPS COLLECTION BOX - BLUE BOX", "address": {"city": "MADISON", "state": "WI", "street": "8007 EXCELSIOR DR", "postcode": "53717"}}},
{"geometry": {"type": "Point", "coordinates": [-89.5187534112, 43.0744662064]}, "type": "Feature", "properties": {"collection_times": [{"days": "Mon-Sat", "time": "1:00pm"}, {"days": "Sun", "time": "Closed"}], "id": "5371700012", "name": "USPS COLLECTION BOX - BLUE BOX", "address": {"city": "MADISON", "state": "WI", "street": "670 N HIGH POINT RD", "postcode": "53717"}}},
{"geometry": {"type": "Point", "coordinates": [-89.2906591134, 43.1335610867]}, "type": "Feature", "properties": {"collection_times": [{"days": "Mon-Fri", "time": "3:00pm"}, {"days": "Sat", "time": "1:00pm"}, {"days": "Sun", "time": "Closed"}], "id": "5371800000", "name": "USPS COLLECTION BOX - BLUE BOX", "address": {"city": "MADISON", "state": "WI", "street": "2601 CROSSROADS DR", "postcode": "53718"}}},
{"geometry": {"type": "Point", "coordinates": [-89.2915276997, 43.056324163]}, "type": "Feature", "properties": {"collection_times": [{"days": "Mon-Fri", "time": "3:00pm"}, {"days": "Sat-Sun", "time": "Closed"}], "id": "5371800009", "name": "USPS COLLECTION BOX - BLUE BOX", "address": {"city": "MADISON", "state": "WI", "street": "5201 WORLD DAIRY DR", "postcode": "53718"}}},
{"geometry": {"type": "Point", "coordinates": [-89.2915276997, 43.056324163]}, "type": "Feature", "properties": {"collection_times": [{"days": "Mon-Fri", "time": "3:00pm"}, {"days": "Sat-Sun", "time": "Closed"}], "id": "5371800012", "name": "USPS COLLECTION BOX - BLUE BOX", "address": {"city": "MADISON", "state": "WI", "street": "5201 WORLD DAIRY DR", "postcode": "53718"}}},
{"geometry": {"type": "Point", "coordinates": [-89.2936756587, 43.1513480577]}, "type": "Feature", "properties": {"collection_times": [{"days": "Mon-Fri", "time": "1:00pm"}, {"days": "Sat-Sun", "time": "Closed"}], "id": "5371800016", "name": "USPS COLLECTION BOX - BLUE BOX", "address": {"city": "MADISON", "state": "WI", "street": "4902 N BILTMORE LN", "postcode": "53718"}}},
{"geometry": {"type": "Point", "coordinates": [-89.2907256414, 43.1442759353]}, "type": "Feature", "properties": {"collection_times": [{"days": "Mon-Fri", "time": "12:00pm"}, {"days": "Sat-Sun", "time": "Closed"}], "id": "5371800017", "name": "USPS COLLECTION BOX - BLUE BOX", "address": {"city": "MADISON", "state": "WI", "street": "5201 W TERRACE TER", "postcode": "53718"}}},
{"geometry": {"type": "Point", "coordinates": [-89.5029443064, 43.0498443598]}, "type": "Feature", "properties": {"collection_times": [{"days": "Mon-Fri", "time": "3:00pm"}, {"days": "Sat", "time": "1:00pm"}, {"days": "Sun", "time": "Closed"}], "id": "5371900003", "name": "USPS COLLECTION BOX - BLUE BOX", "address": {"city": "FITCHBURG", "state": "WI", "street": "711 S GAMMON RD", "postcode": "53719"}}},
{"geometry": {"type": "Point", "coordinates": [-89.5147860678, 43.059695946]}, "type": "Feature", "properties": {"collection_times": [{"days": "Mon-Fri", "time": "1:00pm"}, {"days": "Sat-Sun", "time": "Closed"}], "id": "5371900005", "name": "USPS COLLECTION BOX - BLUE BOX", "address": {"city": "FITCHBURG", "state": "WI", "street": "7601 GANSER WAY", "postcode": "53719"}}},
{"geometry": {"type": "Point", "coordinates": [-89.4915866985, 43.0550548649]}, "type": "Feature", "properties": {"collection_times": [{"days": "Mon-Fri", "time": "2:00pm"}, {"days": "Sat", "time": "12:00pm"}, {"days": "Sun", "time": "Closed"}], "id": "5371900013", "name": "USPS COLLECTION BOX - BLUE BOX", "address": {"city": "FITCHBURG", "state": "WI", "street": "6502 ODANA RD", "postcode": "53719"}}},
{"geometry": {"type": "Point", "coordinates": [-89.4915866985, 43.0550548649]}, "type": "Feature", "properties": {"collection_times": [{"days": "Mon-Fri", "time": "2:00pm"}, {"days": "Sat", "time": "12:00pm"}, {"days": "Sun", "time": "Closed"}], "id": "5371900014", "name": "USPS COLLECTION BOX - BLUE BOX", "address": {"city": "FITCHBURG", "state": "WI", "street": "6502 ODANA RD", "postcode": "53719"}}},
{"geometry": {"type": "Point", "coordinates": [-89.5030801345, 43.0564672695]}, "type": "Feature", "properties": {"collection_times": [{"days": "Mon-Fri", "time": "2:00pm"}, {"days": "Sat", "time": "1:00pm"}, {"days": "Sun", "time": "Closed"}], "id": "5371900017", "name": "USPS COLLECTION BOX - BLUE BOX", "address": {"city": "FITCHBURG", "state": "WI", "street": "1 W TOWNE MALL", "postcode": "53719"}}},
{"geometry": {"type": "Point", "coordinates": [-89.4919727041, 43.0587696891]}, "type": "Feature", "properties": {"collection_times": [{"days": "Mon-Fri", "time": "2:00pm"}, {"days": "Sat", "time": "12:00pm"}, {"days": "Sun", "time": "Closed"}], "id": "5371900019", "name": "USPS COLLECTION BOX - BLUE BOX", "address": {"city": "FITCHBURG", "state": "WI", "street": "426 S YELLOWSTONE DR", "postcode": "53719"}}},
{"geometry": {"type": "Point", "coordinates": [-89.4919727041, 43.0587696891]}, "type": "Feature", "properties": {"collection_times": [{"days": "Mon-Fri", "time": "2:00pm"}, {"days": "Sat", "time": "12:00pm"}, {"days": "Sun", "time": "Closed"}], "id": "5371900020", "name": "USPS COLLECTION BOX - BLUE BOX", "address": {"city": "FITCHBURG", "state": "WI", "street": "426 S YELLOWSTONE DR", "postcode": "53719"}}},
{"geometry": {"type": "Point", "coordinates": [-89.4919727041, 43.0587696891]}, "type": "Feature", "properties": {"collection_times": [{"days": "Mon-Fri", "time": "2:00pm"}, {"days": "Sat", "time": "12:00pm"}, {"days": "Sun", "time": "Closed"}], "id": "5371900022", "name": "USPS COLLECTION BOX - BLUE BOX", "address": {"city": "FITCHBURG", "state": "WI", "street": "426 S YELLOWSTONE DR", "postcode": "53719"}}},
{"geometry": {"type": "Point", "coordinates": [-89.4988102069, 43.0160601386]}, "type": "Feature", "properties": {"collection_times": [{"days": "Mon-Sat", "time": "12:00pm"}, {"days": "Sun", "time": "Closed"}], "id": "5371900024", "name": "USPS COLLECTION BOX - BLUE BOX", "address": {"city": "FITCHBURG", "state": "WI", "street": "3153 MAPLE GROVE DR", "postcode": "53719"}}},
{"geometry": {"type": "Point", "coordinates": [-89.5013725582, 43.0605205981]}, "type": "Feature", "properties": {"collection_times": [{"days": "Mon-Fri", "time": "2:00pm"}, {"days": "Sat", "time": "12:00pm"}, {"days": "Sun", "time": "Closed"}], "id": "5371900025", "name": "USPS COLLECTION BOX - BLUE BOX", "address": {"city": "FITCHBURG", "state": "WI", "street": "402 GAMMON PL", "postcode": "53719"}}},
{"geometry": {"type": "Point", "coordinates": [-89.4741734883, 43.0486887925]}, "type": "Feature", "properties": {"collection_times": [{"days": "Mon-Fri", "time": "2:00pm"}, {"days": "Sat", "time": "12:00pm"}, {"days": "Sun", "time": "Closed"}], "id": "5371900026", "name": "USPS COLLECTION BOX - BLUE BOX", "address": {"city": "FITCHBURG", "state": "WI", "street": "5520 MEDICAL CIR", "postcode": "53719"}}},
{"geometry": {"type": "Point", "coordinates": [-89.4703458483, 43.0244035482]}, "type": "Feature", "properties": {"collection_times": [{"days": "Mon-Fri", "time": "1:00pm"}, {"days": "Sat", "time": "12:00pm"}, {"days": "Sun", "time": "Closed"}], "id": "5371900032", "name": "USPS COLLECTION BOX - BLUE BOX", "address": {"city": "FITCHBURG", "state": "WI", "street": "5280 WILLIAMSBURG WAY", "postcode": "53719"}}},
{"geometry": {"type": "Point", "coordinates": [-89.473329908, 43.0561145901]}, "type": "Feature", "properties": {"collection_times": [{"days": "Mon-Fri", "time": "2:00pm"}, {"days": "Sat", "time": "12:00pm"}, {"days": "Sun", "time": "Closed"}], "id": "5371900034", "name": "USPS COLLECTION BOX - BLUE BOX", "address": {"city": "FITCHBURG", "state": "WI", "street": "5501 RESEARCH PARK BLVD", "postcode": "53719"}}},
{"geometry": {"type": "Point", "coordinates": [-89.4700039732, 43.0154083282]}, "type": "Feature", "properties": {"collection_times": [{"days": "Mon-Fri", "time": "1:00pm"}, {"days": "Sat", "time": "12:00pm"}, {"days": "Sun", "time": "Closed"}], "id": "5371900035", "name": "USPS COLLECTION BOX - BLUE BOX", "address": {"city": "FITCHBURG", "state": "WI", "street": "6133 MCKEE RD", "postcode": "53719"}}},
{"geometry": {"type": "Point", "coordinates": [-89.4233279613, 43.0678962175]}, "type": "Feature", "properties": {"collection_times": [{"days": "Mon-Fri", "time": "11:45am"}, {"days": "Sat", "time": "1:00pm"}, {"days": "Sun", "time": "Closed"}], "id": "5372600001", "name": "USPS COLLECTION BOX - BLUE BOX", "address": {"city": "MADISON", "state": "WI", "street": "2143 REGENT ST", "postcode": "53726"}}},
{"geometry": {"type": "Point", "coordinates": [-89.4284525395, 43.0720685138]}, "type": "Feature", "properties": {"collection_times": [{"days": "Mon-Sat", "time": "1:00pm"}, {"days": "Sun", "time": "Closed"}], "id": "5372600003", "name": "USPS COLLECTION BOX - BLUE BOX", "address": {"city": "MADISON", "state": "WI", "street": "2433 UNIVERSITY AVE", "postcode": "53726"}}}
]}
