{"type": "FeatureCollection", "features": [
{"geometry": {"type": "Point", "coordinates": [-91.1026344404, 42.9052030717]}, "type": "Feature", "properties": {"collection_times": [{"days": "Mon-Fri", "time": "3:45pm"}, {"days": "Sat", "time": "10:30am"}, {"days": "Sun", "time": "Closed"}], "id": "5380100000", "name": "USPS COLLECTION BOX - BLUE BOX", "address": {"city": "BAGLEY", "state": "WI", "street": "140 S BAGLEY AVE", "postcode": "53801"}}},
{"geometry": {"type": "Point", "coordinates": [-91.1026344404, 42.9052030717]}, "type": "Feature", "properties": {"collection_times": [{"days": "Mon-Fri", "time": "11:30am"}, {"days": "Sat", "time": "10:30am"}, {"days": "Sun", "time": "Closed"}], "id": "5380100001", "name": "USPS COLLECTION BOX - PO LOBBY", "address": {"city": "BAGLEY", "state": "WI", "street": "140 S BAGLEY AVE", "postcode": "53801"}}},
{"geometry": {"type": "Point", "coordinates": [-90.9060426683, 42.7953083227]}, "type": "Feature", "properties": {"collection_times": [{"days": "Mon-Fri", "time": "4:30pm"}, {"days": "Sat", "time": "1:00pm"}, {"days": "Sun", "time": "Closed"}], "id": "5380200000", "name": "USPS COLLECTION BOX - BLUE BOX", "address": {"city": "BEETOWN", "state": "WI", "street": "9502 MUSCALLOUNGE RD", "postcode": "53802"}}},
{"geometry": {"type": "Point", "coordinates": [-90.9060426683, 42.7953083227]}, "type": "Feature", "properties": {"collection_times": [{"days": "Mon-Fri", "time": "4:30pm"}, {"days": "Sat", "time": "1:00pm"}, {"days": "Sun", "time": "Closed"}], "id": "5380200001", "name": "USPS COLLECTION BOX - PO LOBBY", "address": {"city": "BEETOWN", "state": "WI", "street": "9502 MUSCALLOUNGE RD", "postcode": "53802"}}},
{"geometry": {"type": "Point", "coordinates": [-90.3811072189, 42.5679338741]}, "type": "Feature", "properties": {"collection_times": [{"days": "Mon-Fri", "time": "4:15pm"}, {"days": "Sat", "time": "12:00pm"}, {"days": "Sun", "time": "Closed"}], "id": "5380300000", "name": "USPS COLLECTION BOX - BLUE BOX", "address": {"city": "BENTON", "state": "WI", "street": "33 BEAN ST", "postcode": "53803"}}},
{"geometry": {"type": "Point", "coordinates": [-90.3811072189, 42.5679338741]}, "type": "Feature", "properties": {"collection_times": [{"days": "Mon-Fri", "time": "4:15pm"}, {"days": "Sat", "time": "12:00pm"}, {"days": "Sun", "time": "Closed"}], "id": "5380300001", "name": "USPS COLLECTION BOX - PO LOBBY", "address": {"city": "BENTON", "state": "WI", "street": "33 BEAN ST", "postcode": "53803"}}},
{"geometry": {"type": "Point", "coordinates": [-90.3811072189, 42.5679338741]}, "type": "Feature", "properties": {"collection_times": [{"days": "Mon-Fri", "time": "4:15pm"}, {"days": "Sat", "time": "12:00pm"}, {"days": "Sun", "time": "Closed"}], "id": "5380300002", "name": "USPS COLLECTION BOX - PO LOBBY", "address": {"city": "BENTON", "state": "WI", "street": "33 BEAN ST", "postcode": "53803"}}},
{"geometry": {"type": "Point", "coordinates": [-90.9227599476, 42.8830027897]}, "type": "Feature", "properties": {"collection_times": [{"days": "Mon-Fri", "time": "4:00pm"}, {"days": "Sat", "time": "9:45am"}, {"days": "Sun", "time": "Closed"}], "id": "5380400000", "name": "USPS COLLECTION BOX - BLUE BOX", "address": {"city": "BLOOMINGTON", "state": "WI", "street": "472 CANAL ST", "postcode": "53804"}}},
{"geometry": {"type": "Point", "coordinates": [-90.9227599476, 42.8830027897]}, "type": "Feature", "properties": {"collection_times": [{"days": "Mon-Fri", "time": "4:00pm"}, {"days": "Sat", "time": "9:45am"}, {"days": "Sun", "time": "Closed"}], "id": "5380400001", "name": "USPS COLLECTION BOX - PO LOBBY", "address": {"city": "BLOOMINGTON", "state": "WI", "street": "472 CANAL ST", "postcode": "53804"}}},
{"geometry": {"type": "Point", "coordinates": [-90.9227599476, 42.8830027897]}, "type": "Feature", "properties": {"collection_times": [{"days": "Mon-Fri", "time": "4:00pm"}, {"days": "Sat", "time": "9:45am"}, {"days": "Sun", "time": "Closed"}], "id": "5380400002", "name": "USPS COLLECTION BOX - PO LOBBY", "address": {"city": "BLOOMINGTON", "state": "WI", "street": "472 CANAL ST", "postcode": "53804"}}},
{"geometry": {"type": "Point", "coordinates": [-90.7056970879, 43.1365298533]}, "type": "Feature", "properties": {"collection_times": [{"days": "Mon-Fri", "time": "5:00pm"}, {"days": "Sat", "time": "11:00am"}, {"days": "Sun", "time": "Closed"}], "id": "5380500007", "name": "USPS COLLECTION BOX - PO LOBBY", "address": {"city": "BOSCOBEL", "state": "WI", "street": "105 SUPERIOR ST", "postcode": "53805"}}},
{"geometry": {"type": "Point", "coordinates": [-90.7056970879, 43.1365298533]}, "type": "Feature", "properties": {"collection_times": [{"days": "Mon-Fri", "time": "5:00pm"}, {"days": "Sat", "time": "11:00am"}, {"days": "Sun", "time": "Closed"}], "id": "5380500010", "name": "USPS COLLECTION BOX - BLUE BOX", "address": {"city": "BOSCOBEL", "state": "WI", "street": "105 SUPERIOR ST", "postcode": "53805"}}},
{"geometry": {"type": "Point", "coordinates": [-90.7065910794, 43.1347116792]}, "type": "Feature", "properties": {"collection_times": [{"days": "Mon-Sat", "time": "1:00pm"}, {"days": "Sun", "time": "Closed"}], "id": "5380500011", "name": "USPS COLLECTION BOX - BLUE BOX", "address": {"city": "BOSCOBEL", "state": "WI", "street": "106 W OAK ST", "postcode": "53805"}}},
{"geometry": {"type": "Point", "coordinates": [-90.7056970879, 43.1365298533]}, "type": "Feature", "properties": {"collection_times": [{"days": "Mon-Fri", "time": "5:00pm"}, {"days": "Sat", "time": "11:00am"}, {"days": "Sun", "time": "Closed"}], "id": "5380500015", "name": "USPS COLLECTION BOX - BLUE BOX", "address": {"city": "BOSCOBEL", "state": "WI", "street": "105 SUPERIOR ST", "postcode": "53805"}}},
{"geometry": {"type": "Point", "coordinates": [-90.9911090149, 42.7145126784]}, "type": "Feature", "properties": {"collection_times": [{"days": "Mon-Fri", "time": "3:30pm"}, {"days": "Sat", "time": "10:30am"}, {"days": "Sun", "time": "Closed"}], "id": "5380600000", "name": "USPS COLLECTION BOX - BLUE BOX", "address": {"city": "CASSVILLE", "state": "WI", "street": "205 E AMELIA ST", "postcode": "53806"}}},
{"geometry": {"type": "Point", "coordinates": [-90.990785692, 42.7144433133]}, "type": "Feature", "properties": {"collection_times": [{"days": "Mon-Sat", "time": "2:00pm"}, {"days": "Sun", "time": "Closed"}], "id": "5380600001", "name": "USPS COLLECTION BOX - BLUE BOX", "address": {"city": "CASSVILLE", "state": "WI", "street": "301 DENNISTON ST", "postcode": "53806"}}},
{"geometry": {"type": "Point", "coordinates": [-90.9911090149, 42.7145126784]}, "type": "Feature", "properties": {"collection_times": [{"days": "Mon-Fri", "time": "3:30pm"}, {"days": "Sat", "time": "10:30am"}, {"days": "Sun", "time": "Closed"}], "id": "5380600002", "name": "USPS COLLECTION BOX - PO LOBBY", "address": {"city": "CASSVILLE", "state": "WI", "street": "205 E AMELIA ST", "postcode": "53806"}}},
{"geometry": {"type": "Point", "coordinates": [-90.9911090149, 42.7145126784]}, "type": "Feature", "properties": {"collection_times": [{"days": "Mon-Fri", "time": "3:30pm"}, {"days": "Sat", "time": "10:30am"}, {"days": "Sun", "time": "Closed"}], "id": "5380600003", "name": "USPS COLLECTION BOX - PO LOBBY", "address": {"city": "CASSVILLE", "state": "WI", "street": "205 E AMELIA ST", "postcode": "53806"}}},
{"geometry": {"type": "Point", "coordinates": [-90.4319235786, 42.6054175662]}, "type": "Feature", "properties": {"collection_times": [{"days": "Mon-Fri", "time": "4:30pm"}, {"days": "Sat", "time": "10:30am"}, {"days": "Sun", "time": "Closed"}], "id": "5380700000", "name": "USPS COLLECTION BOX - BLUE BOX", "address": {"city": "CUBA CITY", "state": "WI", "street": "101 S MADISON ST", "postcode": "53807"}}},
{"geometry": {"type": "Point", "coordinates": [-90.4319235786, 42.6054175662]}, "type": "Feature", "properties": {"collection_times": [{"days": "Mon-Fri", "time": "4:30pm"}, {"days": "Sat", "time": "10:30am"}, {"days": "Sun", "time": "Closed"}], "id": "5380700003", "name": "USPS COLLECTION BOX - PO LOBBY", "address": {"city": "CUBA CITY", "state": "WI", "street": "101 S MADISON ST", "postcode": "53807"}}},
{"geometry": {"type": "Point", "coordinates": [-90.4319235786, 42.6054175662]}, "type": "Feature", "properties": {"collection_times": [{"days": "Mon-Fri", "time": "4:30pm"}, {"days": "Sat", "time": "10:30am"}, {"days": "Sun", "time": "Closed"}], "id": "5380700004", "name": "USPS COLLECTION BOX - PO LOBBY", "address": {"city": "CUBA CITY", "state": "WI", "street": "101 S MADISON ST", "postcode": "53807"}}},
{"geometry": {"type": "Point", "coordinates": [-90.5933051545, 42.6271981984]}, "type": "Feature", "properties": {"collection_times": [{"days": "Mon-Fri", "time": "4:15pm"}, {"days": "Sat", "time": "10:15am"}, {"days": "Sun", "time": "Closed"}], "id": "5380800000", "name": "USPS COLLECTION BOX - BLUE BOX", "address": {"city": "DICKEYVILLE", "state": "WI", "street": "200 W MAIN ST", "postcode": "53808"}}},
{"geometry": {"type": "Point", "coordinates": [-90.5933051545, 42.6271981984]}, "type": "Feature", "properties": {"collection_times": [{"days": "Mon-Fri", "time": "4:15pm"}, {"days": "Sat", "time": "10:15am"}, {"days": "Sun", "time": "Closed"}], "id": "5380800001", "name": "USPS COLLECTION BOX - PO LOBBY", "address": {"city": "DICKEYVILLE", "state": "WI", "street": "200 W MAIN ST", "postcode": "53808"}}},
{"geometry": {"type": "Point", "coordinates": [-90.5933051545, 42.6271981984]}, "type": "Feature", "properties": {"collection_times": [{"days": "Mon-Fri", "time": "4:15pm"}, {"days": "Sat", "time": "10:15am"}, {"days": "Sun", "time": "Closed"}], "id": "5380800002", "name": "USPS COLLECTION BOX - PO LOBBY", "address": {"city": "DICKEYVILLE", "state": "WI", "street": "200 W MAIN ST", "postcode": "53808"}}},
{"geometry": {"type": "Point", "coordinates": [-90.6543302801, 42.981156989]}, "type": "Feature", "properties": {"collection_times": [{"days": "Mon-Fri", "time": "5:00pm"}, {"days": "Sat", "time": "2:00pm"}, {"days": "Sun", "time": "Closed"}], "id": "5380900000", "name": "USPS COLLECTION BOX - BLUE BOX", "address": {"city": "FENNIMORE", "state": "WI", "street": "1090 12TH ST", "postcode": "53809"}}},
{"geometry": {"type": "Point", "coordinates": [-90.6555069099, 42.9867466342]}, "type": "Feature", "properties": {"collection_times": [{"days": "Mon-Sat", "time": "11:30am"}, {"days": "Sun", "time": "Closed"}], "id": "5380900004", "name": "USPS COLLECTION BOX - BLUE BOX", "address": {"city": "FENNIMORE", "state": "WI", "street": "320 LINCOLN AVE", "postcode": "53809"}}},
{"geometry": {"type": "Point", "coordinates": [-90.6543302801, 42.981156989]}, "type": "Feature", "properties": {"collection_times": [{"days": "Mon-Fri", "time": "5:00pm"}, {"days": "Sat", "time": "2:00pm"}, {"days": "Sun", "time": "Closed"}], "id": "5380900006", "name": "USPS COLLECTION BOX - PO LOBBY", "address": {"city": "FENNIMORE", "state": "WI", "street": "1090 12TH ST", "postcode": "53809"}}},
{"geometry": {"type": "Point", "coordinates": [-90.9661753246, 42.8137905042]}, "type": "Feature", "properties": {"collection_times": [{"days": "Mon-Fri", "time": "3:45pm"}, {"days": "Sat", "time": "9:15am"}, {"days": "Sun", "time": "Closed"}], "id": "5381000000", "name": "USPS COLLECTION BOX - BLUE BOX", "address": {"city": "GLEN HAVEN", "state": "WI", "street": "13211 MAIN ST", "postcode": "53810"}}},
{"geometry": {"type": "Point", "coordinates": [-90.9661753246, 42.8137905042]}, "type": "Feature", "properties": {"collection_times": [{"days": "Mon-Fri", "time": "3:45pm"}, {"days": "Sat", "time": "9:15am"}, {"days": "Sun", "time": "Closed"}], "id": "5381000001", "name": "USPS COLLECTION BOX - PO LOBBY", "address": {"city": "GLEN HAVEN", "state": "WI", "street": "13211 MAIN ST", "postcode": "53810"}}},
{"geometry": {"type": "Point", "coordinates": [-90.4360714409, 42.5335102489]}, "type": "Feature", "properties": {"collection_times": [{"days": "Mon-Fri", "time": "4:00pm"}, {"days": "Sat", "time": "10:45am"}, {"days": "Sun", "time": "Closed"}], "id": "5381100000", "name": "USPS COLLECTION BOX - PO LOBBY", "address": {"city": "HAZEL GREEN", "state": "WI", "street": "2130 N PERCIVAL ST", "postcode": "53811"}}},
{"geometry": {"type": "Point", "coordinates": [-90.4360714409, 42.5335102489]}, "type": "Feature", "properties": {"collection_times": [{"days": "Mon-Fri", "time": "4:00pm"}, {"days": "Sat", "time": "10:45am"}, {"days": "Sun", "time": "Closed"}], "id": "5381100001", "name": "USPS COLLECTION BOX - BLUE BOX", "address": {"city": "HAZEL GREEN", "state": "WI", "street": "2130 N PERCIVAL ST", "postcode": "53811"}}},
{"geometry": {"type": "Point", "coordinates": [-90.4376882548, 42.5417544909]}, "type": "Feature", "properties": {"collection_times": [{"days": "Mon-Sat", "time": "11:30am"}, {"days": "Sun", "time": "Closed"}], "id": "5381100002", "name": "USPS COLLECTION BOX - BLUE BOX", "address": {"city": "HAZEL GREEN", "state": "WI", "street": "3515 N PERCIVAL ST", "postcode": "53811"}}},
{"geometry": {"type": "Point", "coordinates": [-90.4360714409, 42.5335102489]}, "type": "Feature", "properties": {"collection_times": [{"days": "Mon-Fri", "time": "4:00pm"}, {"days": "Sat", "time": "10:45am"}, {"days": "Sun", "time": "Closed"}], "id": "5381100003", "name": "USPS COLLECTION BOX - PO LOBBY", "address": {"city": "HAZEL GREEN", "state": "WI", "street": "2130 N PERCIVAL ST", "postcode": "53811"}}},
{"geometry": {"type": "Point", "coordinates": [-90.6025303116, 42.5806930634]}, "type": "Feature", "properties": {"collection_times": [{"days": "Mon-Fri", "time": "4:00pm"}, {"days": "Sat", "time": "9:15am"}, {"days": "Sun", "time": "Closed"}], "id": "5381200000", "name": "USPS COLLECTION BOX - BLUE BOX", "address": {"city": "KIELER", "state": "WI", "street": "3664 COUNTRY ROAD HHH", "postcode": "53812"}}},
{"geometry": {"type": "Point", "coordinates": [-90.6025303116, 42.5806930634]}, "type": "Feature", "properties": {"collection_times": [{"days": "Mon-Fri", "time": "4:00pm"}, {"days": "Sat", "time": "9:15am"}, {"days": "Sun", "time": "Closed"}], "id": "5381200001", "name": "USPS COLLECTION BOX - PO LOBBY", "address": {"city": "KIELER", "state": "WI", "street": "3664 COUNTY ROAD HHH", "postcode": "53812"}}},
{"geometry": {"type": "Point", "coordinates": [-90.602497081, 42.581298312]}, "type": "Feature", "properties": {"collection_times": [{"days": "Mon-Fri", "time": "4:00pm"}, {"days": "Sat", "time": "9:15am"}, {"days": "Sun", "time": "Closed"}], "id": "5381200002", "name": "USPS COLLECTION BOX - PO LOBBY", "address": {"city": "KIELER", "state": "WI", "street": "3664 COUNTY ROAD HHH", "postcode": "53812"}}},
{"geometry": {"type": "Point", "coordinates": [-90.7120981008, 42.8480237088]}, "type": "Feature", "properties": {"collection_times": [{"days": "Mon-Fri", "time": "2:00pm"}, {"days": "Sat", "time": "12:00pm"}, {"days": "Sun", "time": "Closed"}], "id": "5381300002", "name": "USPS COLLECTION BOX - BLUE BOX", "address": {"city": "LANCASTER", "state": "WI", "street": "100 N WASHINGTON ST", "postcode": "53813"}}},
{"geometry": {"type": "Point", "coordinates": [-90.7124246882, 42.8480465182]}, "type": "Feature", "properties": {"collection_times": [{"days": "Mon-Fri", "time": "5:00pm"}, {"days": "Sat", "time": "2:00pm"}, {"days": "Sun", "time": "Closed"}], "id": "5381300004", "name": "USPS COLLECTION BOX - BLUE BOX", "address": {"city": "LANCASTER", "state": "WI", "street": "236 W MAPLE ST", "postcode": "53813"}}},
{"geometry": {"type": "Point", "coordinates": [-90.7124246882, 42.8480465182]}, "type": "Feature", "properties": {"collection_times": [{"days": "Mon-Fri", "time": "5:00pm"}, {"days": "Sat", "time": "11:00am"}, {"days": "Sun", "time": "Closed"}], "id": "5381300007", "name": "USPS COLLECTION BOX - PO LOBBY", "address": {"city": "LANCASTER", "state": "WI", "street": "236 W MAPLE ST", "postcode": "53813"}}},
{"geometry": {"type": "Point", "coordinates": [-90.7124246882, 42.8480465182]}, "type": "Feature", "properties": {"collection_times": [{"days": "Mon-Fri", "time": "5:00pm"}, {"days": "Sat", "time": "11:00am"}, {"days": "Sun", "time": "Closed"}], "id": "5381300008", "name": "USPS COLLECTION BOX - PO LOBBY", "address": {"city": "LANCASTER", "state": "WI", "street": "236 W MAPLE ST", "postcode": "53813"}}},
{"geometry": {"type": "Point", "coordinates": [-90.8592453541, 42.9670032881]}, "type": "Feature", "properties": {"collection_times": [{"days": "Mon-Fri", "time": "3:45pm"}, {"days": "Sat", "time": "10:00am"}, {"days": "Sun", "time": "Closed"}], "id": "5381600000", "name": "USPS COLLECTION BOX - BLUE BOX", "address": {"city": "MOUNT HOPE", "state": "WI", "street": "110 E MAIN ST", "postcode": "53816"}}},
{"geometry": {"type": "Point", "coordinates": [-90.8592453541, 42.9670032881]}, "type": "Feature", "properties": {"collection_times": [{"days": "Mon-Fri", "time": "11:30am"}, {"days": "Sat", "time": "10:00am"}, {"days": "Sun", "time": "Closed"}], "id": "5381600001", "name": "USPS COLLECTION BOX - PO LOBBY", "address": {"city": "MOUNT HOPE", "state": "WI", "street": "110 E MAIN ST", "postcode": "53816"}}},
{"geometry": {"type": "Point", "coordinates": [-90.8592453541, 42.9670032881]}, "type": "Feature", "properties": {"collection_times": [{"days": "Mon-Fri", "time": "11:30am"}, {"days": "Sat", "time": "10:00am"}, {"days": "Sun", "time": "Closed"}], "id": "5381600002", "name": "USPS COLLECTION BOX - PO LOBBY", "address": {"city": "MOUNT HOPE", "state": "WI", "street": "110 E MAIN ST", "postcode": "53816"}}},
{"geometry": {"type": "Point", "coordinates": [-90.9723139253, 42.9403857794]}, "type": "Feature", "properties": {"collection_times": [{"days": "Mon-Fri", "time": "3:45pm"}, {"days": "Sat", "time": "9:00am"}, {"days": "Sun", "time": "Closed"}], "id": "5381700000", "name": "USPS COLLECTION BOX - BLUE BOX", "address": {"city": "PATCH GROVE", "state": "WI", "street": "306 MAIN ST", "postcode": "53817"}}},
{"geometry": {"type": "Point", "coordinates": [-90.9725336767, 42.9403388076]}, "type": "Feature", "properties": {"collection_times": [{"days": "Mon-Fri", "time": "3:45pm"}, {"days": "Sat", "time": "9:00am"}, {"days": "Sun", "time": "Closed"}], "id": "5381700002", "name": "USPS COLLECTION BOX - PO LOBBY", "address": {"city": "PATCH GROVE", "state": "WI", "street": "306 MAIN ST", "postcode": "53817"}}},
{"geometry": {"type": "Point", "coordinates": [-90.4759349823, 42.7323929655]}, "type": "Feature", "properties": {"collection_times": [{"days": "Mon-Fri", "time": "5:00pm"}, {"days": "Sat", "time": "4:30pm"}, {"days": "Sun", "time": "Closed"}], "id": "5381800000", "name": "USPS COLLECTION BOX - BLUE BOX", "address": {"city": "PLATTEVILLE", "state": "WI", "street": "255 E PINE ST", "postcode": "53818"}}},
{"geometry": {"type": "Point", "coordinates": [-90.4794153221, 42.7369921458]}, "type": "Feature", "properties": {"collection_times": [{"days": "Mon-Sat", "time": "2:30pm"}, {"days": "Sun", "time": "Closed"}], "id": "5381800008", "name": "USPS COLLECTION BOX - BLUE BOX", "address": {"city": "PLATTEVILLE", "state": "WI", "street": "295 N CHESTNUT ST", "postcode": "53818"}}},
{"geometry": {"type": "Point", "coordinates": [-90.4842069872, 42.7378129526]}, "type": "Feature", "properties": {"collection_times": [{"days": "Mon-Sat", "time": "12:00pm"}, {"days": "Sun", "time": "Closed"}], "id": "5381800010", "name": "USPS COLLECTION BOX - BLUE BOX", "address": {"city": "PLATTEVILLE", "state": "WI", "street": "330 N HICKORY ST", "postcode": "53818"}}},
{"geometry": {"type": "Point", "coordinates": [-90.478736377, 42.7347954198]}, "type": "Feature", "properties": {"collection_times": [{"days": "Mon-Fri", "time": "5:00pm"}, {"days": "Sat", "time": "4:30pm"}, {"days": "Sun", "time": "Closed"}], "id": "5381800012", "name": "USPS COLLECTION BOX - BLUE BOX", "address": {"city": "PLATTEVILLE", "state": "WI", "street": "75 N BONSON ST", "postcode": "53818"}}},
{"geometry": {"type": "Point", "coordinates": [-90.4748272614, 42.7334057184]}, "type": "Feature", "properties": {"collection_times": [{"days": "Mon-Fri", "time": "5:00pm"}, {"days": "Sat", "time": "4:30pm"}, {"days": "Sun", "time": "Closed"}], "id": "5381800014", "name": "USPS COLLECTION BOX - BLUE BOX", "address": {"city": "PLATTEVILLE", "state": "WI", "street": "40 E MAIN ST", "postcode": "53818"}}},
{"geometry": {"type": "Point", "coordinates": [-90.4763748437, 42.7337658281]}, "type": "Feature", "properties": {"collection_times": [{"days": "Mon-Fri", "time": "5:00pm"}, {"days": "Sat", "time": "4:30pm"}, {"days": "Sun", "time": "Closed"}], "id": "5381800015", "name": "USPS COLLECTION BOX - BLUE BOX", "address": {"city": "PLATTEVILLE", "state": "WI", "street": "10 N OAK ST", "postcode": "53818"}}},
{"geometry": {"type": "Point", "coordinates": [-90.47918388, 42.7332611682]}, "type": "Feature", "properties": {"collection_times": [{"days": "Mon-Fri", "time": "5:00pm"}, {"days": "Sat", "time": "4:30pm"}, {"days": "Sun", "time": "Closed"}], "id": "5381800016", "name": "USPS COLLECTION BOX - BLUE BOX", "address": {"city": "PLATTEVILLE", "state": "WI", "street": "90 S BONSON ST", "postcode": "53818"}}},
{"geometry": {"type": "Point", "coordinates": [-90.47918388, 42.7332611682]}, "type": "Feature", "properties": {"collection_times": [{"days": "Mon-Fri", "time": "5:00pm"}, {"days": "Sat", "time": "4:30pm"}, {"days": "Sun", "time": "Closed"}], "id": "5381800017", "name": "USPS COLLECTION BOX - BLUE BOX", "address": {"city": "PLATTEVILLE", "state": "WI", "street": "90 S BONSON ST", "postcode": "53818"}}},
{"geometry": {"type": "Point", "coordinates": [-90.4776894477, 42.7340349888]}, "type": "Feature", "properties": {"collection_times": [{"days": "Mon-Fri", "time": "5:00pm"}, {"days": "Sat", "time": "4:30pm"}, {"days": "Sun", "time": "Closed"}], "id": "5381800020", "name": "USPS COLLECTION BOX - BLUE BOX", "address": {"city": "PLATTEVILLE", "state": "WI", "street": "300 W MAIN ST", "postcode": "53818"}}},
{"geometry": {"type": "Point", "coordinates": [-90.4798016807, 42.7334480568]}, "type": "Feature", "properties": {"collection_times": [{"days": "Mon-Fri", "time": "5:00pm"}, {"days": "Sat", "time": "4:45pm"}, {"days": "Sun", "time": "Closed"}], "id": "5381800025", "name": "USPS COLLECTION BOX - PO LOBBY", "address": {"city": "PLATTEVILLE", "state": "WI", "street": "85 S COURT ST", "postcode": "53818"}}},
{"geometry": {"type": "Point", "coordinates": [-90.4798016807, 42.7334480568]}, "type": "Feature", "properties": {"collection_times": [{"days": "Mon-Fri", "time": "5:00pm"}, {"days": "Sat", "time": "4:45pm"}, {"days": "Sun", "time": "Closed"}], "id": "5381800026", "name": "USPS COLLECTION BOX - PO LOBBY", "address": {"city": "PLATTEVILLE", "state": "WI", "street": "85 S COURT ST", "postcode": "53818"}}},
{"geometry": {"type": "Point", "coordinates": [-90.4392505093, 42.7343148834]}, "type": "Feature", "properties": {"collection_times": [{"days": "Mon-Sat", "time": "10:15am"}, {"days": "Sun", "time": "Closed"}], "id": "5381800027", "name": "USPS COLLECTION BOX - BLUE BOX", "address": {"city": "PLATTEVILLE", "state": "WI", "street": "1800 PROGRESSIVE PKWY", "postcode": "53818"}}},
{"geometry": {"type": "Point", "coordinates": [-90.7120496593, 42.6896782196]}, "type": "Feature", "properties": {"collection_times": [{"days": "Mon-Fri", "time": "4:15pm"}, {"days": "Sat", "time": "10:45am"}, {"days": "Sun", "time": "Closed"}], "id": "5382000000", "name": "USPS COLLECTION BOX - BLUE BOX", "address": {"city": "POTOSI", "state": "WI", "street": "101 EAST ST", "postcode": "53820"}}},
{"geometry": {"type": "Point", "coordinates": [-90.7068329809, 42.6905666308]}, "type": "Feature", "properties": {"collection_times": [{"days": "Mon-Sat", "time": "9:30am"}, {"days": "Sun", "time": "Closed"}], "id": "5382000001", "name": "USPS COLLECTION BOX - BLUE BOX", "address": {"city": "POTOSI", "state": "WI", "street": "327 U S HIGHWAY 61 S", "postcode": "53820"}}},
{"geometry": {"type": "Point", "coordinates": [-90.7120496593, 42.6896782196]}, "type": "Feature", "properties": {"collection_times": [{"days": "Mon-Fri", "time": "4:15pm"}, {"days": "Sat", "time": "10:45am"}, {"days": "Sun", "time": "Closed"}], "id": "5382000002", "name": "USPS COLLECTION BOX - PO LOBBY", "address": {"city": "POTOSI", "state": "WI", "street": "101 EAST ST", "postcode": "53820"}}},
{"geometry": {"type": "Point", "coordinates": [-90.7120496593, 42.6896782196]}, "type": "Feature", "properties": {"collection_times": [{"days": "Mon-Fri", "time": "4:15pm"}, {"days": "Sat", "time": "10:45am"}, {"days": "Sun", "time": "Closed"}], "id": "5382000003", "name": "USPS COLLECTION BOX - PO LOBBY", "address": {"city": "POTOSI", "state": "WI", "street": "101 EAST ST", "postcode": "53820"}}},
{"geometry": {"type": "Point", "coordinates": [-91.1463690051, 43.0513562961]}, "type": "Feature", "properties": {"collection_times": [{"days": "Mon-Fri", "time": "5:00pm"}, {"days": "Sat", "time": "4:00pm"}, {"days": "Sun", "time": "Closed"}], "id": "5382100000", "name": "USPS COLLECTION BOX - BLUE BOX", "address": {"city": "PR DU CHIEN", "state": "WI", "street": "120 S BEAUMONT RD", "postcode": "53821"}}},
{"geometry": {"type": "Point", "coordinates": [-91.1391355123, 43.0519621974]}, "type": "Feature", "properties": {"collection_times": [{"days": "Mon-Sat", "time": "9:30am"}, {"days": "Sun", "time": "Closed"}], "id": "5382100002", "name": "USPS COLLECTION BOX - BLUE BOX", "address": {"city": "PR DU CHIEN", "state": "WI", "street": "600 E BLACKHAWK AVE", "postcode": "53821"}}},
{"geometry": {"type": "Point", "coordinates": [-91.1287880416, 43.0276513943]}, "type": "Feature", "properties": {"collection_times": [{"days": "Mon-Sat", "time": "12:00pm"}, {"days": "Sun", "time": "Closed"}], "id": "5382100009", "name": "USPS COLLECTION BOX - BLUE BOX", "address": {"city": "PR DU CHIEN", "state": "WI", "street": "20 RIVERSIDE SQ", "postcode": "53821"}}},
{"geometry": {"type": "Point", "coordinates": [-91.1463690051, 43.0513562961]}, "type": "Feature", "properties": {"collection_times": [{"days": "Mon-Fri", "time": "5:00pm"}, {"days": "Sat", "time": "4:00pm"}, {"days": "Sun", "time": "Closed"}], "id": "5382100014", "name": "USPS COLLECTION BOX - PO LOBBY", "address": {"city": "PR DU CHIEN", "state": "WI", "street": "120 S BEAUMONT RD", "postcode": "53821"}}},
{"geometry": {"type": "Point", "coordinates": [-91.1463690051, 43.0513562961]}, "type": "Feature", "properties": {"collection_times": [{"days": "Mon-Fri", "time": "5:00pm"}, {"days": "Sat", "time": "4:00pm"}, {"days": "Sun", "time": "Closed"}], "id": "5382100015", "name": "USPS COLLECTION BOX - BLUE BOX", "address": {"city": "PR DU CHIEN", "state": "WI", "street": "120 S BEAUMONT RD", "postcode": "53821"}}},
{"geometry": {"type": "Point", "coordinates": [-91.1359474475, 43.0669514445]}, "type": "Feature", "properties": {"collection_times": [{"days": "Mon-Sat", "time": "12:00pm"}, {"days": "Sun", "time": "Closed"}], "id": "5382100016", "name": "USPS COLLECTION BOX - BLUE BOX", "address": {"city": "PR DU CHIEN", "state": "WI", "street": "34487 STATE HWY 35", "postcode": "53821"}}},
{"geometry": {"type": "Point", "coordinates": [-91.0848923306, 43.0131365564]}, "type": "Feature", "properties": {"collection_times": [{"days": "Mon-Sat", "time": "9:30am"}, {"days": "Sun", "time": "Closed"}], "id": "5382100017", "name": "USPS COLLECTION BOX - BLUE BOX", "address": {"city": "PR DU CHIEN", "state": "WI", "street": "38020 US HIGHWAY 18", "postcode": "53821"}}},
{"geometry": {"type": "Point", "coordinates": [-91.137646424, 43.0521506847]}, "type": "Feature", "properties": {"collection_times": [{"days": "Mon-Sat", "time": "10:00am"}, {"days": "Sun", "time": "Closed"}], "id": "5382100018", "name": "USPS COLLECTION BOX - BLUE BOX", "address": {"city": "PR DU CHIEN", "state": "WI", "street": "695 E BLACKHAWK AVE", "postcode": "53821"}}},
{"geometry": {"type": "Point", "coordinates": [-90.5334290117, 42.5512032497]}, "type": "Feature", "properties": {"collection_times": [{"days": "Mon-Fri", "time": "3:30pm"}, {"days": "Sat", "time": "10:30am"}, {"days": "Sun", "time": "Closed"}], "id": "5382400000", "name": "USPS COLLECTION BOX - BLUE BOX", "address": {"city": "SINSINAWA", "state": "WI", "street": "519 COUNTY ROAD Z", "postcode": "53824"}}},
{"geometry": {"type": "Point", "coordinates": [-90.5334290117, 42.5512032497]}, "type": "Feature", "properties": {"collection_times": [{"days": "Mon-Fri", "time": "3:30pm"}, {"days": "Sat", "time": "10:30am"}, {"days": "Sun", "time": "Closed"}], "id": "5382400001", "name": "USPS COLLECTION BOX - PO LOBBY", "address": {"city": "SINSINAWA", "state": "WI", "street": "519 COUNTY ROAD Z", "postcode": "53824"}}},
{"geometry": {"type": "Point", "coordinates": [-90.5334290117, 42.5512032497]}, "type": "Feature", "properties": {"collection_times": [{"days": "Mon-Fri", "time": "3:30pm"}, {"days": "Sat", "time": "10:30am"}, {"days": "Sun", "time": "Closed"}], "id": "5382400002", "name": "USPS COLLECTION BOX - PO LOBBY", "address": {"city": "SINSINAWA", "state": "WI", "street": "519 COUNTY ROAD Z", "postcode": "53824"}}},
{"geometry": {"type": "Point", "coordinates": [-90.6234901207, 42.9263704128]}, "type": "Feature", "properties": {"collection_times": [{"days": "Mon-Fri", "time": "11:30am"}, {"days": "Sat", "time": "10:00am"}, {"days": "Sun", "time": "Closed"}], "id": "5382500000", "name": "USPS COLLECTION BOX - BLUE BOX", "address": {"city": "STITZER", "state": "WI", "street": "4011 COMMERCIAL ST", "postcode": "53825"}}},
{"geometry": {"type": "Point", "coordinates": [-90.6234901207, 42.9263704128]}, "type": "Feature", "properties": {"collection_times": [{"days": "Mon-Fri", "time": "11:30am"}, {"days": "Sat", "time": "10:00am"}, {"days": "Sun", "time": "Closed"}], "id": "5382500001", "name": "USPS COLLECTION BOX - PO LOBBY", "address": {"city": "STITZER", "state": "WI", "street": "4011 COMMERCIAL ST", "postcode": "53825"}}},
{"geometry": {"type": "Point", "coordinates": [-90.883990174, 43.0835897071]}, "type": "Feature", "properties": {"collection_times": [{"days": "Mon-Fri", "time": "4:00pm"}, {"days": "Sat", "time": "9:30am"}, {"days": "Sun", "time": "Closed"}], "id": "5382600000", "name": "USPS COLLECTION BOX - BLUE BOX", "address": {"city": "WAUZEKA", "state": "WI", "street": "213C E FRONT ST", "postcode": "53826"}}},
{"geometry": {"type": "Point", "coordinates": [-90.883990174, 43.0835897071]}, "type": "Feature", "properties": {"collection_times": [{"days": "Mon-Fri", "time": "11:30am"}, {"days": "Sat", "time": "9:30am"}, {"days": "Sun", "time": "Closed"}], "id": "5382600001", "name": "USPS COLLECTION BOX - PO LOBBY", "address": {"city": "WAUZEKA", "state": "WI", "street": "213C E FRONT ST", "postcode": "53826"}}},
{"geometry": {"type": "Point", "coordinates": [-90.883990174, 43.0835897071]}, "type": "Feature", "properties": {"collection_times": [{"days": "Mon-Fri", "time": "11:30am"}, {"days": "Sat", "time": "9:30am"}, {"days": "Sun", "time": "Closed"}], "id": "5382600002", "name": "USPS COLLECTION BOX - PO LOBBY", "address": {"city": "WAUZEKA", "state": "WI", "street": "213C E FRONT ST", "postcode": "53826"}}}
]}
