{"type": "FeatureCollection", "features": [
{"geometry": {"type": "Point", "coordinates": [-89.4693652836, 43.5671383246]}, "type": "Feature", "properties": {"collection_times": [{"days": "Mon-Sat", "time": "3:00pm"}, {"days": "Sun", "time": "Closed"}], "id": "5390100008", "name": "USPS COLLECTION BOX - BLUE BOX", "address": {"city": "PORTAGE", "state": "WI", "street": "2800 NEW PINERY RD", "postcode": "53901"}}},
{"geometry": {"type": "Point", "coordinates": [-89.4555372721, 43.537254425]}, "type": "Feature", "properties": {"collection_times": [{"days": "Mon-Sat", "time": "3:00pm"}, {"days": "Sun", "time": "Closed"}], "id": "5390100015", "name": "USPS COLLECTION BOX - BLUE BOX", "address": {"city": "PORTAGE", "state": "WI", "street": "311 E WISCONSIN ST", "postcode": "53901"}}},
{"geometry": {"type": "Point", "coordinates": [-89.4618932803, 43.5401953554]}, "type": "Feature", "properties": {"collection_times": [{"days": "Mon-Sat", "time": "5:00pm"}, {"days": "Sun", "time": "Closed"}], "id": "5390100021", "name": "USPS COLLECTION BOX - BLUE BOX", "address": {"city": "PORTAGE", "state": "WI", "street": "215 W CONANT ST", "postcode": "53901"}}},
{"geometry": {"type": "Point", "coordinates": [-89.4869981174, 43.5586946891]}, "type": "Feature", "properties": {"collection_times": [{"days": "Mon-Sat", "time": "10:00am"}, {"days": "Sun", "time": "Closed"}], "id": "5390100024", "name": "USPS COLLECTION BOX - BLUE BOX", "address": {"city": "PORTAGE", "state": "WI", "street": "5800 N STATE ROAD 78", "postcode": "53901"}}},
{"geometry": {"type": "Point", "coordinates": [-89.4618932803, 43.5401953554]}, "type": "Feature", "properties": {"collection_times": [{"days": "Mon-Sat", "time": "5:00pm"}, {"days": "Sun", "time": "Closed"}], "id": "5390100026", "name": "USPS COLLECTION BOX - BLUE BOX", "address": {"city": "PORTAGE", "state": "WI", "street": "215 W CONANT ST", "postcode": "53901"}}},
{"geometry": {"type": "Point", "coordinates": [-89.4618932803, 43.5401953554]}, "type": "Feature", "properties": {"collection_times": [{"days": "Mon-Sat", "time": "5:00pm"}, {"days": "Sun", "time": "Closed"}], "id": "5390100027", "name": "USPS COLLECTION BOX - BLUE BOX", "address": {"city": "PORTAGE", "state": "WI", "street": "215 W CONANT ST", "postcode": "53901"}}},
{"geometry": {"type": "Point", "coordinates": [-89.4618932803, 43.5401953554]}, "type": "Feature", "properties": {"collection_times": [{"days": "Mon-Sat", "time": "5:00pm"}, {"days": "Sun", "time": "Closed"}], "id": "5390100030", "name": "USPS COLLECTION BOX - PO LOBBY", "address": {"city": "PORTAGE", "state": "WI", "street": "215 W CONANT ST", "postcode": "53901"}}},
{"geometry": {"type": "Point", "coordinates": [-89.4693652836, 43.5671383246]}, "type": "Feature", "properties": {"collection_times": [{"days": "Mon-Sat", "time": "3:00pm"}, {"days": "Sun", "time": "Closed"}], "id": "5390100032", "name": "USPS COLLECTION BOX - BLUE BOX", "address": {"city": "PORTAGE", "state": "WI", "street": "2800 NEW PINERY RD", "postcode": "53901"}}},
{"geometry": {"type": "Point", "coordinates": [-89.8164179467, 43.9577471916]}, "type": "Feature", "properties": {"collection_times": [{"days": "Mon-Fri", "time": "4:00pm"}, {"days": "Sat", "time": "10:45am"}, {"days": "Sun", "time": "Closed"}], "id": "5391000000", "name": "USPS COLLECTION BOX - BLUE BOX", "address": {"city": "ADAMS", "state": "WI", "street": "151 S GRANT ST", "postcode": "53910"}}},
{"geometry": {"type": "Point", "coordinates": [-89.8164179467, 43.9577471916]}, "type": "Feature", "properties": {"collection_times": [{"days": "Mon-Fri", "time": "4:00pm"}, {"days": "Sat", "time": "10:45am"}, {"days": "Sun", "time": "Closed"}], "id": "5391000002", "name": "USPS COLLECTION BOX - PO LOBBY", "address": {"city": "ADAMS", "state": "WI", "street": "151 S GRANT ST", "postcode": "53910"}}},
{"geometry": {"type": "Point", "coordinates": [-89.3697999098, 43.3374299834]}, "type": "Feature", "properties": {"collection_times": [{"days": "Mon-Sat", "time": "4:00pm"}, {"days": "Sun", "time": "Closed"}], "id": "5391100000", "name": "USPS COLLECTION BOX - BLUE BOX", "address": {"city": "ARLINGTON", "state": "WI", "street": "205 MAIN ST", "postcode": "53911"}}},
{"geometry": {"type": "Point", "coordinates": [-89.3697999098, 43.3374299834]}, "type": "Feature", "properties": {"collection_times": [{"days": "Mon-Fri", "time": "3:00pm"}, {"days": "Sat", "time": "1:45pm"}, {"days": "Sun", "time": "Closed"}], "id": "5391100001", "name": "USPS COLLECTION BOX - PO LOBBY", "address": {"city": "ARLINGTON", "state": "WI", "street": "205 MAIN ST", "postcode": "53911"}}},
{"geometry": {"type": "Point", "coordinates": [-89.3697999098, 43.3374299834]}, "type": "Feature", "properties": {"collection_times": [{"days": "Mon-Fri", "time": "3:00pm"}, {"days": "Sat", "time": "1:45pm"}, {"days": "Sun", "time": "Closed"}], "id": "5391100004", "name": "USPS COLLECTION BOX - PO LOBBY", "address": {"city": "ARLINGTON", "state": "WI", "street": "205 MAIN ST", "postcode": "53911"}}},
{"geometry": {"type": "Point", "coordinates": [-89.7444486327, 43.4680851902]}, "type": "Feature", "properties": {"collection_times": [{"days": "Mon-Fri", "time": "5:00pm"}, {"days": "Sat", "time": "4:00pm"}, {"days": "Sun", "time": "Closed"}], "id": "5391300000", "name": "USPS COLLECTION BOX - BLUE BOX", "address": {"city": "BARABOO", "state": "WI", "street": "303 BROADWAY ST", "postcode": "53913"}}},
{"geometry": {"type": "Point", "coordinates": [-89.7697238057, 43.4747081543]}, "type": "Feature", "properties": {"collection_times": [{"days": "Mon-Sat", "time": "12:30pm"}, {"days": "Sun", "time": "Closed"}], "id": "5391300003", "name": "USPS COLLECTION BOX - BLUE BOX", "address": {"city": "BARABOO", "state": "WI", "street": "617 STATE ROAD 136", "postcode": "53913"}}},
{"geometry": {"type": "Point", "coordinates": [-89.7243668828, 43.4747330002]}, "type": "Feature", "properties": {"collection_times": [{"days": "Mon-Sat", "time": "1:30pm"}, {"days": "Sun", "time": "Closed"}], "id": "5391300006", "name": "USPS COLLECTION BOX - BLUE BOX", "address": {"city": "BARABOO", "state": "WI", "street": "1120 8TH ST", "postcode": "53913"}}},
{"geometry": {"type": "Point", "coordinates": [-89.7293527292, 43.474650176]}, "type": "Feature", "properties": {"collection_times": [{"days": "Mon-Sat", "time": "12:00pm"}, {"days": "Sun", "time": "Closed"}], "id": "5391300007", "name": "USPS COLLECTION BOX - BLUE BOX", "address": {"city": "BARABOO", "state": "WI", "street": "935 8TH ST", "postcode": "53913"}}},
{"geometry": {"type": "Point", "coordinates": [-89.7453082585, 43.4643900758]}, "type": "Feature", "properties": {"collection_times": [{"days": "Mon-Sat", "time": "1:30pm"}, {"days": "Sun", "time": "Closed"}], "id": "5391300008", "name": "USPS COLLECTION BOX - BLUE BOX", "address": {"city": "BARABOO", "state": "WI", "street": "325 SOUTH BLVD", "postcode": "53913"}}},
{"geometry": {"type": "Point", "coordinates": [-89.7425312991, 43.4698321655]}, "type": "Feature", "properties": {"collection_times": [{"days": "Mon-Sat", "time": "2:30pm"}, {"days": "Sun", "time": "Closed"}], "id": "5391300010", "name": "USPS COLLECTION BOX - BLUE BOX", "address": {"city": "BARABOO", "state": "WI", "street": "101 3RD AVE", "postcode": "53913"}}},
{"geometry": {"type": "Point", "coordinates": [-89.7424137864, 43.4707852472]}, "type": "Feature", "properties": {"collection_times": [{"days": "Mon-Sat", "time": "1:00pm"}, {"days": "Sun", "time": "Closed"}], "id": "5391300014", "name": "USPS COLLECTION BOX - BLUE BOX", "address": {"city": "BARABOO", "state": "WI", "street": "101 4TH ST", "postcode": "53913"}}},
{"geometry": {"type": "Point", "coordinates": [-89.7444486327, 43.4680851902]}, "type": "Feature", "properties": {"collection_times": [{"days": "Mon-Fri", "time": "5:00pm"}, {"days": "Sat", "time": "4:00pm"}, {"days": "Sun", "time": "Closed"}], "id": "5391300015", "name": "USPS COLLECTION BOX - BLUE BOX", "address": {"city": "BARABOO", "state": "WI", "street": "303 BROADWAY ST", "postcode": "53913"}}},
{"geometry": {"type": "Point", "coordinates": [-89.7444486327, 43.4680851902]}, "type": "Feature", "properties": {"collection_times": [{"days": "Mon-Fri", "time": "5:00pm"}, {"days": "Sat", "time": "4:00pm"}, {"days": "Sun", "time": "Closed"}], "id": "5391300016", "name": "USPS COLLECTION BOX - BLUE BOX", "address": {"city": "BARABOO", "state": "WI", "street": "303 BROADWAY ST", "postcode": "53913"}}},
{"geometry": {"type": "Point", "coordinates": [-89.7444486327, 43.4680851902]}, "type": "Feature", "properties": {"collection_times": [{"days": "Mon-Fri", "time": "5:00pm"}, {"days": "Sat", "time": "4:00pm"}, {"days": "Sun", "time": "Closed"}], "id": "5391300017", "name": "USPS COLLECTION BOX - BLUE BOX", "address": {"city": "BARABOO", "state": "WI", "street": "303 BROADWAY ST", "postcode": "53913"}}},
{"geometry": {"type": "Point", "coordinates": [-89.7444486327, 43.4680851902]}, "type": "Feature", "properties": {"collection_times": [{"days": "Mon-Fri", "time": "5:00pm"}, {"days": "Sat", "time": "4:00pm"}, {"days": "Sun", "time": "Closed"}], "id": "5391300020", "name": "USPS COLLECTION BOX - PO LOBBY", "address": {"city": "BARABOO", "state": "WI", "street": "303 BROADWAY ST", "postcode": "53913"}}},
{"geometry": {"type": "Point", "coordinates": [-89.7687802508, 43.4594611373]}, "type": "Feature", "properties": {"collection_times": [{"days": "Mon-Sat", "time": "1:00pm"}, {"days": "Sun", "time": "Closed"}], "id": "5391300022", "name": "USPS COLLECTION BOX - BLUE BOX", "address": {"city": "BARABOO", "state": "WI", "street": "920 US HIGHWAY 12", "postcode": "53913"}}},
{"geometry": {"type": "Point", "coordinates": [-89.7689134887, 43.4748341242]}, "type": "Feature", "properties": {"collection_times": [{"days": "Mon-Sat", "time": "12:15pm"}, {"days": "Sun", "time": "Closed"}], "id": "5391300023", "name": "USPS COLLECTION BOX - BLUE BOX", "address": {"city": "BARABOO", "state": "WI", "street": "603 W PINE ST", "postcode": "53913"}}},
{"geometry": {"type": "Point", "coordinates": [-89.7853182606, 43.5756457231]}, "type": "Feature", "properties": {"collection_times": [{"days": "Mon-Sat", "time": "10:00am"}, {"days": "Sun", "time": "Closed"}], "id": "5391300024", "name": "USPS COLLECTION BOX - BLUE BOX", "address": {"city": "BARABOO", "state": "WI", "street": "210 N GASSER RD", "postcode": "53913"}}},
{"geometry": {"type": "Point", "coordinates": [-88.8358802522, 43.4615507804]}, "type": "Feature", "properties": {"collection_times": [{"days": "Mon-Sat", "time": "3:00pm"}, {"days": "Sun", "time": "Closed"}], "id": "5391600005", "name": "USPS COLLECTION BOX - BLUE BOX", "address": {"city": "BEAVER DAM", "state": "WI", "street": "609 N SPRING ST", "postcode": "53916"}}},
{"geometry": {"type": "Point", "coordinates": [-88.8189287671, 43.4564145057]}, "type": "Feature", "properties": {"collection_times": [{"days": "Mon-Sat", "time": "3:00pm"}, {"days": "Sun", "time": "Closed"}], "id": "5391600008", "name": "USPS COLLECTION BOX - BLUE BOX", "address": {"city": "BEAVER DAM", "state": "WI", "street": "822 PARK AVE", "postcode": "53916"}}},
{"geometry": {"type": "Point", "coordinates": [-88.8369612274, 43.460290804]}, "type": "Feature", "properties": {"collection_times": [{"days": "Mon-Fri", "time": "5:00pm"}, {"days": "Sat", "time": "4:30pm"}, {"days": "Sun", "time": "Closed"}], "id": "5391600023", "name": "USPS COLLECTION BOX - BLUE BOX", "address": {"city": "BEAVER DAM", "state": "WI", "street": "411 N SPRING ST", "postcode": "53916"}}},
{"geometry": {"type": "Point", "coordinates": [-88.8369612274, 43.460290804]}, "type": "Feature", "properties": {"collection_times": [{"days": "Mon-Fri", "time": "5:00pm"}, {"days": "Sat", "time": "4:30pm"}, {"days": "Sun", "time": "Closed"}], "id": "5391600024", "name": "USPS COLLECTION BOX - BLUE BOX", "address": {"city": "BEAVER DAM", "state": "WI", "street": "411 N SPRING ST", "postcode": "53916"}}},
{"geometry": {"type": "Point", "coordinates": [-88.8369612274, 43.460290804]}, "type": "Feature", "properties": {"collection_times": [{"days": "Mon-Fri", "time": "5:00pm"}, {"days": "Sat", "time": "4:30pm"}, {"days": "Sun", "time": "Closed"}], "id": "5391600025", "name": "USPS COLLECTION BOX - BLUE BOX", "address": {"city": "BEAVER DAM", "state": "WI", "street": "411 N SPRING ST", "postcode": "53916"}}},
{"geometry": {"type": "Point", "coordinates": [-88.8378793803, 43.4610820034]}, "type": "Feature", "properties": {"collection_times": [{"days": "Mon-Fri", "time": "5:00pm"}, {"days": "Sat", "time": "4:30pm"}, {"days": "Sun", "time": "Closed"}], "id": "5391600027", "name": "USPS COLLECTION BOX - BLUE BOX", "address": {"city": "BEAVER DAM", "state": "WI", "street": "411 N SPRING ST", "postcode": "53916"}}},
{"geometry": {"type": "Point", "coordinates": [-88.8369612274, 43.460290804]}, "type": "Feature", "properties": {"collection_times": [{"days": "Mon-Fri", "time": "5:00pm"}, {"days": "Sat", "time": "4:30pm"}, {"days": "Sun", "time": "Closed"}], "id": "5391600032", "name": "USPS COLLECTION BOX - PO LOBBY", "address": {"city": "BEAVER DAM", "state": "WI", "street": "411 N SPRING ST", "postcode": "53916"}}},
{"geometry": {"type": "Point", "coordinates": [-88.8369612274, 43.460290804]}, "type": "Feature", "properties": {"collection_times": [{"days": "Mon-Fri", "time": "5:00pm"}, {"days": "Sat", "time": "4:30pm"}, {"days": "Sun", "time": "Closed"}], "id": "5391600034", "name": "USPS COLLECTION BOX - PO LOBBY", "address": {"city": "BEAVER DAM", "state": "WI", "street": "411 N SPRING ST", "postcode": "53916"}}},
{"geometry": {"type": "Point", "coordinates": [-88.8369612274, 43.460290804]}, "type": "Feature", "properties": {"collection_times": [{"days": "Mon-Fri", "time": "5:00pm"}, {"days": "Sat", "time": "4:30pm"}, {"days": "Sun", "time": "Closed"}], "id": "5391600036", "name": "USPS COLLECTION BOX - PO LOBBY", "address": {"city": "BEAVER DAM", "state": "WI", "street": "411 N SPRING ST", "postcode": "53916"}}},
{"geometry": {"type": "Point", "coordinates": [-88.829536977, 43.4633049834]}, "type": "Feature", "properties": {"collection_times": [{"days": "Mon-Fri", "time": "3:00pm"}, {"days": "Sat", "time": "9:00am"}, {"days": "Sun", "time": "Closed"}], "id": "5391600039", "name": "USPS COLLECTION BOX - BLUE BOX", "address": {"city": "BEAVER DAM", "state": "WI", "street": "705 S UNIVERSITY AVE", "postcode": "53916"}}},
{"geometry": {"type": "Point", "coordinates": [-88.8337863271, 43.4499951534]}, "type": "Feature", "properties": {"collection_times": [{"days": "Mon-Sat", "time": "10:30am"}, {"days": "Sun", "time": "Closed"}], "id": "5391600040", "name": "USPS COLLECTION BOX - BLUE BOX", "address": {"city": "BEAVER DAM", "state": "WI", "street": "120 FRANCES LN", "postcode": "53916"}}},
{"geometry": {"type": "Point", "coordinates": [-88.8243411082, 43.4562576289]}, "type": "Feature", "properties": {"collection_times": [{"days": "Mon-Sat", "time": "3:00pm"}, {"days": "Sun", "time": "Closed"}], "id": "5391600041", "name": "USPS COLLECTION BOX - BLUE BOX", "address": {"city": "BEAVER DAM", "state": "WI", "street": "607 PARK AVE", "postcode": "53916"}}},
{"geometry": {"type": "Point", "coordinates": [-88.7814674394, 43.7353737158]}, "type": "Feature", "properties": {"collection_times": [{"days": "Mon-Fri", "time": "3:45pm"}, {"days": "Sat", "time": "10:30am"}, {"days": "Sun", "time": "Closed"}], "id": "5391900000", "name": "USPS COLLECTION BOX - BLUE BOX", "address": {"city": "BRANDON", "state": "WI", "street": "120 N COMMERCIAL ST", "postcode": "53919"}}},
{"geometry": {"type": "Point", "coordinates": [-88.7815187895, 43.7353604687]}, "type": "Feature", "properties": {"collection_times": [{"days": "Mon-Fri", "time": "1:00pm"}, {"days": "Sat", "time": "10:30am"}, {"days": "Sun", "time": "Closed"}], "id": "5391900001", "name": "USPS COLLECTION BOX - PO LOBBY", "address": {"city": "BRANDON", "state": "WI", "street": "120 N COMMERCIAL ST", "postcode": "53919"}}},
{"geometry": {"type": "Point", "coordinates": [-89.5867463891, 43.6558292786]}, "type": "Feature", "properties": {"collection_times": [{"days": "Mon-Fri", "time": "4:30pm"}, {"days": "Sat", "time": "9:30am"}, {"days": "Sun", "time": "Closed"}], "id": "5392000000", "name": "USPS COLLECTION BOX - BLUE BOX", "address": {"city": "BRIGGSVILLE", "state": "WI", "street": "N433 COUNTY ROAD A", "postcode": "53920"}}},
{"geometry": {"type": "Point", "coordinates": [-89.5867463891, 43.6558292786]}, "type": "Feature", "properties": {"collection_times": [{"days": "Mon-Fri", "time": "11:45am"}, {"days": "Sat", "time": "9:30am"}, {"days": "Sun", "time": "Closed"}], "id": "5392000001", "name": "USPS COLLECTION BOX - PO LOBBY", "address": {"city": "BRIGGSVILLE", "state": "WI", "street": "N433 COUNTY ROAD A", "postcode": "53920"}}},
{"geometry": {"type": "Point", "coordinates": [-88.7072131052, 43.5038248768]}, "type": "Feature", "properties": {"collection_times": [{"days": "Mon-Fri", "time": "4:00pm"}, {"days": "Sat", "time": "9:30am"}, {"days": "Sun", "time": "Closed"}], "id": "5392200000", "name": "USPS COLLECTION BOX - BLUE BOX", "address": {"city": "BURNETT", "state": "WI", "street": "N8528 2ND ST", "postcode": "53922"}}},
{"geometry": {"type": "Point", "coordinates": [-88.7072131052, 43.5038248768]}, "type": "Feature", "properties": {"collection_times": [{"days": "Mon-Fri", "time": "11:30am"}, {"days": "Sat", "time": "9:30am"}, {"days": "Sun", "time": "Closed"}], "id": "5392200001", "name": "USPS COLLECTION BOX - PO LOBBY", "address": {"city": "BURNETT", "state": "WI", "street": "N8528 2ND ST", "postcode": "53922"}}},
{"geometry": {"type": "Point", "coordinates": [-89.127686902, 43.5689510637]}, "type": "Feature", "properties": {"collection_times": [{"days": "Mon-Fri", "time": "4:30pm"}, {"days": "Sat", "time": "10:30am"}, {"days": "Sun", "time": "Closed"}], "id": "5392300000", "name": "USPS COLLECTION BOX - BLUE BOX", "address": {"city": "CAMBRIA", "state": "WI", "street": "102 E EDGEWATER ST", "postcode": "53923"}}},
{"geometry": {"type": "Point", "coordinates": [-89.1079299339, 43.543151942]}, "type": "Feature", "properties": {"collection_times": [{"days": "Mon-Fri", "time": "4:30pm"}, {"days": "Sat", "time": "10:30am"}, {"days": "Sun", "time": "Closed"}], "id": "5392300001", "name": "USPS COLLECTION BOX - PO LOBBY", "address": {"city": "CAMBRIA", "state": "WI", "street": "102 E EDGEWATER ST", "postcode": "53923"}}},
{"geometry": {"type": "Point", "coordinates": [-90.1960299089, 43.5229666899]}, "type": "Feature", "properties": {"collection_times": [{"days": "Mon-Fri", "time": "4:00pm"}, {"days": "Sat", "time": "10:00am"}, {"days": "Sun", "time": "Closed"}], "id": "5392400000", "name": "USPS COLLECTION BOX - BLUE BOX", "address": {"city": "CAZENOVIA", "state": "WI", "street": "104 E MAIN ST", "postcode": "53924"}}},
{"geometry": {"type": "Point", "coordinates": [-90.2461695278, 43.4872606153]}, "type": "Feature", "properties": {"collection_times": [{"days": "Mon-Fri", "time": "10:45am"}, {"days": "Sat", "time": "9:15am"}, {"days": "Sun", "time": "Closed"}], "id": "5392400002", "name": "USPS COLLECTION BOX - PO LOBBY", "address": {"city": "CAZENOVIA", "state": "WI", "street": "104 E MAIN ST", "postcode": "53924"}}},
{"geometry": {"type": "Point", "coordinates": [-89.0289936543, 43.3434454112]}, "type": "Feature", "properties": {"collection_times": [{"days": "Mon-Sat", "time": "10:00am"}, {"days": "Sun", "time": "Closed"}], "id": "5392500006", "name": "USPS COLLECTION BOX - BLUE BOX", "address": {"city": "COLUMBUS", "state": "WI", "street": "210 DIX ST", "postcode": "53925"}}},
{"geometry": {"type": "Point", "coordinates": [-89.0143884344, 43.3383996364]}, "type": "Feature", "properties": {"collection_times": [{"days": "Mon-Fri", "time": "2:45pm"}, {"days": "Sat", "time": "9:15am"}, {"days": "Sun", "time": "Closed"}], "id": "5392500008", "name": "USPS COLLECTION BOX - BLUE BOX", "address": {"city": "COLUMBUS", "state": "WI", "street": "114 N LUDINGTON ST", "postcode": "53925"}}},
{"geometry": {"type": "Point", "coordinates": [-89.0168677975, 43.3382237468]}, "type": "Feature", "properties": {"collection_times": [{"days": "Mon-Fri", "time": "4:45pm"}, {"days": "Sat", "time": "11:00am"}, {"days": "Sun", "time": "Closed"}], "id": "5392500012", "name": "USPS COLLECTION BOX - BLUE BOX", "address": {"city": "COLUMBUS", "state": "WI", "street": "211 S DICKASON BLVD", "postcode": "53925"}}},
{"geometry": {"type": "Point", "coordinates": [-89.0168677975, 43.3382237468]}, "type": "Feature", "properties": {"collection_times": [{"days": "Mon-Fri", "time": "4:45pm"}, {"days": "Sat", "time": "11:00am"}, {"days": "Sun", "time": "Closed"}], "id": "5392500013", "name": "USPS COLLECTION BOX - BLUE BOX", "address": {"city": "COLUMBUS", "state": "WI", "street": "211 S DICKASON BLVD", "postcode": "53925"}}},
{"geometry": {"type": "Point", "coordinates": [-89.0168677975, 43.3382237468]}, "type": "Feature", "properties": {"collection_times": [{"days": "Mon-Fri", "time": "5:00pm"}, {"days": "Sat", "time": "11:00am"}, {"days": "Sun", "time": "Closed"}], "id": "5392500014", "name": "USPS COLLECTION BOX - PO LOBBY", "address": {"city": "COLUMBUS", "state": "WI", "street": "211 S DICKASON BLVD", "postcode": "53925"}}},
{"geometry": {"type": "Point", "coordinates": [-89.0168677975, 43.3382237468]}, "type": "Feature", "properties": {"collection_times": [{"days": "Mon-Fri", "time": "5:00pm"}, {"days": "Sat", "time": "11:00am"}, {"days": "Sun", "time": "Closed"}], "id": "5392500015", "name": "USPS COLLECTION BOX - PO LOBBY", "address": {"city": "COLUMBUS", "state": "WI", "street": "211 S DICKASON BLVD", "postcode": "53925"}}},
{"geometry": {"type": "Point", "coordinates": [-89.0168677975, 43.3382237468]}, "type": "Feature", "properties": {"collection_times": [{"days": "Mon-Fri", "time": "5:00pm"}, {"days": "Sat", "time": "11:00am"}, {"days": "Sun", "time": "Closed"}], "id": "5392500017", "name": "USPS COLLECTION BOX - BLUE BOX", "address": {"city": "COLUMBUS", "state": "WI", "street": "211 S DICKASON BLVD", "postcode": "53925"}}},
{"geometry": {"type": "Point", "coordinates": [-89.0289667, 43.346166915]}, "type": "Feature", "properties": {"collection_times": [{"days": "Mon-Sat", "time": "1:00pm"}, {"days": "Sun", "time": "Closed"}], "id": "5392500019", "name": "USPS COLLECTION BOX - BLUE BOX", "address": {"city": "COLUMBUS", "state": "WI", "street": "104 INDUSTRIAL DR", "postcode": "53925"}}},
{"geometry": {"type": "Point", "coordinates": [-89.1840367951, 43.676066432]}, "type": "Feature", "properties": {"collection_times": [{"days": "Mon-Fri", "time": "3:45pm"}, {"days": "Sat", "time": "9:45am"}, {"days": "Sun", "time": "Closed"}], "id": "5392600000", "name": "USPS COLLECTION BOX - BLUE BOX", "address": {"city": "DALTON", "state": "WI", "street": "N755 COUNTY ROAD FF", "postcode": "53926"}}},
{"geometry": {"type": "Point", "coordinates": [-89.1840367951, 43.676066432]}, "type": "Feature", "properties": {"collection_times": [{"days": "Mon-Fri", "time": "11:30am"}, {"days": "Sat", "time": "9:45am"}, {"days": "Sun", "time": "Closed"}], "id": "5392600001", "name": "USPS COLLECTION BOX - PO LOBBY", "address": {"city": "DALTON", "state": "WI", "street": "N755 COUNTY ROAD FF", "postcode": "53926"}}},
{"geometry": {"type": "Point", "coordinates": [-89.1501285702, 43.427738093]}, "type": "Feature", "properties": {"collection_times": [{"days": "Mon-Fri", "time": "4:00pm"}, {"days": "Sat", "time": "9:45am"}, {"days": "Sun", "time": "Closed"}], "id": "5392800000", "name": "USPS COLLECTION BOX - BLUE BOX", "address": {"city": "DOYLESTOWN", "state": "WI", "street": "W2979 RAILROAD ST", "postcode": "53928"}}},
{"geometry": {"type": "Point", "coordinates": [-89.1493859112, 43.4275721686]}, "type": "Feature", "properties": {"collection_times": [{"days": "Mon-Fri", "time": "11:00am"}, {"days": "Sat", "time": "9:45am"}, {"days": "Sun", "time": "Closed"}], "id": "5392800001", "name": "USPS COLLECTION BOX - PO LOBBY", "address": {"city": "DOYLESTOWN", "state": "WI", "street": "W2979 RAILROAD ST", "postcode": "53928"}}},
{"geometry": {"type": "Point", "coordinates": [-90.2705789092, 43.739021434]}, "type": "Feature", "properties": {"collection_times": [{"days": "Mon-Fri", "time": "4:00pm"}, {"days": "Sat", "time": "10:00am"}, {"days": "Sun", "time": "Closed"}], "id": "5392900000", "name": "USPS COLLECTION BOX - BLUE BOX", "address": {"city": "ELROY", "state": "WI", "street": "266 MAIN ST", "postcode": "53929"}}},
{"geometry": {"type": "Point", "coordinates": [-90.2705789092, 43.739021434]}, "type": "Feature", "properties": {"collection_times": [{"days": "Mon-Fri", "time": "4:00pm"}, {"days": "Sat", "time": "10:00am"}, {"days": "Sun", "time": "Closed"}], "id": "5392900005", "name": "USPS COLLECTION BOX - PO LOBBY", "address": {"city": "ELROY", "state": "WI", "street": "266 MAIN ST", "postcode": "53929"}}},
{"geometry": {"type": "Point", "coordinates": [-89.4890783894, 43.7014129014]}, "type": "Feature", "properties": {"collection_times": [{"days": "Mon-Fri", "time": "4:15pm"}, {"days": "Sat", "time": "9:30am"}, {"days": "Sun", "time": "Closed"}], "id": "5393000001", "name": "USPS COLLECTION BOX - BLUE BOX", "address": {"city": "ENDEAVOR", "state": "WI", "street": "121 PARK ST", "postcode": "53930"}}},
{"geometry": {"type": "Point", "coordinates": [-89.4890783894, 43.7014129014]}, "type": "Feature", "properties": {"collection_times": [{"days": "Mon-Fri", "time": "11:00am"}, {"days": "Sat", "time": "9:30am"}, {"days": "Sun", "time": "Closed"}], "id": "5393000002", "name": "USPS COLLECTION BOX - PO LOBBY", "address": {"city": "ENDEAVOR", "state": "WI", "street": "121 PARK ST", "postcode": "53930"}}},
{"geometry": {"type": "Point", "coordinates": [-89.4890783894, 43.7014129014]}, "type": "Feature", "properties": {"collection_times": [{"days": "Mon-Fri", "time": "11:00am"}, {"days": "Sat", "time": "9:30am"}, {"days": "Sun", "time": "Closed"}], "id": "5393000003", "name": "USPS COLLECTION BOX - PO LOBBY", "address": {"city": "ENDEAVOR", "state": "WI", "street": "121 PARK ST", "postcode": "53930"}}},
{"geometry": {"type": "Point", "coordinates": [-89.4890783894, 43.7014129014]}, "type": "Feature", "properties": {"collection_times": [{"days": "Mon-Sat", "time": "12:00pm"}, {"days": "Sun", "time": "Closed"}], "id": "5393000004", "name": "USPS COLLECTION BOX - BLUE BOX", "address": {"city": "ENDEAVOR", "state": "WI", "street": "N1777 COUNTY ROAD CX", "postcode": "53930"}}},
{"geometry": {"type": "Point", "coordinates": [-88.8655616263, 43.7431008037]}, "type": "Feature", "properties": {"collection_times": [{"days": "Mon-Fri", "time": "4:00pm"}, {"days": "Sat", "time": "9:30am"}, {"days": "Sun", "time": "Closed"}], "id": "5393100000", "name": "USPS COLLECTION BOX - BLUE BOX", "address": {"city": "FAIRWATER", "state": "WI", "street": "409 MAIN ST", "postcode": "53931"}}},
{"geometry": {"type": "Point", "coordinates": [-88.8655616263, 43.7431008037]}, "type": "Feature", "properties": {"collection_times": [{"days": "Mon-Fri", "time": "4:00pm"}, {"days": "Sat", "time": "9:30am"}, {"days": "Sun", "time": "Closed"}], "id": "5393100001", "name": "USPS COLLECTION BOX - PO LOBBY", "address": {"city": "FAIRWATER", "state": "WI", "street": "409 MAIN ST", "postcode": "53931"}}},
{"geometry": {"type": "Point", "coordinates": [-89.0629945508, 43.3797661196]}, "type": "Feature", "properties": {"collection_times": [{"days": "Mon-Fri", "time": "4:30pm"}, {"days": "Sat", "time": "10:00am"}, {"days": "Sun", "time": "Closed"}], "id": "5393200002", "name": "USPS COLLECTION BOX - BLUE BOX", "address": {"city": "FALL RIVER", "state": "WI", "street": "203 STEEL RD", "postcode": "53932"}}},
{"geometry": {"type": "Point", "coordinates": [-89.0629945508, 43.3797661196]}, "type": "Feature", "properties": {"collection_times": [{"days": "Mon-Fri", "time": "3:00pm"}, {"days": "Sat", "time": "10:00am"}, {"days": "Sun", "time": "Closed"}], "id": "5393200003", "name": "USPS COLLECTION BOX - PO LOBBY", "address": {"city": "FALL RIVER", "state": "WI", "street": "203 STEEL RD", "postcode": "53932"}}},
{"geometry": {"type": "Point", "coordinates": [-89.058072187, 43.3811720847]}, "type": "Feature", "properties": {"collection_times": [{"days": "Mon-Sat", "time": "1:00pm"}, {"days": "Sun", "time": "Closed"}], "id": "5393200004", "name": "USPS COLLECTION BOX - BLUE BOX", "address": {"city": "FALL RIVER", "state": "WI", "street": "637 S MAIN ST", "postcode": "53932"}}},
{"geometry": {"type": "Point", "coordinates": [-88.9099012943, 43.5659787238]}, "type": "Feature", "properties": {"collection_times": [{"days": "Mon-Fri", "time": "3:45pm"}, {"days": "Sat", "time": "11:00am"}, {"days": "Sun", "time": "Closed"}], "id": "5393300000", "name": "USPS COLLECTION BOX - BLUE BOX", "address": {"city": "FOX LAKE", "state": "WI", "street": "310 W STATE ST", "postcode": "53933"}}},
{"geometry": {"type": "Point", "coordinates": [-88.9099012943, 43.5659787238]}, "type": "Feature", "properties": {"collection_times": [{"days": "Mon-Fri", "time": "3:45pm"}, {"days": "Sat", "time": "11:00am"}, {"days": "Sun", "time": "Closed"}], "id": "5393300001", "name": "USPS COLLECTION BOX - BLUE BOX", "address": {"city": "FOX LAKE", "state": "WI", "street": "310 W STATE ST", "postcode": "53933"}}},
{"geometry": {"type": "Point", "coordinates": [-88.9099012943, 43.5659787238]}, "type": "Feature", "properties": {"collection_times": [{"days": "Mon-Fri", "time": "3:45pm"}, {"days": "Sat", "time": "11:00am"}, {"days": "Sun", "time": "Closed"}], "id": "5393300002", "name": "USPS COLLECTION BOX - PO LOBBY", "address": {"city": "FOX LAKE", "state": "WI", "street": "310 W STATE ST", "postcode": "53933"}}},
{"geometry": {"type": "Point", "coordinates": [-88.9099012943, 43.5659787238]}, "type": "Feature", "properties": {"collection_times": [{"days": "Mon-Fri", "time": "3:45pm"}, {"days": "Sat", "time": "11:00am"}, {"days": "Sun", "time": "Closed"}], "id": "5393300003", "name": "USPS COLLECTION BOX - PO LOBBY", "address": {"city": "FOX LAKE", "state": "WI", "street": "310 W STATE ST", "postcode": "53933"}}},
{"geometry": {"type": "Point", "coordinates": [-89.8162320028, 43.9720319607]}, "type": "Feature", "properties": {"collection_times": [{"days": "Mon-Fri", "time": "3:45pm"}, {"days": "Sat", "time": "10:45am"}, {"days": "Sun", "time": "Closed"}], "id": "5393400000", "name": "USPS COLLECTION BOX - BLUE BOX", "address": {"city": "FRIENDSHIP", "state": "WI", "street": "315 MAIN ST", "postcode": "53934"}}},
{"geometry": {"type": "Point", "coordinates": [-89.8162320028, 43.9720319607]}, "type": "Feature", "properties": {"collection_times": [{"days": "Mon-Fri", "time": "3:45pm"}, {"days": "Sat", "time": "10:45am"}, {"days": "Sun", "time": "Closed"}], "id": "5393400001", "name": "USPS COLLECTION BOX - PO LOBBY", "address": {"city": "FRIENDSHIP", "state": "WI", "street": "315 MAIN ST", "postcode": "53934"}}},
{"geometry": {"type": "Point", "coordinates": [-89.0670381165, 43.5883014762]}, "type": "Feature", "properties": {"collection_times": [{"days": "Mon-Fri", "time": "4:00pm"}, {"days": "Sat", "time": "9:30am"}, {"days": "Sun", "time": "Closed"}], "id": "5393500000", "name": "USPS COLLECTION BOX - BLUE BOX", "address": {"city": "FRIESLAND", "state": "WI", "street": "113 S MADISON ST", "postcode": "53935"}}},
{"geometry": {"type": "Point", "coordinates": [-89.0670381165, 43.5883014762]}, "type": "Feature", "properties": {"collection_times": [{"days": "Mon-Fri", "time": "11:15am"}, {"days": "Sat", "time": "9:30am"}, {"days": "Sun", "time": "Closed"}], "id": "5393500001", "name": "USPS COLLECTION BOX - PO LOBBY", "address": {"city": "FRIESLAND", "state": "WI", "street": "113 S MADISON ST", "postcode": "53935"}}},
{"geometry": {"type": "Point", "coordinates": [-89.067750202, 43.588581659]}, "type": "Feature", "properties": {"collection_times": [{"days": "Mon-Sat", "time": "12:30pm"}, {"days": "Sun", "time": "Closed"}], "id": "5393500003", "name": "USPS COLLECTION BOX - BLUE BOX", "address": {"city": "FRIESLAND", "state": "WI", "street": "114 W WINNEBAGO ST", "postcode": "53935"}}},
{"geometry": {"type": "Point", "coordinates": [-89.7072581556, 43.8707772211]}, "type": "Feature", "properties": {"collection_times": [{"days": "Mon-Fri", "time": "3:15pm"}, {"days": "Sat", "time": "10:30am"}, {"days": "Sun", "time": "Closed"}], "id": "5393600000", "name": "USPS COLLECTION BOX - BLUE BOX", "address": {"city": "GRAND MARSH", "state": "WI", "street": "644 COUNTY ROAD E", "postcode": "53936"}}},
{"geometry": {"type": "Point", "coordinates": [-89.7072581556, 43.8707772211]}, "type": "Feature", "properties": {"collection_times": [{"days": "Mon-Fri", "time": "1:45pm"}, {"days": "Sat", "time": "10:30am"}, {"days": "Sun", "time": "Closed"}], "id": "5393600001", "name": "USPS COLLECTION BOX - PO LOBBY", "address": {"city": "GRAND MARSH", "state": "WI", "street": "644 COUNTY ROAD E", "postcode": "53936"}}},
{"geometry": {"type": "Point", "coordinates": [-89.706330567, 43.887037398]}, "type": "Feature", "properties": {"collection_times": [{"days": "Mon-Fri", "time": "1:45pm"}, {"days": "Sat", "time": "10:30am"}, {"days": "Sun", "time": "Closed"}], "id": "5393600002", "name": "USPS COLLECTION BOX - PO LOBBY", "address": {"city": "GRAND MARSH", "state": "WI", "street": "644 COUNTY ROAD E", "postcode": "53936"}}},
{"geometry": {"type": "Point", "coordinates": [-89.7168696478, 43.8577027492]}, "type": "Feature", "properties": {"collection_times": [{"days": "Mon-Sat", "time": "8:30am"}, {"days": "Sun", "time": "Closed"}], "id": "5393600003", "name": "USPS COLLECTION BOX - BLUE BOX", "address": {"city": "GRAND MARSH", "state": "WI", "street": "626 COUNTY ROAD E", "postcode": "53936"}}},
{"geometry": {"type": "Point", "coordinates": [-90.1617460709, 43.3875427391]}, "type": "Feature", "properties": {"collection_times": [{"days": "Mon-Fri", "time": "4:00pm"}, {"days": "Sat", "time": "9:30am"}, {"days": "Sun", "time": "Closed"}], "id": "5393700000", "name": "USPS COLLECTION BOX - BLUE BOX", "address": {"city": "HILLPOINT", "state": "WI", "street": "S6071 STATE ROAD 154", "postcode": "53937"}}},
{"geometry": {"type": "Point", "coordinates": [-90.1617460709, 43.3875427391]}, "type": "Feature", "properties": {"collection_times": [{"days": "Mon-Fri", "time": "11:15am"}, {"days": "Sat", "time": "9:30am"}, {"days": "Sun", "time": "Closed"}], "id": "5393700001", "name": "USPS COLLECTION BOX - PO LOBBY", "address": {"city": "HILLPOINT", "state": "WI", "street": "S6071 STATE ROAD 154", "postcode": "53937"}}},
{"geometry": {"type": "Point", "coordinates": [-89.1271481213, 43.6942827474]}, "type": "Feature", "properties": {"collection_times": [{"days": "Mon-Fri", "time": "4:45pm"}, {"days": "Sat", "time": "9:45am"}, {"days": "Sun", "time": "Closed"}], "id": "5393900000", "name": "USPS COLLECTION BOX - BLUE BOX", "address": {"city": "KINGSTON", "state": "WI", "street": "150 N SOUTH ST", "postcode": "53939"}}},
{"geometry": {"type": "Point", "coordinates": [-89.1271481213, 43.6942827474]}, "type": "Feature", "properties": {"collection_times": [{"days": "Mon-Fri", "time": "4:15pm"}, {"days": "Sat", "time": "9:45am"}, {"days": "Sun", "time": "Closed"}], "id": "5393900001", "name": "USPS COLLECTION BOX - PO LOBBY", "address": {"city": "KINGSTON", "state": "WI", "street": "150 N SOUTH ST", "postcode": "53939"}}},
{"geometry": {"type": "Point", "coordinates": [-89.7922204741, 43.5901950086]}, "type": "Feature", "properties": {"collection_times": [{"days": "Mon-Fri", "time": "5:00pm"}, {"days": "Sat", "time": "11:30am"}, {"days": "Sun", "time": "Closed"}], "id": "5394000001", "name": "USPS COLLECTION BOX - BLUE BOX", "address": {"city": "LAKE DELTON", "state": "WI", "street": "49 E ADAMS ST", "postcode": "53940"}}},
{"geometry": {"type": "Point", "coordinates": [-89.7922204741, 43.5901950086]}, "type": "Feature", "properties": {"collection_times": [{"days": "Mon-Fri", "time": "5:00pm"}, {"days": "Sat", "time": "11:30am"}, {"days": "Sun", "time": "Closed"}], "id": "5394000002", "name": "USPS COLLECTION BOX - PO LOBBY", "address": {"city": "LAKE DELTON", "state": "WI", "street": "49 E ADAMS ST", "postcode": "53940"}}},
{"geometry": {"type": "Point", "coordinates": [-89.7922204741, 43.5901950086]}, "type": "Feature", "properties": {"collection_times": [{"days": "Mon-Fri", "time": "4:45pm"}, {"days": "Sat", "time": "11:30am"}, {"days": "Sun", "time": "Closed"}], "id": "5394000003", "name": "USPS COLLECTION BOX - PO LOBBY", "address": {"city": "LAKE DELTON", "state": "WI", "street": "49 E ADAMS ST", "postcode": "53940"}}},
{"geometry": {"type": "Point", "coordinates": [-89.7922204741, 43.5901950086]}, "type": "Feature", "properties": {"collection_times": [{"days": "Mon-Fri", "time": "4:45pm"}, {"days": "Sat", "time": "11:30am"}, {"days": "Sun", "time": "Closed"}], "id": "5394000004", "name": "USPS COLLECTION BOX - PO LOBBY", "address": {"city": "LAKE DELTON", "state": "WI", "street": "49 E ADAMS ST", "postcode": "53940"}}},
{"geometry": {"type": "Point", "coordinates": [-90.1293462855, 43.5821772764]}, "type": "Feature", "properties": {"collection_times": [{"days": "Mon-Fri", "time": "4:30pm"}, {"days": "Sat", "time": "10:30am"}, {"days": "Sun", "time": "Closed"}], "id": "5394100000", "name": "USPS COLLECTION BOX - BLUE BOX", "address": {"city": "LA VALLE", "state": "WI", "street": "106 E MAIN ST", "postcode": "53941"}}},
{"geometry": {"type": "Point", "coordinates": [-90.1297921803, 43.582243049]}, "type": "Feature", "properties": {"collection_times": [{"days": "Mon-Fri", "time": "12:15pm"}, {"days": "Sat", "time": "10:30am"}, {"days": "Sun", "time": "Closed"}], "id": "5394100002", "name": "USPS COLLECTION BOX - PO LOBBY", "address": {"city": "LA VALLE", "state": "WI", "street": "106 E MAIN ST", "postcode": "53941"}}},
{"geometry": {"type": "Point", "coordinates": [-90.1358585282, 43.5792773818]}, "type": "Feature", "properties": {"collection_times": [{"days": "Mon-Sat", "time": "12:00pm"}, {"days": "Sun", "time": "Closed"}], "id": "5394100003", "name": "USPS COLLECTION BOX - BLUE BOX", "address": {"city": "LA VALLE", "state": "WI", "street": "S1428A STATE ROAD 33", "postcode": "53941"}}},
{"geometry": {"type": "Point", "coordinates": [-90.1554798589, 43.4682559215]}, "type": "Feature", "properties": {"collection_times": [{"days": "Mon-Fri", "time": "4:00pm"}, {"days": "Sat", "time": "9:00am"}, {"days": "Sun", "time": "Closed"}], "id": "5394200000", "name": "USPS COLLECTION BOX - BLUE BOX", "address": {"city": "LIMERIDGE", "state": "WI", "street": "104 N MAIN ST", "postcode": "53942"}}},
{"geometry": {"type": "Point", "coordinates": [-90.1554798589, 43.4682559215]}, "type": "Feature", "properties": {"collection_times": [{"days": "Mon-Fri", "time": "4:00pm"}, {"days": "Sat", "time": "9:00am"}, {"days": "Sun", "time": "Closed"}], "id": "5394200001", "name": "USPS COLLECTION BOX - PO LOBBY", "address": {"city": "LIMERIDGE", "state": "WI", "street": "104 N MAIN ST", "postcode": "53942"}}},
{"geometry": {"type": "Point", "coordinates": [-90.0355671112, 43.3990917637]}, "type": "Feature", "properties": {"collection_times": [{"days": "Mon-Fri", "time": "4:15pm"}, {"days": "Sat", "time": "9:45am"}, {"days": "Sun", "time": "Closed"}], "id": "5394300000", "name": "USPS COLLECTION BOX - BLUE BOX", "address": {"city": "LOGANVILLE", "state": "WI", "street": "245 WALNUT ST", "postcode": "53943"}}},
{"geometry": {"type": "Point", "coordinates": [-90.0355671112, 43.3990917637]}, "type": "Feature", "properties": {"collection_times": [{"days": "Mon-Fri", "time": "11:15am"}, {"days": "Sat", "time": "9:45am"}, {"days": "Sun", "time": "Closed"}], "id": "5394300001", "name": "USPS COLLECTION BOX - PO LOBBY", "address": {"city": "LOGANVILLE", "state": "WI", "street": "245 WALNUT ST", "postcode": "53943"}}},
{"geometry": {"type": "Point", "coordinates": [-89.9135593567, 43.6976414366]}, "type": "Feature", "properties": {"collection_times": [{"days": "Mon-Fri", "time": "3:30pm"}, {"days": "Sat", "time": "10:00am"}, {"days": "Sun", "time": "Closed"}], "id": "5394400000", "name": "USPS COLLECTION BOX - BLUE BOX", "address": {"city": "LYNDON STATION", "state": "WI", "street": "107 N WASHINGTON ST", "postcode": "53944"}}},
{"geometry": {"type": "Point", "coordinates": [-89.9135593567, 43.6976414366]}, "type": "Feature", "properties": {"collection_times": [{"days": "Mon-Fri", "time": "12:00pm"}, {"days": "Sat", "time": "10:00am"}, {"days": "Sun", "time": "Closed"}], "id": "5394400001", "name": "USPS COLLECTION BOX - PO LOBBY", "address": {"city": "LYNDON STATION", "state": "WI", "street": "300 E FLINT ST", "postcode": "53944"}}},
{"geometry": {"type": "Point", "coordinates": [-89.90014, 43.71195]}, "type": "Feature", "properties": {"collection_times": [{"days": "Mon-Sat", "time": "11:00am"}, {"days": "Sun", "time": "Closed"}], "id": "5394400003", "name": "USPS COLLECTION BOX - BLUE BOX", "address": {"city": "LYNDON STATION", "state": "WI", "street": "166 S WISCONSIN ST", "postcode": "53944"}}},
{"geometry": {"type": "Point", "coordinates": [-88.9906067228, 43.7148416257]}, "type": "Feature", "properties": {"collection_times": [{"days": "Mon-Fri", "time": "4:15pm"}, {"days": "Sat", "time": "11:00am"}, {"days": "Sun", "time": "Closed"}], "id": "5394600000", "name": "USPS COLLECTION BOX - BLUE BOX", "address": {"city": "MARKESAN", "state": "WI", "street": "735 N MARGARET ST", "postcode": "53946"}}},
{"geometry": {"type": "Point", "coordinates": [-88.9906067228, 43.7148416257]}, "type": "Feature", "properties": {"collection_times": [{"days": "Mon-Fri", "time": "4:15pm"}, {"days": "Sat", "time": "11:00am"}, {"days": "Sun", "time": "Closed"}], "id": "5394600003", "name": "USPS COLLECTION BOX - PO LOBBY", "address": {"city": "MARKESAN", "state": "WI", "street": "735 N MARGARET ST", "postcode": "53946"}}},
{"geometry": {"type": "Point", "coordinates": [-89.1396845386, 43.748418366]}, "type": "Feature", "properties": {"collection_times": [{"days": "Mon-Fri", "time": "4:30pm"}, {"days": "Sat", "time": "9:45am"}, {"days": "Sun", "time": "Closed"}], "id": "5394700000", "name": "USPS COLLECTION BOX - BLUE BOX", "address": {"city": "MARQUETTE", "state": "WI", "street": "126 S LYON ST", "postcode": "53947"}}},
{"geometry": {"type": "Point", "coordinates": [-89.1396845386, 43.748418366]}, "type": "Feature", "properties": {"collection_times": [{"days": "Mon-Fri", "time": "10:30am"}, {"days": "Sat", "time": "9:45am"}, {"days": "Sun", "time": "Closed"}], "id": "5394700001", "name": "USPS COLLECTION BOX - PO LOBBY", "address": {"city": "MARQUETTE", "state": "WI", "street": "126 S LYON ST", "postcode": "53947"}}},
{"geometry": {"type": "Point", "coordinates": [-90.0719865116, 43.7953610526]}, "type": "Feature", "properties": {"collection_times": [{"days": "Mon-Sat", "time": "1:00pm"}, {"days": "Sun", "time": "Closed"}], "id": "5394800000", "name": "USPS COLLECTION BOX - BLUE BOX", "address": {"city": "MAUSTON", "state": "WI", "street": "503 STATE ROAD 82", "postcode": "53948"}}},
{"geometry": {"type": "Point", "coordinates": [-90.0705795562, 43.7948636062]}, "type": "Feature", "properties": {"collection_times": [{"days": "Mon-Sat", "time": "1:00pm"}, {"days": "Sun", "time": "Closed"}], "id": "5394800002", "name": "USPS COLLECTION BOX - BLUE BOX", "address": {"city": "MAUSTON", "state": "WI", "street": "611 STATE ROAD 82", "postcode": "53948"}}},
{"geometry": {"type": "Point", "coordinates": [-90.0701836732, 43.8060734478]}, "type": "Feature", "properties": {"collection_times": [{"days": "Mon-Sat", "time": "2:00pm"}, {"days": "Sun", "time": "Closed"}], "id": "5394800003", "name": "USPS COLLECTION BOX - BLUE BOX", "address": {"city": "MAUSTON", "state": "WI", "street": "750 N UNION ST", "postcode": "53948"}}},
{"geometry": {"type": "Point", "coordinates": [-90.093564592, 43.804429735]}, "type": "Feature", "properties": {"collection_times": [{"days": "Mon-Sat", "time": "11:00am"}, {"days": "Sun", "time": "Closed"}], "id": "5394800008", "name": "USPS COLLECTION BOX - BLUE BOX", "address": {"city": "MAUSTON", "state": "WI", "street": "1015 PARKER DR", "postcode": "53948"}}},
{"geometry": {"type": "Point", "coordinates": [-90.0617979094, 43.7901813638]}, "type": "Feature", "properties": {"collection_times": [{"days": "Mon-Fri", "time": "4:30pm"}, {"days": "Sat", "time": "11:30am"}, {"days": "Sun", "time": "Closed"}], "id": "5394800012", "name": "USPS COLLECTION BOX - BLUE BOX", "address": {"city": "MAUSTON", "state": "WI", "street": "536 LA CROSSE ST", "postcode": "53948"}}},
{"geometry": {"type": "Point", "coordinates": [-90.0719195803, 43.7946304239]}, "type": "Feature", "properties": {"collection_times": [{"days": "Mon-Fri", "time": "4:30pm"}, {"days": "Sat", "time": "11:30am"}, {"days": "Sun", "time": "Closed"}], "id": "5394800020", "name": "USPS COLLECTION BOX - PO LOBBY", "address": {"city": "MAUSTON", "state": "WI", "street": "536 LACROSSE ST", "postcode": "53948"}}},
{"geometry": {"type": "Point", "coordinates": [-89.3246773776, 43.7917926253]}, "type": "Feature", "properties": {"collection_times": [{"days": "Mon-Fri", "time": "4:45pm"}, {"days": "Sat", "time": "11:00am"}, {"days": "Sun", "time": "Closed"}], "id": "5394900000", "name": "USPS COLLECTION BOX - BLUE BOX", "address": {"city": "MONTELLO", "state": "WI", "street": "109 E MONTELLO ST", "postcode": "53949"}}},
{"geometry": {"type": "Point", "coordinates": [-89.3246773776, 43.7917926253]}, "type": "Feature", "properties": {"collection_times": [{"days": "Mon-Fri", "time": "4:45pm"}, {"days": "Sat", "time": "11:00am"}, {"days": "Sun", "time": "Closed"}], "id": "5394900003", "name": "USPS COLLECTION BOX - PO LOBBY", "address": {"city": "MONTELLO", "state": "WI", "street": "109 E MONTELLO ST", "postcode": "53949"}}},
{"geometry": {"type": "Point", "coordinates": [-89.325908342, 43.7841968636]}, "type": "Feature", "properties": {"collection_times": [{"days": "Mon-Sat", "time": "1:15pm"}, {"days": "Sun", "time": "Closed"}], "id": "5394900004", "name": "USPS COLLECTION BOX - BLUE BOX", "address": {"city": "MONTELLO", "state": "WI", "street": "326 MAIN ST", "postcode": "53949"}}},
{"geometry": {"type": "Point", "coordinates": [-90.1662237574, 43.8794797851]}, "type": "Feature", "properties": {"collection_times": [{"days": "Mon-Fri", "time": "4:15pm"}, {"days": "Sat", "time": "10:00am"}, {"days": "Sun", "time": "Closed"}], "id": "5395000000", "name": "USPS COLLECTION BOX - BLUE BOX", "address": {"city": "NEW LISBON", "state": "WI", "street": "100 N ADAMS ST", "postcode": "53950"}}},
{"geometry": {"type": "Point", "coordinates": [-90.1662237574, 43.8794797851]}, "type": "Feature", "properties": {"collection_times": [{"days": "Mon-Fri", "time": "4:15pm"}, {"days": "Sat", "time": "10:00am"}, {"days": "Sun", "time": "Closed"}], "id": "5395000002", "name": "USPS COLLECTION BOX - BLUE BOX", "address": {"city": "NEW LISBON", "state": "WI", "street": "100 N ADAMS ST", "postcode": "53950"}}},
{"geometry": {"type": "Point", "coordinates": [-90.0723430386, 43.8894890349]}, "type": "Feature", "properties": {"collection_times": [{"days": "Mon-Sat", "time": "9:00am"}, {"days": "Sun", "time": "Closed"}], "id": "5395000005", "name": "USPS COLLECTION BOX - BLUE BOX", "address": {"city": "NEW LISBON", "state": "WI", "street": "N7001 STATE HWY 58", "postcode": "53950"}}},
{"geometry": {"type": "Point", "coordinates": [-90.1441194658, 43.8866313921]}, "type": "Feature", "properties": {"collection_times": [{"days": "Mon-Sat", "time": "9:00am"}, {"days": "Sun", "time": "Closed"}], "id": "5395000006", "name": "USPS COLLECTION BOX - BLUE BOX", "address": {"city": "NEW LISBON", "state": "WI", "street": "1703 E BRIDGE ST", "postcode": "53950"}}},
{"geometry": {"type": "Point", "coordinates": [-90.130660614, 43.9025800728]}, "type": "Feature", "properties": {"collection_times": [{"days": "Mon-Sat", "time": "9:00am"}, {"days": "Sun", "time": "Closed"}], "id": "5395000008", "name": "USPS COLLECTION BOX - BLUE BOX", "address": {"city": "NEW LISBON", "state": "WI", "street": "5240 N OSPREY DR", "postcode": "53950"}}},
{"geometry": {"type": "Point", "coordinates": [-90.1491180432, 43.8817482141]}, "type": "Feature", "properties": {"collection_times": [{"days": "Mon-Sat", "time": "9:00am"}, {"days": "Sun", "time": "Closed"}], "id": "5395000011", "name": "USPS COLLECTION BOX - BLUE BOX", "address": {"city": "NEW LISBON", "state": "WI", "street": "201 LEER ST", "postcode": "53950"}}},
{"geometry": {"type": "Point", "coordinates": [-90.1662237574, 43.8794797851]}, "type": "Feature", "properties": {"collection_times": [{"days": "Mon-Fri", "time": "4:00pm"}, {"days": "Sat", "time": "10:00am"}, {"days": "Sun", "time": "Closed"}], "id": "5395000012", "name": "USPS COLLECTION BOX - PO LOBBY", "address": {"city": "NEW LISBON", "state": "WI", "street": "100 N ADAMS ST", "postcode": "53950"}}},
{"geometry": {"type": "Point", "coordinates": [-90.1662237574, 43.8794797851]}, "type": "Feature", "properties": {"collection_times": [{"days": "Mon-Fri", "time": "4:00pm"}, {"days": "Sat", "time": "10:00am"}, {"days": "Sun", "time": "Closed"}], "id": "5395000013", "name": "USPS COLLECTION BOX - PO LOBBY", "address": {"city": "NEW LISBON", "state": "WI", "street": "100 N ADAMS ST", "postcode": "53950"}}},
{"geometry": {"type": "Point", "coordinates": [-90.1492040408, 43.8818386576]}, "type": "Feature", "properties": {"collection_times": [{"days": "Mon-Sat", "time": "9:00am"}, {"days": "Sun", "time": "Closed"}], "id": "5395000014", "name": "USPS COLLECTION BOX - BLUE BOX", "address": {"city": "NEW LISBON", "state": "WI", "street": "1700 E BRIDGE ST", "postcode": "53950"}}},
{"geometry": {"type": "Point", "coordinates": [-89.8562965293, 43.4026937733]}, "type": "Feature", "properties": {"collection_times": [{"days": "Mon-Fri", "time": "4:30pm"}, {"days": "Sat", "time": "10:00am"}, {"days": "Sun", "time": "Closed"}], "id": "5395100000", "name": "USPS COLLECTION BOX - BLUE BOX", "address": {"city": "NORTH FREEDOM", "state": "WI", "street": "102 E WALNUT ST", "postcode": "53951"}}},
{"geometry": {"type": "Point", "coordinates": [-89.8667423765, 43.4603107049]}, "type": "Feature", "properties": {"collection_times": [{"days": "Mon-Fri", "time": "11:30am"}, {"days": "Sat", "time": "10:00am"}, {"days": "Sun", "time": "Closed"}], "id": "5395100001", "name": "USPS COLLECTION BOX - PO LOBBY", "address": {"city": "NORTH FREEDOM", "state": "WI", "street": "102 E WALNUT ST", "postcode": "53951"}}},
{"geometry": {"type": "Point", "coordinates": [-89.5722864621, 43.7813515883]}, "type": "Feature", "properties": {"collection_times": [{"days": "Mon-Fri", "time": "4:45pm"}, {"days": "Sat", "time": "11:00am"}, {"days": "Sun", "time": "Closed"}], "id": "5395200001", "name": "USPS COLLECTION BOX - BLUE BOX", "address": {"city": "OXFORD", "state": "WI", "street": "119 E ORMSBY ST", "postcode": "53952"}}},
{"geometry": {"type": "Point", "coordinates": [-89.5722864621, 43.7813515883]}, "type": "Feature", "properties": {"collection_times": [{"days": "Mon-Fri", "time": "4:15pm"}, {"days": "Sat", "time": "11:00am"}, {"days": "Sun", "time": "Closed"}], "id": "5395200002", "name": "USPS COLLECTION BOX - PO LOBBY", "address": {"city": "OXFORD", "state": "WI", "street": "119 E ORMSBY ST", "postcode": "53952"}}},
{"geometry": {"type": "Point", "coordinates": [-89.4579842667, 43.7635534177]}, "type": "Feature", "properties": {"collection_times": [{"days": "Mon-Fri", "time": "4:00pm"}, {"days": "Sat", "time": "9:00am"}, {"days": "Sun", "time": "Closed"}], "id": "5395300000", "name": "USPS COLLECTION BOX - BLUE BOX", "address": {"city": "PACKWAUKEE", "state": "WI", "street": "W5981 MAIN ST", "postcode": "53953"}}},
{"geometry": {"type": "Point", "coordinates": [-89.4579842667, 43.7635534177]}, "type": "Feature", "properties": {"collection_times": [{"days": "Mon-Fri", "time": "4:00pm"}, {"days": "Sat", "time": "9:30am"}, {"days": "Sun", "time": "Closed"}], "id": "5395300001", "name": "USPS COLLECTION BOX - PO LOBBY", "address": {"city": "PACKWAUKEE", "state": "WI", "street": "W5981 MAIN ST", "postcode": "53953"}}},
{"geometry": {"type": "Point", "coordinates": [-89.2996341326, 43.5383080074]}, "type": "Feature", "properties": {"collection_times": [{"days": "Mon-Fri", "time": "12:00pm"}, {"days": "Sat", "time": "11:00am"}, {"days": "Sun", "time": "Closed"}], "id": "5395400000", "name": "USPS COLLECTION BOX - BLUE BOX", "address": {"city": "PARDEEVILLE", "state": "WI", "street": "116 LAKE ST", "postcode": "53954"}}},
{"geometry": {"type": "Point", "coordinates": [-89.3036915399, 43.5274558366]}, "type": "Feature", "properties": {"collection_times": [{"days": "Mon-Fri", "time": "4:15pm"}, {"days": "Sat", "time": "11:00am"}, {"days": "Sun", "time": "Closed"}], "id": "5395400003", "name": "USPS COLLECTION BOX - BLUE BOX", "address": {"city": "PARDEEVILLE", "state": "WI", "street": "107 INDUSTRIAL DR", "postcode": "53954"}}},
{"geometry": {"type": "Point", "coordinates": [-89.3036915399, 43.5274558366]}, "type": "Feature", "properties": {"collection_times": [{"days": "Mon-Fri", "time": "4:30pm"}, {"days": "Sat", "time": "11:00am"}, {"days": "Sun", "time": "Closed"}], "id": "5395400004", "name": "USPS COLLECTION BOX - PO LOBBY", "address": {"city": "PARDEEVILLE", "state": "WI", "street": "107 INDUSTRIAL DR", "postcode": "53954"}}},
{"geometry": {"type": "Point", "coordinates": [-89.3036915399, 43.5274558366]}, "type": "Feature", "properties": {"collection_times": [{"days": "Mon-Fri", "time": "4:30pm"}, {"days": "Sat", "time": "11:00am"}, {"days": "Sun", "time": "Closed"}], "id": "5395400005", "name": "USPS COLLECTION BOX - PO LOBBY", "address": {"city": "PARDEEVILLE", "state": "WI", "street": "107 INDUSTRIAL DR", "postcode": "53954"}}},
{"geometry": {"type": "Point", "coordinates": [-89.4026098456, 43.3917135671]}, "type": "Feature", "properties": {"collection_times": [{"days": "Mon-Fri", "time": "4:45pm"}, {"days": "Sat", "time": "11:15am"}, {"days": "Sun", "time": "Closed"}], "id": "5395500000", "name": "USPS COLLECTION BOX - BLUE BOX", "address": {"city": "POYNETTE", "state": "WI", "street": "128 E SEWARD ST", "postcode": "53955"}}},
{"geometry": {"type": "Point", "coordinates": [-89.4026098456, 43.3917135671]}, "type": "Feature", "properties": {"collection_times": [{"days": "Mon-Fri", "time": "4:45pm"}, {"days": "Sat", "time": "11:15am"}, {"days": "Sun", "time": "Closed"}], "id": "5395500004", "name": "USPS COLLECTION BOX - PO LOBBY", "address": {"city": "POYNETTE", "state": "WI", "street": "128 E SEWARD ST", "postcode": "53955"}}},
{"geometry": {"type": "Point", "coordinates": [-89.4026098456, 43.3917135671]}, "type": "Feature", "properties": {"collection_times": [{"days": "Mon-Fri", "time": "4:45pm"}, {"days": "Sat", "time": "11:15am"}, {"days": "Sun", "time": "Closed"}], "id": "5395500005", "name": "USPS COLLECTION BOX - PO LOBBY", "address": {"city": "POYNETTE", "state": "WI", "street": "128 E SEWARD ST", "postcode": "53955"}}},
{"geometry": {"type": "Point", "coordinates": [-89.0073531203, 43.5387800502]}, "type": "Feature", "properties": {"collection_times": [{"days": "Mon-Fri", "time": "4:00pm"}, {"days": "Sat", "time": "10:15am"}, {"days": "Sun", "time": "Closed"}], "id": "5395600001", "name": "USPS COLLECTION BOX - BLUE BOX", "address": {"city": "RANDOLPH", "state": "WI", "street": "126 W STROUD ST", "postcode": "53956"}}},
{"geometry": {"type": "Point", "coordinates": [-89.0045604877, 43.536915788]}, "type": "Feature", "properties": {"collection_times": [{"days": "Mon-Sat", "time": "9:15am"}, {"days": "Sun", "time": "Closed"}], "id": "5395600002", "name": "USPS COLLECTION BOX - BLUE BOX", "address": {"city": "RANDOLPH", "state": "WI", "street": "154 CENTER ST", "postcode": "53956"}}},
{"geometry": {"type": "Point", "coordinates": [-89.0047944578, 43.5313687281]}, "type": "Feature", "properties": {"collection_times": [{"days": "Mon-Sat", "time": "3:00pm"}, {"days": "Sun", "time": "Closed"}], "id": "5395600006", "name": "USPS COLLECTION BOX - BLUE BOX", "address": {"city": "RANDOLPH", "state": "WI", "street": "154 KIENOW DR", "postcode": "53956"}}},
{"geometry": {"type": "Point", "coordinates": [-89.0067939142, 43.5379686214]}, "type": "Feature", "properties": {"collection_times": [{"days": "Mon-Sat", "time": "3:00pm"}, {"days": "Sun", "time": "Closed"}], "id": "5395600007", "name": "USPS COLLECTION BOX - BLUE BOX", "address": {"city": "RANDOLPH", "state": "WI", "street": "101 STARK ST", "postcode": "53956"}}},
{"geometry": {"type": "Point", "coordinates": [-89.0091246532, 43.5387699963]}, "type": "Feature", "properties": {"collection_times": [{"days": "Mon-Sat", "time": "3:00pm"}, {"days": "Sun", "time": "Closed"}], "id": "5395600009", "name": "USPS COLLECTION BOX - BLUE BOX", "address": {"city": "RANDOLPH", "state": "WI", "street": "248 W STROUD ST", "postcode": "53956"}}},
{"geometry": {"type": "Point", "coordinates": [-89.0073531203, 43.5387800502]}, "type": "Feature", "properties": {"collection_times": [{"days": "Mon-Fri", "time": "4:00pm"}, {"days": "Sat", "time": "10:15am"}, {"days": "Sun", "time": "Closed"}], "id": "5395600010", "name": "USPS COLLECTION BOX - PO LOBBY", "address": {"city": "RANDOLPH", "state": "WI", "street": "126 W STROUD ST", "postcode": "53956"}}},
{"geometry": {"type": "Point", "coordinates": [-89.0073531203, 43.5387800502]}, "type": "Feature", "properties": {"collection_times": [{"days": "Mon-Fri", "time": "4:00pm"}, {"days": "Sat", "time": "10:15am"}, {"days": "Sun", "time": "Closed"}], "id": "5395600011", "name": "USPS COLLECTION BOX - PO LOBBY", "address": {"city": "RANDOLPH", "state": "WI", "street": "126 W STROUD ST", "postcode": "53956"}}},
{"geometry": {"type": "Point", "coordinates": [-90.0169870669, 43.5324633674]}, "type": "Feature", "properties": {"collection_times": [{"days": "Mon-Sat", "time": "12:00pm"}, {"days": "Sun", "time": "Closed"}], "id": "5395900001", "name": "USPS COLLECTION BOX - BLUE BOX", "address": {"city": "REEDSBURG", "state": "WI", "street": "101 S ALBERT AVE", "postcode": "53959"}}},
{"geometry": {"type": "Point", "coordinates": [-90.008013517, 43.5335698843]}, "type": "Feature", "properties": {"collection_times": [{"days": "Mon-Fri", "time": "5:00pm"}, {"days": "Sat", "time": "3:45pm"}, {"days": "Sun", "time": "Closed"}], "id": "5395900003", "name": "USPS COLLECTION BOX - BLUE BOX", "address": {"city": "REEDSBURG", "state": "WI", "street": "212 N WALNUT ST", "postcode": "53959"}}},
{"geometry": {"type": "Point", "coordinates": [-90.0081655984, 43.533610357]}, "type": "Feature", "properties": {"collection_times": [{"days": "Mon-Fri", "time": "5:00pm"}, {"days": "Sat", "time": "3:45pm"}, {"days": "Sun", "time": "Closed"}], "id": "5395900005", "name": "USPS COLLECTION BOX - BLUE BOX", "address": {"city": "REEDSBURG", "state": "WI", "street": "215 N WALNUT ST", "postcode": "53959"}}},
{"geometry": {"type": "Point", "coordinates": [-90.0081655984, 43.533610357]}, "type": "Feature", "properties": {"collection_times": [{"days": "Mon-Fri", "time": "5:00pm"}, {"days": "Sat", "time": "3:45pm"}, {"days": "Sun", "time": "Closed"}], "id": "5395900006", "name": "USPS COLLECTION BOX - BLUE BOX", "address": {"city": "REEDSBURG", "state": "WI", "street": "215 N WALNUT ST", "postcode": "53959"}}},
{"geometry": {"type": "Point", "coordinates": [-89.985650982, 43.532507016]}, "type": "Feature", "properties": {"collection_times": [{"days": "Mon-Sat", "time": "1:00pm"}, {"days": "Sun", "time": "Closed"}], "id": "5395900008", "name": "USPS COLLECTION BOX - BLUE BOX", "address": {"city": "REEDSBURG", "state": "WI", "street": "1633 E MAIN ST", "postcode": "53959"}}},
{"geometry": {"type": "Point", "coordinates": [-90.0081655984, 43.533610357]}, "type": "Feature", "properties": {"collection_times": [{"days": "Mon-Fri", "time": "5:00pm"}, {"days": "Sat", "time": "3:45pm"}, {"days": "Sun", "time": "Closed"}], "id": "5395900011", "name": "USPS COLLECTION BOX - BLUE BOX", "address": {"city": "REEDSBURG", "state": "WI", "street": "215 N WALNUT ST", "postcode": "53959"}}},
{"geometry": {"type": "Point", "coordinates": [-90.0081655984, 43.533610357]}, "type": "Feature", "properties": {"collection_times": [{"days": "Mon-Fri", "time": "5:00pm"}, {"days": "Sat", "time": "4:00pm"}, {"days": "Sun", "time": "Closed"}], "id": "5395900014", "name": "USPS COLLECTION BOX - PO LOBBY", "address": {"city": "REEDSBURG", "state": "WI", "street": "215 N WALNUT ST", "postcode": "53959"}}},
{"geometry": {"type": "Point", "coordinates": [-89.984593187, 43.534609931]}, "type": "Feature", "properties": {"collection_times": [{"days": "Mon-Sat", "time": "1:00pm"}, {"days": "Sun", "time": "Closed"}], "id": "5395900016", "name": "USPS COLLECTION BOX - BLUE BOX", "address": {"city": "REEDSBURG", "state": "WI", "street": "150 VIKING DR", "postcode": "53959"}}},
{"geometry": {"type": "Point", "coordinates": [-89.9944191195, 43.5323512984]}, "type": "Feature", "properties": {"collection_times": [{"days": "Mon-Sat", "time": "1:00pm"}, {"days": "Sun", "time": "Closed"}], "id": "5395900017", "name": "USPS COLLECTION BOX - BLUE BOX", "address": {"city": "REEDSBURG", "state": "WI", "street": "1100 E MAIN ST", "postcode": "53959"}}},
{"geometry": {"type": "Point", "coordinates": [-89.239268495, 43.4493242213]}, "type": "Feature", "properties": {"collection_times": [{"days": "Mon-Fri", "time": "4:30pm"}, {"days": "Sat", "time": "11:15am"}, {"days": "Sun", "time": "Closed"}], "id": "5396000000", "name": "USPS COLLECTION BOX - BLUE BOX", "address": {"city": "RIO", "state": "WI", "street": "103 LINCOLN AVE", "postcode": "53960"}}},
{"geometry": {"type": "Point", "coordinates": [-89.239268495, 43.4493242213]}, "type": "Feature", "properties": {"collection_times": [{"days": "Mon-Fri", "time": "3:00pm"}, {"days": "Sat", "time": "11:00am"}, {"days": "Sun", "time": "Closed"}], "id": "5396000001", "name": "USPS COLLECTION BOX - PO LOBBY", "address": {"city": "RIO", "state": "WI", "street": "103 LINCOLN AVE", "postcode": "53960"}}},
{"geometry": {"type": "Point", "coordinates": [-89.239268495, 43.4493242213]}, "type": "Feature", "properties": {"collection_times": [{"days": "Mon-Fri", "time": "3:00pm"}, {"days": "Sat", "time": "11:00am"}, {"days": "Sun", "time": "Closed"}], "id": "5396000002", "name": "USPS COLLECTION BOX - PO LOBBY", "address": {"city": "RIO", "state": "WI", "street": "103 LINCOLN AVE", "postcode": "53960"}}},
{"geometry": {"type": "Point", "coordinates": [-89.244936576, 43.444281407]}, "type": "Feature", "properties": {"collection_times": [{"days": "Mon-Sat", "time": "10:30am"}, {"days": "Sun", "time": "Closed"}], "id": "5396000003", "name": "USPS COLLECTION BOX - BLUE BOX", "address": {"city": "RIO", "state": "WI", "street": "575 S LOWVILLE RD", "postcode": "53960"}}},
{"geometry": {"type": "Point", "coordinates": [-89.9166202549, 43.4780125373]}, "type": "Feature", "properties": {"collection_times": [{"days": "Mon-Fri", "time": "4:30pm"}, {"days": "Sat", "time": "10:00am"}, {"days": "Sun", "time": "Closed"}], "id": "5396100000", "name": "USPS COLLECTION BOX - BLUE BOX", "address": {"city": "ROCK SPRINGS", "state": "WI", "street": "107 W BROADWAY", "postcode": "53961"}}},
{"geometry": {"type": "Point", "coordinates": [-89.9166202549, 43.4780125373]}, "type": "Feature", "properties": {"collection_times": [{"days": "Mon-Fri", "time": "11:15am"}, {"days": "Sat", "time": "10:00am"}, {"days": "Sun", "time": "Closed"}], "id": "5396100002", "name": "USPS COLLECTION BOX - PO LOBBY", "address": {"city": "ROCK SPRINGS", "state": "WI", "street": "107 W BROADWAY", "postcode": "53961"}}},
{"geometry": {"type": "Point", "coordinates": [-89.9166202549, 43.4780125373]}, "type": "Feature", "properties": {"collection_times": [{"days": "Mon-Fri", "time": "11:15am"}, {"days": "Sat", "time": "10:00am"}, {"days": "Sun", "time": "Closed"}], "id": "5396100003", "name": "USPS COLLECTION BOX - PO LOBBY", "address": {"city": "ROCK SPRINGS", "state": "WI", "street": "107 W BROADWAY", "postcode": "53961"}}},
{"geometry": {"type": "Point", "coordinates": [-90.2635686808, 43.6842890336]}, "type": "Feature", "properties": {"collection_times": [{"days": "Mon-Fri", "time": "4:15pm"}, {"days": "Sat", "time": "9:10am"}, {"days": "Sun", "time": "Closed"}], "id": "5396200000", "name": "USPS COLLECTION BOX - BLUE BOX", "address": {"city": "UNION CENTER", "state": "WI", "street": "335 HIGH ST", "postcode": "53962"}}},
{"geometry": {"type": "Point", "coordinates": [-90.2652571369, 43.6775718562]}, "type": "Feature", "properties": {"collection_times": [{"days": "Mon-Fri", "time": "4:15pm"}, {"days": "Sat", "time": "9:10am"}, {"days": "Sun", "time": "Closed"}], "id": "5396200001", "name": "USPS COLLECTION BOX - PO LOBBY", "address": {"city": "UNION CENTER", "state": "WI", "street": "335 HIGH ST", "postcode": "53962"}}},
{"geometry": {"type": "Point", "coordinates": [-88.7422488009, 43.6341680274]}, "type": "Feature", "properties": {"collection_times": [{"days": "Mon-Fri", "time": "5:00pm"}, {"days": "Sat", "time": "3:30pm"}, {"days": "Sun", "time": "Closed"}], "id": "5396300001", "name": "USPS COLLECTION BOX - BLUE BOX", "address": {"city": "WAUPUN", "state": "WI", "street": "419 E FRANKLIN ST", "postcode": "53963"}}},
{"geometry": {"type": "Point", "coordinates": [-88.7422488009, 43.6341680274]}, "type": "Feature", "properties": {"collection_times": [{"days": "Mon-Fri", "time": "5:00pm"}, {"days": "Sat", "time": "3:30pm"}, {"days": "Sun", "time": "Closed"}], "id": "5396300003", "name": "USPS COLLECTION BOX - BLUE BOX", "address": {"city": "WAUPUN", "state": "WI", "street": "419 E FRANKLIN ST", "postcode": "53963"}}},
{"geometry": {"type": "Point", "coordinates": [-88.7297981578, 43.6323592832]}, "type": "Feature", "properties": {"collection_times": [{"days": "Mon-Sat", "time": "1:00pm"}, {"days": "Sun", "time": "Closed"}], "id": "5396300005", "name": "USPS COLLECTION BOX - BLUE BOX", "address": {"city": "WAUPUN", "state": "WI", "street": "22 S MADISON ST", "postcode": "53963"}}},
{"geometry": {"type": "Point", "coordinates": [-88.7163301699, 43.6347760683]}, "type": "Feature", "properties": {"collection_times": [{"days": "Mon-Fri", "time": "1:00pm"}, {"days": "Sat", "time": "12:45pm"}, {"days": "Sun", "time": "Closed"}], "id": "5396300007", "name": "USPS COLLECTION BOX - BLUE BOX", "address": {"city": "WAUPUN", "state": "WI", "street": "100 GATEWAY DR", "postcode": "53963"}}},
{"geometry": {"type": "Point", "coordinates": [-88.732011474, 43.6331743419]}, "type": "Feature", "properties": {"collection_times": [{"days": "Mon-Sat", "time": "1:00pm"}, {"days": "Sun", "time": "Closed"}], "id": "5396300009", "name": "USPS COLLECTION BOX - BLUE BOX", "address": {"city": "WAUPUN", "state": "WI", "street": "201 E MAIN ST", "postcode": "53963"}}},
{"geometry": {"type": "Point", "coordinates": [-88.7381190911, 43.6331447679]}, "type": "Feature", "properties": {"collection_times": [{"days": "Mon-Sat", "time": "12:00pm"}, {"days": "Sun", "time": "Closed"}], "id": "5396300010", "name": "USPS COLLECTION BOX - BLUE BOX", "address": {"city": "WAUPUN", "state": "WI", "street": "129 W MAIN ST", "postcode": "53963"}}},
{"geometry": {"type": "Point", "coordinates": [-88.7449648747, 43.6298774353]}, "type": "Feature", "properties": {"collection_times": [{"days": "Mon-Sat", "time": "12:00pm"}, {"days": "Sun", "time": "Closed"}], "id": "5396300011", "name": "USPS COLLECTION BOX - BLUE BOX", "address": {"city": "WAUPUN", "state": "WI", "street": "310 BEAVER DAM ST", "postcode": "53963"}}},
{"geometry": {"type": "Point", "coordinates": [-88.7622348926, 43.63308562]}, "type": "Feature", "properties": {"collection_times": [{"days": "Mon-Sat", "time": "12:00pm"}, {"days": "Sun", "time": "Closed"}], "id": "5396300026", "name": "USPS COLLECTION BOX - BLUE BOX", "address": {"city": "WAUPUN", "state": "WI", "street": "1120 W MAIN ST", "postcode": "53963"}}},
{"geometry": {"type": "Point", "coordinates": [-88.7473177961, 43.6264115993]}, "type": "Feature", "properties": {"collection_times": [{"days": "Mon-Fri", "time": "11:30am"}, {"days": "Sat", "time": "11:00am"}, {"days": "Sun", "time": "Closed"}], "id": "5396300027", "name": "USPS COLLECTION BOX - BLUE BOX", "address": {"city": "WAUPUN", "state": "WI", "street": "727 W LINCOLN ST", "postcode": "53963"}}},
{"geometry": {"type": "Point", "coordinates": [-88.7296017866, 43.6342520175]}, "type": "Feature", "properties": {"collection_times": [{"days": "Mon-Fri", "time": "5:00pm"}, {"days": "Sat", "time": "3:30pm"}, {"days": "Sun", "time": "Closed"}], "id": "5396300030", "name": "USPS COLLECTION BOX - PO LOBBY", "address": {"city": "WAUPUN", "state": "WI", "street": "400 E FRANKLIN ST", "postcode": "53963"}}},
{"geometry": {"type": "Point", "coordinates": [-89.4931700638, 43.8858052963]}, "type": "Feature", "properties": {"collection_times": [{"days": "Mon-Fri", "time": "4:15pm"}, {"days": "Sat", "time": "10:30am"}, {"days": "Sun", "time": "Closed"}], "id": "5396400000", "name": "USPS COLLECTION BOX - BLUE BOX", "address": {"city": "WESTFIELD", "state": "WI", "street": "108 E 2ND ST", "postcode": "53964"}}},
{"geometry": {"type": "Point", "coordinates": [-89.4872577813, 43.8857886958]}, "type": "Feature", "properties": {"collection_times": [{"days": "Mon-Sat", "time": "12:15pm"}, {"days": "Sun", "time": "Closed"}], "id": "5396400001", "name": "USPS COLLECTION BOX - BLUE BOX", "address": {"city": "WESTFIELD", "state": "WI", "street": "326 E 2ND ST", "postcode": "53964"}}},
{"geometry": {"type": "Point", "coordinates": [-89.4931700638, 43.8858052963]}, "type": "Feature", "properties": {"collection_times": [{"days": "Mon-Fri", "time": "4:15pm"}, {"days": "Sat", "time": "10:30am"}, {"days": "Sun", "time": "Closed"}], "id": "5396400004", "name": "USPS COLLECTION BOX - PO LOBBY", "address": {"city": "WESTFIELD", "state": "WI", "street": "108 E 2ND ST", "postcode": "53964"}}},
{"geometry": {"type": "Point", "coordinates": [-89.4931700638, 43.8858052963]}, "type": "Feature", "properties": {"collection_times": [{"days": "Mon-Fri", "time": "4:15pm"}, {"days": "Sat", "time": "10:30am"}, {"days": "Sun", "time": "Closed"}], "id": "5396400005", "name": "USPS COLLECTION BOX - PO LOBBY", "address": {"city": "WESTFIELD", "state": "WI", "street": "108 E 2ND ST", "postcode": "53964"}}},
{"geometry": {"type": "Point", "coordinates": [-89.7738952688, 43.6246915872]}, "type": "Feature", "properties": {"collection_times": [{"days": "Mon-Fri", "time": "4:45pm"}, {"days": "Sat", "time": "3:00pm"}, {"days": "Sun", "time": "Closed"}], "id": "5396500000", "name": "USPS COLLECTION BOX - BLUE BOX", "address": {"city": "WISCONSIN DELLS", "state": "WI", "street": "310 MINNESOTA AVE", "postcode": "53965"}}},
{"geometry": {"type": "Point", "coordinates": [-89.7738952688, 43.6246915872]}, "type": "Feature", "properties": {"collection_times": [{"days": "Mon-Fri", "time": "4:45pm"}, {"days": "Sat", "time": "3:00pm"}, {"days": "Sun", "time": "Closed"}], "id": "5396500001", "name": "USPS COLLECTION BOX - BLUE BOX", "address": {"city": "WISCONSIN DELLS", "state": "WI", "street": "310 MINNESOTA AVE", "postcode": "53965"}}},
{"geometry": {"type": "Point", "coordinates": [-89.7660168445, 43.6274924405]}, "type": "Feature", "properties": {"collection_times": [{"days": "Mon-Sat", "time": "12:00pm"}, {"days": "Sun", "time": "Closed"}], "id": "5396500004", "name": "USPS COLLECTION BOX - BLUE BOX", "address": {"city": "WISCONSIN DELLS", "state": "WI", "street": "802 BROADWAY", "postcode": "53965"}}},
{"geometry": {"type": "Point", "coordinates": [-89.8372698026, 43.7456901243]}, "type": "Feature", "properties": {"collection_times": [{"days": "Mon-Sat", "time": "10:00am"}, {"days": "Sun", "time": "Closed"}], "id": "5396500005", "name": "USPS COLLECTION BOX - BLUE BOX", "address": {"city": "WISCONSIN DELLS", "state": "WI", "street": "3495 STATE RD 13", "postcode": "53965"}}},
{"geometry": {"type": "Point", "coordinates": [-89.7736965112, 43.6275952484]}, "type": "Feature", "properties": {"collection_times": [{"days": "Mon-Sat", "time": "9:00am"}, {"days": "Sun", "time": "Closed"}], "id": "5396500013", "name": "USPS COLLECTION BOX - BLUE BOX", "address": {"city": "WISCONSIN DELLS", "state": "WI", "street": "300 STATE RD 13", "postcode": "53965"}}},
{"geometry": {"type": "Point", "coordinates": [-89.7738952688, 43.6246915872]}, "type": "Feature", "properties": {"collection_times": [{"days": "Mon-Fri", "time": "5:00pm"}, {"days": "Sat", "time": "3:00pm"}, {"days": "Sun", "time": "Closed"}], "id": "5396500016", "name": "USPS COLLECTION BOX - PO LOBBY", "address": {"city": "WISCONSIN DELLS", "state": "WI", "street": "310 MINNESOTA AVE", "postcode": "53965"}}},
{"geometry": {"type": "Point", "coordinates": [-89.7738952688, 43.6246915872]}, "type": "Feature", "properties": {"collection_times": [{"days": "Mon-Fri", "time": "5:00pm"}, {"days": "Sat", "time": "3:00pm"}, {"days": "Sun", "time": "Closed"}], "id": "5396500017", "name": "USPS COLLECTION BOX - PO LOBBY", "address": {"city": "WISCONSIN DELLS", "state": "WI", "street": "310 MINNESOTA AVE", "postcode": "53965"}}},
{"geometry": {"type": "Point", "coordinates": [-89.8137362313, 43.5858403452]}, "type": "Feature", "properties": {"collection_times": [{"days": "Mon-Sat", "time": "11:00am"}, {"days": "Sun", "time": "Closed"}], "id": "5396500019", "name": "USPS COLLECTION BOX - BLUE BOX", "address": {"city": "WISCONSIN DELLS", "state": "WI", "street": "130 COMMERCE ST", "postcode": "53965"}}},
{"geometry": {"type": "Point", "coordinates": [-90.22329037, 43.6533504306]}, "type": "Feature", "properties": {"collection_times": [{"days": "Mon-Fri", "time": "4:00pm"}, {"days": "Sat", "time": "10:15am"}, {"days": "Sun", "time": "Closed"}], "id": "5396800000", "name": "USPS COLLECTION BOX - BLUE BOX", "address": {"city": "WONEWOC", "state": "WI", "street": "227 CENTER ST", "postcode": "53968"}}},
{"geometry": {"type": "Point", "coordinates": [-90.22329037, 43.6533504306]}, "type": "Feature", "properties": {"collection_times": [{"days": "Mon-Fri", "time": "3:45pm"}, {"days": "Sat", "time": "10:00am"}, {"days": "Sun", "time": "Closed"}], "id": "5396800001", "name": "USPS COLLECTION BOX - PO LOBBY", "address": {"city": "WONEWOC", "state": "WI", "street": "227 CENTER ST", "postcode": "53968"}}},
{"geometry": {"type": "Point", "coordinates": [-89.3098566447, 43.4941290494]}, "type": "Feature", "properties": {"collection_times": [{"days": "Mon-Fri", "time": "4:30pm"}, {"days": "Sat", "time": "9:30am"}, {"days": "Sun", "time": "Closed"}], "id": "5396900000", "name": "USPS COLLECTION BOX - BLUE BOX", "address": {"city": "WYOCENA", "state": "WI", "street": "230 S WASHINGTON ST", "postcode": "53969"}}},
{"geometry": {"type": "Point", "coordinates": [-89.3098566447, 43.4941290494]}, "type": "Feature", "properties": {"collection_times": [{"days": "Mon-Fri", "time": "1:00pm"}, {"days": "Sat", "time": "9:30am"}, {"days": "Sun", "time": "Closed"}], "id": "5396900001", "name": "USPS COLLECTION BOX - PO LOBBY", "address": {"city": "WYOCENA", "state": "WI", "street": "230 S WASHINGTON ST", "postcode": "53969"}}},
{"geometry": {"type": "Point", "coordinates": [-89.3098566447, 43.4941290494]}, "type": "Feature", "properties": {"collection_times": [{"days": "Mon-Fri", "time": "1:00pm"}, {"days": "Sat", "time": "9:30am"}, {"days": "Sun", "time": "Closed"}], "id": "5396900002", "name": "USPS COLLECTION BOX - PO LOBBY", "address": {"city": "WYOCENA", "state": "WI", "street": "230 S WASHINGTON ST", "postcode": "53969"}}}
]}
