{"type": "FeatureCollection", "features": [
{"geometry": {"type": "Point", "coordinates": [-92.3621824877, 45.3117567512]}, "type": "Feature", "properties": {"collection_times": [{"days": "Mon-Fri", "time": "2:00pm"}, {"days": "Sat", "time": "12:30pm"}, {"days": "Sun", "time": "Closed"}], "id": "5400100001", "name": "USPS COLLECTION BOX - BLUE BOX", "address": {"city": "AMERY", "state": "WI", "street": "131 KELLER AVE N", "postcode": "54001"}}},
{"geometry": {"type": "Point", "coordinates": [-92.3627693625, 45.2947892197]}, "type": "Feature", "properties": {"collection_times": [{"days": "Mon-Sat", "time": "3:15pm"}, {"days": "Sun", "time": "Closed"}], "id": "5400100003", "name": "USPS COLLECTION BOX - BLUE BOX", "address": {"city": "AMERY", "state": "WI", "street": "1024 RIVERPLACE DR", "postcode": "54001"}}},
{"geometry": {"type": "Point", "coordinates": [-92.3621434264, 45.3100915068]}, "type": "Feature", "properties": {"collection_times": [{"days": "Mon-Sat", "time": "2:00pm"}, {"days": "Sun", "time": "Closed"}], "id": "5400100004", "name": "USPS COLLECTION BOX - BLUE BOX", "address": {"city": "AMERY", "state": "WI", "street": "210 KELLER AVE S", "postcode": "54001"}}},
{"geometry": {"type": "Point", "coordinates": [-92.3627693625, 45.2947892197]}, "type": "Feature", "properties": {"collection_times": [{"days": "Mon-Sat", "time": "3:15pm"}, {"days": "Sun", "time": "Closed"}], "id": "5400100005", "name": "USPS COLLECTION BOX - PO LOBBY", "address": {"city": "AMERY", "state": "WI", "street": "1024 RIVERPLACE DR", "postcode": "54001"}}},
{"geometry": {"type": "Point", "coordinates": [-92.3627693625, 45.2947892197]}, "type": "Feature", "properties": {"collection_times": [{"days": "Mon-Sat", "time": "3:15pm"}, {"days": "Sun", "time": "Closed"}], "id": "5400100006", "name": "USPS COLLECTION BOX - PO LOBBY", "address": {"city": "AMERY", "state": "WI", "street": "1024 RIVERPLACE DR", "postcode": "54001"}}},
{"geometry": {"type": "Point", "coordinates": [-92.3621951196, 45.3141741353]}, "type": "Feature", "properties": {"collection_times": [{"days": "Mon-Sat", "time": "2:00pm"}, {"days": "Sun", "time": "Closed"}], "id": "5400100007", "name": "USPS COLLECTION BOX - BLUE BOX", "address": {"city": "AMERY", "state": "WI", "street": "325 KELLER AVE N", "postcode": "54001"}}},
{"geometry": {"type": "Point", "coordinates": [-92.3731023967, 44.9504680166]}, "type": "Feature", "properties": {"collection_times": [{"days": "Mon-Fri", "time": "3:45pm"}, {"days": "Sat", "time": "12:00pm"}, {"days": "Sun", "time": "Closed"}], "id": "5400200001", "name": "USPS COLLECTION BOX - BLUE BOX", "address": {"city": "BALDWIN", "state": "WI", "street": "1640 8TH AVE", "postcode": "54002"}}},
{"geometry": {"type": "Point", "coordinates": [-92.3731023967, 44.9504680166]}, "type": "Feature", "properties": {"collection_times": [{"days": "Mon-Fri", "time": "3:45pm"}, {"days": "Sat", "time": "10:00am"}, {"days": "Sun", "time": "Closed"}], "id": "5400200002", "name": "USPS COLLECTION BOX - PO LOBBY", "address": {"city": "BALDWIN", "state": "WI", "street": "1640 8TH AVE", "postcode": "54002"}}},
{"geometry": {"type": "Point", "coordinates": [-92.3751087971, 44.9618207647]}, "type": "Feature", "properties": {"collection_times": [{"days": "Mon-Sat", "time": "11:30am"}, {"days": "Sun", "time": "Closed"}], "id": "5400200003", "name": "USPS COLLECTION BOX - BLUE BOX", "address": {"city": "BALDWIN", "state": "WI", "street": "940 BALDWIN PLAZA DR", "postcode": "54002"}}},
{"geometry": {"type": "Point", "coordinates": [-92.3743172851, 44.9667263491]}, "type": "Feature", "properties": {"collection_times": [{"days": "Mon-Sat", "time": "10:00am"}, {"days": "Sun", "time": "Closed"}], "id": "5400200004", "name": "USPS COLLECTION BOX - BLUE BOX", "address": {"city": "BALDWIN", "state": "WI", "street": "990 MAIN ST", "postcode": "54002"}}},
{"geometry": {"type": "Point", "coordinates": [-92.4988527433, 44.7725612709]}, "type": "Feature", "properties": {"collection_times": [{"days": "Mon-Fri", "time": "4:00pm"}, {"days": "Sat", "time": "11:30am"}, {"days": "Sun", "time": "Closed"}], "id": "5400300001", "name": "USPS COLLECTION BOX - BLUE BOX", "address": {"city": "BELDENVILLE", "state": "WI", "street": "W7497 STATE ROAD 65", "postcode": "54003"}}},
{"geometry": {"type": "Point", "coordinates": [-92.4988527433, 44.7725612709]}, "type": "Feature", "properties": {"collection_times": [{"days": "Mon-Fri", "time": "4:00pm"}, {"days": "Sat", "time": "11:30am"}, {"days": "Sun", "time": "Closed"}], "id": "5400300002", "name": "USPS COLLECTION BOX - PO LOBBY", "address": {"city": "BELDENVILLE", "state": "WI", "street": "W7497 STATE ROAD 65", "postcode": "54003"}}},
{"geometry": {"type": "Point", "coordinates": [-92.1721687897, 45.3240150962]}, "type": "Feature", "properties": {"collection_times": [{"days": "Mon-Fri", "time": "2:45pm"}, {"days": "Sat", "time": "10:30am"}, {"days": "Sun", "time": "Closed"}], "id": "5400400001", "name": "USPS COLLECTION BOX - BLUE BOX", "address": {"city": "CLAYTON", "state": "WI", "street": "200 N PRENTICE ST", "postcode": "54004"}}},
{"geometry": {"type": "Point", "coordinates": [-92.1721687897, 45.3240150962]}, "type": "Feature", "properties": {"collection_times": [{"days": "Mon-Fri", "time": "2:45pm"}, {"days": "Sat", "time": "10:30am"}, {"days": "Sun", "time": "Closed"}], "id": "5400400002", "name": "USPS COLLECTION BOX - PO LOBBY", "address": {"city": "CLAYTON", "state": "WI", "street": "200 N PRENTICE ST", "postcode": "54004"}}},
{"geometry": {"type": "Point", "coordinates": [-92.2706074803, 45.2514937718]}, "type": "Feature", "properties": {"collection_times": [{"days": "Mon-Fri", "time": "3:00pm"}, {"days": "Sat", "time": "10:30am"}, {"days": "Sun", "time": "Closed"}], "id": "5400500001", "name": "USPS COLLECTION BOX - BLUE BOX", "address": {"city": "CLEAR LAKE", "state": "WI", "street": "438 3RD AVE", "postcode": "54005"}}},
{"geometry": {"type": "Point", "coordinates": [-92.2706074803, 45.2514937718]}, "type": "Feature", "properties": {"collection_times": [{"days": "Mon-Fri", "time": "3:00pm"}, {"days": "Sat", "time": "10:30am"}, {"days": "Sun", "time": "Closed"}], "id": "5400500002", "name": "USPS COLLECTION BOX - PO LOBBY", "address": {"city": "CLEAR LAKE", "state": "WI", "street": "438 3RD AVE", "postcode": "54005"}}},
{"geometry": {"type": "Point", "coordinates": [-92.2703171323, 45.2554094351]}, "type": "Feature", "properties": {"collection_times": [{"days": "Mon-Fri", "time": "1:00pm"}, {"days": "Sat", "time": "2:15pm"}, {"days": "Sun", "time": "Closed"}], "id": "5400500003", "name": "USPS COLLECTION BOX - BLUE BOX", "address": {"city": "CLEAR LAKE", "state": "WI", "street": "265 5TH ST NW", "postcode": "54005"}}},
{"geometry": {"type": "Point", "coordinates": [-92.650955345, 45.5695289733]}, "type": "Feature", "properties": {"collection_times": [{"days": "Mon-Fri", "time": "12:30pm"}, {"days": "Sat", "time": "10:00am"}, {"days": "Sun", "time": "Closed"}], "id": "5400600001", "name": "USPS COLLECTION BOX - BLUE BOX", "address": {"city": "CUSHING", "state": "WI", "street": "2492 240TH ST", "postcode": "54006"}}},
{"geometry": {"type": "Point", "coordinates": [-92.650955345, 45.5695289733]}, "type": "Feature", "properties": {"collection_times": [{"days": "Mon-Fri", "time": "12:30pm"}, {"days": "Sat", "time": "10:00am"}, {"days": "Sun", "time": "Closed"}], "id": "5400600002", "name": "USPS COLLECTION BOX - PO LOBBY", "address": {"city": "CUSHING", "state": "WI", "street": "2492 240TH ST", "postcode": "54006"}}},
{"geometry": {"type": "Point", "coordinates": [-92.3854269774, 45.187962951]}, "type": "Feature", "properties": {"collection_times": [{"days": "Mon-Fri", "time": "3:00pm"}, {"days": "Sat", "time": "9:30am"}, {"days": "Sun", "time": "Closed"}], "id": "5400700001", "name": "USPS COLLECTION BOX - BLUE BOX", "address": {"city": "DEER PARK", "state": "WI", "street": "100 FRONT ST W", "postcode": "54007"}}},
{"geometry": {"type": "Point", "coordinates": [-92.3854269774, 45.187962951]}, "type": "Feature", "properties": {"collection_times": [{"days": "Mon-Fri", "time": "12:00pm"}, {"days": "Sat", "time": "9:30am"}, {"days": "Sun", "time": "Closed"}], "id": "5400700002", "name": "USPS COLLECTION BOX - PO LOBBY", "address": {"city": "DEER PARK", "state": "WI", "street": "100 FRONT ST W", "postcode": "54007"}}},
{"geometry": {"type": "Point", "coordinates": [-92.6336239356, 45.355616753]}, "type": "Feature", "properties": {"collection_times": [{"days": "Mon-Fri", "time": "3:15pm"}, {"days": "Sat", "time": "12:45pm"}, {"days": "Sun", "time": "Closed"}], "id": "5400900001", "name": "USPS COLLECTION BOX - BLUE BOX", "address": {"city": "DRESSER", "state": "WI", "street": "104 W MAIN ST", "postcode": "54009"}}},
{"geometry": {"type": "Point", "coordinates": [-92.6336239356, 45.355616753]}, "type": "Feature", "properties": {"collection_times": [{"days": "Mon-Fri", "time": "3:15pm"}, {"days": "Sat", "time": "12:45pm"}, {"days": "Sun", "time": "Closed"}], "id": "5400900002", "name": "USPS COLLECTION BOX - PO LOBBY", "address": {"city": "DRESSER", "state": "WI", "street": "104 W MAIN ST", "postcode": "54009"}}},
{"geometry": {"type": "Point", "coordinates": [-92.4868202339, 44.7354744146]}, "type": "Feature", "properties": {"collection_times": [{"days": "Mon-Fri", "time": "3:45pm"}, {"days": "Sat", "time": "10:30am"}, {"days": "Sun", "time": "Closed"}], "id": "5401100001", "name": "USPS COLLECTION BOX - BLUE BOX", "address": {"city": "ELLSWORTH", "state": "WI", "street": "270 N MAPLE ST", "postcode": "54011"}}},
{"geometry": {"type": "Point", "coordinates": [-92.4773815769, 44.7320260319]}, "type": "Feature", "properties": {"collection_times": [{"days": "Mon-Sat", "time": "12:00pm"}, {"days": "Sun", "time": "Closed"}], "id": "5401100002", "name": "USPS COLLECTION BOX - BLUE BOX", "address": {"city": "ELLSWORTH", "state": "WI", "street": "157 E MAIN ST", "postcode": "54011"}}},
{"geometry": {"type": "Point", "coordinates": [-92.4829706552, 44.7326198619]}, "type": "Feature", "properties": {"collection_times": [{"days": "Mon-Sat", "time": "12:00pm"}, {"days": "Sun", "time": "Closed"}], "id": "5401100004", "name": "USPS COLLECTION BOX - BLUE BOX", "address": {"city": "ELLSWORTH", "state": "WI", "street": "130 N CHESTNUT ST", "postcode": "54011"}}},
{"geometry": {"type": "Point", "coordinates": [-92.4868202339, 44.7354744146]}, "type": "Feature", "properties": {"collection_times": [{"days": "Mon-Fri", "time": "3:45pm"}, {"days": "Sat", "time": "10:30am"}, {"days": "Sun", "time": "Closed"}], "id": "5401100006", "name": "USPS COLLECTION BOX - PO LOBBY", "address": {"city": "ELLSWORTH", "state": "WI", "street": "270 N MAPLE ST", "postcode": "54011"}}},
{"geometry": {"type": "Point", "coordinates": [-92.1742044131, 45.0587568574]}, "type": "Feature", "properties": {"collection_times": [{"days": "Mon-Fri", "time": "2:45pm"}, {"days": "Sat", "time": "10:15am"}, {"days": "Sun", "time": "Closed"}], "id": "5401300001", "name": "USPS COLLECTION BOX - BLUE BOX", "address": {"city": "GLENWOOD CITY", "state": "WI", "street": "220 W OAK ST", "postcode": "54013"}}},
{"geometry": {"type": "Point", "coordinates": [-92.1742044131, 45.0587568574]}, "type": "Feature", "properties": {"collection_times": [{"days": "Mon-Fri", "time": "2:45pm"}, {"days": "Sat", "time": "10:15am"}, {"days": "Sun", "time": "Closed"}], "id": "5401300002", "name": "USPS COLLECTION BOX - PO LOBBY", "address": {"city": "GLENWOOD CITY", "state": "WI", "street": "220 W OAK ST", "postcode": "54013"}}},
{"geometry": {"type": "Point", "coordinates": [-92.1745443267, 45.0587599082]}, "type": "Feature", "properties": {"collection_times": [{"days": "Mon-Sat", "time": "12:00pm"}, {"days": "Sun", "time": "Closed"}], "id": "5401300003", "name": "USPS COLLECTION BOX - BLUE BOX", "address": {"city": "GLENWOOD CITY", "state": "WI", "street": "244 W OAK ST", "postcode": "54013"}}},
{"geometry": {"type": "Point", "coordinates": [-92.5389251243, 44.6001410981]}, "type": "Feature", "properties": {"collection_times": [{"days": "Mon-Fri", "time": "3:30pm"}, {"days": "Sat", "time": "10:00am"}, {"days": "Sun", "time": "Closed"}], "id": "5401400001", "name": "USPS COLLECTION BOX - BLUE BOX", "address": {"city": "HAGER CITY", "state": "WI", "street": "W8123 165TH AVE", "postcode": "54014"}}},
{"geometry": {"type": "Point", "coordinates": [-92.5389251243, 44.6001410981]}, "type": "Feature", "properties": {"collection_times": [{"days": "Mon-Fri", "time": "3:30pm"}, {"days": "Sat", "time": "10:00am"}, {"days": "Sun", "time": "Closed"}], "id": "5401400003", "name": "USPS COLLECTION BOX - PO LOBBY", "address": {"city": "HAGER CITY", "state": "WI", "street": "W8123 165TH AVE", "postcode": "54014"}}},
{"geometry": {"type": "Point", "coordinates": [-92.4360819386, 44.9758765367]}, "type": "Feature", "properties": {"collection_times": [{"days": "Mon-Fri", "time": "4:00pm"}, {"days": "Sat", "time": "10:15am"}, {"days": "Sun", "time": "Closed"}], "id": "5401500001", "name": "USPS COLLECTION BOX - BLUE BOX", "address": {"city": "HAMMOND", "state": "WI", "street": "1010 DAVIS ST", "postcode": "54015"}}},
{"geometry": {"type": "Point", "coordinates": [-92.4360819386, 44.9758765367]}, "type": "Feature", "properties": {"collection_times": [{"days": "Mon-Fri", "time": "4:00pm"}, {"days": "Sat", "time": "10:15am"}, {"days": "Sun", "time": "Closed"}], "id": "5401500002", "name": "USPS COLLECTION BOX - PO LOBBY", "address": {"city": "HAMMOND", "state": "WI", "street": "1010 DAVIS ST", "postcode": "54015"}}},
{"geometry": {"type": "Point", "coordinates": [-92.7569377338, 44.9769334377]}, "type": "Feature", "properties": {"collection_times": [{"days": "Mon-Fri", "time": "3:00pm"}, {"days": "Sat", "time": "2:00pm"}, {"days": "Sun", "time": "Closed"}], "id": "5401600001", "name": "USPS COLLECTION BOX - BLUE BOX", "address": {"city": "HUDSON", "state": "WI", "street": "202 VINE ST", "postcode": "54016"}}},
{"geometry": {"type": "Point", "coordinates": [-92.7547888281, 45.0017443004]}, "type": "Feature", "properties": {"collection_times": [{"days": "Mon-Sat", "time": "12:00pm"}, {"days": "Sun", "time": "Closed"}], "id": "5401600013", "name": "USPS COLLECTION BOX - BLUE BOX", "address": {"city": "HUDSON", "state": "WI", "street": "702 6TH ST N", "postcode": "54016"}}},
{"geometry": {"type": "Point", "coordinates": [-92.7420121512, 44.9595783403]}, "type": "Feature", "properties": {"collection_times": [{"days": "Mon-Fri", "time": "5:00pm"}, {"days": "Sat", "time": "3:00pm"}, {"days": "Sun", "time": "Closed"}], "id": "5401600019", "name": "USPS COLLECTION BOX - BLUE BOX", "address": {"city": "HUDSON", "state": "WI", "street": "808 HEGGEN ST", "postcode": "54016"}}},
{"geometry": {"type": "Point", "coordinates": [-92.7420121512, 44.9595783403]}, "type": "Feature", "properties": {"collection_times": [{"days": "Mon-Fri", "time": "5:00pm"}, {"days": "Sat", "time": "3:00pm"}, {"days": "Sun", "time": "Closed"}], "id": "5401600020", "name": "USPS COLLECTION BOX - BLUE BOX", "address": {"city": "HUDSON", "state": "WI", "street": "808 HEGGEN ST", "postcode": "54016"}}},
{"geometry": {"type": "Point", "coordinates": [-92.7429414941, 44.9602472828]}, "type": "Feature", "properties": {"collection_times": [{"days": "Mon-Fri", "time": "5:00pm"}, {"days": "Sat", "time": "3:00pm"}, {"days": "Sun", "time": "Closed"}], "id": "5401600023", "name": "USPS COLLECTION BOX - PO LOBBY", "address": {"city": "HUDSON", "state": "WI", "street": "808 HEGGEN ST", "postcode": "54016"}}},
{"geometry": {"type": "Point", "coordinates": [-92.7552667435, 44.966556003]}, "type": "Feature", "properties": {"collection_times": [{"days": "Mon-Fri", "time": "3:00pm"}, {"days": "Sat", "time": "10:00am"}, {"days": "Sun", "time": "Closed"}], "id": "5401600024", "name": "USPS COLLECTION BOX - BLUE BOX", "address": {"city": "HUDSON", "state": "WI", "street": "400 2ND ST S", "postcode": "54016"}}},
{"geometry": {"type": "Point", "coordinates": [-92.7555132244, 44.9749944586]}, "type": "Feature", "properties": {"collection_times": [{"days": "Mon-Fri", "time": "3:00pm"}, {"days": "Sat", "time": "2:00pm"}, {"days": "Sun", "time": "Closed"}], "id": "5401600026", "name": "USPS COLLECTION BOX - BLUE BOX", "address": {"city": "HUDSON", "state": "WI", "street": "509 3RD ST", "postcode": "54016"}}},
{"geometry": {"type": "Point", "coordinates": [-92.7569377338, 44.9769334377]}, "type": "Feature", "properties": {"collection_times": [{"days": "Mon-Fri", "time": "3:00pm"}, {"days": "Sat", "time": "2:00pm"}, {"days": "Sun", "time": "Closed"}], "id": "5401600027", "name": "USPS COLLECTION BOX - BLUE BOX", "address": {"city": "HUDSON", "state": "WI", "street": "202 VINE ST", "postcode": "54016"}}},
{"geometry": {"type": "Point", "coordinates": [-92.7555132244, 44.9749944586]}, "type": "Feature", "properties": {"collection_times": [{"days": "Mon-Fri", "time": "3:00pm"}, {"days": "Sat", "time": "2:00pm"}, {"days": "Sun", "time": "Closed"}], "id": "5401600033", "name": "USPS COLLECTION BOX - BLUE BOX", "address": {"city": "HUDSON", "state": "WI", "street": "509 3RD ST", "postcode": "54016"}}},
{"geometry": {"type": "Point", "coordinates": [-92.7429414941, 44.9602472828]}, "type": "Feature", "properties": {"collection_times": [{"days": "Mon-Fri", "time": "5:00pm"}, {"days": "Sat", "time": "3:00pm"}, {"days": "Sun", "time": "Closed"}], "id": "5401600034", "name": "USPS COLLECTION BOX - APC", "address": {"city": "HUDSON", "state": "WI", "street": "808 HEGGEN ST", "postcode": "54016"}}},
{"geometry": {"type": "Point", "coordinates": [-92.6789318566, 44.9705936738]}, "type": "Feature", "properties": {"collection_times": [{"days": "Mon-Fri", "time": "2:30pm"}, {"days": "Sat-Sun", "time": "Closed"}], "id": "5401600037", "name": "USPS COLLECTION BOX - BLUE BOX", "address": {"city": "HUDSON", "state": "WI", "street": "744 RYAN DR", "postcode": "54016"}}},
{"geometry": {"type": "Point", "coordinates": [-92.5375632563, 45.1188418594]}, "type": "Feature", "properties": {"collection_times": [{"days": "Mon-Fri", "time": "5:00pm"}, {"days": "Sat", "time": "12:00pm"}, {"days": "Sun", "time": "Closed"}], "id": "5401700011", "name": "USPS COLLECTION BOX - PO LOBBY", "address": {"city": "NEW RICHMOND", "state": "WI", "street": "430 S KNOWLES AVE", "postcode": "54017"}}},
{"geometry": {"type": "Point", "coordinates": [-92.5375632563, 45.1188418594]}, "type": "Feature", "properties": {"collection_times": [{"days": "Mon-Fri", "time": "5:00pm"}, {"days": "Sat", "time": "12:00pm"}, {"days": "Sun", "time": "Closed"}], "id": "5401700014", "name": "USPS COLLECTION BOX - BLUE BOX", "address": {"city": "NEW RICHMOND", "state": "WI", "street": "430 S KNOWLES AVE", "postcode": "54017"}}},
{"geometry": {"type": "Point", "coordinates": [-92.5375632563, 45.1188418594]}, "type": "Feature", "properties": {"collection_times": [{"days": "Mon-Fri", "time": "5:00pm"}, {"days": "Sat", "time": "12:00pm"}, {"days": "Sun", "time": "Closed"}], "id": "5401700015", "name": "USPS COLLECTION BOX - BLUE BOX", "address": {"city": "NEW RICHMOND", "state": "WI", "street": "430 S KNOWLES AVE", "postcode": "54017"}}},
{"geometry": {"type": "Point", "coordinates": [-92.5376183781, 45.1179625346]}, "type": "Feature", "properties": {"collection_times": [{"days": "Mon-Sat", "time": "2:00pm"}, {"days": "Sun", "time": "Closed"}], "id": "5401700016", "name": "USPS COLLECTION BOX - BLUE BOX", "address": {"city": "NEW RICHMOND", "state": "WI", "street": "250 RICHMOND WAY", "postcode": "54017"}}},
{"geometry": {"type": "Point", "coordinates": [-92.7059697817, 45.3199771089]}, "type": "Feature", "properties": {"collection_times": [{"days": "Mon-Fri", "time": "3:15pm"}, {"days": "Sat", "time": "11:00am"}, {"days": "Sun", "time": "Closed"}], "id": "5402000001", "name": "USPS COLLECTION BOX - BLUE BOX", "address": {"city": "OSCEOLA", "state": "WI", "street": "119 N CASCADE ST", "postcode": "54020"}}},
{"geometry": {"type": "Point", "coordinates": [-92.7059697817, 45.3199771089]}, "type": "Feature", "properties": {"collection_times": [{"days": "Mon-Fri", "time": "3:15pm"}, {"days": "Sat", "time": "11:00am"}, {"days": "Sun", "time": "Closed"}], "id": "5402000002", "name": "USPS COLLECTION BOX - BLUE BOX", "address": {"city": "OSCEOLA", "state": "WI", "street": "119 N CASCADE ST", "postcode": "54020"}}},
{"geometry": {"type": "Point", "coordinates": [-92.7059697817, 45.3199771089]}, "type": "Feature", "properties": {"collection_times": [{"days": "Mon-Fri", "time": "3:15pm"}, {"days": "Sat", "time": "11:00am"}, {"days": "Sun", "time": "Closed"}], "id": "5402000004", "name": "USPS COLLECTION BOX - PO LOBBY", "address": {"city": "OSCEOLA", "state": "WI", "street": "119 N CASCADE ST", "postcode": "54020"}}},
{"geometry": {"type": "Point", "coordinates": [-92.7921041306, 44.7590844004]}, "type": "Feature", "properties": {"collection_times": [{"days": "Mon-Fri", "time": "4:30pm"}, {"days": "Sat", "time": "10:30am"}, {"days": "Sun", "time": "Closed"}], "id": "5402100001", "name": "USPS COLLECTION BOX - BLUE BOX", "address": {"city": "PRESCOTT", "state": "WI", "street": "1001 CAMPBELL ST N", "postcode": "54021"}}},
{"geometry": {"type": "Point", "coordinates": [-92.8019233128, 44.7487153732]}, "type": "Feature", "properties": {"collection_times": [{"days": "Mon-Sat", "time": "2:45pm"}, {"days": "Sun", "time": "Closed"}], "id": "5402100002", "name": "USPS COLLECTION BOX - BLUE BOX", "address": {"city": "PRESCOTT", "state": "WI", "street": "215 BROAD ST N", "postcode": "54021"}}},
{"geometry": {"type": "Point", "coordinates": [-92.7921041306, 44.7590844004]}, "type": "Feature", "properties": {"collection_times": [{"days": "Mon-Fri", "time": "4:30pm"}, {"days": "Sat", "time": "10:30am"}, {"days": "Sun", "time": "Closed"}], "id": "5402100003", "name": "USPS COLLECTION BOX - BLUE BOX", "address": {"city": "PRESCOTT", "state": "WI", "street": "1001 CAMPBELL ST N", "postcode": "54021"}}},
{"geometry": {"type": "Point", "coordinates": [-92.7921041306, 44.7590844004]}, "type": "Feature", "properties": {"collection_times": [{"days": "Mon-Fri", "time": "4:30pm"}, {"days": "Sat", "time": "10:30am"}, {"days": "Sun", "time": "Closed"}], "id": "5402100004", "name": "USPS COLLECTION BOX - PO LOBBY", "address": {"city": "PRESCOTT", "state": "WI", "street": "1001 CAMPBELL ST N", "postcode": "54021"}}},
{"geometry": {"type": "Point", "coordinates": [-92.7280914311, 44.7193055672]}, "type": "Feature", "properties": {"collection_times": [{"days": "Mon-Sat", "time": "2:30pm"}, {"days": "Sun", "time": "Closed"}], "id": "5402100005", "name": "USPS COLLECTION BOX - BLUE BOX", "address": {"city": "PRESCOTT", "state": "WI", "street": "1005 EAGLE RIDGE DR", "postcode": "54021"}}},
{"geometry": {"type": "Point", "coordinates": [-92.6238684293, 44.8593169682]}, "type": "Feature", "properties": {"collection_times": [{"days": "Mon-Fri", "time": "5:00pm"}, {"days": "Sat", "time": "3:00pm"}, {"days": "Sun", "time": "Closed"}], "id": "5402200001", "name": "USPS COLLECTION BOX - BLUE BOX", "address": {"city": "RIVER FALLS", "state": "WI", "street": "208 N 2ND ST", "postcode": "54022"}}},
{"geometry": {"type": "Point", "coordinates": [-92.6261680721, 44.8586835144]}, "type": "Feature", "properties": {"collection_times": [{"days": "Mon-Fri", "time": "2:15pm"}, {"days": "Sat", "time": "2:00pm"}, {"days": "Sun", "time": "Closed"}], "id": "5402200002", "name": "USPS COLLECTION BOX - BLUE BOX", "address": {"city": "RIVER FALLS", "state": "WI", "street": "101 N MAIN ST", "postcode": "54022"}}},
{"geometry": {"type": "Point", "coordinates": [-92.6273075402, 44.8564754226]}, "type": "Feature", "properties": {"collection_times": [{"days": "Mon-Fri", "time": "2:15pm"}, {"days": "Sat", "time": "2:00pm"}, {"days": "Sun", "time": "Closed"}], "id": "5402200007", "name": "USPS COLLECTION BOX - BLUE BOX", "address": {"city": "RIVER FALLS", "state": "WI", "street": "303 S MAIN ST", "postcode": "54022"}}},
{"geometry": {"type": "Point", "coordinates": [-92.6294313176, 44.8462433825]}, "type": "Feature", "properties": {"collection_times": [{"days": "Mon-Fri", "time": "2:15pm"}, {"days": "Sat", "time": "1:30pm"}, {"days": "Sun", "time": "Closed"}], "id": "5402200010", "name": "USPS COLLECTION BOX - BLUE BOX", "address": {"city": "RIVER FALLS", "state": "WI", "street": "1121 S MAIN ST", "postcode": "54022"}}},
{"geometry": {"type": "Point", "coordinates": [-92.6218492344, 44.8701981014]}, "type": "Feature", "properties": {"collection_times": [{"days": "Mon-Fri", "time": "2:15pm"}, {"days": "Sat", "time": "2:00pm"}, {"days": "Sun", "time": "Closed"}], "id": "5402200012", "name": "USPS COLLECTION BOX - BLUE BOX", "address": {"city": "RIVER FALLS", "state": "WI", "street": "1047 N MAIN ST", "postcode": "54022"}}},
{"geometry": {"type": "Point", "coordinates": [-92.6238684293, 44.8593169682]}, "type": "Feature", "properties": {"collection_times": [{"days": "Mon-Fri", "time": "5:00pm"}, {"days": "Sat", "time": "3:00pm"}, {"days": "Sun", "time": "Closed"}], "id": "5402200015", "name": "USPS COLLECTION BOX - PO LOBBY", "address": {"city": "RIVER FALLS", "state": "WI", "street": "208 N 2ND ST", "postcode": "54022"}}},
{"geometry": {"type": "Point", "coordinates": [-92.6239535666, 44.8785130991]}, "type": "Feature", "properties": {"collection_times": [{"days": "Mon-Sat", "time": "1:00pm"}, {"days": "Sun", "time": "Closed"}], "id": "5402200016", "name": "USPS COLLECTION BOX - BLUE BOX", "address": {"city": "RIVER FALLS", "state": "WI", "street": "1777 PAULSON RD", "postcode": "54022"}}},
{"geometry": {"type": "Point", "coordinates": [-92.6238684293, 44.8593169682]}, "type": "Feature", "properties": {"collection_times": [{"days": "Mon-Fri", "time": "5:00pm"}, {"days": "Sat", "time": "3:00pm"}, {"days": "Sun", "time": "Closed"}], "id": "5402200017", "name": "USPS COLLECTION BOX - BLUE BOX", "address": {"city": "RIVER FALLS", "state": "WI", "street": "208 N 2ND ST", "postcode": "54022"}}},
{"geometry": {"type": "Point", "coordinates": [-92.5514537374, 44.9834097034]}, "type": "Feature", "properties": {"collection_times": [{"days": "Mon-Fri", "time": "4:15pm"}, {"days": "Sat", "time": "10:30am"}, {"days": "Sun", "time": "Closed"}], "id": "5402300001", "name": "USPS COLLECTION BOX - BLUE BOX", "address": {"city": "ROBERTS", "state": "WI", "street": "300 N PARK ST", "postcode": "54023"}}},
{"geometry": {"type": "Point", "coordinates": [-92.5514537374, 44.9834097034]}, "type": "Feature", "properties": {"collection_times": [{"days": "Mon-Fri", "time": "4:15pm"}, {"days": "Sat", "time": "10:30am"}, {"days": "Sun", "time": "Closed"}], "id": "5402300002", "name": "USPS COLLECTION BOX - PO LOBBY", "address": {"city": "ROBERTS", "state": "WI", "street": "300 N PARK ST", "postcode": "54023"}}},
{"geometry": {"type": "Point", "coordinates": [-92.5528313471, 44.9887016025]}, "type": "Feature", "properties": {"collection_times": [{"days": "Mon-Sat", "time": "10:30am"}, {"days": "Sun", "time": "Closed"}], "id": "5402300003", "name": "USPS COLLECTION BOX - BLUE BOX", "address": {"city": "ROBERTS", "state": "WI", "street": "900 N DIVISION ST", "postcode": "54023"}}},
{"geometry": {"type": "Point", "coordinates": [-92.5514537374, 44.9834097034]}, "type": "Feature", "properties": {"collection_times": [{"days": "Mon-Fri", "time": "4:15pm"}, {"days": "Sat", "time": "10:30am"}, {"days": "Sun", "time": "Closed"}], "id": "5402300004", "name": "USPS COLLECTION BOX - PO LOBBY", "address": {"city": "ROBERTS", "state": "WI", "street": "300 N PARK ST", "postcode": "54023"}}},
{"geometry": {"type": "Point", "coordinates": [-92.6451005672, 45.4101554169]}, "type": "Feature", "properties": {"collection_times": [{"days": "Mon-Fri", "time": "3:00pm"}, {"days": "Sat", "time": "10:00am"}, {"days": "Sun", "time": "Closed"}], "id": "5402400001", "name": "USPS COLLECTION BOX - BLUE BOX", "address": {"city": "ST CROIX FLS", "state": "WI", "street": "113 S WASHINGTON ST", "postcode": "54024"}}},
{"geometry": {"type": "Point", "coordinates": [-92.6450844348, 45.4110684797]}, "type": "Feature", "properties": {"collection_times": [{"days": "Mon-Sat", "time": "12:00pm"}, {"days": "Sun", "time": "Closed"}], "id": "5402400002", "name": "USPS COLLECTION BOX - BLUE BOX", "address": {"city": "ST CROIX FLS", "state": "WI", "street": "145 N WASHINGTON ST", "postcode": "54024"}}},
{"geometry": {"type": "Point", "coordinates": [-92.6046343791, 45.3973055647]}, "type": "Feature", "properties": {"collection_times": [{"days": "Mon-Sat", "time": "9:30am"}, {"days": "Sun", "time": "Closed"}], "id": "5402400004", "name": "USPS COLLECTION BOX - BLUE BOX", "address": {"city": "ST CROIX FLS", "state": "WI", "street": "1960 US HIGHWAY 8", "postcode": "54024"}}},
{"geometry": {"type": "Point", "coordinates": [-92.6451005672, 45.4101554169]}, "type": "Feature", "properties": {"collection_times": [{"days": "Mon-Fri", "time": "3:00pm"}, {"days": "Sat", "time": "10:00am"}, {"days": "Sun", "time": "Closed"}], "id": "5402400005", "name": "USPS COLLECTION BOX - PO LOBBY", "address": {"city": "ST CROIX FLS", "state": "WI", "street": "113 S WASHINGTON ST", "postcode": "54024"}}},
{"geometry": {"type": "Point", "coordinates": [-92.5490071995, 45.3967244778]}, "type": "Feature", "properties": {"collection_times": [{"days": "Mon-Sat", "time": "11:00am"}, {"days": "Sun", "time": "Closed"}], "id": "5402400006", "name": "USPS COLLECTION BOX - BLUE BOX", "address": {"city": "ST CROIX FLS", "state": "WI", "street": "2212 GLACIER DR", "postcode": "54024"}}},
{"geometry": {"type": "Point", "coordinates": [-92.6597232324, 45.1240418095]}, "type": "Feature", "properties": {"collection_times": [{"days": "Mon-Fri", "time": "4:30pm"}, {"days": "Sat", "time": "9:30am"}, {"days": "Sun", "time": "Closed"}], "id": "5402500001", "name": "USPS COLLECTION BOX - BLUE BOX", "address": {"city": "SOMERSET", "state": "WI", "street": "750 RIVARD ST", "postcode": "54025"}}},
{"geometry": {"type": "Point", "coordinates": [-92.6597232324, 45.1240418095]}, "type": "Feature", "properties": {"collection_times": [{"days": "Mon-Fri", "time": "4:30pm"}, {"days": "Sat", "time": "9:30am"}, {"days": "Sun", "time": "Closed"}], "id": "5402500002", "name": "USPS COLLECTION BOX - PO LOBBY", "address": {"city": "SOMERSET", "state": "WI", "street": "750 RIVARD ST", "postcode": "54025"}}},
{"geometry": {"type": "Point", "coordinates": [-92.6700806855, 45.1243461675]}, "type": "Feature", "properties": {"collection_times": [{"days": "Mon-Sat", "time": "10:00am"}, {"days": "Sun", "time": "Closed"}], "id": "5402500003", "name": "USPS COLLECTION BOX - BLUE BOX", "address": {"city": "SOMERSET", "state": "WI", "street": "107 PARENT ST", "postcode": "54025"}}},
{"geometry": {"type": "Point", "coordinates": [-92.6796993249, 45.1230673888]}, "type": "Feature", "properties": {"collection_times": [{"days": "Mon-Sat", "time": "11:00am"}, {"days": "Sun", "time": "Closed"}], "id": "5402500004", "name": "USPS COLLECTION BOX - BLUE BOX", "address": {"city": "SOMERSET", "state": "WI", "street": "410 MAIN ST", "postcode": "54025"}}},
{"geometry": {"type": "Point", "coordinates": [-92.5309529444, 45.1968940524]}, "type": "Feature", "properties": {"collection_times": [{"days": "Mon-Fri", "time": "4:30pm"}, {"days": "Sat", "time": "10:00am"}, {"days": "Sun", "time": "Closed"}], "id": "5402600001", "name": "USPS COLLECTION BOX - BLUE BOX", "address": {"city": "STAR PRAIRIE", "state": "WI", "street": "300 MAIN ST", "postcode": "54026"}}},
{"geometry": {"type": "Point", "coordinates": [-92.5309529444, 45.1968940524]}, "type": "Feature", "properties": {"collection_times": [{"days": "Mon-Fri", "time": "2:15pm"}, {"days": "Sat", "time": "10:00am"}, {"days": "Sun", "time": "Closed"}], "id": "5402600002", "name": "USPS COLLECTION BOX - PO LOBBY", "address": {"city": "STAR PRAIRIE", "state": "WI", "street": "300 MAIN ST", "postcode": "54026"}}},
{"geometry": {"type": "Point", "coordinates": [-92.2071023902, 44.9375367073]}, "type": "Feature", "properties": {"collection_times": [{"days": "Mon-Fri", "time": "3:15pm"}, {"days": "Sat", "time": "10:00am"}, {"days": "Sun", "time": "Closed"}], "id": "5402700001", "name": "USPS COLLECTION BOX - BLUE BOX", "address": {"city": "WILSON", "state": "WI", "street": "120 LAPOINTE RD S", "postcode": "54027"}}},
{"geometry": {"type": "Point", "coordinates": [-92.1965211511, 44.9359190678]}, "type": "Feature", "properties": {"collection_times": [{"days": "Mon-Sat", "time": "10:00am"}, {"days": "Sun", "time": "Closed"}], "id": "5402700002", "name": "USPS COLLECTION BOX - BLUE BOX", "address": {"city": "WILSON", "state": "WI", "street": "531 STATE ROAD 128", "postcode": "54027"}}},
{"geometry": {"type": "Point", "coordinates": [-92.2071023902, 44.9375367073]}, "type": "Feature", "properties": {"collection_times": [{"days": "Mon-Fri", "time": "11:45am"}, {"days": "Sat", "time": "10:00am"}, {"days": "Sun", "time": "Closed"}], "id": "5402700003", "name": "USPS COLLECTION BOX - PO LOBBY", "address": {"city": "WILSON", "state": "WI", "street": "120 LAPOINTE RD S", "postcode": "54027"}}},
{"geometry": {"type": "Point", "coordinates": [-92.2914573404, 44.9531584325]}, "type": "Feature", "properties": {"collection_times": [{"days": "Mon-Fri", "time": "3:30pm"}, {"days": "Sat", "time": "10:00am"}, {"days": "Sun", "time": "Closed"}], "id": "5402800001", "name": "USPS COLLECTION BOX - BLUE BOX", "address": {"city": "WOODVILLE", "state": "WI", "street": "102 S MAIN ST", "postcode": "54028"}}},
{"geometry": {"type": "Point", "coordinates": [-92.2914573404, 44.9531584325]}, "type": "Feature", "properties": {"collection_times": [{"days": "Mon-Fri", "time": "3:30pm"}, {"days": "Sat", "time": "10:00am"}, {"days": "Sun", "time": "Closed"}], "id": "5402800002", "name": "USPS COLLECTION BOX - PO LOBBY", "address": {"city": "WOODVILLE", "state": "WI", "street": "102 S MAIN ST", "postcode": "54028"}}},
{"geometry": {"type": "Point", "coordinates": [-92.7774935829, 45.066355022]}, "type": "Feature", "properties": {"collection_times": [{"days": "Mon-Sat", "time": "11:30am"}, {"days": "Sun", "time": "Closed"}], "id": "5408200000", "name": "USPS COLLECTION BOX - BLUE BOX", "address": {"city": "HOULTON", "state": "WI", "street": "1421 MAIN ST", "postcode": "54082"}}}
]}
