{"type": "FeatureCollection", "features": [
{"geometry": {"type": "Point", "coordinates": [-88.0566437143, 44.7809863907]}, "type": "Feature", "properties": {"collection_times": [{"days": "Mon-Fri", "time": "3:45pm"}, {"days": "Sat", "time": "9:45am"}, {"days": "Sun", "time": "Closed"}], "id": "5410100000", "name": "USPS COLLECTION BOX - BLUE BOX", "address": {"city": "ABRAMS", "state": "WI", "street": "5886 MAIN ST", "postcode": "54101"}}},
{"geometry": {"type": "Point", "coordinates": [-88.0566437143, 44.7809863907]}, "type": "Feature", "properties": {"collection_times": [{"days": "Mon-Fri", "time": "1:45pm"}, {"days": "Sat", "time": "9:45am"}, {"days": "Sun", "time": "Closed"}], "id": "5410100002", "name": "USPS COLLECTION BOX - PO LOBBY", "address": {"city": "ABRAMS", "state": "WI", "street": "5886 MAIN ST", "postcode": "54101"}}},
{"geometry": {"type": "Point", "coordinates": [-88.0086997276, 45.4993151012]}, "type": "Feature", "properties": {"collection_times": [{"days": "Mon-Sat", "time": "3:45pm"}, {"days": "Sun", "time": "Closed"}], "id": "5410200000", "name": "USPS COLLECTION BOX - BLUE BOX", "address": {"city": "AMBERG", "state": "WI", "street": "N15075 DUTTON AVE", "postcode": "54102"}}},
{"geometry": {"type": "Point", "coordinates": [-88.0086997276, 45.4993151012]}, "type": "Feature", "properties": {"collection_times": [{"days": "Mon-Fri", "time": "11:15am"}, {"days": "Sat", "time": "8:45am"}, {"days": "Sun", "time": "Closed"}], "id": "5410200002", "name": "USPS COLLECTION BOX - PO LOBBY", "address": {"city": "AMBERG", "state": "WI", "street": "N15075 DUTTON AVE", "postcode": "54102"}}},
{"geometry": {"type": "Point", "coordinates": [-88.4466726724, 45.6598104242]}, "type": "Feature", "properties": {"collection_times": [{"days": "Mon-Fri", "time": "1:15pm"}, {"days": "Sat", "time": "10:15am"}, {"days": "Sun", "time": "Closed"}], "id": "5410300000", "name": "USPS COLLECTION BOX - BLUE BOX", "address": {"city": "ARMSTRONG CREEK", "state": "WI", "street": "7943 STATE HIGHWAY 101", "postcode": "54103"}}},
{"geometry": {"type": "Point", "coordinates": [-88.4567789477, 45.6656465028]}, "type": "Feature", "properties": {"collection_times": [{"days": "Mon-Fri", "time": "11:45am"}, {"days": "Sat", "time": "10:15am"}, {"days": "Sun", "time": "Closed"}], "id": "5410300001", "name": "USPS COLLECTION BOX - PO LOBBY", "address": {"city": "ARMSTRONG CREEK", "state": "WI", "street": "7943 STATE HIGHWAY 101", "postcode": "54103"}}},
{"geometry": {"type": "Point", "coordinates": [-88.446708699, 45.659877443]}, "type": "Feature", "properties": {"collection_times": [{"days": "Mon-Fri", "time": "11:45am"}, {"days": "Sat", "time": "10:15am"}, {"days": "Sun", "time": "Closed"}], "id": "5410300002", "name": "USPS COLLECTION BOX - PO LOBBY", "address": {"city": "ARMSTRONG CREEK", "state": "WI", "street": "7943 STATE HIGHWAY 101", "postcode": "54103"}}},
{"geometry": {"type": "Point", "coordinates": [-88.4467572941, 45.6582265076]}, "type": "Feature", "properties": {"collection_times": [{"days": "Mon-Sat", "time": "11:30am"}, {"days": "Sun", "time": "Closed"}], "id": "5410300003", "name": "USPS COLLECTION BOX - BLUE BOX", "address": {"city": "ARMSTRONG CREEK", "state": "WI", "street": "8017 STATE HIGHWAY 101", "postcode": "54103"}}},
{"geometry": {"type": "Point", "coordinates": [-88.2947127541, 45.3920893665]}, "type": "Feature", "properties": {"collection_times": [{"days": "Mon-Fri", "time": "1:45pm"}, {"days": "Sat", "time": "9:15am"}, {"days": "Sun", "time": "Closed"}], "id": "5410400000", "name": "USPS COLLECTION BOX - BLUE BOX", "address": {"city": "ATHELSTANE", "state": "WI", "street": "W10056 COUNTY ROAD C", "postcode": "54104"}}},
{"geometry": {"type": "Point", "coordinates": [-88.2947127541, 45.3920893665]}, "type": "Feature", "properties": {"collection_times": [{"days": "Mon-Fri", "time": "11:15am"}, {"days": "Sat", "time": "9:15am"}, {"days": "Sun", "time": "Closed"}], "id": "5410400001", "name": "USPS COLLECTION BOX - PO LOBBY", "address": {"city": "ATHELSTANE", "state": "WI", "street": "W10056 COUNTY ROAD C", "postcode": "54104"}}},
{"geometry": {"type": "Point", "coordinates": [-88.2947127541, 45.3920893665]}, "type": "Feature", "properties": {"collection_times": [{"days": "Mon-Fri", "time": "11:15am"}, {"days": "Sat", "time": "9:15am"}, {"days": "Sun", "time": "Closed"}], "id": "5410400002", "name": "USPS COLLECTION BOX - PO LOBBY", "address": {"city": "ATHELSTANE", "state": "WI", "street": "W10056 COUNTY ROAD C", "postcode": "54104"}}},
{"geometry": {"type": "Point", "coordinates": [-88.4510450265, 44.4725855185]}, "type": "Feature", "properties": {"collection_times": [{"days": "Mon-Fri", "time": "4:30pm"}, {"days": "Sat", "time": "11:15am"}, {"days": "Sun", "time": "Closed"}], "id": "5410600000", "name": "USPS COLLECTION BOX - BLUE BOX", "address": {"city": "BLACK CREEK", "state": "WI", "street": "209 S MAIN ST", "postcode": "54106"}}},
{"geometry": {"type": "Point", "coordinates": [-88.4510450265, 44.4725855185]}, "type": "Feature", "properties": {"collection_times": [{"days": "Mon-Fri", "time": "3:45pm"}, {"days": "Sat", "time": "11:00am"}, {"days": "Sun", "time": "Closed"}], "id": "5410600002", "name": "USPS COLLECTION BOX - PO LOBBY", "address": {"city": "BLACK CREEK", "state": "WI", "street": "209 S MAIN ST", "postcode": "54106"}}},
{"geometry": {"type": "Point", "coordinates": [-88.4524860823, 44.4714869162]}, "type": "Feature", "properties": {"collection_times": [{"days": "Mon-Sat", "time": "11:00am"}, {"days": "Sun", "time": "Closed"}], "id": "5410600004", "name": "USPS COLLECTION BOX - BLUE BOX", "address": {"city": "BLACK CREEK", "state": "WI", "street": "504 S MAIN ST", "postcode": "54106"}}},
{"geometry": {"type": "Point", "coordinates": [-88.4429484589, 44.7087860579]}, "type": "Feature", "properties": {"collection_times": [{"days": "Mon-Sat", "time": "10:00am"}, {"days": "Sun", "time": "Closed"}], "id": "5410700000", "name": "USPS COLLECTION BOX - BLUE BOX", "address": {"city": "BONDUEL", "state": "WI", "street": "102 EXPRESS WAY", "postcode": "54107"}}},
{"geometry": {"type": "Point", "coordinates": [-88.4445031781, 44.7400396045]}, "type": "Feature", "properties": {"collection_times": [{"days": "Mon-Fri", "time": "4:00pm"}, {"days": "Sat", "time": "11:00am"}, {"days": "Sun", "time": "Closed"}], "id": "5410700001", "name": "USPS COLLECTION BOX - PO LOBBY", "address": {"city": "BONDUEL", "state": "WI", "street": "128 N CHURCH ST", "postcode": "54107"}}},
{"geometry": {"type": "Point", "coordinates": [-88.4445031781, 44.7400396045]}, "type": "Feature", "properties": {"collection_times": [{"days": "Mon-Fri", "time": "4:00pm"}, {"days": "Sat", "time": "11:00am"}, {"days": "Sun", "time": "Closed"}], "id": "5410700002", "name": "USPS COLLECTION BOX - PO LOBBY", "address": {"city": "BONDUEL", "state": "WI", "street": "128 N CHURCH ST", "postcode": "54107"}}},
{"geometry": {"type": "Point", "coordinates": [-88.4445031781, 44.7400396045]}, "type": "Feature", "properties": {"collection_times": [{"days": "Mon-Fri", "time": "4:00pm"}, {"days": "Sat", "time": "10:45am"}, {"days": "Sun", "time": "Closed"}], "id": "5410700003", "name": "USPS COLLECTION BOX - BLUE BOX", "address": {"city": "BONDUEL", "state": "WI", "street": "128 N CHURCH ST", "postcode": "54107"}}},
{"geometry": {"type": "Point", "coordinates": [-88.0628301915, 44.1758961231]}, "type": "Feature", "properties": {"collection_times": [{"days": "Mon-Fri", "time": "4:30pm"}, {"days": "Sat", "time": "12:00pm"}, {"days": "Sun", "time": "Closed"}], "id": "5411000000", "name": "USPS COLLECTION BOX - BLUE BOX", "address": {"city": "BRILLION", "state": "WI", "street": "210 E WATER ST", "postcode": "54110"}}},
{"geometry": {"type": "Point", "coordinates": [-88.0628301915, 44.1758961231]}, "type": "Feature", "properties": {"collection_times": [{"days": "Mon-Fri", "time": "4:30pm"}, {"days": "Sat", "time": "12:00pm"}, {"days": "Sun", "time": "Closed"}], "id": "5411000001", "name": "USPS COLLECTION BOX - BLUE BOX", "address": {"city": "BRILLION", "state": "WI", "street": "210 E WATER ST", "postcode": "54110"}}},
{"geometry": {"type": "Point", "coordinates": [-88.0641662192, 44.1741416962]}, "type": "Feature", "properties": {"collection_times": [{"days": "Mon-Sat", "time": "1:00pm"}, {"days": "Sun", "time": "Closed"}], "id": "5411000002", "name": "USPS COLLECTION BOX - BLUE BOX", "address": {"city": "BRILLION", "state": "WI", "street": "306 S MAIN ST", "postcode": "54110"}}},
{"geometry": {"type": "Point", "coordinates": [-88.0703993336, 44.1795416516]}, "type": "Feature", "properties": {"collection_times": [{"days": "Mon-Fri", "time": "1:00pm"}, {"days": "Sat", "time": "12:30pm"}, {"days": "Sun", "time": "Closed"}], "id": "5411000003", "name": "USPS COLLECTION BOX - BLUE BOX", "address": {"city": "BRILLION", "state": "WI", "street": "244 MACARTHUR AVE", "postcode": "54110"}}},
{"geometry": {"type": "Point", "coordinates": [-88.0628301915, 44.1758961231]}, "type": "Feature", "properties": {"collection_times": [{"days": "Mon-Fri", "time": "4:30pm"}, {"days": "Sat", "time": "12:00pm"}, {"days": "Sun", "time": "Closed"}], "id": "5411000008", "name": "USPS COLLECTION BOX - PO LOBBY", "address": {"city": "BRILLION", "state": "WI", "street": "210 E WATER ST", "postcode": "54110"}}},
{"geometry": {"type": "Point", "coordinates": [-88.0628301915, 44.1758961231]}, "type": "Feature", "properties": {"collection_times": [{"days": "Mon-Fri", "time": "4:30pm"}, {"days": "Sat", "time": "12:00pm"}, {"days": "Sun", "time": "Closed"}], "id": "5411000011", "name": "USPS COLLECTION BOX - PO LOBBY", "address": {"city": "BRILLION", "state": "WI", "street": "210 E WATER ST", "postcode": "54110"}}},
{"geometry": {"type": "Point", "coordinates": [-88.4510570343, 44.8099466402]}, "type": "Feature", "properties": {"collection_times": [{"days": "Mon-Fri", "time": "3:30pm"}, {"days": "Sat", "time": "10:00am"}, {"days": "Sun", "time": "Closed"}], "id": "5411100000", "name": "USPS COLLECTION BOX - BLUE BOX", "address": {"city": "CECIL", "state": "WI", "street": "107 E FREEBORN ST", "postcode": "54111"}}},
{"geometry": {"type": "Point", "coordinates": [-88.4510570343, 44.8099466402]}, "type": "Feature", "properties": {"collection_times": [{"days": "Mon-Fri", "time": "2:15pm"}, {"days": "Sat", "time": "9:15am"}, {"days": "Sun", "time": "Closed"}], "id": "5411100001", "name": "USPS COLLECTION BOX - PO LOBBY", "address": {"city": "CECIL", "state": "WI", "street": "107 E FREEBORN ST", "postcode": "54111"}}},
{"geometry": {"type": "Point", "coordinates": [-88.0361466906, 45.0651864929]}, "type": "Feature", "properties": {"collection_times": [{"days": "Mon-Fri", "time": "3:30pm"}, {"days": "Sat", "time": "10:00am"}, {"days": "Sun", "time": "Closed"}], "id": "5411200000", "name": "USPS COLLECTION BOX - BLUE BOX", "address": {"city": "COLEMAN", "state": "WI", "street": "153 W MAIN ST", "postcode": "54112"}}},
{"geometry": {"type": "Point", "coordinates": [-88.0361466906, 45.0651864929]}, "type": "Feature", "properties": {"collection_times": [{"days": "Mon-Fri", "time": "3:30pm"}, {"days": "Sat", "time": "10:00am"}, {"days": "Sun", "time": "Closed"}], "id": "5411200002", "name": "USPS COLLECTION BOX - PO LOBBY", "address": {"city": "COLEMAN", "state": "WI", "street": "153 W MAIN ST", "postcode": "54112"}}},
{"geometry": {"type": "Point", "coordinates": [-88.3142793283, 44.2658145393]}, "type": "Feature", "properties": {"collection_times": [{"days": "Mon-Fri", "time": "4:15pm"}, {"days": "Sat", "time": "10:00am"}, {"days": "Sun", "time": "Closed"}], "id": "5411300000", "name": "USPS COLLECTION BOX - BLUE BOX", "address": {"city": "COMBINED LOCKS", "state": "WI", "street": "333 WALLACE ST", "postcode": "54113"}}},
{"geometry": {"type": "Point", "coordinates": [-88.313360516, 44.2658617978]}, "type": "Feature", "properties": {"collection_times": [{"days": "Mon-Fri", "time": "1:45pm"}, {"days": "Sat", "time": "11:00am"}, {"days": "Sun", "time": "Closed"}], "id": "5411300001", "name": "USPS COLLECTION BOX - PO LOBBY", "address": {"city": "COMBINED LOCKS", "state": "WI", "street": "333 WALLACE ST", "postcode": "54113"}}},
{"geometry": {"type": "Point", "coordinates": [-88.322707106, 44.2645048367]}, "type": "Feature", "properties": {"collection_times": [{"days": "Mon-Sat", "time": "9:30am"}, {"days": "Sun", "time": "Closed"}], "id": "5411300002", "name": "USPS COLLECTION BOX - BLUE BOX", "address": {"city": "COMBINED LOCKS", "state": "WI", "street": "523 MICHAEL ST", "postcode": "54113"}}},
{"geometry": {"type": "Point", "coordinates": [-88.3195544007, 44.2693132263]}, "type": "Feature", "properties": {"collection_times": [{"days": "Mon-Sat", "time": "11:00am"}, {"days": "Sun", "time": "Closed"}], "id": "5411300003", "name": "USPS COLLECTION BOX - BLUE BOX", "address": {"city": "COMBINED LOCKS", "state": "WI", "street": "303 WILLIAMS ST", "postcode": "54113"}}},
{"geometry": {"type": "Point", "coordinates": [-88.3057394671, 44.2601325739]}, "type": "Feature", "properties": {"collection_times": [{"days": "Mon-Sat", "time": "11:00am"}, {"days": "Sun", "time": "Closed"}], "id": "5411300004", "name": "USPS COLLECTION BOX - BLUE BOX", "address": {"city": "COMBINED LOCKS", "state": "WI", "street": "620 PARK ST", "postcode": "54113"}}},
{"geometry": {"type": "Point", "coordinates": [-88.2931026922, 44.2576592324]}, "type": "Feature", "properties": {"collection_times": [{"days": "Mon-Sat", "time": "10:00am"}, {"days": "Sun", "time": "Closed"}], "id": "5411300005", "name": "USPS COLLECTION BOX - BLUE BOX", "address": {"city": "COMBINED LOCKS", "state": "WI", "street": "100 GREEN WAY DR", "postcode": "54113"}}},
{"geometry": {"type": "Point", "coordinates": [-88.3142793283, 44.2658145393]}, "type": "Feature", "properties": {"collection_times": [{"days": "Mon-Fri", "time": "1:45pm"}, {"days": "Sat", "time": "11:00am"}, {"days": "Sun", "time": "Closed"}], "id": "5411300006", "name": "USPS COLLECTION BOX - PO LOBBY", "address": {"city": "COMBINED LOCKS", "state": "WI", "street": "333 WALLACE ST", "postcode": "54113"}}},
{"geometry": {"type": "Point", "coordinates": [-87.9966548465, 45.22693548]}, "type": "Feature", "properties": {"collection_times": [{"days": "Mon-Sat", "time": "12:00pm"}, {"days": "Sun", "time": "Closed"}], "id": "5411400003", "name": "USPS COLLECTION BOX - BLUE BOX", "address": {"city": "CRIVITZ", "state": "WI", "street": "214 N US HIGHWAY 141", "postcode": "54114"}}},
{"geometry": {"type": "Point", "coordinates": [-88.0114275058, 45.2391550793]}, "type": "Feature", "properties": {"collection_times": [{"days": "Mon-Fri", "time": "4:30pm"}, {"days": "Sat", "time": "9:45am"}, {"days": "Sun", "time": "Closed"}], "id": "5411400004", "name": "USPS COLLECTION BOX - BLUE BOX", "address": {"city": "CRIVITZ", "state": "WI", "street": "1210 F.J. ST", "postcode": "54114"}}},
{"geometry": {"type": "Point", "coordinates": [-88.0048410052, 45.2330646966]}, "type": "Feature", "properties": {"collection_times": [{"days": "Mon-Sat", "time": "12:15pm"}, {"days": "Sun", "time": "Closed"}], "id": "5411400005", "name": "USPS COLLECTION BOX - BLUE BOX", "address": {"city": "CRIVITZ", "state": "WI", "street": "606 HENRIETTE AVE", "postcode": "54114"}}},
{"geometry": {"type": "Point", "coordinates": [-88.011350922, 45.239225167]}, "type": "Feature", "properties": {"collection_times": [{"days": "Mon-Fri", "time": "5:00pm"}, {"days": "Sat", "time": "10:00am"}, {"days": "Sun", "time": "Closed"}], "id": "5411400006", "name": "USPS COLLECTION BOX - PO LOBBY", "address": {"city": "CRIVITZ", "state": "WI", "street": "1210 FJ ST", "postcode": "54114"}}},
{"geometry": {"type": "Point", "coordinates": [-88.0114275058, 45.2391550793]}, "type": "Feature", "properties": {"collection_times": [{"days": "Mon-Fri", "time": "5:00pm"}, {"days": "Sat", "time": "10:00am"}, {"days": "Sun", "time": "Closed"}], "id": "5411400008", "name": "USPS COLLECTION BOX - PO LOBBY", "address": {"city": "CRIVITZ", "state": "WI", "street": "1210 F.J. ST", "postcode": "54114"}}},
{"geometry": {"type": "Point", "coordinates": [-88.0522028115, 44.4541478636]}, "type": "Feature", "properties": {"collection_times": [{"days": "Mon-Sat", "time": "2:00pm"}, {"days": "Sun", "time": "Closed"}], "id": "5411500000", "name": "USPS COLLECTION BOX - BLUE BOX", "address": {"city": "DEPERE", "state": "WI", "street": "822 RIDGEWAY BLVD", "postcode": "54115"}}},
{"geometry": {"type": "Point", "coordinates": [-88.0144441772, 44.435200713]}, "type": "Feature", "properties": {"collection_times": [{"days": "Mon-Fri", "time": "4:30pm"}, {"days": "Sat", "time": "2:45pm"}, {"days": "Sun", "time": "Closed"}], "id": "5411500003", "name": "USPS COLLECTION BOX - BLUE BOX", "address": {"city": "DEPERE", "state": "WI", "street": "3705 MONROE RD", "postcode": "54115"}}},
{"geometry": {"type": "Point", "coordinates": [-88.0616138771, 44.4197467268]}, "type": "Feature", "properties": {"collection_times": [{"days": "Mon-Fri", "time": "4:30pm"}, {"days": "Sat-Sun", "time": "Closed"}], "id": "5411500006", "name": "USPS COLLECTION BOX - BLUE BOX", "address": {"city": "DEPERE", "state": "WI", "street": "1800 ENTERPRISE DR", "postcode": "54115"}}},
{"geometry": {"type": "Point", "coordinates": [-88.0597642852, 44.4488825133]}, "type": "Feature", "properties": {"collection_times": [{"days": "Mon-Fri", "time": "5:00pm"}, {"days": "Sat", "time": "2:30pm"}, {"days": "Sun", "time": "Closed"}], "id": "5411500009", "name": "USPS COLLECTION BOX - BLUE BOX", "address": {"city": "DEPERE", "state": "WI", "street": "415 GEORGE ST", "postcode": "54115"}}},
{"geometry": {"type": "Point", "coordinates": [-88.0592343196, 44.4503588461]}, "type": "Feature", "properties": {"collection_times": [{"days": "Mon-Fri", "time": "4:30pm"}, {"days": "Sat", "time": "2:00pm"}, {"days": "Sun", "time": "Closed"}], "id": "5411500012", "name": "USPS COLLECTION BOX - BLUE BOX", "address": {"city": "DEPERE", "state": "WI", "street": "206 N WISCONSIN ST", "postcode": "54115"}}},
{"geometry": {"type": "Point", "coordinates": [-88.0528652685, 44.4488209994]}, "type": "Feature", "properties": {"collection_times": [{"days": "Mon-Sat", "time": "2:30pm"}, {"days": "Sun", "time": "Closed"}], "id": "5411500013", "name": "USPS COLLECTION BOX - BLUE BOX", "address": {"city": "DEPERE", "state": "WI", "street": "1002 GEORGE ST", "postcode": "54115"}}},
{"geometry": {"type": "Point", "coordinates": [-88.0836827155, 44.4499350875]}, "type": "Feature", "properties": {"collection_times": [{"days": "Mon-Fri", "time": "5:30pm"}, {"days": "Sat", "time": "5:00pm"}, {"days": "Sun", "time": "Closed"}], "id": "5411500017", "name": "USPS COLLECTION BOX - BLUE BOX", "address": {"city": "DEPERE", "state": "WI", "street": "123 S 9TH ST", "postcode": "54115"}}},
{"geometry": {"type": "Point", "coordinates": [-87.9535040403, 44.4144279283]}, "type": "Feature", "properties": {"collection_times": [{"days": "Mon-Fri", "time": "4:15pm"}, {"days": "Sat", "time": "10:00am"}, {"days": "Sun", "time": "Closed"}], "id": "5411500022", "name": "USPS COLLECTION BOX - BLUE BOX", "address": {"city": "DEPERE", "state": "WI", "street": "1850 DICKINSON RD", "postcode": "54115"}}},
{"geometry": {"type": "Point", "coordinates": [-87.9945666327, 44.4534057931]}, "type": "Feature", "properties": {"collection_times": [{"days": "Mon-Sat", "time": "9:30am"}, {"days": "Sun", "time": "Closed"}], "id": "5411500023", "name": "USPS COLLECTION BOX - BLUE BOX", "address": {"city": "DEPERE", "state": "WI", "street": "2601 MONROE RD", "postcode": "54115"}}},
{"geometry": {"type": "Point", "coordinates": [-88.0836827155, 44.4499350875]}, "type": "Feature", "properties": {"collection_times": [{"days": "Mon-Fri", "time": "5:30pm"}, {"days": "Sat", "time": "5:00pm"}, {"days": "Sun", "time": "Closed"}], "id": "5411500024", "name": "USPS COLLECTION BOX - PO LOBBY", "address": {"city": "DEPERE", "state": "WI", "street": "123 S 9TH ST", "postcode": "54115"}}},
{"geometry": {"type": "Point", "coordinates": [-88.0860297965, 44.4512727577]}, "type": "Feature", "properties": {"collection_times": [{"days": "Mon-Sat", "time": "2:30pm"}, {"days": "Sun", "time": "Closed"}], "id": "5411500027", "name": "USPS COLLECTION BOX - BLUE BOX", "address": {"city": "DEPERE", "state": "WI", "street": "1001 MAIN AVE", "postcode": "54115"}}},
{"geometry": {"type": "Point", "coordinates": [-88.0597642852, 44.4488825133]}, "type": "Feature", "properties": {"collection_times": [{"days": "Mon-Fri", "time": "5:00pm"}, {"days": "Sat", "time": "2:30pm"}, {"days": "Sun", "time": "Closed"}], "id": "5411500029", "name": "USPS COLLECTION BOX - BLUE BOX", "address": {"city": "DEPERE", "state": "WI", "street": "415 GEORGE ST", "postcode": "54115"}}},
{"geometry": {"type": "Point", "coordinates": [-88.0679910251, 44.447279595]}, "type": "Feature", "properties": {"collection_times": [{"days": "Mon-Fri", "time": "5:00pm"}, {"days": "Sat", "time": "2:00pm"}, {"days": "Sun", "time": "Closed"}], "id": "5411500030", "name": "USPS COLLECTION BOX - BLUE BOX", "address": {"city": "DEPERE", "state": "WI", "street": "301 MAIN AVE", "postcode": "54115"}}},
{"geometry": {"type": "Point", "coordinates": [-88.0359477723, 44.4373238212]}, "type": "Feature", "properties": {"collection_times": [{"days": "Mon-Fri", "time": "4:30pm"}, {"days": "Sat", "time": "2:45pm"}, {"days": "Sun", "time": "Closed"}], "id": "5411500032", "name": "USPS COLLECTION BOX - BLUE BOX", "address": {"city": "DEPERE", "state": "WI", "street": "575 SWAN RD", "postcode": "54115"}}},
{"geometry": {"type": "Point", "coordinates": [-88.0836827155, 44.4499350875]}, "type": "Feature", "properties": {"collection_times": [{"days": "Mon-Fri", "time": "5:30pm"}, {"days": "Sat", "time": "5:00pm"}, {"days": "Sun", "time": "Closed"}], "id": "5411500033", "name": "USPS COLLECTION BOX - APC", "address": {"city": "DEPERE", "state": "WI", "street": "123 S 9TH ST", "postcode": "54115"}}},
{"geometry": {"type": "Point", "coordinates": [-88.5715678637, 45.7663331741]}, "type": "Feature", "properties": {"collection_times": [{"days": "Mon-Fri", "time": "1:00pm"}, {"days": "Sat", "time": "12:30pm"}, {"days": "Sun", "time": "Closed"}], "id": "5412000002", "name": "USPS COLLECTION BOX - BLUE BOX", "address": {"city": "FENCE", "state": "WI", "street": "603 MEMORY LN", "postcode": "54120"}}},
{"geometry": {"type": "Point", "coordinates": [-88.3341191685, 45.8775195468]}, "type": "Feature", "properties": {"collection_times": [{"days": "Mon-Fri", "time": "3:45pm"}, {"days": "Sat", "time": "11:30am"}, {"days": "Sun", "time": "Closed"}], "id": "5412100001", "name": "USPS COLLECTION BOX - BLUE BOX", "address": {"city": "FLORENCE", "state": "WI", "street": "540 CENTRAL AVE", "postcode": "54121"}}},
{"geometry": {"type": "Point", "coordinates": [-88.3341191685, 45.8775195468]}, "type": "Feature", "properties": {"collection_times": [{"days": "Mon-Fri", "time": "3:45pm"}, {"days": "Sat", "time": "11:30am"}, {"days": "Sun", "time": "Closed"}], "id": "5412100003", "name": "USPS COLLECTION BOX - PO LOBBY", "address": {"city": "FLORENCE", "state": "WI", "street": "540 CENTRAL AVE", "postcode": "54121"}}},
{"geometry": {"type": "Point", "coordinates": [-88.3341191685, 45.8775195468]}, "type": "Feature", "properties": {"collection_times": [{"days": "Mon-Fri", "time": "3:45pm"}, {"days": "Sat", "time": "11:30am"}, {"days": "Sun", "time": "Closed"}], "id": "5412100004", "name": "USPS COLLECTION BOX - PO LOBBY", "address": {"city": "FLORENCE", "state": "WI", "street": "540 CENTRAL AVE", "postcode": "54121"}}},
{"geometry": {"type": "Point", "coordinates": [-88.1419054265, 44.2122870522]}, "type": "Feature", "properties": {"collection_times": [{"days": "Mon-Fri", "time": "5:00pm"}, {"days": "Sat", "time": "10:00am"}, {"days": "Sun", "time": "Closed"}], "id": "5412300001", "name": "USPS COLLECTION BOX - BLUE BOX", "address": {"city": "FOREST JUNCTION", "state": "WI", "street": "W2137 US HIGHWAY 10", "postcode": "54123"}}},
{"geometry": {"type": "Point", "coordinates": [-88.1441988944, 44.2122726252]}, "type": "Feature", "properties": {"collection_times": [{"days": "Mon-Fri", "time": "2:00pm"}, {"days": "Sat", "time": "10:00am"}, {"days": "Sun", "time": "Closed"}], "id": "5412300002", "name": "USPS COLLECTION BOX - PO LOBBY", "address": {"city": "FOREST JUNCTION", "state": "WI", "street": "W2137 US HIGHWAY 10", "postcode": "54123"}}},
{"geometry": {"type": "Point", "coordinates": [-88.3009739694, 44.8909549599]}, "type": "Feature", "properties": {"collection_times": [{"days": "Mon-Fri", "time": "4:30pm"}, {"days": "Sat", "time": "9:30am"}, {"days": "Sun", "time": "Closed"}], "id": "5412400001", "name": "USPS COLLECTION BOX - BLUE BOX", "address": {"city": "GILLETT", "state": "WI", "street": "205 E MAIN ST", "postcode": "54124"}}},
{"geometry": {"type": "Point", "coordinates": [-88.3009739694, 44.8909549599]}, "type": "Feature", "properties": {"collection_times": [{"days": "Mon-Fri", "time": "4:30pm"}, {"days": "Sat", "time": "9:30am"}, {"days": "Sun", "time": "Closed"}], "id": "5412400003", "name": "USPS COLLECTION BOX - PO LOBBY", "address": {"city": "GILLETT", "state": "WI", "street": "205 E MAIN ST", "postcode": "54124"}}},
{"geometry": {"type": "Point", "coordinates": [-88.3553071454, 45.6318334902]}, "type": "Feature", "properties": {"collection_times": [{"days": "Mon-Fri", "time": "1:15pm"}, {"days": "Sat", "time": "10:45am"}, {"days": "Sun", "time": "Closed"}], "id": "5412500000", "name": "USPS COLLECTION BOX - BLUE BOX", "address": {"city": "GOODMAN", "state": "WI", "street": "200 A ST", "postcode": "54125"}}},
{"geometry": {"type": "Point", "coordinates": [-88.3553326704, 45.6317800197]}, "type": "Feature", "properties": {"collection_times": [{"days": "Mon-Fri", "time": "11:45am"}, {"days": "Sat", "time": "10:30am"}, {"days": "Sun", "time": "Closed"}], "id": "5412500001", "name": "USPS COLLECTION BOX - PO LOBBY", "address": {"city": "GOODMAN", "state": "WI", "street": "200 A ST", "postcode": "54125"}}},
{"geometry": {"type": "Point", "coordinates": [-88.3711866843, 45.6422356596]}, "type": "Feature", "properties": {"collection_times": [{"days": "Mon-Sat", "time": "10:30am"}, {"days": "Sun", "time": "Closed"}], "id": "5412500003", "name": "USPS COLLECTION BOX - BLUE BOX", "address": {"city": "GOODMAN", "state": "WI", "street": "W15224 US HIGHWAY 8", "postcode": "54125"}}},
{"geometry": {"type": "Point", "coordinates": [-88.0959291287, 44.3120430079]}, "type": "Feature", "properties": {"collection_times": [{"days": "Mon-Fri", "time": "4:30pm"}, {"days": "Sat", "time": "10:00am"}, {"days": "Sun", "time": "Closed"}], "id": "5412600000", "name": "USPS COLLECTION BOX - BLUE BOX", "address": {"city": "GREENLEAF", "state": "WI", "street": "6814 STATE RD 57", "postcode": "54126"}}},
{"geometry": {"type": "Point", "coordinates": [-88.0959291287, 44.3120430079]}, "type": "Feature", "properties": {"collection_times": [{"days": "Mon-Fri", "time": "4:30pm"}, {"days": "Sat", "time": "10:00am"}, {"days": "Sun", "time": "Closed"}], "id": "5412600001", "name": "USPS COLLECTION BOX - PO LOBBY", "address": {"city": "GREENLEAF", "state": "WI", "street": "6814 STATE RD 57", "postcode": "54126"}}},
{"geometry": {"type": "Point", "coordinates": [-88.0959291287, 44.3120430079]}, "type": "Feature", "properties": {"collection_times": [{"days": "Mon-Fri", "time": "4:30pm"}, {"days": "Sat", "time": "10:00am"}, {"days": "Sun", "time": "Closed"}], "id": "5412600002", "name": "USPS COLLECTION BOX - PO LOBBY", "address": {"city": "GREENLEAF", "state": "WI", "street": "6814 STATE RD 57", "postcode": "54126"}}},
{"geometry": {"type": "Point", "coordinates": [-88.0959291287, 44.3120430079]}, "type": "Feature", "properties": {"collection_times": [{"days": "Mon-Fri", "time": "4:30pm"}, {"days": "Sat", "time": "10:00am"}, {"days": "Sun", "time": "Closed"}], "id": "5412600003", "name": "USPS COLLECTION BOX - PO LOBBY", "address": {"city": "GREENLEAF", "state": "WI", "street": "6814 STATE RD 57", "postcode": "54126"}}},
{"geometry": {"type": "Point", "coordinates": [-88.7870390606, 44.8516340538]}, "type": "Feature", "properties": {"collection_times": [{"days": "Mon-Fri", "time": "3:45pm"}, {"days": "Sat", "time": "10:15am"}, {"days": "Sun", "time": "Closed"}], "id": "5412800000", "name": "USPS COLLECTION BOX - BLUE BOX", "address": {"city": "GRESHAM", "state": "WI", "street": "1201 MAIN ST", "postcode": "54128"}}},
{"geometry": {"type": "Point", "coordinates": [-88.7870390606, 44.8516340538]}, "type": "Feature", "properties": {"collection_times": [{"days": "Mon-Fri", "time": "3:45pm"}, {"days": "Sat", "time": "10:15am"}, {"days": "Sun", "time": "Closed"}], "id": "5412800001", "name": "USPS COLLECTION BOX - PO LOBBY", "address": {"city": "GRESHAM", "state": "WI", "street": "1201 MAIN ST", "postcode": "54128"}}},
{"geometry": {"type": "Point", "coordinates": [-88.7870390606, 44.8516340538]}, "type": "Feature", "properties": {"collection_times": [{"days": "Mon-Fri", "time": "3:45pm"}, {"days": "Sat", "time": "10:15am"}, {"days": "Sun", "time": "Closed"}], "id": "5412800002", "name": "USPS COLLECTION BOX - PO LOBBY", "address": {"city": "GRESHAM", "state": "WI", "street": "1201 MAIN ST", "postcode": "54128"}}},
{"geometry": {"type": "Point", "coordinates": [-88.1578408438, 44.1393364614]}, "type": "Feature", "properties": {"collection_times": [{"days": "Mon-Fri", "time": "4:00pm"}, {"days": "Sat", "time": "10:00am"}, {"days": "Sun", "time": "Closed"}], "id": "5412900000", "name": "USPS COLLECTION BOX - BLUE BOX", "address": {"city": "HILBERT", "state": "WI", "street": "305 W MAIN ST", "postcode": "54129"}}},
{"geometry": {"type": "Point", "coordinates": [-88.1578408438, 44.1393364614]}, "type": "Feature", "properties": {"collection_times": [{"days": "Mon-Fri", "time": "4:00pm"}, {"days": "Sat", "time": "10:00am"}, {"days": "Sun", "time": "Closed"}], "id": "5412900001", "name": "USPS COLLECTION BOX - PO LOBBY", "address": {"city": "HILBERT", "state": "WI", "street": "305 W MAIN ST", "postcode": "54129"}}},
{"geometry": {"type": "Point", "coordinates": [-88.1578408438, 44.1393364614]}, "type": "Feature", "properties": {"collection_times": [{"days": "Mon-Fri", "time": "4:00pm"}, {"days": "Sat", "time": "10:00am"}, {"days": "Sun", "time": "Closed"}], "id": "5412900002", "name": "USPS COLLECTION BOX - PO LOBBY", "address": {"city": "HILBERT", "state": "WI", "street": "305 W MAIN ST", "postcode": "54129"}}},
{"geometry": {"type": "Point", "coordinates": [-88.2660158265, 44.2949015937]}, "type": "Feature", "properties": {"collection_times": [{"days": "Mon-Sat", "time": "2:00pm"}, {"days": "Sun", "time": "Closed"}], "id": "5413000001", "name": "USPS COLLECTION BOX - BLUE BOX", "address": {"city": "KAUKAUNA", "state": "WI", "street": "101 E WISCONSIN AVE", "postcode": "54130"}}},
{"geometry": {"type": "Point", "coordinates": [-88.2660158265, 44.2949015937]}, "type": "Feature", "properties": {"collection_times": [{"days": "Mon-Sat", "time": "2:30pm"}, {"days": "Sun", "time": "Closed"}], "id": "5413000002", "name": "USPS COLLECTION BOX - BLUE BOX", "address": {"city": "KAUKAUNA", "state": "WI", "street": "264 W WISCONSIN AVE", "postcode": "54130"}}},
{"geometry": {"type": "Point", "coordinates": [-89.7391818064, 44.6448297939]}, "type": "Feature", "properties": {"collection_times": [{"days": "Mon-Fri", "time": "10:00am"}, {"days": "Sat", "time": "9:30am"}, {"days": "Sun", "time": "Closed"}], "id": "5413000020", "name": "USPS COLLECTION BOX - BLUE BOX", "address": {"city": "KAUKAUNA", "state": "WI", "street": "W2037 COUNTY TRUNK S", "postcode": "54130"}}},
{"geometry": {"type": "Point", "coordinates": [-88.2916165133, 44.3808802266]}, "type": "Feature", "properties": {"collection_times": [{"days": "Mon-Sat", "time": "9:15am"}, {"days": "Sun", "time": "Closed"}], "id": "5413000022", "name": "USPS COLLECTION BOX - BLUE BOX", "address": {"city": "KAUKAUNA", "state": "WI", "street": "N3980 COLUMBIA AVE", "postcode": "54130"}}},
{"geometry": {"type": "Point", "coordinates": [-88.2749258048, 44.2737302155]}, "type": "Feature", "properties": {"collection_times": [{"days": "Mon-Sat", "time": "10:00am"}, {"days": "Sun", "time": "Closed"}], "id": "5413000024", "name": "USPS COLLECTION BOX - BLUE BOX", "address": {"city": "KAUKAUNA", "state": "WI", "street": "200 W 8TH ST", "postcode": "54130"}}},
{"geometry": {"type": "Point", "coordinates": [-88.2796686404, 44.2543603142]}, "type": "Feature", "properties": {"collection_times": [{"days": "Mon-Sat", "time": "9:45am"}, {"days": "Sun", "time": "Closed"}], "id": "5413000029", "name": "USPS COLLECTION BOX - BLUE BOX", "address": {"city": "KAUKAUNA", "state": "WI", "street": "1612 GLENVIEW AVE", "postcode": "54130"}}},
{"geometry": {"type": "Point", "coordinates": [-88.2737965576, 44.2642622573]}, "type": "Feature", "properties": {"collection_times": [{"days": "Mon-Sat", "time": "9:30am"}, {"days": "Sun", "time": "Closed"}], "id": "5413000031", "name": "USPS COLLECTION BOX - BLUE BOX", "address": {"city": "KAUKAUNA", "state": "WI", "street": "114 E HENRY ST", "postcode": "54130"}}},
{"geometry": {"type": "Point", "coordinates": [-88.2739471239, 44.2767238265]}, "type": "Feature", "properties": {"collection_times": [{"days": "Mon-Sat", "time": "3:00pm"}, {"days": "Sun", "time": "Closed"}], "id": "5413000034", "name": "USPS COLLECTION BOX - BLUE BOX", "address": {"city": "KAUKAUNA", "state": "WI", "street": "200 W 4TH ST", "postcode": "54130"}}},
{"geometry": {"type": "Point", "coordinates": [-88.2660158265, 44.2949015937]}, "type": "Feature", "properties": {"collection_times": [{"days": "Mon-Sat", "time": "2:30pm"}, {"days": "Sun", "time": "Closed"}], "id": "5413000036", "name": "USPS COLLECTION BOX - BLUE BOX", "address": {"city": "KAUKAUNA", "state": "WI", "street": "230 MAIN AVE", "postcode": "54130"}}},
{"geometry": {"type": "Point", "coordinates": [-88.2672159286, 44.2824807701]}, "type": "Feature", "properties": {"collection_times": [{"days": "Mon-Fri", "time": "5:00pm"}, {"days": "Sat", "time": "4:00pm"}, {"days": "Sun", "time": "Closed"}], "id": "5413000038", "name": "USPS COLLECTION BOX - BLUE BOX", "address": {"city": "KAUKAUNA", "state": "WI", "street": "120 DOTY ST", "postcode": "54130"}}},
{"geometry": {"type": "Point", "coordinates": [-88.2736282782, 44.2499008963]}, "type": "Feature", "properties": {"collection_times": [{"days": "Mon-Sat", "time": "3:00pm"}, {"days": "Sun", "time": "Closed"}], "id": "5413000039", "name": "USPS COLLECTION BOX - BLUE BOX", "address": {"city": "KAUKAUNA", "state": "WI", "street": "2400 CROOKS AVE", "postcode": "54130"}}},
{"geometry": {"type": "Point", "coordinates": [-88.2672159286, 44.2824807701]}, "type": "Feature", "properties": {"collection_times": [{"days": "Mon-Fri", "time": "5:00pm"}, {"days": "Sat", "time": "4:00pm"}, {"days": "Sun", "time": "Closed"}], "id": "5413000041", "name": "USPS COLLECTION BOX - PO LOBBY", "address": {"city": "KAUKAUNA", "state": "WI", "street": "120 DOTY ST", "postcode": "54130"}}},
{"geometry": {"type": "Point", "coordinates": [-88.2672159286, 44.2824807701]}, "type": "Feature", "properties": {"collection_times": [{"days": "Mon-Fri", "time": "5:00pm"}, {"days": "Sat", "time": "4:00pm"}, {"days": "Sun", "time": "Closed"}], "id": "5413000042", "name": "USPS COLLECTION BOX - BLUE BOX", "address": {"city": "KAUKAUNA", "state": "WI", "street": "120 DOTY ST", "postcode": "54130"}}},
{"geometry": {"type": "Point", "coordinates": [-88.6483195732, 44.8857397171]}, "type": "Feature", "properties": {"collection_times": [{"days": "Mon-Fri", "time": "4:15pm"}, {"days": "Sat", "time": "11:00am"}, {"days": "Sun", "time": "Closed"}], "id": "5413500000", "name": "USPS COLLECTION BOX - BLUE BOX", "address": {"city": "KESHENA", "state": "WI", "street": "W3210 WOLF RIVER RD", "postcode": "54135"}}},
{"geometry": {"type": "Point", "coordinates": [-88.6483195732, 44.8857397171]}, "type": "Feature", "properties": {"collection_times": [{"days": "Mon-Fri", "time": "4:15pm"}, {"days": "Sat", "time": "11:00am"}, {"days": "Sun", "time": "Closed"}], "id": "5413500001", "name": "USPS COLLECTION BOX - PO LOBBY", "address": {"city": "KESHENA", "state": "WI", "street": "W3210 WOLF RIVER RD", "postcode": "54135"}}},
{"geometry": {"type": "Point", "coordinates": [-88.6483195732, 44.8857397171]}, "type": "Feature", "properties": {"collection_times": [{"days": "Mon-Fri", "time": "4:15pm"}, {"days": "Sat", "time": "11:00am"}, {"days": "Sun", "time": "Closed"}], "id": "5413500002", "name": "USPS COLLECTION BOX - PO LOBBY", "address": {"city": "KESHENA", "state": "WI", "street": "W3210 WOLF RIVER RD", "postcode": "54135"}}},
{"geometry": {"type": "Point", "coordinates": [-88.3384463969, 44.2722781654]}, "type": "Feature", "properties": {"collection_times": [{"days": "Mon-Fri", "time": "2:00pm"}, {"days": "Sat", "time": "11:30am"}, {"days": "Sun", "time": "Closed"}], "id": "5413600000", "name": "USPS COLLECTION BOX - BLUE BOX", "address": {"city": "KIMBERLY", "state": "WI", "street": "409 W KIMBERLY AVE", "postcode": "54136"}}},
{"geometry": {"type": "Point", "coordinates": [-88.35047234, 44.2691830078]}, "type": "Feature", "properties": {"collection_times": [{"days": "Mon-Fri", "time": "2:00pm"}, {"days": "Sat", "time": "11:30am"}, {"days": "Sun", "time": "Closed"}], "id": "5413600001", "name": "USPS COLLECTION BOX - BLUE BOX", "address": {"city": "KIMBERLY", "state": "WI", "street": "1216 W KIMBERLY AVE", "postcode": "54136"}}},
{"geometry": {"type": "Point", "coordinates": [-88.3308378918, 44.2723358924]}, "type": "Feature", "properties": {"collection_times": [{"days": "Mon-Fri", "time": "4:45pm"}, {"days": "Sat", "time": "11:45am"}, {"days": "Sun", "time": "Closed"}], "id": "5413600008", "name": "USPS COLLECTION BOX - BLUE BOX", "address": {"city": "KIMBERLY", "state": "WI", "street": "415 E KIMBERLY AVE", "postcode": "54136"}}},
{"geometry": {"type": "Point", "coordinates": [-88.324241635, 44.2669495334]}, "type": "Feature", "properties": {"collection_times": [{"days": "Mon-Fri", "time": "2:00pm"}, {"days": "Sat", "time": "11:30am"}, {"days": "Sun", "time": "Closed"}], "id": "5413600010", "name": "USPS COLLECTION BOX - BLUE BOX", "address": {"city": "KIMBERLY", "state": "WI", "street": "424 S WASHINGTON ST", "postcode": "54136"}}},
{"geometry": {"type": "Point", "coordinates": [-88.3468134183, 44.2593043889]}, "type": "Feature", "properties": {"collection_times": [{"days": "Mon-Fri", "time": "2:00pm"}, {"days": "Sat", "time": "11:30am"}, {"days": "Sun", "time": "Closed"}], "id": "5413600016", "name": "USPS COLLECTION BOX - BLUE BOX", "address": {"city": "KIMBERLY", "state": "WI", "street": "855 EISENHOWER DR", "postcode": "54136"}}},
{"geometry": {"type": "Point", "coordinates": [-88.3308378918, 44.2723358924]}, "type": "Feature", "properties": {"collection_times": [{"days": "Mon-Fri", "time": "4:45pm"}, {"days": "Sat", "time": "11:45am"}, {"days": "Sun", "time": "Closed"}], "id": "5413600017", "name": "USPS COLLECTION BOX - PO LOBBY", "address": {"city": "KIMBERLY", "state": "WI", "street": "415 E KIMBERLY AVE", "postcode": "54136"}}},
{"geometry": {"type": "Point", "coordinates": [-88.3284532785, 44.2724720639]}, "type": "Feature", "properties": {"collection_times": [{"days": "Mon-Fri", "time": "2:00pm"}, {"days": "Sat", "time": "11:30am"}, {"days": "Sun", "time": "Closed"}], "id": "5413600020", "name": "USPS COLLECTION BOX - BLUE BOX", "address": {"city": "KIMBERLY", "state": "WI", "street": "620 E KIMBERLY AVE", "postcode": "54136"}}},
{"geometry": {"type": "Point", "coordinates": [-88.2597677083, 44.7596476809]}, "type": "Feature", "properties": {"collection_times": [{"days": "Mon-Fri", "time": "4:00pm"}, {"days": "Sat", "time": "10:00am"}, {"days": "Sun", "time": "Closed"}], "id": "5413700000", "name": "USPS COLLECTION BOX - BLUE BOX", "address": {"city": "KRAKOW", "state": "WI", "street": "N4805 STATE HIGHWAY 32", "postcode": "54137"}}},
{"geometry": {"type": "Point", "coordinates": [-88.2597677083, 44.7596476809]}, "type": "Feature", "properties": {"collection_times": [{"days": "Mon-Fri", "time": "2:15pm"}, {"days": "Sat", "time": "9:15am"}, {"days": "Sun", "time": "Closed"}], "id": "5413700001", "name": "USPS COLLECTION BOX - PO LOBBY", "address": {"city": "KRAKOW", "state": "WI", "street": "N4805 STATE HIGHWAY 32", "postcode": "54137"}}},
{"geometry": {"type": "Point", "coordinates": [-88.250718541, 44.756649459]}, "type": "Feature", "properties": {"collection_times": [{"days": "Mon-Fri", "time": "2:15pm"}, {"days": "Sat", "time": "9:15am"}, {"days": "Sun", "time": "Closed"}], "id": "5413700002", "name": "USPS COLLECTION BOX - PO LOBBY", "address": {"city": "KRAKOW", "state": "WI", "street": "N4805 STATE HIGHWAY 32", "postcode": "54137"}}},
{"geometry": {"type": "Point", "coordinates": [-88.2597677083, 44.7596476809]}, "type": "Feature", "properties": {"collection_times": [{"days": "Mon-Sat", "time": "12:30pm"}, {"days": "Sun", "time": "Closed"}], "id": "5413700003", "name": "USPS COLLECTION BOX - BLUE BOX", "address": {"city": "KRAKOW", "state": "WI", "street": "7786 COUNTY RD S", "postcode": "54137"}}},
{"geometry": {"type": "Point", "coordinates": [-88.5189224349, 45.299043842]}, "type": "Feature", "properties": {"collection_times": [{"days": "Mon-Fri", "time": "4:00pm"}, {"days": "Sat", "time": "10:30am"}, {"days": "Sun", "time": "Closed"}], "id": "5413800000", "name": "USPS COLLECTION BOX - BLUE BOX", "address": {"city": "LAKEWOOD", "state": "WI", "street": "15283 STATE RD 32", "postcode": "54138"}}},
{"geometry": {"type": "Point", "coordinates": [-88.521419444, 45.300113281]}, "type": "Feature", "properties": {"collection_times": [{"days": "Mon-Fri", "time": "4:00pm"}, {"days": "Sat", "time": "10:30am"}, {"days": "Sun", "time": "Closed"}], "id": "5413800001", "name": "USPS COLLECTION BOX - PO LOBBY", "address": {"city": "LAKEWOOD", "state": "WI", "street": "15283 STATE HIGHWAY 32", "postcode": "54138"}}},
{"geometry": {"type": "Point", "coordinates": [-88.5189224349, 45.299043842]}, "type": "Feature", "properties": {"collection_times": [{"days": "Mon-Fri", "time": "4:00pm"}, {"days": "Sat", "time": "10:30am"}, {"days": "Sun", "time": "Closed"}], "id": "5413800002", "name": "USPS COLLECTION BOX - PO LOBBY", "address": {"city": "LAKEWOOD", "state": "WI", "street": "15283 STATE RD 32", "postcode": "54138"}}},
{"geometry": {"type": "Point", "coordinates": [-88.0488868485, 44.9512943666]}, "type": "Feature", "properties": {"collection_times": [{"days": "Mon-Fri", "time": "3:30pm"}, {"days": "Sat", "time": "10:00am"}, {"days": "Sun", "time": "Closed"}], "id": "5413900000", "name": "USPS COLLECTION BOX - BLUE BOX", "address": {"city": "LENA", "state": "WI", "street": "133 E RAILROAD ST", "postcode": "54139"}}},
{"geometry": {"type": "Point", "coordinates": [-88.0488868485, 44.9512943666]}, "type": "Feature", "properties": {"collection_times": [{"days": "Mon-Fri", "time": "3:30pm"}, {"days": "Sat", "time": "9:00am"}, {"days": "Sun", "time": "Closed"}], "id": "5413900001", "name": "USPS COLLECTION BOX - PO LOBBY", "address": {"city": "LENA", "state": "WI", "street": "133 E RAILROAD ST", "postcode": "54139"}}},
{"geometry": {"type": "Point", "coordinates": [-88.0488868485, 44.9512943666]}, "type": "Feature", "properties": {"collection_times": [{"days": "Mon-Fri", "time": "3:30pm"}, {"days": "Sat", "time": "9:00am"}, {"days": "Sun", "time": "Closed"}], "id": "5413900002", "name": "USPS COLLECTION BOX - PO LOBBY", "address": {"city": "LENA", "state": "WI", "street": "133 E RAILROAD ST", "postcode": "54139"}}},
{"geometry": {"type": "Point", "coordinates": [-88.0557262501, 44.9489769506]}, "type": "Feature", "properties": {"collection_times": [{"days": "Mon-Sat", "time": "10:00am"}, {"days": "Sun", "time": "Closed"}], "id": "5413900003", "name": "USPS COLLECTION BOX - BLUE BOX", "address": {"city": "LENA", "state": "WI", "street": "5430 COUNTY ROAD A", "postcode": "54139"}}},
{"geometry": {"type": "Point", "coordinates": [-88.3155180941, 44.2789877626]}, "type": "Feature", "properties": {"collection_times": [{"days": "Mon-Fri", "time": "5:00pm"}, {"days": "Sat", "time": "11:00am"}, {"days": "Sun", "time": "Closed"}], "id": "5414000000", "name": "USPS COLLECTION BOX - BLUE BOX", "address": {"city": "LITTLE CHUTE", "state": "WI", "street": "514 GRAND AVE", "postcode": "54140"}}},
{"geometry": {"type": "Point", "coordinates": [-88.2911524327, 44.2852112777]}, "type": "Feature", "properties": {"collection_times": [{"days": "Mon-Sat", "time": "10:15am"}, {"days": "Sun", "time": "Closed"}], "id": "5414000014", "name": "USPS COLLECTION BOX - BLUE BOX", "address": {"city": "LITTLE CHUTE", "state": "WI", "street": "1901 E MAIN ST", "postcode": "54140"}}},
{"geometry": {"type": "Point", "coordinates": [-88.3155180941, 44.2789877626]}, "type": "Feature", "properties": {"collection_times": [{"days": "Mon-Fri", "time": "5:00pm"}, {"days": "Sat", "time": "11:30am"}, {"days": "Sun", "time": "Closed"}], "id": "5414000017", "name": "USPS COLLECTION BOX - PO LOBBY", "address": {"city": "LITTLE CHUTE", "state": "WI", "street": "514 GRAND AVE", "postcode": "54140"}}},
{"geometry": {"type": "Point", "coordinates": [-88.0095779466, 44.7291457423]}, "type": "Feature", "properties": {"collection_times": [{"days": "Mon-Fri", "time": "4:15pm"}, {"days": "Sat", "time": "9:30am"}, {"days": "Sun", "time": "Closed"}], "id": "5414100000", "name": "USPS COLLECTION BOX - BLUE BOX", "address": {"city": "LITTLE SUAMICO", "state": "WI", "street": "1145 GROSSE RD", "postcode": "54141"}}},
{"geometry": {"type": "Point", "coordinates": [-88.0095779466, 44.7291457423]}, "type": "Feature", "properties": {"collection_times": [{"days": "Mon-Fri", "time": "1:45pm"}, {"days": "Sat", "time": "9:00am"}, {"days": "Sun", "time": "Closed"}], "id": "5414100003", "name": "USPS COLLECTION BOX - PO LOBBY", "address": {"city": "LITTLE SUAMICO", "state": "WI", "street": "1145 GROSSE RD", "postcode": "54141"}}},
{"geometry": {"type": "Point", "coordinates": [-87.6328784982, 45.0849958674]}, "type": "Feature", "properties": {"collection_times": [{"days": "Mon-Sat", "time": "1:00pm"}, {"days": "Sun", "time": "Closed"}], "id": "5414300000", "name": "USPS COLLECTION BOX - BLUE BOX", "address": {"city": "MARINETTE", "state": "WI", "street": "1507 CLEVELAND AVE", "postcode": "54143"}}},
{"geometry": {"type": "Point", "coordinates": [-87.6192197897, 45.0720013195]}, "type": "Feature", "properties": {"collection_times": [{"days": "Mon-Sat", "time": "12:00pm"}, {"days": "Sun", "time": "Closed"}], "id": "5414300001", "name": "USPS COLLECTION BOX - BLUE BOX", "address": {"city": "MARINETTE", "state": "WI", "street": "3100 SHORE DR", "postcode": "54143"}}},
{"geometry": {"type": "Point", "coordinates": [-87.6601487138, 45.081998379]}, "type": "Feature", "properties": {"collection_times": [{"days": "Mon-Sat", "time": "11:00am"}, {"days": "Sun", "time": "Closed"}], "id": "5414300002", "name": "USPS COLLECTION BOX - BLUE BOX", "address": {"city": "MARINETTE", "state": "WI", "street": "2500 ROOSEVELT RD", "postcode": "54143"}}},
{"geometry": {"type": "Point", "coordinates": [-87.6606239707, 45.0860286082]}, "type": "Feature", "properties": {"collection_times": [{"days": "Mon-Sat", "time": "10:00am"}, {"days": "Sun", "time": "Closed"}], "id": "5414300003", "name": "USPS COLLECTION BOX - BLUE BOX", "address": {"city": "MARINETTE", "state": "WI", "street": "2301 ROOSEVELT RD", "postcode": "54143"}}},
{"geometry": {"type": "Point", "coordinates": [-87.6333047964, 45.09881989]}, "type": "Feature", "properties": {"collection_times": [{"days": "Mon-Fri", "time": "5:00pm"}, {"days": "Sat", "time": "4:00pm"}, {"days": "Sun", "time": "Closed"}], "id": "5414300004", "name": "USPS COLLECTION BOX - BLUE BOX", "address": {"city": "MARINETTE", "state": "WI", "street": "2016 MAPLE AVE", "postcode": "54143"}}},
{"geometry": {"type": "Point", "coordinates": [-87.6168118756, 45.092803109]}, "type": "Feature", "properties": {"collection_times": [{"days": "Mon-Sat", "time": "11:00am"}, {"days": "Sun", "time": "Closed"}], "id": "5414300008", "name": "USPS COLLECTION BOX - BLUE BOX", "address": {"city": "MARINETTE", "state": "WI", "street": "1010 MAIN ST", "postcode": "54143"}}},
{"geometry": {"type": "Point", "coordinates": [-87.6437705446, 45.095725944]}, "type": "Feature", "properties": {"collection_times": [{"days": "Mon-Sat", "time": "10:00am"}, {"days": "Sun", "time": "Closed"}], "id": "5414300021", "name": "USPS COLLECTION BOX - BLUE BOX", "address": {"city": "MARINETTE", "state": "WI", "street": "1011 MARINETTE AVE", "postcode": "54143"}}},
{"geometry": {"type": "Point", "coordinates": [-87.7096955218, 45.0911619283]}, "type": "Feature", "properties": {"collection_times": [{"days": "Mon-Sat", "time": "1:00pm"}, {"days": "Sun", "time": "Closed"}], "id": "5414300023", "name": "USPS COLLECTION BOX - BLUE BOX", "address": {"city": "MARINETTE", "state": "WI", "street": "W716 COUNTY B", "postcode": "54143"}}},
{"geometry": {"type": "Point", "coordinates": [-87.644268118, 45.0994484999]}, "type": "Feature", "properties": {"collection_times": [{"days": "Mon-Sat", "time": "1:00pm"}, {"days": "Sun", "time": "Closed"}], "id": "5414300025", "name": "USPS COLLECTION BOX - BLUE BOX", "address": {"city": "MARINETTE", "state": "WI", "street": "2732 HALL AVE", "postcode": "54143"}}},
{"geometry": {"type": "Point", "coordinates": [-87.6554106687, 45.0996333887]}, "type": "Feature", "properties": {"collection_times": [{"days": "Mon-Sat", "time": "10:00am"}, {"days": "Sun", "time": "Closed"}], "id": "5414300027", "name": "USPS COLLECTION BOX - BLUE BOX", "address": {"city": "MARINETTE", "state": "WI", "street": "3900 HALL AVE", "postcode": "54143"}}},
{"geometry": {"type": "Point", "coordinates": [-87.6328578414, 45.0998625919]}, "type": "Feature", "properties": {"collection_times": [{"days": "Mon-Sat", "time": "10:00am"}, {"days": "Sun", "time": "Closed"}], "id": "5414300028", "name": "USPS COLLECTION BOX - BLUE BOX", "address": {"city": "MARINETTE", "state": "WI", "street": "1926 HALL AVE", "postcode": "54143"}}},
{"geometry": {"type": "Point", "coordinates": [-87.597837275, 45.0846752827]}, "type": "Feature", "properties": {"collection_times": [{"days": "Mon-Sat", "time": "11:00am"}, {"days": "Sun", "time": "Closed"}], "id": "5414300031", "name": "USPS COLLECTION BOX - BLUE BOX", "address": {"city": "MARINETTE", "state": "WI", "street": "56 E BAY SHORE ST", "postcode": "54143"}}},
{"geometry": {"type": "Point", "coordinates": [-87.6465016376, 45.0915890679]}, "type": "Feature", "properties": {"collection_times": [{"days": "Mon-Sat", "time": "10:00am"}, {"days": "Sun", "time": "Closed"}], "id": "5414300032", "name": "USPS COLLECTION BOX - BLUE BOX", "address": {"city": "MARINETTE", "state": "WI", "street": "1450 MYRTLE ST", "postcode": "54143"}}},
{"geometry": {"type": "Point", "coordinates": [-87.6333047964, 45.09881989]}, "type": "Feature", "properties": {"collection_times": [{"days": "Mon-Fri", "time": "5:00pm"}, {"days": "Sat", "time": "4:00pm"}, {"days": "Sun", "time": "Closed"}], "id": "5414300033", "name": "USPS COLLECTION BOX - BLUE BOX", "address": {"city": "MARINETTE", "state": "WI", "street": "2016 MAPLE AVE", "postcode": "54143"}}},
{"geometry": {"type": "Point", "coordinates": [-87.6333047964, 45.09881989]}, "type": "Feature", "properties": {"collection_times": [{"days": "Mon-Fri", "time": "5:00pm"}, {"days": "Sat", "time": "4:00pm"}, {"days": "Sun", "time": "Closed"}], "id": "5414300035", "name": "USPS COLLECTION BOX - PO LOBBY", "address": {"city": "MARINETTE", "state": "WI", "street": "2016 MAPLE AVE", "postcode": "54143"}}},
{"geometry": {"type": "Point", "coordinates": [-87.6333047964, 45.09881989]}, "type": "Feature", "properties": {"collection_times": [{"days": "Mon-Fri", "time": "5:00pm"}, {"days": "Sat", "time": "4:00pm"}, {"days": "Sun", "time": "Closed"}], "id": "5414300038", "name": "USPS COLLECTION BOX - PO LOBBY", "address": {"city": "MARINETTE", "state": "WI", "street": "2016 MAPLE AVE", "postcode": "54143"}}},
{"geometry": {"type": "Point", "coordinates": [-87.7096955218, 45.0911619283]}, "type": "Feature", "properties": {"collection_times": [{"days": "Mon-Sat", "time": "11:00am"}, {"days": "Sun", "time": "Closed"}], "id": "5414300040", "name": "USPS COLLECTION BOX - BLUE BOX", "address": {"city": "MARINETTE", "state": "WI", "street": "2900 ROOSEVELT RD", "postcode": "54143"}}},
{"geometry": {"type": "Point", "coordinates": [-88.4850270576, 45.1917327925]}, "type": "Feature", "properties": {"collection_times": [{"days": "Mon-Fri", "time": "4:00pm"}, {"days": "Sat", "time": "10:00am"}, {"days": "Sun", "time": "Closed"}], "id": "5414900000", "name": "USPS COLLECTION BOX - BLUE BOX", "address": {"city": "MOUNTAIN", "state": "WI", "street": "14092 STATE HIGHWAY 32 64", "postcode": "54149"}}},
{"geometry": {"type": "Point", "coordinates": [-88.4850270576, 45.1917327925]}, "type": "Feature", "properties": {"collection_times": [{"days": "Mon-Fri", "time": "4:00pm"}, {"days": "Sat", "time": "10:00am"}, {"days": "Sun", "time": "Closed"}], "id": "5414900001", "name": "USPS COLLECTION BOX - PO LOBBY", "address": {"city": "MOUNTAIN", "state": "WI", "street": "14092 STATE HIGHWAY 32 64", "postcode": "54149"}}},
{"geometry": {"type": "Point", "coordinates": [-88.4877571766, 45.208586968]}, "type": "Feature", "properties": {"collection_times": [{"days": "Mon-Fri", "time": "4:00pm"}, {"days": "Sat", "time": "10:00am"}, {"days": "Sun", "time": "Closed"}], "id": "5414900002", "name": "USPS COLLECTION BOX - PO LOBBY", "address": {"city": "MOUNTAIN", "state": "WI", "street": "14092 STATE RD 32/64", "postcode": "54149"}}},
{"geometry": {"type": "Point", "coordinates": [-88.8583661055, 44.9862056979]}, "type": "Feature", "properties": {"collection_times": [{"days": "Mon-Fri", "time": "4:00pm"}, {"days": "Sat", "time": "9:30am"}, {"days": "Sun", "time": "Closed"}], "id": "5415000000", "name": "USPS COLLECTION BOX - BLUE BOX", "address": {"city": "NEOPIT", "state": "WI", "street": "W6786 CHURCH ST", "postcode": "54150"}}},
{"geometry": {"type": "Point", "coordinates": [-88.8583661055, 44.9862056979]}, "type": "Feature", "properties": {"collection_times": [{"days": "Mon-Fri", "time": "4:00pm"}, {"days": "Sat", "time": "9:30am"}, {"days": "Sun", "time": "Closed"}], "id": "5415000001", "name": "USPS COLLECTION BOX - PO LOBBY", "address": {"city": "NEOPIT", "state": "WI", "street": "W6786 CHURCH ST", "postcode": "54150"}}},
{"geometry": {"type": "Point", "coordinates": [-88.0044325379, 45.7837531267]}, "type": "Feature", "properties": {"collection_times": [{"days": "Mon-Fri", "time": "4:00pm"}, {"days": "Sat", "time": "10:45am"}, {"days": "Sun", "time": "Closed"}], "id": "5415100000", "name": "USPS COLLECTION BOX - BLUE BOX", "address": {"city": "NIAGARA", "state": "WI", "street": "617 WASHINGTON AVE", "postcode": "54151"}}},
{"geometry": {"type": "Point", "coordinates": [-88.0081676718, 45.784571533]}, "type": "Feature", "properties": {"collection_times": [{"days": "Mon-Sat", "time": "2:30pm"}, {"days": "Sun", "time": "Closed"}], "id": "5415100003", "name": "USPS COLLECTION BOX - BLUE BOX", "address": {"city": "NIAGARA", "state": "WI", "street": "1250 ROOSEVELT RD", "postcode": "54151"}}},
{"geometry": {"type": "Point", "coordinates": [-87.9935470555, 45.7261974183]}, "type": "Feature", "properties": {"collection_times": [{"days": "Mon-Sat", "time": "10:00am"}, {"days": "Sun", "time": "Closed"}], "id": "5415100004", "name": "USPS COLLECTION BOX - BLUE BOX", "address": {"city": "NIAGARA", "state": "WI", "street": "W582 COUNTY RD N", "postcode": "54151"}}},
{"geometry": {"type": "Point", "coordinates": [-88.0044325379, 45.7837531267]}, "type": "Feature", "properties": {"collection_times": [{"days": "Mon-Fri", "time": "4:00pm"}, {"days": "Sat", "time": "10:45am"}, {"days": "Sun", "time": "Closed"}], "id": "5415100008", "name": "USPS COLLECTION BOX - PO LOBBY", "address": {"city": "NIAGARA", "state": "WI", "street": "617 WASHINGTON AVE", "postcode": "54151"}}},
{"geometry": {"type": "Point", "coordinates": [-88.3268717441, 44.5114020793]}, "type": "Feature", "properties": {"collection_times": [{"days": "Mon-Fri", "time": "4:15pm"}, {"days": "Sat", "time": "9:30am"}, {"days": "Sun", "time": "Closed"}], "id": "5415200000", "name": "USPS COLLECTION BOX - BLUE BOX", "address": {"city": "NICHOLS", "state": "WI", "street": "W5624 COUNTY ROAD F", "postcode": "54152"}}},
{"geometry": {"type": "Point", "coordinates": [-88.4647322678, 44.5650814932]}, "type": "Feature", "properties": {"collection_times": [{"days": "Mon-Fri", "time": "10:45am"}, {"days": "Sat", "time": "8:45am"}, {"days": "Sun", "time": "Closed"}], "id": "5415200001", "name": "USPS COLLECTION BOX - PO LOBBY", "address": {"city": "NICHOLS", "state": "WI", "street": "W5624 COUNTY ROAD F", "postcode": "54152"}}},
{"geometry": {"type": "Point", "coordinates": [-87.8678906709, 44.8881873126]}, "type": "Feature", "properties": {"collection_times": [{"days": "Mon-Fri", "time": "4:45pm"}, {"days": "Sat", "time": "10:00am"}, {"days": "Sun", "time": "Closed"}], "id": "5415300000", "name": "USPS COLLECTION BOX - BLUE BOX", "address": {"city": "OCONTO", "state": "WI", "street": "141 CONGRESS ST", "postcode": "54153"}}},
{"geometry": {"type": "Point", "coordinates": [-87.8849441875, 44.8829447414]}, "type": "Feature", "properties": {"collection_times": [{"days": "Mon-Sat", "time": "12:00pm"}, {"days": "Sun", "time": "Closed"}], "id": "5415300008", "name": "USPS COLLECTION BOX - BLUE BOX", "address": {"city": "OCONTO", "state": "WI", "street": "798 MCDONALD ST", "postcode": "54153"}}},
{"geometry": {"type": "Point", "coordinates": [-87.8830130146, 44.8933171098]}, "type": "Feature", "properties": {"collection_times": [{"days": "Mon-Sat", "time": "9:30am"}, {"days": "Sun", "time": "Closed"}], "id": "5415300010", "name": "USPS COLLECTION BOX - BLUE BOX", "address": {"city": "OCONTO", "state": "WI", "street": "202 MAIN ST", "postcode": "54153"}}},
{"geometry": {"type": "Point", "coordinates": [-87.8678906709, 44.8881873126]}, "type": "Feature", "properties": {"collection_times": [{"days": "Mon-Fri", "time": "4:45pm"}, {"days": "Sat", "time": "10:00am"}, {"days": "Sun", "time": "Closed"}], "id": "5415300018", "name": "USPS COLLECTION BOX - PO LOBBY", "address": {"city": "OCONTO", "state": "WI", "street": "141 CONGRESS ST", "postcode": "54153"}}},
{"geometry": {"type": "Point", "coordinates": [-87.8678906709, 44.8881873126]}, "type": "Feature", "properties": {"collection_times": [{"days": "Mon-Fri", "time": "4:45pm"}, {"days": "Sat", "time": "10:00am"}, {"days": "Sun", "time": "Closed"}], "id": "5415300019", "name": "USPS COLLECTION BOX - PO LOBBY", "address": {"city": "OCONTO", "state": "WI", "street": "141 CONGRESS ST", "postcode": "54153"}}},
{"geometry": {"type": "Point", "coordinates": [-87.8678906709, 44.8881873126]}, "type": "Feature", "properties": {"collection_times": [{"days": "Mon-Fri", "time": "4:45pm"}, {"days": "Sat", "time": "10:00am"}, {"days": "Sun", "time": "Closed"}], "id": "5415300020", "name": "USPS COLLECTION BOX - BLUE BOX", "address": {"city": "OCONTO", "state": "WI", "street": "141 CONGRESS ST", "postcode": "54153"}}},
{"geometry": {"type": "Point", "coordinates": [-88.1423065352, 44.8751449495]}, "type": "Feature", "properties": {"collection_times": [{"days": "Mon-Fri", "time": "4:45pm"}, {"days": "Sat", "time": "11:45am"}, {"days": "Sun", "time": "Closed"}], "id": "5415400000", "name": "USPS COLLECTION BOX - BLUE BOX", "address": {"city": "OCONTO FALLS", "state": "WI", "street": "145 N FRANKLIN ST", "postcode": "54154"}}},
{"geometry": {"type": "Point", "coordinates": [-88.1423065352, 44.8751449495]}, "type": "Feature", "properties": {"collection_times": [{"days": "Mon-Fri", "time": "4:45pm"}, {"days": "Sat", "time": "11:45am"}, {"days": "Sun", "time": "Closed"}], "id": "5415400002", "name": "USPS COLLECTION BOX - BLUE BOX", "address": {"city": "OCONTO FALLS", "state": "WI", "street": "145 N FRANKLIN ST", "postcode": "54154"}}},
{"geometry": {"type": "Point", "coordinates": [-88.1521824578, 44.8824716623]}, "type": "Feature", "properties": {"collection_times": [{"days": "Mon-Sat", "time": "11:30am"}, {"days": "Sun", "time": "Closed"}], "id": "5415400003", "name": "USPS COLLECTION BOX - BLUE BOX", "address": {"city": "OCONTO FALLS", "state": "WI", "street": "710 N MAIN ST", "postcode": "54154"}}},
{"geometry": {"type": "Point", "coordinates": [-88.1423079277, 44.8828248336]}, "type": "Feature", "properties": {"collection_times": [{"days": "Mon-Sat", "time": "11:30am"}, {"days": "Sun", "time": "Closed"}], "id": "5415400004", "name": "USPS COLLECTION BOX - BLUE BOX", "address": {"city": "OCONTO FALLS", "state": "WI", "street": "409 E HIGHLAND DR", "postcode": "54154"}}},
{"geometry": {"type": "Point", "coordinates": [-88.1423065352, 44.8751449495]}, "type": "Feature", "properties": {"collection_times": [{"days": "Mon-Fri", "time": "4:45pm"}, {"days": "Sat", "time": "11:45am"}, {"days": "Sun", "time": "Closed"}], "id": "5415400008", "name": "USPS COLLECTION BOX - PO LOBBY", "address": {"city": "OCONTO FALLS", "state": "WI", "street": "145 N FRANKLIN ST", "postcode": "54154"}}},
{"geometry": {"type": "Point", "coordinates": [-88.201167709, 44.5022925221]}, "type": "Feature", "properties": {"collection_times": [{"days": "Mon-Fri", "time": "4:30pm"}, {"days": "Sat", "time": "11:00am"}, {"days": "Sun", "time": "Closed"}], "id": "5415500000", "name": "USPS COLLECTION BOX - BLUE BOX", "address": {"city": "ONEIDA", "state": "WI", "street": "N7310 RED WILLOW PKWY", "postcode": "54155"}}},
{"geometry": {"type": "Point", "coordinates": [-88.201167709, 44.5022925221]}, "type": "Feature", "properties": {"collection_times": [{"days": "Mon-Fri", "time": "4:30pm"}, {"days": "Sat", "time": "11:00am"}, {"days": "Sun", "time": "Closed"}], "id": "5415500002", "name": "USPS COLLECTION BOX - PO LOBBY", "address": {"city": "ONEIDA", "state": "WI", "street": "N7310 RED WILLOW PKWY", "postcode": "54155"}}},
{"geometry": {"type": "Point", "coordinates": [-87.9318906691, 45.5898787795]}, "type": "Feature", "properties": {"collection_times": [{"days": "Mon-Fri", "time": "4:00pm"}, {"days": "Sat", "time": "11:00am"}, {"days": "Sun", "time": "Closed"}], "id": "5415600000", "name": "USPS COLLECTION BOX - BLUE BOX", "address": {"city": "PEMBINE", "state": "WI", "street": "N18656 US HIGHWAY 141", "postcode": "54156"}}},
{"geometry": {"type": "Point", "coordinates": [-87.9318906691, 45.5898787795]}, "type": "Feature", "properties": {"collection_times": [{"days": "Mon-Fri", "time": "4:30pm"}, {"days": "Sat", "time": "11:00am"}, {"days": "Sun", "time": "Closed"}], "id": "5415600002", "name": "USPS COLLECTION BOX - PO LOBBY", "address": {"city": "PEMBINE", "state": "WI", "street": "N18656 US HIGHWAY 141", "postcode": "54156"}}},
{"geometry": {"type": "Point", "coordinates": [-87.9894863914, 45.6357336269]}, "type": "Feature", "properties": {"collection_times": [{"days": "Mon-Sat", "time": "1:15pm"}, {"days": "Sun", "time": "Closed"}], "id": "5415600003", "name": "USPS COLLECTION BOX - BLUE BOX", "address": {"city": "PEMBINE", "state": "WI", "street": "W11468 US HIGHWAY 8", "postcode": "54156"}}},
{"geometry": {"type": "Point", "coordinates": [-87.7490297808, 45.0528287669]}, "type": "Feature", "properties": {"collection_times": [{"days": "Mon-Fri", "time": "4:30pm"}, {"days": "Sat", "time": "11:00am"}, {"days": "Sun", "time": "Closed"}], "id": "5415700000", "name": "USPS COLLECTION BOX - BLUE BOX", "address": {"city": "PESHTIGO", "state": "WI", "street": "201 W FRONT ST", "postcode": "54157"}}},
{"geometry": {"type": "Point", "coordinates": [-87.7490297808, 45.0528287669]}, "type": "Feature", "properties": {"collection_times": [{"days": "Mon-Fri", "time": "4:30pm"}, {"days": "Sat", "time": "11:00am"}, {"days": "Sun", "time": "Closed"}], "id": "5415700007", "name": "USPS COLLECTION BOX - BLUE BOX", "address": {"city": "PESHTIGO", "state": "WI", "street": "201 W FRONT ST", "postcode": "54157"}}},
{"geometry": {"type": "Point", "coordinates": [-87.7490297808, 45.0528287669]}, "type": "Feature", "properties": {"collection_times": [{"days": "Mon-Fri", "time": "4:30pm"}, {"days": "Sat", "time": "11:00am"}, {"days": "Sun", "time": "Closed"}], "id": "5415700010", "name": "USPS COLLECTION BOX - PO LOBBY", "address": {"city": "PESHTIGO", "state": "WI", "street": "201 W FRONT ST", "postcode": "54157"}}},
{"geometry": {"type": "Point", "coordinates": [-87.7490297808, 45.0528287669]}, "type": "Feature", "properties": {"collection_times": [{"days": "Mon-Fri", "time": "4:30pm"}, {"days": "Sat", "time": "11:00am"}, {"days": "Sun", "time": "Closed"}], "id": "5415700013", "name": "USPS COLLECTION BOX - BLUE BOX", "address": {"city": "PESHTIGO", "state": "WI", "street": "201 W FRONT ST", "postcode": "54157"}}},
{"geometry": {"type": "Point", "coordinates": [-87.763878579, 45.2299470499]}, "type": "Feature", "properties": {"collection_times": [{"days": "Mon-Fri", "time": "3:45pm"}, {"days": "Sat", "time": "9:00am"}, {"days": "Sun", "time": "Closed"}], "id": "5415900000", "name": "USPS COLLECTION BOX - BLUE BOX", "address": {"city": "PORTERFIELD", "state": "WI", "street": "N5450 COUNTY RD E", "postcode": "54159"}}},
{"geometry": {"type": "Point", "coordinates": [-87.763878579, 45.2299470499]}, "type": "Feature", "properties": {"collection_times": [{"days": "Mon-Fri", "time": "11:15am"}, {"days": "Sat", "time": "9:00am"}, {"days": "Sun", "time": "Closed"}], "id": "5415900001", "name": "USPS COLLECTION BOX - PO LOBBY", "address": {"city": "PORTERFIELD", "state": "WI", "street": "N5450 COUNTY RD E", "postcode": "54159"}}},
{"geometry": {"type": "Point", "coordinates": [-87.763878579, 45.2299470499]}, "type": "Feature", "properties": {"collection_times": [{"days": "Mon-Fri", "time": "11:15am"}, {"days": "Sat", "time": "9:00am"}, {"days": "Sun", "time": "Closed"}], "id": "5415900002", "name": "USPS COLLECTION BOX - PO LOBBY", "address": {"city": "PORTERFIELD", "state": "WI", "street": "N5450 COUNTY RD E", "postcode": "54159"}}},
{"geometry": {"type": "Point", "coordinates": [-88.0968561157, 44.1206101798]}, "type": "Feature", "properties": {"collection_times": [{"days": "Mon-Fri", "time": "4:30pm"}, {"days": "Sat", "time": "9:30am"}, {"days": "Sun", "time": "Closed"}], "id": "5416000000", "name": "USPS COLLECTION BOX - BLUE BOX", "address": {"city": "POTTER", "state": "WI", "street": "198 MAIN ST", "postcode": "54160"}}},
{"geometry": {"type": "Point", "coordinates": [-88.0968561157, 44.1206101798]}, "type": "Feature", "properties": {"collection_times": [{"days": "Mon-Fri", "time": "11:45am"}, {"days": "Sat", "time": "8:45am"}, {"days": "Sun", "time": "Closed"}], "id": "5416000001", "name": "USPS COLLECTION BOX - PO LOBBY", "address": {"city": "POTTER", "state": "WI", "street": "198 MAIN ST", "postcode": "54160"}}},
{"geometry": {"type": "Point", "coordinates": [-88.0242667347, 45.0942463503]}, "type": "Feature", "properties": {"collection_times": [{"days": "Mon-Fri", "time": "4:00pm"}, {"days": "Sat", "time": "10:30am"}, {"days": "Sun", "time": "Closed"}], "id": "5416100000", "name": "USPS COLLECTION BOX - BLUE BOX", "address": {"city": "POUND", "state": "WI", "street": "1018 COUNTY ROAD Q", "postcode": "54161"}}},
{"geometry": {"type": "Point", "coordinates": [-88.0242667347, 45.0942463503]}, "type": "Feature", "properties": {"collection_times": [{"days": "Mon-Fri", "time": "12:00pm"}, {"days": "Sat", "time": "10:30am"}, {"days": "Sun", "time": "Closed"}], "id": "5416100001", "name": "USPS COLLECTION BOX - PO LOBBY", "address": {"city": "POUND", "state": "WI", "street": "1018 COUNTY ROAD Q", "postcode": "54161"}}},
{"geometry": {"type": "Point", "coordinates": [-88.0242667347, 45.0942463503]}, "type": "Feature", "properties": {"collection_times": [{"days": "Mon-Fri", "time": "12:00pm"}, {"days": "Sat", "time": "10:30am"}, {"days": "Sun", "time": "Closed"}], "id": "5416100002", "name": "USPS COLLECTION BOX - PO LOBBY", "address": {"city": "POUND", "state": "WI", "street": "1018 COUNTY ROAD Q", "postcode": "54161"}}},
{"geometry": {"type": "Point", "coordinates": [-88.178399508, 45.112500861]}, "type": "Feature", "properties": {"collection_times": [{"days": "Mon-Sat", "time": "9:30am"}, {"days": "Sun", "time": "Closed"}], "id": "5416100004", "name": "USPS COLLECTION BOX - BLUE BOX", "address": {"city": "POUND", "state": "WI", "street": "N4111 COUNTY RD S", "postcode": "54161"}}},
{"geometry": {"type": "Point", "coordinates": [-88.2424048687, 44.6699692631]}, "type": "Feature", "properties": {"collection_times": [{"days": "Mon-Fri", "time": "5:00pm"}, {"days": "Sat", "time": "10:00am"}, {"days": "Sun", "time": "Closed"}], "id": "5416200000", "name": "USPS COLLECTION BOX - BLUE BOX", "address": {"city": "PULASKI", "state": "WI", "street": "306 S SAINT AUGUSTINE ST", "postcode": "54162"}}},
{"geometry": {"type": "Point", "coordinates": [-88.2839867693, 44.6602832992]}, "type": "Feature", "properties": {"collection_times": [{"days": "Mon-Sat", "time": "12:00pm"}, {"days": "Sun", "time": "Closed"}], "id": "5416200001", "name": "USPS COLLECTION BOX - BLUE BOX", "address": {"city": "PULASKI", "state": "WI", "street": "960 COUNTY ROAD B", "postcode": "54162"}}},
{"geometry": {"type": "Point", "coordinates": [-88.2424048687, 44.6699692631]}, "type": "Feature", "properties": {"collection_times": [{"days": "Mon-Fri", "time": "5:00pm"}, {"days": "Sat", "time": "10:00am"}, {"days": "Sun", "time": "Closed"}], "id": "5416200003", "name": "USPS COLLECTION BOX - PO LOBBY", "address": {"city": "PULASKI", "state": "WI", "street": "306 S SAINT AUGUSTINE ST", "postcode": "54162"}}},
{"geometry": {"type": "Point", "coordinates": [-88.2424048687, 44.6699692631]}, "type": "Feature", "properties": {"collection_times": [{"days": "Mon-Fri", "time": "5:00pm"}, {"days": "Sat", "time": "10:00am"}, {"days": "Sun", "time": "Closed"}], "id": "5416200004", "name": "USPS COLLECTION BOX - BLUE BOX", "address": {"city": "PULASKI", "state": "WI", "street": "306 S SAINT AUGUSTINE ST", "postcode": "54162"}}},
{"geometry": {"type": "Point", "coordinates": [-88.3249942695, 44.5008277078]}, "type": "Feature", "properties": {"collection_times": [{"days": "Mon-Fri", "time": "4:30pm"}, {"days": "Sat", "time": "11:00am"}, {"days": "Sun", "time": "Closed"}], "id": "5416500000", "name": "USPS COLLECTION BOX - PO LOBBY", "address": {"city": "SEYMOUR", "state": "WI", "street": "607 WOODLAND PLZ", "postcode": "54165"}}},
{"geometry": {"type": "Point", "coordinates": [-88.3310344566, 44.5116201406]}, "type": "Feature", "properties": {"collection_times": [{"days": "Mon-Sat", "time": "2:00pm"}, {"days": "Sun", "time": "Closed"}], "id": "5416500002", "name": "USPS COLLECTION BOX - BLUE BOX", "address": {"city": "SEYMOUR", "state": "WI", "street": "147 W WISCONSIN ST", "postcode": "54165"}}},
{"geometry": {"type": "Point", "coordinates": [-88.3249942695, 44.5008277078]}, "type": "Feature", "properties": {"collection_times": [{"days": "Mon-Fri", "time": "4:30pm"}, {"days": "Sat", "time": "11:00am"}, {"days": "Sun", "time": "Closed"}], "id": "5416500005", "name": "USPS COLLECTION BOX - BLUE BOX", "address": {"city": "SEYMOUR", "state": "WI", "street": "607 WOODLAND PLZ", "postcode": "54165"}}},
{"geometry": {"type": "Point", "coordinates": [-88.3249942695, 44.5008277078]}, "type": "Feature", "properties": {"collection_times": [{"days": "Mon-Fri", "time": "4:30pm"}, {"days": "Sat", "time": "11:00am"}, {"days": "Sun", "time": "Closed"}], "id": "5416500006", "name": "USPS COLLECTION BOX - BLUE BOX", "address": {"city": "SEYMOUR", "state": "WI", "street": "607 WOODLAND PLZ", "postcode": "54165"}}},
{"geometry": {"type": "Point", "coordinates": [-88.3249942695, 44.5008277078]}, "type": "Feature", "properties": {"collection_times": [{"days": "Mon-Fri", "time": "4:30pm"}, {"days": "Sat", "time": "11:00am"}, {"days": "Sun", "time": "Closed"}], "id": "5416500007", "name": "USPS COLLECTION BOX - PO LOBBY", "address": {"city": "SEYMOUR", "state": "WI", "street": "607 WOODLAND PLZ", "postcode": "54165"}}},
{"geometry": {"type": "Point", "coordinates": [-88.6093914502, 44.77947628]}, "type": "Feature", "properties": {"collection_times": [{"days": "Mon-Fri", "time": "5:00pm"}, {"days": "Sat", "time": "2:00pm"}, {"days": "Sun", "time": "Closed"}], "id": "5416600000", "name": "USPS COLLECTION BOX - PO LOBBY", "address": {"city": "SHAWANO", "state": "WI", "street": "235 S MAIN ST --OUT OF TOWN--", "postcode": "54166"}}},
{"geometry": {"type": "Point", "coordinates": [-88.609472373, 44.7786652352]}, "type": "Feature", "properties": {"collection_times": [{"days": "Mon-Fri", "time": "5:00pm"}, {"days": "Sat", "time": "2:00pm"}, {"days": "Sun", "time": "Closed"}], "id": "5416600001", "name": "USPS COLLECTION BOX - BLUE BOX", "address": {"city": "SHAWANO", "state": "WI", "street": "108 PRESBYTERIAN ST", "postcode": "54166"}}},
{"geometry": {"type": "Point", "coordinates": [-88.609472373, 44.7786652352]}, "type": "Feature", "properties": {"collection_times": [{"days": "Mon-Fri", "time": "5:00pm"}, {"days": "Sat", "time": "2:00pm"}, {"days": "Sun", "time": "Closed"}], "id": "5416600013", "name": "USPS COLLECTION BOX - BLUE BOX", "address": {"city": "SHAWANO", "state": "WI", "street": "108 PRESBYTERIAN ST", "postcode": "54166"}}},
{"geometry": {"type": "Point", "coordinates": [-88.6000375537, 44.782068445]}, "type": "Feature", "properties": {"collection_times": [{"days": "Mon-Sat", "time": "10:30am"}, {"days": "Sun", "time": "Closed"}], "id": "5416600021", "name": "USPS COLLECTION BOX - BLUE BOX", "address": {"city": "SHAWANO", "state": "WI", "street": "710 E GREEN BAY ST", "postcode": "54166"}}},
{"geometry": {"type": "Point", "coordinates": [-88.609472373, 44.7786652352]}, "type": "Feature", "properties": {"collection_times": [{"days": "Mon-Fri", "time": "5:00pm"}, {"days": "Sat", "time": "2:00pm"}, {"days": "Sun", "time": "Closed"}], "id": "5416600025", "name": "USPS COLLECTION BOX - BLUE BOX", "address": {"city": "SHAWANO", "state": "WI", "street": "108 PRESBYTERIAN ST", "postcode": "54166"}}},
{"geometry": {"type": "Point", "coordinates": [-88.5884714426, 44.7834375896]}, "type": "Feature", "properties": {"collection_times": [{"days": "Mon-Fri", "time": "3:00pm"}, {"days": "Sat", "time": "2:00pm"}, {"days": "Sun", "time": "Closed"}], "id": "5416600027", "name": "USPS COLLECTION BOX - BLUE BOX", "address": {"city": "SHAWANO", "state": "WI", "street": "152 WOODLAWN DR", "postcode": "54166"}}},
{"geometry": {"type": "Point", "coordinates": [-88.6094794672, 44.7816777795]}, "type": "Feature", "properties": {"collection_times": [{"days": "Mon-Fri", "time": "3:00pm"}, {"days": "Sat", "time": "2:00pm"}, {"days": "Sun", "time": "Closed"}], "id": "5416600029", "name": "USPS COLLECTION BOX - BLUE BOX", "address": {"city": "SHAWANO", "state": "WI", "street": "117 S MAIN ST", "postcode": "54166"}}},
{"geometry": {"type": "Point", "coordinates": [-88.6093914502, 44.77947628]}, "type": "Feature", "properties": {"collection_times": [{"days": "Mon-Fri", "time": "5:00pm"}, {"days": "Sat", "time": "2:00pm"}, {"days": "Sun", "time": "Closed"}], "id": "5416600030", "name": "USPS COLLECTION BOX - PO LOBBY", "address": {"city": "SHAWANO", "state": "WI", "street": "235 S MAIN ST 541-542-543", "postcode": "54166"}}},
{"geometry": {"type": "Point", "coordinates": [-88.604926255, 44.7833193167]}, "type": "Feature", "properties": {"collection_times": [{"days": "Mon-Fri", "time": "5:00pm"}, {"days": "Sat", "time": "2:00pm"}, {"days": "Sun", "time": "Closed"}], "id": "5416600031", "name": "USPS COLLECTION BOX - PO LOBBY", "address": {"city": "SHAWANO", "state": "WI", "street": "235 S MAIN ST", "postcode": "54166"}}},
{"geometry": {"type": "Point", "coordinates": [-88.609472373, 44.7786652352]}, "type": "Feature", "properties": {"collection_times": [{"days": "Mon-Fri", "time": "5:00pm"}, {"days": "Sat", "time": "2:00pm"}, {"days": "Sun", "time": "Closed"}], "id": "5416600032", "name": "USPS COLLECTION BOX - BLUE BOX", "address": {"city": "SHAWANO", "state": "WI", "street": "108 PRESBYTERIAN ST", "postcode": "54166"}}},
{"geometry": {"type": "Point", "coordinates": [-88.604926255, 44.7833193167]}, "type": "Feature", "properties": {"collection_times": [{"days": "Mon-Fri", "time": "3:00pm"}, {"days": "Sat", "time": "2:00pm"}, {"days": "Sun", "time": "Closed"}], "id": "5416600033", "name": "USPS COLLECTION BOX - BLUE BOX", "address": {"city": "SHAWANO", "state": "WI", "street": "121 N SAWYER ST", "postcode": "54166"}}},
{"geometry": {"type": "Point", "coordinates": [-88.5878824981, 44.7822237609]}, "type": "Feature", "properties": {"collection_times": [{"days": "Mon-Sat", "time": "2:00pm"}, {"days": "Sun", "time": "Closed"}], "id": "5416600036", "name": "USPS COLLECTION BOX - BLUE BOX", "address": {"city": "SHAWANO", "state": "WI", "street": "1313 E GREEN BAY ST", "postcode": "54166"}}},
{"geometry": {"type": "Point", "coordinates": [-88.5884722685, 44.7821258523]}, "type": "Feature", "properties": {"collection_times": [{"days": "Mon-Sat", "time": "11:00am"}, {"days": "Sun", "time": "Closed"}], "id": "5416600037", "name": "USPS COLLECTION BOX - BLUE BOX", "address": {"city": "SHAWANO", "state": "WI", "street": "1244 E GREEN BAY ST", "postcode": "54166"}}},
{"geometry": {"type": "Point", "coordinates": [-89.7391818064, 44.6448297939]}, "type": "Feature", "properties": {"collection_times": [{"days": "Mon-Fri", "time": "3:00pm"}, {"days": "Sat", "time": "2:00pm"}, {"days": "Sun", "time": "Closed"}], "id": "5416600038", "name": "USPS COLLECTION BOX - BLUE BOX", "address": {"city": "SHAWANO", "state": "WI", "street": "1273 S MAIN ST", "postcode": "54166"}}},
{"geometry": {"type": "Point", "coordinates": [-88.2599314892, 44.173136689]}, "type": "Feature", "properties": {"collection_times": [{"days": "Mon-Fri", "time": "4:00pm"}, {"days": "Sat", "time": "10:30am"}, {"days": "Sun", "time": "Closed"}], "id": "5416900000", "name": "USPS COLLECTION BOX - BLUE BOX", "address": {"city": "SHERWOOD", "state": "WI", "street": "N397 MILITARY RD", "postcode": "54169"}}},
{"geometry": {"type": "Point", "coordinates": [-88.2599314892, 44.173136689]}, "type": "Feature", "properties": {"collection_times": [{"days": "Mon-Fri", "time": "4:00pm"}, {"days": "Sat", "time": "10:30am"}, {"days": "Sun", "time": "Closed"}], "id": "5416900001", "name": "USPS COLLECTION BOX - PO LOBBY", "address": {"city": "SHERWOOD", "state": "WI", "street": "N397 MILITARY RD", "postcode": "54169"}}},
{"geometry": {"type": "Point", "coordinates": [-88.570507353, 44.4467237154]}, "type": "Feature", "properties": {"collection_times": [{"days": "Mon-Fri", "time": "4:00pm"}, {"days": "Sat", "time": "10:15am"}, {"days": "Sun", "time": "Closed"}], "id": "5417000001", "name": "USPS COLLECTION BOX - BLUE BOX", "address": {"city": "SHIOCTON", "state": "WI", "street": "W7596 PARK AVE", "postcode": "54170"}}},
{"geometry": {"type": "Point", "coordinates": [-88.570507353, 44.4467237154]}, "type": "Feature", "properties": {"collection_times": [{"days": "Mon-Fri", "time": "1:45pm"}, {"days": "Sat", "time": "8:45am"}, {"days": "Sun", "time": "Closed"}], "id": "5417000002", "name": "USPS COLLECTION BOX - PO LOBBY", "address": {"city": "SHIOCTON", "state": "WI", "street": "W7596 PARK AVE", "postcode": "54170"}}},
{"geometry": {"type": "Point", "coordinates": [-88.570507353, 44.4467237154]}, "type": "Feature", "properties": {"collection_times": [{"days": "Mon-Fri", "time": "1:45pm"}, {"days": "Sat", "time": "8:45am"}, {"days": "Sun", "time": "Closed"}], "id": "5417000003", "name": "USPS COLLECTION BOX - PO LOBBY", "address": {"city": "SHIOCTON", "state": "WI", "street": "W7596 PARK AVE", "postcode": "54170"}}},
{"geometry": {"type": "Point", "coordinates": [-88.0511742448, 44.6320202253]}, "type": "Feature", "properties": {"collection_times": [{"days": "Mon-Fri", "time": "4:15pm"}, {"days": "Sat", "time": "10:45am"}, {"days": "Sun", "time": "Closed"}], "id": "5417300000", "name": "USPS COLLECTION BOX - BLUE BOX", "address": {"city": "SUAMICO", "state": "WI", "street": "1815 RIVERSIDE DR", "postcode": "54173"}}},
{"geometry": {"type": "Point", "coordinates": [-88.0511742448, 44.6320202253]}, "type": "Feature", "properties": {"collection_times": [{"days": "Mon-Fri", "time": "4:30pm"}, {"days": "Sat", "time": "11:00am"}, {"days": "Sun", "time": "Closed"}], "id": "5417300001", "name": "USPS COLLECTION BOX - PO LOBBY", "address": {"city": "SUAMICO", "state": "WI", "street": "1815 RIVERSIDE DR", "postcode": "54173"}}},
{"geometry": {"type": "Point", "coordinates": [-88.0289494643, 44.6356663072]}, "type": "Feature", "properties": {"collection_times": [{"days": "Mon-Sat", "time": "12:00pm"}, {"days": "Sun", "time": "Closed"}], "id": "5417300003", "name": "USPS COLLECTION BOX - BLUE BOX", "address": {"city": "SUAMICO", "state": "WI", "street": "1535 SUNSET BEACH RD", "postcode": "54173"}}},
{"geometry": {"type": "Point", "coordinates": [-88.2338048839, 45.0147453584]}, "type": "Feature", "properties": {"collection_times": [{"days": "Mon-Sat", "time": "10:30am"}, {"days": "Sun", "time": "Closed"}], "id": "5417400001", "name": "USPS COLLECTION BOX - BLUE BOX", "address": {"city": "SURING", "state": "WI", "street": "9407 SAINT BERNADETTE RD", "postcode": "54174"}}},
{"geometry": {"type": "Point", "coordinates": [-88.3746652978, 44.9989441403]}, "type": "Feature", "properties": {"collection_times": [{"days": "Mon-Fri", "time": "4:00pm"}, {"days": "Sat", "time": "10:00am"}, {"days": "Sun", "time": "Closed"}], "id": "5417400005", "name": "USPS COLLECTION BOX - PO LOBBY", "address": {"city": "SURING", "state": "WI", "street": "507 MAIN ST", "postcode": "54174"}}},
{"geometry": {"type": "Point", "coordinates": [-88.3746652978, 44.9989441403]}, "type": "Feature", "properties": {"collection_times": [{"days": "Mon-Fri", "time": "4:00pm"}, {"days": "Sat", "time": "10:00am"}, {"days": "Sun", "time": "Closed"}], "id": "5417400006", "name": "USPS COLLECTION BOX - BLUE BOX", "address": {"city": "SURING", "state": "WI", "street": "507 MAIN ST", "postcode": "54174"}}},
{"geometry": {"type": "Point", "coordinates": [-88.3746652978, 44.9989441403]}, "type": "Feature", "properties": {"collection_times": [{"days": "Mon-Fri", "time": "4:00pm"}, {"days": "Sat", "time": "10:00am"}, {"days": "Sun", "time": "Closed"}], "id": "5417400008", "name": "USPS COLLECTION BOX - PO LOBBY", "address": {"city": "SURING", "state": "WI", "street": "507 MAIN ST", "postcode": "54174"}}},
{"geometry": {"type": "Point", "coordinates": [-88.588550252, 45.328406266]}, "type": "Feature", "properties": {"collection_times": [{"days": "Mon-Fri", "time": "4:00pm"}, {"days": "Sat", "time": "10:00am"}, {"days": "Sun", "time": "Closed"}], "id": "5417500000", "name": "USPS COLLECTION BOX - BLUE BOX", "address": {"city": "TOWNSEND", "state": "WI", "street": "17912 FRONT ST", "postcode": "54175"}}},
{"geometry": {"type": "Point", "coordinates": [-88.5875194095, 45.3268995047]}, "type": "Feature", "properties": {"collection_times": [{"days": "Mon-Fri", "time": "3:00pm"}, {"days": "Sat", "time": "9:30am"}, {"days": "Sun", "time": "Closed"}], "id": "5417500001", "name": "USPS COLLECTION BOX - PO LOBBY", "address": {"city": "TOWNSEND", "state": "WI", "street": "17912 FRONT ST", "postcode": "54175"}}},
{"geometry": {"type": "Point", "coordinates": [-88.5875194095, 45.3268995047]}, "type": "Feature", "properties": {"collection_times": [{"days": "Mon-Fri", "time": "3:00pm"}, {"days": "Sat", "time": "9:30am"}, {"days": "Sun", "time": "Closed"}], "id": "5417500002", "name": "USPS COLLECTION BOX - PO LOBBY", "address": {"city": "TOWNSEND", "state": "WI", "street": "17912 FRONT ST", "postcode": "54175"}}},
{"geometry": {"type": "Point", "coordinates": [-88.585880926, 45.321121484]}, "type": "Feature", "properties": {"collection_times": [{"days": "Mon-Sat", "time": "2:00pm"}, {"days": "Sun", "time": "Closed"}], "id": "5417500003", "name": "USPS COLLECTION BOX - BLUE BOX", "address": {"city": "TOWNSEND", "state": "WI", "street": "17757 STATE HIGHWAY 32", "postcode": "54175"}}},
{"geometry": {"type": "Point", "coordinates": [-88.0009237713, 45.3804110243]}, "type": "Feature", "properties": {"collection_times": [{"days": "Mon-Fri", "time": "4:15pm"}, {"days": "Sat", "time": "10:45am"}, {"days": "Sun", "time": "Closed"}], "id": "5417700000", "name": "USPS COLLECTION BOX - BLUE BOX", "address": {"city": "WAUSAUKEE", "state": "WI", "street": "614 MAIN ST", "postcode": "54177"}}},
{"geometry": {"type": "Point", "coordinates": [-88.0009237713, 45.3804110243]}, "type": "Feature", "properties": {"collection_times": [{"days": "Mon-Fri", "time": "4:15pm"}, {"days": "Sat", "time": "10:45am"}, {"days": "Sun", "time": "Closed"}], "id": "5417700001", "name": "USPS COLLECTION BOX - PO LOBBY", "address": {"city": "WAUSAUKEE", "state": "WI", "street": "614 MAIN ST", "postcode": "54177"}}},
{"geometry": {"type": "Point", "coordinates": [-88.1744628956, 44.3252543004]}, "type": "Feature", "properties": {"collection_times": [{"days": "Mon-Fri", "time": "4:15pm"}, {"days": "Sat", "time": "10:45am"}, {"days": "Sun", "time": "Closed"}], "id": "5418000000", "name": "USPS COLLECTION BOX - BLUE BOX", "address": {"city": "WRIGHTSTOWN", "state": "WI", "street": "518 MAIN ST", "postcode": "54180"}}},
{"geometry": {"type": "Point", "coordinates": [-88.1744628956, 44.3252543004]}, "type": "Feature", "properties": {"collection_times": [{"days": "Mon-Fri", "time": "4:30pm"}, {"days": "Sat", "time": "11:00am"}, {"days": "Sun", "time": "Closed"}], "id": "5418000002", "name": "USPS COLLECTION BOX - PO LOBBY", "address": {"city": "WRIGHTSTOWN", "state": "WI", "street": "518 MAIN ST", "postcode": "54180"}}}
]}
