{"type": "FeatureCollection", "features": [
{"geometry": {"type": "Point", "coordinates": [-87.4375540986, 44.6088437977]}, "type": "Feature", "properties": {"collection_times": [{"days": "Mon-Sat", "time": "3:15pm"}, {"days": "Sun", "time": "Closed"}], "id": "5420100004", "name": "USPS COLLECTION BOX - BLUE BOX", "address": {"city": "ALGOMA", "state": "WI", "street": "208 STEELE ST", "postcode": "54201"}}},
{"geometry": {"type": "Point", "coordinates": [-87.4385932654, 44.6101881096]}, "type": "Feature", "properties": {"collection_times": [{"days": "Mon-Sat", "time": "3:15pm"}, {"days": "Sun", "time": "Closed"}], "id": "5420100008", "name": "USPS COLLECTION BOX - BLUE BOX", "address": {"city": "ALGOMA", "state": "WI", "street": "329 4TH ST", "postcode": "54201"}}},
{"geometry": {"type": "Point", "coordinates": [-87.4489237921, 44.6030154261]}, "type": "Feature", "properties": {"collection_times": [{"days": "Mon-Fri", "time": "5:00pm"}, {"days": "Sat", "time": "4:00pm"}, {"days": "Sun", "time": "Closed"}], "id": "5420100012", "name": "USPS COLLECTION BOX - BLUE BOX", "address": {"city": "ALGOMA", "state": "WI", "street": "1121 FLORA AVE", "postcode": "54201"}}},
{"geometry": {"type": "Point", "coordinates": [-87.4489237921, 44.6030154261]}, "type": "Feature", "properties": {"collection_times": [{"days": "Mon-Fri", "time": "5:00pm"}, {"days": "Sat", "time": "4:00pm"}, {"days": "Sun", "time": "Closed"}], "id": "5420100013", "name": "USPS COLLECTION BOX - PO LOBBY", "address": {"city": "ALGOMA", "state": "WI", "street": "1121 FLORA AVE", "postcode": "54201"}}},
{"geometry": {"type": "Point", "coordinates": [-87.4489237921, 44.6030154261]}, "type": "Feature", "properties": {"collection_times": [{"days": "Mon-Fri", "time": "5:00pm"}, {"days": "Sat", "time": "4:00pm"}, {"days": "Sun", "time": "Closed"}], "id": "5420100014", "name": "USPS COLLECTION BOX - BLUE BOX", "address": {"city": "ALGOMA", "state": "WI", "street": "1121 FLORA AVE", "postcode": "54201"}}},
{"geometry": {"type": "Point", "coordinates": [-87.4375540986, 44.6088437977]}, "type": "Feature", "properties": {"collection_times": [{"days": "Mon-Sat", "time": "3:15pm"}, {"days": "Sun", "time": "Closed"}], "id": "5420100015", "name": "USPS COLLECTION BOX - BLUE BOX", "address": {"city": "ALGOMA", "state": "WI", "street": "208 STEELE ST", "postcode": "54201"}}},
{"geometry": {"type": "Point", "coordinates": [-87.1250084355, 45.0620953934]}, "type": "Feature", "properties": {"collection_times": [{"days": "Mon-Fri", "time": "3:30pm"}, {"days": "Sat", "time": "11:00am"}, {"days": "Sun", "time": "Closed"}], "id": "5420200000", "name": "USPS COLLECTION BOX - BLUE BOX", "address": {"city": "BAILEYS HARBOR", "state": "WI", "street": "2398 BLUFF RD", "postcode": "54202"}}},
{"geometry": {"type": "Point", "coordinates": [-87.1250084355, 45.0620953934]}, "type": "Feature", "properties": {"collection_times": [{"days": "Mon-Fri", "time": "3:30pm"}, {"days": "Sat", "time": "11:00am"}, {"days": "Sun", "time": "Closed"}], "id": "5420200001", "name": "USPS COLLECTION BOX - PO LOBBY", "address": {"city": "BAILEYS HARBOR", "state": "WI", "street": "2398 BLUFF RD", "postcode": "54202"}}},
{"geometry": {"type": "Point", "coordinates": [-87.1250084355, 45.0620953934]}, "type": "Feature", "properties": {"collection_times": [{"days": "Mon-Fri", "time": "3:30pm"}, {"days": "Sat", "time": "11:00am"}, {"days": "Sun", "time": "Closed"}], "id": "5420200002", "name": "USPS COLLECTION BOX - PO LOBBY", "address": {"city": "BAILEYS HARBOR", "state": "WI", "street": "2398 BLUFF RD", "postcode": "54202"}}},
{"geometry": {"type": "Point", "coordinates": [-87.6261876963, 44.7558197311]}, "type": "Feature", "properties": {"collection_times": [{"days": "Mon-Fri", "time": "4:00pm"}, {"days": "Sat", "time": "10:15am"}, {"days": "Sun", "time": "Closed"}], "id": "5420400000", "name": "USPS COLLECTION BOX - BLUE BOX", "address": {"city": "BRUSSELS", "state": "WI", "street": "1366 COUNTY ROAD DK", "postcode": "54204"}}},
{"geometry": {"type": "Point", "coordinates": [-87.6261876963, 44.7558197311]}, "type": "Feature", "properties": {"collection_times": [{"days": "Mon-Fri", "time": "2:15pm"}, {"days": "Sat", "time": "9:15am"}, {"days": "Sun", "time": "Closed"}], "id": "5420400001", "name": "USPS COLLECTION BOX - PO LOBBY", "address": {"city": "BRUSSELS", "state": "WI", "street": "1366 COUNTY ROAD DK", "postcode": "54204"}}},
{"geometry": {"type": "Point", "coordinates": [-87.6261876963, 44.7558197311]}, "type": "Feature", "properties": {"collection_times": [{"days": "Mon-Fri", "time": "2:15pm"}, {"days": "Sat", "time": "9:15am"}, {"days": "Sun", "time": "Closed"}], "id": "5420400002", "name": "USPS COLLECTION BOX - PO LOBBY", "address": {"city": "BRUSSELS", "state": "WI", "street": "1366 COUNTY ROAD DK", "postcode": "54204"}}},
{"geometry": {"type": "Point", "coordinates": [-87.6157966381, 44.5577013061]}, "type": "Feature", "properties": {"collection_times": [{"days": "Mon-Fri", "time": "2:15pm"}, {"days": "Sat", "time": "8:45am"}, {"days": "Sun", "time": "Closed"}], "id": "5420500001", "name": "USPS COLLECTION BOX - PO LOBBY", "address": {"city": "CASCO", "state": "WI", "street": "307 MAIN ST", "postcode": "54205"}}},
{"geometry": {"type": "Point", "coordinates": [-87.6183795699, 44.5577699627]}, "type": "Feature", "properties": {"collection_times": [{"days": "Mon-Fri", "time": "4:00pm"}, {"days": "Sat", "time": "11:00am"}, {"days": "Sun", "time": "Closed"}], "id": "5420500002", "name": "USPS COLLECTION BOX - BLUE BOX", "address": {"city": "CASCO", "state": "WI", "street": "307 MAIN ST", "postcode": "54205"}}},
{"geometry": {"type": "Point", "coordinates": [-87.6157966381, 44.5577013061]}, "type": "Feature", "properties": {"collection_times": [{"days": "Mon-Fri", "time": "2:15pm"}, {"days": "Sat", "time": "8:45am"}, {"days": "Sun", "time": "Closed"}], "id": "5420500003", "name": "USPS COLLECTION BOX - PO LOBBY", "address": {"city": "CASCO", "state": "WI", "street": "307 MAIN ST", "postcode": "54205"}}},
{"geometry": {"type": "Point", "coordinates": [-87.9804610058, 44.0843512038]}, "type": "Feature", "properties": {"collection_times": [{"days": "Mon-Fri", "time": "4:00pm"}, {"days": "Sat", "time": "12:30pm"}, {"days": "Sun", "time": "Closed"}], "id": "5420700000", "name": "USPS COLLECTION BOX - BLUE BOX", "address": {"city": "COLLINS", "state": "WI", "street": "20841 COUNTY ROAD JJ", "postcode": "54207"}}},
{"geometry": {"type": "Point", "coordinates": [-87.9777479261, 44.0819030323]}, "type": "Feature", "properties": {"collection_times": [{"days": "Mon-Fri", "time": "3:15pm"}, {"days": "Sat", "time": "12:30pm"}, {"days": "Sun", "time": "Closed"}], "id": "5420700001", "name": "USPS COLLECTION BOX - PO LOBBY", "address": {"city": "COLLINS", "state": "WI", "street": "20841 CTH JJ", "postcode": "54207"}}},
{"geometry": {"type": "Point", "coordinates": [-87.8263681471, 44.3475828146]}, "type": "Feature", "properties": {"collection_times": [{"days": "Mon-Fri", "time": "5:00pm"}, {"days": "Sat", "time": "10:15am"}, {"days": "Sun", "time": "Closed"}], "id": "5420800001", "name": "USPS COLLECTION BOX - BLUE BOX", "address": {"city": "DENMARK", "state": "WI", "street": "135 WISCONSIN AVE", "postcode": "54208"}}},
{"geometry": {"type": "Point", "coordinates": [-87.8263681471, 44.3475828146]}, "type": "Feature", "properties": {"collection_times": [{"days": "Mon-Fri", "time": "5:00pm"}, {"days": "Sat", "time": "10:15am"}, {"days": "Sun", "time": "Closed"}], "id": "5420800002", "name": "USPS COLLECTION BOX - BLUE BOX", "address": {"city": "DENMARK", "state": "WI", "street": "135 WISCONSIN AVE", "postcode": "54208"}}},
{"geometry": {"type": "Point", "coordinates": [-87.8263681471, 44.3475828146]}, "type": "Feature", "properties": {"collection_times": [{"days": "Mon-Fri", "time": "5:00pm"}, {"days": "Sat", "time": "10:15am"}, {"days": "Sun", "time": "Closed"}], "id": "5420800003", "name": "USPS COLLECTION BOX - PO LOBBY", "address": {"city": "DENMARK", "state": "WI", "street": "135 WISCONSIN AVE", "postcode": "54208"}}},
{"geometry": {"type": "Point", "coordinates": [-87.8263681471, 44.3475828146]}, "type": "Feature", "properties": {"collection_times": [{"days": "Mon-Fri", "time": "5:00pm"}, {"days": "Sat", "time": "10:15am"}, {"days": "Sun", "time": "Closed"}], "id": "5420800004", "name": "USPS COLLECTION BOX - PO LOBBY", "address": {"city": "DENMARK", "state": "WI", "street": "135 WISCONSIN AVE", "postcode": "54208"}}},
{"geometry": {"type": "Point", "coordinates": [-87.2805735501, 45.0522403209]}, "type": "Feature", "properties": {"collection_times": [{"days": "Mon-Fri", "time": "3:00pm"}, {"days": "Sat", "time": "11:00am"}, {"days": "Sun", "time": "Closed"}], "id": "5420900000", "name": "USPS COLLECTION BOX - BLUE BOX", "address": {"city": "EGG HARBOR", "state": "WI", "street": "7858 STATE HIGHWAY 42", "postcode": "54209"}}},
{"geometry": {"type": "Point", "coordinates": [-87.2804878697, 45.0498823154]}, "type": "Feature", "properties": {"collection_times": [{"days": "Mon-Fri", "time": "3:45pm"}, {"days": "Sat", "time": "11:00am"}, {"days": "Sun", "time": "Closed"}], "id": "5420900002", "name": "USPS COLLECTION BOX - PO LOBBY", "address": {"city": "EGG HARBOR", "state": "WI", "street": "7858 STATE HIGHWAY 42", "postcode": "54209"}}},
{"geometry": {"type": "Point", "coordinates": [-87.2804878697, 45.0498823154]}, "type": "Feature", "properties": {"collection_times": [{"days": "Mon-Fri", "time": "3:45pm"}, {"days": "Sat", "time": "11:00am"}, {"days": "Sun", "time": "Closed"}], "id": "5420900003", "name": "USPS COLLECTION BOX - PO LOBBY", "address": {"city": "EGG HARBOR", "state": "WI", "street": "7858 STATE HIGHWAY 42", "postcode": "54209"}}},
{"geometry": {"type": "Point", "coordinates": [-87.0714937705, 45.2571458127]}, "type": "Feature", "properties": {"collection_times": [{"days": "Mon-Fri", "time": "4:30pm"}, {"days": "Sat", "time": "10:15am"}, {"days": "Sun", "time": "Closed"}], "id": "5421000000", "name": "USPS COLLECTION BOX - BLUE BOX", "address": {"city": "ELLISON BAY", "state": "WI", "street": "12055 GARRETT BAY RD", "postcode": "54210"}}},
{"geometry": {"type": "Point", "coordinates": [-87.0714937705, 45.2571458127]}, "type": "Feature", "properties": {"collection_times": [{"days": "Mon-Fri", "time": "3:15pm"}, {"days": "Sat", "time": "10:00am"}, {"days": "Sun", "time": "Closed"}], "id": "5421000002", "name": "USPS COLLECTION BOX - PO LOBBY", "address": {"city": "ELLISON BAY", "state": "WI", "street": "12055 GARRETT BAY RD", "postcode": "54210"}}},
{"geometry": {"type": "Point", "coordinates": [-87.0714937705, 45.2571458127]}, "type": "Feature", "properties": {"collection_times": [{"days": "Mon-Fri", "time": "3:15pm"}, {"days": "Sat", "time": "10:00am"}, {"days": "Sun", "time": "Closed"}], "id": "5421000003", "name": "USPS COLLECTION BOX - PO LOBBY", "address": {"city": "ELLISON BAY", "state": "WI", "street": "12055 GARRETT BAY RD", "postcode": "54210"}}},
{"geometry": {"type": "Point", "coordinates": [-87.1699382315, 45.157791784]}, "type": "Feature", "properties": {"collection_times": [{"days": "Mon-Fri", "time": "3:45pm"}, {"days": "Sat", "time": "11:00am"}, {"days": "Sun", "time": "Closed"}], "id": "5421100000", "name": "USPS COLLECTION BOX - BLUE BOX", "address": {"city": "EPHRAIM", "state": "WI", "street": "3043 CEDAR ST", "postcode": "54211"}}},
{"geometry": {"type": "Point", "coordinates": [-87.1699382315, 45.157791784]}, "type": "Feature", "properties": {"collection_times": [{"days": "Mon-Fri", "time": "2:15pm"}, {"days": "Sat", "time": "9:45am"}, {"days": "Sun", "time": "Closed"}], "id": "5421100001", "name": "USPS COLLECTION BOX - PO LOBBY", "address": {"city": "EPHRAIM", "state": "WI", "street": "3043 CEDAR ST", "postcode": "54211"}}},
{"geometry": {"type": "Point", "coordinates": [-87.1699382315, 45.157791784]}, "type": "Feature", "properties": {"collection_times": [{"days": "Mon-Fri", "time": "2:15pm"}, {"days": "Sat", "time": "9:45am"}, {"days": "Sun", "time": "Closed"}], "id": "5421100002", "name": "USPS COLLECTION BOX - PO LOBBY", "address": {"city": "EPHRAIM", "state": "WI", "street": "3043 CEDAR ST", "postcode": "54211"}}},
{"geometry": {"type": "Point", "coordinates": [-87.2405928124, 45.1264691092]}, "type": "Feature", "properties": {"collection_times": [{"days": "Mon-Fri", "time": "3:30pm"}, {"days": "Sat", "time": "12:00pm"}, {"days": "Sun", "time": "Closed"}], "id": "5421200000", "name": "USPS COLLECTION BOX - BLUE BOX", "address": {"city": "FISH CREEK", "state": "WI", "street": "4097 STATE HIGHWAY 42", "postcode": "54212"}}},
{"geometry": {"type": "Point", "coordinates": [-87.2405928124, 45.1264691092]}, "type": "Feature", "properties": {"collection_times": [{"days": "Mon-Fri", "time": "4:00pm"}, {"days": "Sat", "time": "12:00pm"}, {"days": "Sun", "time": "Closed"}], "id": "5421200001", "name": "USPS COLLECTION BOX - PO LOBBY", "address": {"city": "FISH CREEK", "state": "WI", "street": "4097 STATE HIGHWAY 42", "postcode": "54212"}}},
{"geometry": {"type": "Point", "coordinates": [-87.2405928124, 45.1264691092]}, "type": "Feature", "properties": {"collection_times": [{"days": "Mon-Fri", "time": "4:00pm"}, {"days": "Sat", "time": "12:00pm"}, {"days": "Sun", "time": "Closed"}], "id": "5421200002", "name": "USPS COLLECTION BOX - PO LOBBY", "address": {"city": "FISH CREEK", "state": "WI", "street": "4097 STATE HIGHWAY 42", "postcode": "54212"}}},
{"geometry": {"type": "Point", "coordinates": [-87.4845890685, 44.6898863509]}, "type": "Feature", "properties": {"collection_times": [{"days": "Mon-Fri", "time": "4:00pm"}, {"days": "Sat", "time": "9:30am"}, {"days": "Sun", "time": "Closed"}], "id": "5421300000", "name": "USPS COLLECTION BOX - BLUE BOX", "address": {"city": "FORESTVILLE", "state": "WI", "street": "137 W MAIN ST", "postcode": "54213"}}},
{"geometry": {"type": "Point", "coordinates": [-87.4845890685, 44.6898863509]}, "type": "Feature", "properties": {"collection_times": [{"days": "Mon-Fri", "time": "11:45am"}, {"days": "Sat", "time": "9:30am"}, {"days": "Sun", "time": "Closed"}], "id": "5421300001", "name": "USPS COLLECTION BOX - PO LOBBY", "address": {"city": "FORESTVILLE", "state": "WI", "street": "137 W MAIN ST", "postcode": "54213"}}},
{"geometry": {"type": "Point", "coordinates": [-87.7178983467, 44.1994019769]}, "type": "Feature", "properties": {"collection_times": [{"days": "Mon-Fri", "time": "4:00pm"}, {"days": "Sat", "time": "11:45am"}, {"days": "Sun", "time": "Closed"}], "id": "5421400000", "name": "USPS COLLECTION BOX - BLUE BOX", "address": {"city": "FRANCIS CREEK", "state": "WI", "street": "516 FOREST HOME DR", "postcode": "54214"}}},
{"geometry": {"type": "Point", "coordinates": [-87.7178983467, 44.1994019769]}, "type": "Feature", "properties": {"collection_times": [{"days": "Mon-Sat", "time": "11:45am"}, {"days": "Sun", "time": "Closed"}], "id": "5421400001", "name": "USPS COLLECTION BOX - PO LOBBY", "address": {"city": "FRANCIS CREEK", "state": "WI", "street": "516 FOREST HOME DR", "postcode": "54214"}}},
{"geometry": {"type": "Point", "coordinates": [-87.7178983467, 44.1994019769]}, "type": "Feature", "properties": {"collection_times": [{"days": "Mon-Sat", "time": "11:45am"}, {"days": "Sun", "time": "Closed"}], "id": "5421400002", "name": "USPS COLLECTION BOX - PO LOBBY", "address": {"city": "FRANCIS CREEK", "state": "WI", "street": "516 FOREST HOME DR", "postcode": "54214"}}},
{"geometry": {"type": "Point", "coordinates": [-87.8023349402, 44.2256723171]}, "type": "Feature", "properties": {"collection_times": [{"days": "Mon-Fri", "time": "4:30pm"}, {"days": "Sat", "time": "10:15am"}, {"days": "Sun", "time": "Closed"}], "id": "5421500000", "name": "USPS COLLECTION BOX - BLUE BOX", "address": {"city": "KELLNERSVILLE", "state": "WI", "street": "1216 MAIN ST", "postcode": "54215"}}},
{"geometry": {"type": "Point", "coordinates": [-87.8023349402, 44.2256723171]}, "type": "Feature", "properties": {"collection_times": [{"days": "Mon-Fri", "time": "11:45am"}, {"days": "Sat", "time": "10:15am"}, {"days": "Sun", "time": "Closed"}], "id": "5421500001", "name": "USPS COLLECTION BOX - PO LOBBY", "address": {"city": "KELLNERSVILLE", "state": "WI", "street": "1216 MAIN ST", "postcode": "54215"}}},
{"geometry": {"type": "Point", "coordinates": [-87.5005330526, 44.4582295944]}, "type": "Feature", "properties": {"collection_times": [{"days": "Mon-Fri", "time": "5:00pm"}, {"days": "Sat", "time": "11:00am"}, {"days": "Sun", "time": "Closed"}], "id": "5421600000", "name": "USPS COLLECTION BOX - BLUE BOX", "address": {"city": "KEWAUNEE", "state": "WI", "street": "119 ELLIS ST", "postcode": "54216"}}},
{"geometry": {"type": "Point", "coordinates": [-87.5005330526, 44.4582295944]}, "type": "Feature", "properties": {"collection_times": [{"days": "Mon-Fri", "time": "5:00pm"}, {"days": "Sat", "time": "11:00am"}, {"days": "Sun", "time": "Closed"}], "id": "5421600001", "name": "USPS COLLECTION BOX - BLUE BOX", "address": {"city": "KEWAUNEE", "state": "WI", "street": "119 ELLIS ST", "postcode": "54216"}}},
{"geometry": {"type": "Point", "coordinates": [-87.5238830368, 44.4551445629]}, "type": "Feature", "properties": {"collection_times": [{"days": "Mon-Sat", "time": "12:00pm"}, {"days": "Sun", "time": "Closed"}], "id": "5421600010", "name": "USPS COLLECTION BOX - BLUE BOX", "address": {"city": "KEWAUNEE", "state": "WI", "street": "1614 CENTER ST", "postcode": "54216"}}},
{"geometry": {"type": "Point", "coordinates": [-87.5276997259, 44.4542353199]}, "type": "Feature", "properties": {"collection_times": [{"days": "Mon-Sat", "time": "12:00pm"}, {"days": "Sun", "time": "Closed"}], "id": "5421600012", "name": "USPS COLLECTION BOX - BLUE BOX", "address": {"city": "KEWAUNEE", "state": "WI", "street": "931 MARQUETTE DR", "postcode": "54216"}}},
{"geometry": {"type": "Point", "coordinates": [-87.5005330526, 44.4582295944]}, "type": "Feature", "properties": {"collection_times": [{"days": "Mon-Fri", "time": "5:00pm"}, {"days": "Sat", "time": "11:00am"}, {"days": "Sun", "time": "Closed"}], "id": "5421600013", "name": "USPS COLLECTION BOX - PO LOBBY", "address": {"city": "KEWAUNEE", "state": "WI", "street": "119 ELLIS ST", "postcode": "54216"}}},
{"geometry": {"type": "Point", "coordinates": [-87.5005330526, 44.4582295944]}, "type": "Feature", "properties": {"collection_times": [{"days": "Mon-Fri", "time": "5:00pm"}, {"days": "Sat", "time": "11:00am"}, {"days": "Sun", "time": "Closed"}], "id": "5421600014", "name": "USPS COLLECTION BOX - PO LOBBY", "address": {"city": "KEWAUNEE", "state": "WI", "street": "119 ELLIS ST", "postcode": "54216"}}},
{"geometry": {"type": "Point", "coordinates": [-87.5005330526, 44.4582295944]}, "type": "Feature", "properties": {"collection_times": [{"days": "Mon-Fri", "time": "5:00pm"}, {"days": "Sat", "time": "11:00am"}, {"days": "Sun", "time": "Closed"}], "id": "5421600015", "name": "USPS COLLECTION BOX - PO LOBBY", "address": {"city": "KEWAUNEE", "state": "WI", "street": "119 ELLIS ST", "postcode": "54216"}}},
{"geometry": {"type": "Point", "coordinates": [-87.7033680959, 44.5421168675]}, "type": "Feature", "properties": {"collection_times": [{"days": "Mon-Fri", "time": "5:00pm"}, {"days": "Sat", "time": "10:45am"}, {"days": "Sun", "time": "Closed"}], "id": "5421700000", "name": "USPS COLLECTION BOX - BLUE BOX", "address": {"city": "LUXEMBURG", "state": "WI", "street": "406 MAIN ST", "postcode": "54217"}}},
{"geometry": {"type": "Point", "coordinates": [-87.7624796951, 44.6422251275]}, "type": "Feature", "properties": {"collection_times": [{"days": "Mon-Sat", "time": "12:15pm"}, {"days": "Sun", "time": "Closed"}], "id": "5421700001", "name": "USPS COLLECTION BOX - BLUE BOX", "address": {"city": "LUXEMBURG", "state": "WI", "street": "6459 STURGEON BAY RD", "postcode": "54217"}}},
{"geometry": {"type": "Point", "coordinates": [-87.7033680959, 44.5421168675]}, "type": "Feature", "properties": {"collection_times": [{"days": "Mon-Fri", "time": "5:00pm"}, {"days": "Sat", "time": "10:45am"}, {"days": "Sun", "time": "Closed"}], "id": "5421700002", "name": "USPS COLLECTION BOX - PO LOBBY", "address": {"city": "LUXEMBURG", "state": "WI", "street": "406 MAIN ST", "postcode": "54217"}}},
{"geometry": {"type": "Point", "coordinates": [-87.7033680959, 44.5421168675]}, "type": "Feature", "properties": {"collection_times": [{"days": "Mon-Fri", "time": "5:00pm"}, {"days": "Sat", "time": "10:45am"}, {"days": "Sun", "time": "Closed"}], "id": "5421700004", "name": "USPS COLLECTION BOX - BLUE BOX", "address": {"city": "LUXEMBURG", "state": "WI", "street": "406 MAIN ST", "postcode": "54217"}}},
{"geometry": {"type": "Point", "coordinates": [-87.7033680959, 44.5421168675]}, "type": "Feature", "properties": {"collection_times": [{"days": "Mon-Fri", "time": "5:00pm"}, {"days": "Sat", "time": "10:45am"}, {"days": "Sun", "time": "Closed"}], "id": "5421700005", "name": "USPS COLLECTION BOX - PO LOBBY", "address": {"city": "LUXEMBURG", "state": "WI", "street": "406 MAIN ST", "postcode": "54217"}}},
{"geometry": {"type": "Point", "coordinates": [-87.6608288624, 44.0784301915]}, "type": "Feature", "properties": {"collection_times": [{"days": "Mon-Sat", "time": "1:00pm"}, {"days": "Sun", "time": "Closed"}], "id": "5422000005", "name": "USPS COLLECTION BOX - BLUE BOX", "address": {"city": "MANITOWOC", "state": "WI", "street": "1710 S 10TH ST", "postcode": "54220"}}},
{"geometry": {"type": "Point", "coordinates": [-87.6578159016, 44.0937137411]}, "type": "Feature", "properties": {"collection_times": [{"days": "Mon-Sat", "time": "3:00pm"}, {"days": "Sun", "time": "Closed"}], "id": "5422000021", "name": "USPS COLLECTION BOX - BLUE BOX", "address": {"city": "MANITOWOC", "state": "WI", "street": "801 YORK ST", "postcode": "54220"}}},
{"geometry": {"type": "Point", "coordinates": [-87.6578002841, 44.1126319447]}, "type": "Feature", "properties": {"collection_times": [{"days": "Mon-Sat", "time": "3:00pm"}, {"days": "Sun", "time": "Closed"}], "id": "5422000037", "name": "USPS COLLECTION BOX - BLUE BOX", "address": {"city": "MANITOWOC", "state": "WI", "street": "1339 N 8TH ST", "postcode": "54220"}}},
{"geometry": {"type": "Point", "coordinates": [-87.6803050174, 44.1158754213]}, "type": "Feature", "properties": {"collection_times": [{"days": "Mon-Sat", "time": "3:00pm"}, {"days": "Sun", "time": "Closed"}], "id": "5422000038", "name": "USPS COLLECTION BOX - BLUE BOX", "address": {"city": "MANITOWOC", "state": "WI", "street": "2330 MENASHA AVE", "postcode": "54220"}}},
{"geometry": {"type": "Point", "coordinates": [-87.7006587029, 44.0975126979]}, "type": "Feature", "properties": {"collection_times": [{"days": "Mon-Sat", "time": "3:00pm"}, {"days": "Sun", "time": "Closed"}], "id": "5422000059", "name": "USPS COLLECTION BOX - BLUE BOX", "address": {"city": "MANITOWOC", "state": "WI", "street": "311 N RAPIDS RD", "postcode": "54220"}}},
{"geometry": {"type": "Point", "coordinates": [-87.6633893733, 44.0906440654]}, "type": "Feature", "properties": {"collection_times": [{"days": "Mon-Sat", "time": "5:00pm"}, {"days": "Sun", "time": "Closed"}], "id": "5422000066", "name": "USPS COLLECTION BOX - BLUE BOX", "address": {"city": "MANITOWOC", "state": "WI", "street": "1202 FRANKLIN ST", "postcode": "54220"}}},
{"geometry": {"type": "Point", "coordinates": [-87.6803050174, 44.1158754213]}, "type": "Feature", "properties": {"collection_times": [{"days": "Mon-Sat", "time": "3:00pm"}, {"days": "Sun", "time": "Closed"}], "id": "5422000070", "name": "USPS COLLECTION BOX - BLUE BOX", "address": {"city": "MANITOWOC", "state": "WI", "street": "2330 MENASHA AVE", "postcode": "54220"}}},
{"geometry": {"type": "Point", "coordinates": [-87.6578002841, 44.1126319447]}, "type": "Feature", "properties": {"collection_times": [{"days": "Mon-Sat", "time": "3:00pm"}, {"days": "Sun", "time": "Closed"}], "id": "5422000086", "name": "USPS COLLECTION BOX - BLUE BOX", "address": {"city": "MANITOWOC", "state": "WI", "street": "1339 N 8TH ST", "postcode": "54220"}}},
{"geometry": {"type": "Point", "coordinates": [-87.6803050174, 44.1158754213]}, "type": "Feature", "properties": {"collection_times": [{"days": "Mon-Sat", "time": "3:00pm"}, {"days": "Sun", "time": "Closed"}], "id": "5422000096", "name": "USPS COLLECTION BOX - BLUE BOX", "address": {"city": "MANITOWOC", "state": "WI", "street": "2330 MENASHA AVE", "postcode": "54220"}}},
{"geometry": {"type": "Point", "coordinates": [-87.6577439976, 44.1006423568]}, "type": "Feature", "properties": {"collection_times": [{"days": "Mon-Sat", "time": "1:00pm"}, {"days": "Sun", "time": "Closed"}], "id": "5422000097", "name": "USPS COLLECTION BOX - BLUE BOX", "address": {"city": "MANITOWOC", "state": "WI", "street": "706 N 8TH ST", "postcode": "54220"}}},
{"geometry": {"type": "Point", "coordinates": [-87.7055044125, 44.0807738823]}, "type": "Feature", "properties": {"collection_times": [{"days": "Mon-Sat", "time": "3:00pm"}, {"days": "Sun", "time": "Closed"}], "id": "5422000100", "name": "USPS COLLECTION BOX - BLUE BOX", "address": {"city": "MANITOWOC", "state": "WI", "street": "4611 EXPO DR", "postcode": "54220"}}},
{"geometry": {"type": "Point", "coordinates": [-87.7055044125, 44.0807738823]}, "type": "Feature", "properties": {"collection_times": [{"days": "Mon-Sat", "time": "3:00pm"}, {"days": "Sun", "time": "Closed"}], "id": "5422000102", "name": "USPS COLLECTION BOX - BLUE BOX", "address": {"city": "MANITOWOC", "state": "WI", "street": "4611 EXPO DR", "postcode": "54220"}}},
{"geometry": {"type": "Point", "coordinates": [-87.7055044125, 44.0807738823]}, "type": "Feature", "properties": {"collection_times": [{"days": "Mon-Sat", "time": "3:00pm"}, {"days": "Sun", "time": "Closed"}], "id": "5422000106", "name": "USPS COLLECTION BOX - BLUE BOX", "address": {"city": "MANITOWOC", "state": "WI", "street": "4611 EXPO DR", "postcode": "54220"}}},
{"geometry": {"type": "Point", "coordinates": [-87.6633893733, 44.0906440654]}, "type": "Feature", "properties": {"collection_times": [{"days": "Mon-Sat", "time": "5:00pm"}, {"days": "Sun", "time": "Closed"}], "id": "5422000108", "name": "USPS COLLECTION BOX - PO LOBBY", "address": {"city": "MANITOWOC", "state": "WI", "street": "1202 FRANKLIN ST", "postcode": "54220"}}},
{"geometry": {"type": "Point", "coordinates": [-87.6633893733, 44.0906440654]}, "type": "Feature", "properties": {"collection_times": [{"days": "Mon-Sat", "time": "5:00pm"}, {"days": "Sun", "time": "Closed"}], "id": "5422000110", "name": "USPS COLLECTION BOX - APC", "address": {"city": "MANITOWOC", "state": "WI", "street": "1202 FRANKLIN ST", "postcode": "54220"}}},
{"geometry": {"type": "Point", "coordinates": [-87.6633893733, 44.0906440654]}, "type": "Feature", "properties": {"collection_times": [{"days": "Mon-Sat", "time": "5:00pm"}, {"days": "Sun", "time": "Closed"}], "id": "5422000111", "name": "USPS COLLECTION BOX - PO LOBBY", "address": {"city": "MANITOWOC", "state": "WI", "street": "1202 FRANKLIN ST", "postcode": "54220"}}},
{"geometry": {"type": "Point", "coordinates": [-87.6946321131, 44.0818448247]}, "type": "Feature", "properties": {"collection_times": [{"days": "Mon-Sat", "time": "3:00pm"}, {"days": "Sun", "time": "Closed"}], "id": "5422000113", "name": "USPS COLLECTION BOX - BLUE BOX", "address": {"city": "MANITOWOC", "state": "WI", "street": "3930 CALUMET AVE", "postcode": "54220"}}},
{"geometry": {"type": "Point", "coordinates": [-87.8070595484, 44.2780038457]}, "type": "Feature", "properties": {"collection_times": [{"days": "Mon-Fri", "time": "4:15pm"}, {"days": "Sat", "time": "9:30am"}, {"days": "Sun", "time": "Closed"}], "id": "5422700000", "name": "USPS COLLECTION BOX - BLUE BOX", "address": {"city": "MARIBEL", "state": "WI", "street": "14902 MARIBEL RD", "postcode": "54227"}}},
{"geometry": {"type": "Point", "coordinates": [-87.8070595484, 44.2780038457]}, "type": "Feature", "properties": {"collection_times": [{"days": "Mon-Fri", "time": "2:45pm"}, {"days": "Sat", "time": "9:30am"}, {"days": "Sun", "time": "Closed"}], "id": "5422700001", "name": "USPS COLLECTION BOX - PO LOBBY", "address": {"city": "MARIBEL", "state": "WI", "street": "14902 MARIBEL RD", "postcode": "54227"}}},
{"geometry": {"type": "Point", "coordinates": [-87.6380879571, 44.2731122793]}, "type": "Feature", "properties": {"collection_times": [{"days": "Mon-Fri", "time": "4:00pm"}, {"days": "Sat", "time": "11:15am"}, {"days": "Sun", "time": "Closed"}], "id": "5422800000", "name": "USPS COLLECTION BOX - BLUE BOX", "address": {"city": "MISHICOT", "state": "WI", "street": "320 SPRUCE ST", "postcode": "54228"}}},
{"geometry": {"type": "Point", "coordinates": [-87.6380879571, 44.2731122793]}, "type": "Feature", "properties": {"collection_times": [{"days": "Mon-Fri", "time": "4:00pm"}, {"days": "Sat", "time": "11:15am"}, {"days": "Sun", "time": "Closed"}], "id": "5422800001", "name": "USPS COLLECTION BOX - BLUE BOX", "address": {"city": "MISHICOT", "state": "WI", "street": "320 SPRUCE ST", "postcode": "54228"}}},
{"geometry": {"type": "Point", "coordinates": [-87.6380879571, 44.2731122793]}, "type": "Feature", "properties": {"collection_times": [{"days": "Mon-Fri", "time": "4:00pm"}, {"days": "Sat", "time": "11:15am"}, {"days": "Sun", "time": "Closed"}], "id": "5422800002", "name": "USPS COLLECTION BOX - PO LOBBY", "address": {"city": "MISHICOT", "state": "WI", "street": "320 SPRUCE ST", "postcode": "54228"}}},
{"geometry": {"type": "Point", "coordinates": [-87.6380879571, 44.2731122793]}, "type": "Feature", "properties": {"collection_times": [{"days": "Mon-Fri", "time": "4:00pm"}, {"days": "Sat", "time": "11:15am"}, {"days": "Sun", "time": "Closed"}], "id": "5422800003", "name": "USPS COLLECTION BOX - PO LOBBY", "address": {"city": "MISHICOT", "state": "WI", "street": "320 SPRUCE ST", "postcode": "54228"}}},
{"geometry": {"type": "Point", "coordinates": [-87.8252989676, 44.5594622399]}, "type": "Feature", "properties": {"collection_times": [{"days": "Mon-Fri", "time": "3:30pm"}, {"days": "Sat", "time": "9:00am"}, {"days": "Sun", "time": "Closed"}], "id": "5422900000", "name": "USPS COLLECTION BOX - BLUE BOX", "address": {"city": "NEW FRANKEN", "state": "WI", "street": "2406 N NEW FRANKEN RD", "postcode": "54229"}}},
{"geometry": {"type": "Point", "coordinates": [-87.8252989676, 44.5594622399]}, "type": "Feature", "properties": {"collection_times": [{"days": "Mon-Fri", "time": "3:30pm"}, {"days": "Sat", "time": "9:00am"}, {"days": "Sun", "time": "Closed"}], "id": "5422900001", "name": "USPS COLLECTION BOX - PO LOBBY", "address": {"city": "NEW FRANKEN", "state": "WI", "street": "2406 N NEW FRANKEN RD", "postcode": "54229"}}},
{"geometry": {"type": "Point", "coordinates": [-87.9472287436, 44.155262807]}, "type": "Feature", "properties": {"collection_times": [{"days": "Mon-Fri", "time": "4:00pm"}, {"days": "Sat", "time": "10:00am"}, {"days": "Sun", "time": "Closed"}], "id": "5423000000", "name": "USPS COLLECTION BOX - BLUE BOX", "address": {"city": "REEDSVILLE", "state": "WI", "street": "104 MILL ST", "postcode": "54230"}}},
{"geometry": {"type": "Point", "coordinates": [-87.957687878, 44.156289784]}, "type": "Feature", "properties": {"collection_times": [{"days": "Mon-Sat", "time": "9:00am"}, {"days": "Sun", "time": "Closed"}], "id": "5423000001", "name": "USPS COLLECTION BOX - BLUE BOX", "address": {"city": "REEDSVILLE", "state": "WI", "street": "525 MAIN ST", "postcode": "54230"}}},
{"geometry": {"type": "Point", "coordinates": [-87.9472287436, 44.155262807]}, "type": "Feature", "properties": {"collection_times": [{"days": "Mon-Fri", "time": "4:30pm"}, {"days": "Sat", "time": "10:00am"}, {"days": "Sun", "time": "Closed"}], "id": "5423000002", "name": "USPS COLLECTION BOX - PO LOBBY", "address": {"city": "REEDSVILLE", "state": "WI", "street": "104 MILL ST", "postcode": "54230"}}},
{"geometry": {"type": "Point", "coordinates": [-87.9472287436, 44.155262807]}, "type": "Feature", "properties": {"collection_times": [{"days": "Mon-Fri", "time": "4:30pm"}, {"days": "Sat", "time": "10:00am"}, {"days": "Sun", "time": "Closed"}], "id": "5423000003", "name": "USPS COLLECTION BOX - PO LOBBY", "address": {"city": "REEDSVILLE", "state": "WI", "street": "104 MILL ST", "postcode": "54230"}}},
{"geometry": {"type": "Point", "coordinates": [-87.9236658096, 44.0060207978]}, "type": "Feature", "properties": {"collection_times": [{"days": "Mon-Fri", "time": "4:00pm"}, {"days": "Sat", "time": "10:30am"}, {"days": "Sun", "time": "Closed"}], "id": "5423200000", "name": "USPS COLLECTION BOX - BLUE BOX", "address": {"city": "SAINT NAZIANZ", "state": "WI", "street": "106 E BIRCH ST", "postcode": "54232"}}},
{"geometry": {"type": "Point", "coordinates": [-87.9236658096, 44.0060207978]}, "type": "Feature", "properties": {"collection_times": [{"days": "Mon-Fri", "time": "4:00pm"}, {"days": "Sat", "time": "10:30am"}, {"days": "Sun", "time": "Closed"}], "id": "5423200001", "name": "USPS COLLECTION BOX - PO LOBBY", "address": {"city": "SAINT NAZIANZ", "state": "WI", "street": "106 E BIRCH ST", "postcode": "54232"}}},
{"geometry": {"type": "Point", "coordinates": [-87.1053717206, 45.1784748505]}, "type": "Feature", "properties": {"collection_times": [{"days": "Mon-Fri", "time": "3:30pm"}, {"days": "Sat", "time": "12:00pm"}, {"days": "Sun", "time": "Closed"}], "id": "5423400000", "name": "USPS COLLECTION BOX - BLUE BOX", "address": {"city": "SISTER BAY", "state": "WI", "street": "10685 N BAY SHORE DR", "postcode": "54234"}}},
{"geometry": {"type": "Point", "coordinates": [-87.1053717206, 45.1784748505]}, "type": "Feature", "properties": {"collection_times": [{"days": "Mon-Fri", "time": "3:30pm"}, {"days": "Sat", "time": "12:00pm"}, {"days": "Sun", "time": "Closed"}], "id": "5423400001", "name": "USPS COLLECTION BOX - BLUE BOX", "address": {"city": "SISTER BAY", "state": "WI", "street": "10685 N BAY SHORE DR", "postcode": "54234"}}},
{"geometry": {"type": "Point", "coordinates": [-87.1053717206, 45.1784748505]}, "type": "Feature", "properties": {"collection_times": [{"days": "Mon-Fri", "time": "3:45pm"}, {"days": "Sat", "time": "12:00pm"}, {"days": "Sun", "time": "Closed"}], "id": "5423400003", "name": "USPS COLLECTION BOX - PO LOBBY", "address": {"city": "SISTER BAY", "state": "WI", "street": "10685 N BAY SHORE DR", "postcode": "54234"}}},
{"geometry": {"type": "Point", "coordinates": [-87.1053717206, 45.1784748505]}, "type": "Feature", "properties": {"collection_times": [{"days": "Mon-Fri", "time": "3:45pm"}, {"days": "Sat", "time": "12:00pm"}, {"days": "Sun", "time": "Closed"}], "id": "5423400004", "name": "USPS COLLECTION BOX - PO LOBBY", "address": {"city": "SISTER BAY", "state": "WI", "street": "10685 N BAY SHORE DR", "postcode": "54234"}}},
{"geometry": {"type": "Point", "coordinates": [-87.3762832667, 44.8353449823]}, "type": "Feature", "properties": {"collection_times": [{"days": "Mon-Fri", "time": "5:30pm"}, {"days": "Sat", "time": "4:00pm"}, {"days": "Sun", "time": "Closed"}], "id": "5423500000", "name": "USPS COLLECTION BOX - BLUE BOX", "address": {"city": "STURGEON BAY", "state": "WI", "street": "359 LOUISIANA ST", "postcode": "54235"}}},
{"geometry": {"type": "Point", "coordinates": [-87.3762832667, 44.8353449823]}, "type": "Feature", "properties": {"collection_times": [{"days": "Mon-Sat", "time": "3:00pm"}, {"days": "Sun", "time": "Closed"}], "id": "5423500001", "name": "USPS COLLECTION BOX - BLUE BOX", "address": {"city": "STURGEON BAY", "state": "WI", "street": "110 S NEENAH AVE", "postcode": "54235"}}},
{"geometry": {"type": "Point", "coordinates": [-87.4337920447, 44.809684175]}, "type": "Feature", "properties": {"collection_times": [{"days": "Mon-Sat", "time": "3:00pm"}, {"days": "Sun", "time": "Closed"}], "id": "5423500002", "name": "USPS COLLECTION BOX - BLUE BOX", "address": {"city": "STURGEON BAY", "state": "WI", "street": "1250 N 14TH AVE", "postcode": "54235"}}},
{"geometry": {"type": "Point", "coordinates": [-87.3762832667, 44.8353449823]}, "type": "Feature", "properties": {"collection_times": [{"days": "Mon-Fri", "time": "5:30pm"}, {"days": "Sat", "time": "4:00pm"}, {"days": "Sun", "time": "Closed"}], "id": "5423500010", "name": "USPS COLLECTION BOX - BLUE BOX", "address": {"city": "STURGEON BAY", "state": "WI", "street": "359 LOUISIANA ST", "postcode": "54235"}}},
{"geometry": {"type": "Point", "coordinates": [-87.3613783991, 44.8524652294]}, "type": "Feature", "properties": {"collection_times": [{"days": "Mon-Sat", "time": "3:00pm"}, {"days": "Sun", "time": "Closed"}], "id": "5423500011", "name": "USPS COLLECTION BOX - BLUE BOX", "address": {"city": "STURGEON BAY", "state": "WI", "street": "1250 N 14TH AVE", "postcode": "54235"}}},
{"geometry": {"type": "Point", "coordinates": [-87.3513566085, 44.8355394963]}, "type": "Feature", "properties": {"collection_times": [{"days": "Mon-Fri", "time": "1:00pm"}, {"days": "Sat-Sun", "time": "Closed"}], "id": "5423500012", "name": "USPS COLLECTION BOX - BLUE BOX", "address": {"city": "STURGEON BAY", "state": "WI", "street": "30 N 18TH AVE", "postcode": "54235"}}},
{"geometry": {"type": "Point", "coordinates": [-87.3851125233, 44.828998121]}, "type": "Feature", "properties": {"collection_times": [{"days": "Mon-Sat", "time": "3:00pm"}, {"days": "Sun", "time": "Closed"}], "id": "5423500013", "name": "USPS COLLECTION BOX - BLUE BOX", "address": {"city": "STURGEON BAY", "state": "WI", "street": "34 W MAPLE ST", "postcode": "54235"}}},
{"geometry": {"type": "Point", "coordinates": [-87.377387876, 44.835336675]}, "type": "Feature", "properties": {"collection_times": [{"days": "Mon-Sat", "time": "3:00pm"}, {"days": "Sun", "time": "Closed"}], "id": "5423500017", "name": "USPS COLLECTION BOX - BLUE BOX", "address": {"city": "STURGEON BAY", "state": "WI", "street": "165 N 3RD AVE", "postcode": "54235"}}},
{"geometry": {"type": "Point", "coordinates": [-87.3778087214, 44.8370051029]}, "type": "Feature", "properties": {"collection_times": [{"days": "Mon-Sat", "time": "3:00pm"}, {"days": "Sun", "time": "Closed"}], "id": "5423500030", "name": "USPS COLLECTION BOX - BLUE BOX", "address": {"city": "STURGEON BAY", "state": "WI", "street": "361 JEFFERSON ST", "postcode": "54235"}}},
{"geometry": {"type": "Point", "coordinates": [-87.3820234934, 44.8278324616]}, "type": "Feature", "properties": {"collection_times": [{"days": "Mon-Sat", "time": "3:00pm"}, {"days": "Sun", "time": "Closed"}], "id": "5423500031", "name": "USPS COLLECTION BOX - BLUE BOX", "address": {"city": "STURGEON BAY", "state": "WI", "street": "110 S NEENAH AVE", "postcode": "54235"}}},
{"geometry": {"type": "Point", "coordinates": [-87.3762832667, 44.8353449823]}, "type": "Feature", "properties": {"collection_times": [{"days": "Mon-Fri", "time": "5:30pm"}, {"days": "Sat", "time": "4:00pm"}, {"days": "Sun", "time": "Closed"}], "id": "5423500032", "name": "USPS COLLECTION BOX - PO LOBBY", "address": {"city": "STURGEON BAY", "state": "WI", "street": "359 LOUISIANA ST", "postcode": "54235"}}},
{"geometry": {"type": "Point", "coordinates": [-87.3762832667, 44.8353449823]}, "type": "Feature", "properties": {"collection_times": [{"days": "Mon-Fri", "time": "5:30pm"}, {"days": "Sat", "time": "4:00pm"}, {"days": "Sun", "time": "Closed"}], "id": "5423500036", "name": "USPS COLLECTION BOX - PO LOBBY", "address": {"city": "STURGEON BAY", "state": "WI", "street": "359 LOUISIANA ST", "postcode": "54235"}}},
{"geometry": {"type": "Point", "coordinates": [-87.3992533598, 44.8209998289]}, "type": "Feature", "properties": {"collection_times": [{"days": "Mon-Sat", "time": "1:00pm"}, {"days": "Sun", "time": "Closed"}], "id": "5423500038", "name": "USPS COLLECTION BOX - BLUE BOX", "address": {"city": "STURGEON BAY", "state": "WI", "street": "1130 GREEN BAY RD", "postcode": "54235"}}},
{"geometry": {"type": "Point", "coordinates": [-87.3992533598, 44.8209998289]}, "type": "Feature", "properties": {"collection_times": [{"days": "Mon-Sat", "time": "1:00pm"}, {"days": "Sun", "time": "Closed"}], "id": "5423500039", "name": "USPS COLLECTION BOX - BLUE BOX", "address": {"city": "STURGEON BAY", "state": "WI", "street": "1130 GREEN BAY RD", "postcode": "54235"}}},
{"geometry": {"type": "Point", "coordinates": [-87.3992533598, 44.8209998289]}, "type": "Feature", "properties": {"collection_times": [{"days": "Mon-Sat", "time": "1:00pm"}, {"days": "Sun", "time": "Closed"}], "id": "5423500040", "name": "USPS COLLECTION BOX - BLUE BOX", "address": {"city": "STURGEON BAY", "state": "WI", "street": "1130 GREEN BAY RD", "postcode": "54235"}}},
{"geometry": {"type": "Point", "coordinates": [-87.6852665443, 44.3274061578]}, "type": "Feature", "properties": {"collection_times": [{"days": "Mon-Fri", "time": "4:30pm"}, {"days": "Sat", "time": "10:00am"}, {"days": "Sun", "time": "Closed"}], "id": "5424000000", "name": "USPS COLLECTION BOX - BLUE BOX", "address": {"city": "TISCH MILLS", "state": "WI", "street": "E1707 COUNTY ROAD BB", "postcode": "54240"}}},
{"geometry": {"type": "Point", "coordinates": [-87.6852665443, 44.3274061578]}, "type": "Feature", "properties": {"collection_times": [{"days": "Mon-Fri", "time": "2:45pm"}, {"days": "Sat", "time": "9:30am"}, {"days": "Sun", "time": "Closed"}], "id": "5424000001", "name": "USPS COLLECTION BOX - PO LOBBY", "address": {"city": "TISCH MILLS", "state": "WI", "street": "E1707 COUNTY ROAD BB", "postcode": "54240"}}},
{"geometry": {"type": "Point", "coordinates": [-87.5684342658, 44.1497380861]}, "type": "Feature", "properties": {"collection_times": [{"days": "Mon-Fri", "time": "5:00pm"}, {"days": "Sat", "time": "12:00pm"}, {"days": "Sun", "time": "Closed"}], "id": "5424100000", "name": "USPS COLLECTION BOX - BLUE BOX", "address": {"city": "TWO RIVERS", "state": "WI", "street": "1516 18TH ST", "postcode": "54241"}}},
{"geometry": {"type": "Point", "coordinates": [-87.5684342658, 44.1497380861]}, "type": "Feature", "properties": {"collection_times": [{"days": "Mon-Fri", "time": "5:00pm"}, {"days": "Sat", "time": "12:00pm"}, {"days": "Sun", "time": "Closed"}], "id": "5424100001", "name": "USPS COLLECTION BOX - BLUE BOX", "address": {"city": "TWO RIVERS", "state": "WI", "street": "1516 18TH ST", "postcode": "54241"}}},
{"geometry": {"type": "Point", "coordinates": [-87.5684342658, 44.1497380861]}, "type": "Feature", "properties": {"collection_times": [{"days": "Mon-Fri", "time": "5:00pm"}, {"days": "Sat", "time": "12:00pm"}, {"days": "Sun", "time": "Closed"}], "id": "5424100003", "name": "USPS COLLECTION BOX - BLUE BOX", "address": {"city": "TWO RIVERS", "state": "WI", "street": "1516 18TH ST", "postcode": "54241"}}},
{"geometry": {"type": "Point", "coordinates": [-87.5682935457, 44.1469067188]}, "type": "Feature", "properties": {"collection_times": [{"days": "Mon-Sat", "time": "3:00pm"}, {"days": "Sun", "time": "Closed"}], "id": "5424100004", "name": "USPS COLLECTION BOX - BLUE BOX", "address": {"city": "TWO RIVERS", "state": "WI", "street": "1523 WASHINGTON ST", "postcode": "54241"}}},
{"geometry": {"type": "Point", "coordinates": [-87.5727894102, 44.154707036]}, "type": "Feature", "properties": {"collection_times": [{"days": "Mon-Sat", "time": "3:00pm"}, {"days": "Sun", "time": "Closed"}], "id": "5424100009", "name": "USPS COLLECTION BOX - BLUE BOX", "address": {"city": "TWO RIVERS", "state": "WI", "street": "2300 FOREST AVE", "postcode": "54241"}}},
{"geometry": {"type": "Point", "coordinates": [-87.5780158569, 44.1649116076]}, "type": "Feature", "properties": {"collection_times": [{"days": "Mon-Sat", "time": "1:00pm"}, {"days": "Sun", "time": "Closed"}], "id": "5424100014", "name": "USPS COLLECTION BOX - BLUE BOX", "address": {"city": "TWO RIVERS", "state": "WI", "street": "2143 34TH ST", "postcode": "54241"}}},
{"geometry": {"type": "Point", "coordinates": [-87.5797179889, 44.1611401644]}, "type": "Feature", "properties": {"collection_times": [{"days": "Mon-Sat", "time": "3:00pm"}, {"days": "Sun", "time": "Closed"}], "id": "5424100015", "name": "USPS COLLECTION BOX - BLUE BOX", "address": {"city": "TWO RIVERS", "state": "WI", "street": "3131 MISHICOT RD", "postcode": "54241"}}},
{"geometry": {"type": "Point", "coordinates": [-87.5605377353, 44.1537197316]}, "type": "Feature", "properties": {"collection_times": [{"days": "Mon-Sat", "time": "3:00pm"}, {"days": "Sun", "time": "Closed"}], "id": "5424100016", "name": "USPS COLLECTION BOX - BLUE BOX", "address": {"city": "TWO RIVERS", "state": "WI", "street": "1010 22ND ST", "postcode": "54241"}}},
{"geometry": {"type": "Point", "coordinates": [-87.5813184046, 44.1442635316]}, "type": "Feature", "properties": {"collection_times": [{"days": "Mon-Sat", "time": "1:00pm"}, {"days": "Sun", "time": "Closed"}], "id": "5424100023", "name": "USPS COLLECTION BOX - BLUE BOX", "address": {"city": "TWO RIVERS", "state": "WI", "street": "2421 12TH ST", "postcode": "54241"}}},
{"geometry": {"type": "Point", "coordinates": [-87.5684342658, 44.1497380861]}, "type": "Feature", "properties": {"collection_times": [{"days": "Mon-Fri", "time": "5:00pm"}, {"days": "Sat", "time": "12:00pm"}, {"days": "Sun", "time": "Closed"}], "id": "5424100024", "name": "USPS COLLECTION BOX - PO LOBBY", "address": {"city": "TWO RIVERS", "state": "WI", "street": "1516 18TH ST", "postcode": "54241"}}},
{"geometry": {"type": "Point", "coordinates": [-87.5684342658, 44.1497380861]}, "type": "Feature", "properties": {"collection_times": [{"days": "Mon-Fri", "time": "5:00pm"}, {"days": "Sat", "time": "12:00pm"}, {"days": "Sun", "time": "Closed"}], "id": "5424100025", "name": "USPS COLLECTION BOX - PO LOBBY", "address": {"city": "TWO RIVERS", "state": "WI", "street": "1516 18TH ST", "postcode": "54241"}}},
{"geometry": {"type": "Point", "coordinates": [-87.8853808063, 44.0627744386]}, "type": "Feature", "properties": {"collection_times": [{"days": "Mon-Fri", "time": "4:30pm"}, {"days": "Sat", "time": "10:00am"}, {"days": "Sun", "time": "Closed"}], "id": "5424500000", "name": "USPS COLLECTION BOX - BLUE BOX", "address": {"city": "VALDERS", "state": "WI", "street": "505 CHRISTEL DR", "postcode": "54245"}}},
{"geometry": {"type": "Point", "coordinates": [-87.8853808063, 44.0627744386]}, "type": "Feature", "properties": {"collection_times": [{"days": "Mon-Fri", "time": "4:30pm"}, {"days": "Sat", "time": "10:00am"}, {"days": "Sun", "time": "Closed"}], "id": "5424500001", "name": "USPS COLLECTION BOX - PO LOBBY", "address": {"city": "VALDERS", "state": "WI", "street": "505 CHRISTEL DR", "postcode": "54245"}}},
{"geometry": {"type": "Point", "coordinates": [-87.8853808063, 44.0627744386]}, "type": "Feature", "properties": {"collection_times": [{"days": "Mon-Fri", "time": "4:30pm"}, {"days": "Sat", "time": "10:00am"}, {"days": "Sun", "time": "Closed"}], "id": "5424500002", "name": "USPS COLLECTION BOX - PO LOBBY", "address": {"city": "VALDERS", "state": "WI", "street": "505 CHRISTEL DR", "postcode": "54245"}}},
{"geometry": {"type": "Point", "coordinates": [-86.929570304, 45.3569217278]}, "type": "Feature", "properties": {"collection_times": [{"days": "Mon-Fri", "time": "12:00pm"}, {"days": "Sat", "time": "9:45am"}, {"days": "Sun", "time": "Closed"}], "id": "5424600000", "name": "USPS COLLECTION BOX - BLUE BOX", "address": {"city": "WASHINGTON IS", "state": "WI", "street": "1889 DETROIT HARBOR RD", "postcode": "54246"}}},
{"geometry": {"type": "Point", "coordinates": [-86.9008681883, 45.3766018997]}, "type": "Feature", "properties": {"collection_times": [{"days": "Mon-Sat", "time": "11:00am"}, {"days": "Sun", "time": "Closed"}], "id": "5424600001", "name": "USPS COLLECTION BOX - PO LOBBY", "address": {"city": "WASHINGTON IS", "state": "WI", "street": "1889 DETROIT HARBOR RD", "postcode": "54246"}}},
{"geometry": {"type": "Point", "coordinates": [-86.929570304, 45.3569217278]}, "type": "Feature", "properties": {"collection_times": [{"days": "Mon-Fri", "time": "12:00pm"}, {"days": "Sat", "time": "9:45am"}, {"days": "Sun", "time": "Closed"}], "id": "5424600002", "name": "USPS COLLECTION BOX - PO LOBBY", "address": {"city": "WASHINGTON IS", "state": "WI", "street": "1889 DETROIT HARBOR RD", "postcode": "54246"}}},
{"geometry": {"type": "Point", "coordinates": [-87.8212289243, 44.1445096792]}, "type": "Feature", "properties": {"collection_times": [{"days": "Mon-Fri", "time": "3:45pm"}, {"days": "Sat", "time": "10:15am"}, {"days": "Sun", "time": "Closed"}], "id": "5424700000", "name": "USPS COLLECTION BOX - BLUE BOX", "address": {"city": "WHITELAW", "state": "WI", "street": "128 E MENASHA AVE", "postcode": "54247"}}},
{"geometry": {"type": "Point", "coordinates": [-87.7665047123, 44.144727904]}, "type": "Feature", "properties": {"collection_times": [{"days": "Mon-Sat", "time": "9:30am"}, {"days": "Sun", "time": "Closed"}], "id": "5424700001", "name": "USPS COLLECTION BOX - BLUE BOX", "address": {"city": "WHITELAW", "state": "WI", "street": "8133 US HIGHWAY 10", "postcode": "54247"}}},
{"geometry": {"type": "Point", "coordinates": [-87.8212289243, 44.1445096792]}, "type": "Feature", "properties": {"collection_times": [{"days": "Mon-Fri", "time": "2:45pm"}, {"days": "Sat", "time": "10:15am"}, {"days": "Sun", "time": "Closed"}], "id": "5424700002", "name": "USPS COLLECTION BOX - PO LOBBY", "address": {"city": "WHITELAW", "state": "WI", "street": "128 E MENASHA AVE", "postcode": "54247"}}}
]}
