{"type": "FeatureCollection", "features": [
{"geometry": {"type": "Point", "coordinates": [-88.0123205329, 44.4830108794]}, "type": "Feature", "properties": {"collection_times": [{"days": "Mon-Fri", "time": "4:00pm"}, {"days": "Sat", "time": "10:00am"}, {"days": "Sun", "time": "Closed"}], "id": "5430100003", "name": "USPS COLLECTION BOX - BLUE BOX", "address": {"city": "GREEN BAY", "state": "WI", "street": "1920 LIBAL ST", "postcode": "54301"}}},
{"geometry": {"type": "Point", "coordinates": [-88.0296140246, 44.4824082731]}, "type": "Feature", "properties": {"collection_times": [{"days": "Mon-Fri", "time": "4:00pm"}, {"days": "Sat", "time": "12:30pm"}, {"days": "Sun", "time": "Closed"}], "id": "5430100004", "name": "USPS COLLECTION BOX - BLUE BOX", "address": {"city": "GREEN BAY", "state": "WI", "street": "344 W ALLOUEZ AVE", "postcode": "54301"}}},
{"geometry": {"type": "Point", "coordinates": [-88.0296140246, 44.4824082731]}, "type": "Feature", "properties": {"collection_times": [{"days": "Mon-Fri", "time": "4:00pm"}, {"days": "Sat", "time": "12:30pm"}, {"days": "Sun", "time": "Closed"}], "id": "5430100005", "name": "USPS COLLECTION BOX - BLUE BOX", "address": {"city": "GREEN BAY", "state": "WI", "street": "344 W ALLOUEZ AVE", "postcode": "54301"}}},
{"geometry": {"type": "Point", "coordinates": [-88.0412266142, 44.4562659404]}, "type": "Feature", "properties": {"collection_times": [{"days": "Mon-Sat", "time": "12:00pm"}, {"days": "Sun", "time": "Closed"}], "id": "5430100007", "name": "USPS COLLECTION BOX - BLUE BOX", "address": {"city": "GREEN BAY", "state": "WI", "street": "3823 S WEBSTER AVE", "postcode": "54301"}}},
{"geometry": {"type": "Point", "coordinates": [-88.0321229733, 44.4674163851]}, "type": "Feature", "properties": {"collection_times": [{"days": "Mon-Fri", "time": "2:00pm"}, {"days": "Sat", "time": "1:30pm"}, {"days": "Sun", "time": "Closed"}], "id": "5430100013", "name": "USPS COLLECTION BOX - BLUE BOX", "address": {"city": "GREEN BAY", "state": "WI", "street": "121 BROADVIEW DR", "postcode": "54301"}}},
{"geometry": {"type": "Point", "coordinates": [-88.0188760373, 44.5090528087]}, "type": "Feature", "properties": {"collection_times": [{"days": "Mon-Fri", "time": "4:45pm"}, {"days": "Sat", "time": "11:00am"}, {"days": "Sun", "time": "Closed"}], "id": "5430100015", "name": "USPS COLLECTION BOX - BLUE BOX", "address": {"city": "GREEN BAY", "state": "WI", "street": "500 S WASHINGTON ST", "postcode": "54301"}}},
{"geometry": {"type": "Point", "coordinates": [-88.0188760373, 44.5090528087]}, "type": "Feature", "properties": {"collection_times": [{"days": "Mon-Fri", "time": "4:45pm"}, {"days": "Sat", "time": "11:00am"}, {"days": "Sun", "time": "Closed"}], "id": "5430100016", "name": "USPS COLLECTION BOX - BLUE BOX", "address": {"city": "GREEN BAY", "state": "WI", "street": "500 S WASHINGTON ST", "postcode": "54301"}}},
{"geometry": {"type": "Point", "coordinates": [-88.0093178616, 44.5130882219]}, "type": "Feature", "properties": {"collection_times": [{"days": "Mon-Fri", "time": "4:15pm"}, {"days": "Sat", "time": "3:15pm"}, {"days": "Sun", "time": "Closed"}], "id": "5430100022", "name": "USPS COLLECTION BOX - BLUE BOX", "address": {"city": "GREEN BAY", "state": "WI", "street": "631 CHERRY ST", "postcode": "54301"}}},
{"geometry": {"type": "Point", "coordinates": [-88.0093178616, 44.5130882219]}, "type": "Feature", "properties": {"collection_times": [{"days": "Mon-Fri", "time": "4:15pm"}, {"days": "Sat", "time": "3:15pm"}, {"days": "Sun", "time": "Closed"}], "id": "5430100023", "name": "USPS COLLECTION BOX - BLUE BOX", "address": {"city": "GREEN BAY", "state": "WI", "street": "631 CHERRY ST", "postcode": "54301"}}},
{"geometry": {"type": "Point", "coordinates": [-88.013126128, 44.5134779875]}, "type": "Feature", "properties": {"collection_times": [{"days": "Mon-Fri", "time": "4:45pm"}, {"days": "Sat", "time": "4:15pm"}, {"days": "Sun", "time": "Closed"}], "id": "5430100026", "name": "USPS COLLECTION BOX - BLUE BOX", "address": {"city": "GREEN BAY", "state": "WI", "street": "100 N JEFFERSON ST", "postcode": "54301"}}},
{"geometry": {"type": "Point", "coordinates": [-88.013126128, 44.5134779875]}, "type": "Feature", "properties": {"collection_times": [{"days": "Mon-Fri", "time": "4:45pm"}, {"days": "Sat", "time": "4:15pm"}, {"days": "Sun", "time": "Closed"}], "id": "5430100027", "name": "USPS COLLECTION BOX - BLUE BOX", "address": {"city": "GREEN BAY", "state": "WI", "street": "100 N JEFFERSON ST", "postcode": "54301"}}},
{"geometry": {"type": "Point", "coordinates": [-88.013126128, 44.5134779875]}, "type": "Feature", "properties": {"collection_times": [{"days": "Mon-Fri", "time": "4:45pm"}, {"days": "Sat", "time": "4:15pm"}, {"days": "Sun", "time": "Closed"}], "id": "5430100028", "name": "USPS COLLECTION BOX - BLUE BOX", "address": {"city": "GREEN BAY", "state": "WI", "street": "100 N JEFFERSON ST", "postcode": "54301"}}},
{"geometry": {"type": "Point", "coordinates": [-88.015871739, 44.5096589156]}, "type": "Feature", "properties": {"collection_times": [{"days": "Mon-Fri", "time": "4:15pm"}, {"days": "Sat", "time": "10:00am"}, {"days": "Sun", "time": "Closed"}], "id": "5430100030", "name": "USPS COLLECTION BOX - BLUE BOX", "address": {"city": "GREEN BAY", "state": "WI", "street": "400 S JEFFERSON ST", "postcode": "54301"}}},
{"geometry": {"type": "Point", "coordinates": [-88.0132913222, 44.5131169799]}, "type": "Feature", "properties": {"collection_times": [{"days": "Mon-Fri", "time": "4:45pm"}, {"days": "Sat", "time": "4:15pm"}, {"days": "Sun", "time": "Closed"}], "id": "5430100042", "name": "USPS COLLECTION BOX - BLUE BOX", "address": {"city": "GREEN BAY", "state": "WI", "street": "105 S JEFFERSON ST", "postcode": "54301"}}},
{"geometry": {"type": "Point", "coordinates": [-88.0132913222, 44.5131169799]}, "type": "Feature", "properties": {"collection_times": [{"days": "Mon-Fri", "time": "4:45pm"}, {"days": "Sat", "time": "4:15pm"}, {"days": "Sun", "time": "Closed"}], "id": "5430100043", "name": "USPS COLLECTION BOX - BLUE BOX", "address": {"city": "GREEN BAY", "state": "WI", "street": "105 S JEFFERSON ST", "postcode": "54301"}}},
{"geometry": {"type": "Point", "coordinates": [-88.0110583157, 44.5148608666]}, "type": "Feature", "properties": {"collection_times": [{"days": "Mon-Sat", "time": "4:00pm"}, {"days": "Sun", "time": "Closed"}], "id": "5430100045", "name": "USPS COLLECTION BOX - BLUE BOX", "address": {"city": "GREEN BAY", "state": "WI", "street": "425 PINE ST", "postcode": "54301"}}},
{"geometry": {"type": "Point", "coordinates": [-88.010589864, 44.5145970667]}, "type": "Feature", "properties": {"collection_times": [{"days": "Mon-Sat", "time": "11:00am"}, {"days": "Sun", "time": "Closed"}], "id": "5430100046", "name": "USPS COLLECTION BOX - BLUE BOX", "address": {"city": "GREEN BAY", "state": "WI", "street": "230 S MADISON ST", "postcode": "54301"}}},
{"geometry": {"type": "Point", "coordinates": [-88.0171966898, 44.5126641118]}, "type": "Feature", "properties": {"collection_times": [{"days": "Mon-Fri", "time": "4:30pm"}, {"days": "Sat", "time": "11:00am"}, {"days": "Sun", "time": "Closed"}], "id": "5430100047", "name": "USPS COLLECTION BOX - BLUE BOX", "address": {"city": "GREEN BAY", "state": "WI", "street": "200 S WASHINGTON ST", "postcode": "54301"}}},
{"geometry": {"type": "Point", "coordinates": [-88.0130705778, 44.5004734562]}, "type": "Feature", "properties": {"collection_times": [{"days": "Mon-Fri", "time": "3:45pm"}, {"days": "Sat", "time": "3:15pm"}, {"days": "Sun", "time": "Closed"}], "id": "5430100051", "name": "USPS COLLECTION BOX - BLUE BOX", "address": {"city": "GREEN BAY", "state": "WI", "street": "915 PORLIER ST", "postcode": "54301"}}},
{"geometry": {"type": "Point", "coordinates": [-88.0171966898, 44.5126641118]}, "type": "Feature", "properties": {"collection_times": [{"days": "Mon-Fri", "time": "4:30pm"}, {"days": "Sat", "time": "11:00am"}, {"days": "Sun", "time": "Closed"}], "id": "5430100053", "name": "USPS COLLECTION BOX - BLUE BOX", "address": {"city": "GREEN BAY", "state": "WI", "street": "200 S WASHINGTON ST", "postcode": "54301"}}},
{"geometry": {"type": "Point", "coordinates": [-88.0149690389, 44.4958082745]}, "type": "Feature", "properties": {"collection_times": [{"days": "Mon-Fri", "time": "3:45pm"}, {"days": "Sat", "time": "3:30pm"}, {"days": "Sun", "time": "Closed"}], "id": "5430100056", "name": "USPS COLLECTION BOX - BLUE BOX", "address": {"city": "GREEN BAY", "state": "WI", "street": "1220 S WEBSTER AVE", "postcode": "54301"}}},
{"geometry": {"type": "Point", "coordinates": [-88.0164632552, 44.5143474624]}, "type": "Feature", "properties": {"collection_times": [{"days": "Mon-Fri", "time": "3:45pm"}, {"days": "Sat", "time": "10:00am"}, {"days": "Sun", "time": "Closed"}], "id": "5430100057", "name": "USPS COLLECTION BOX - BLUE BOX", "address": {"city": "GREEN BAY", "state": "WI", "street": "130 E WALNUT ST", "postcode": "54301"}}},
{"geometry": {"type": "Point", "coordinates": [-88.0100800087, 44.5127954202]}, "type": "Feature", "properties": {"collection_times": [{"days": "Mon-Fri", "time": "5:45pm"}, {"days": "Sat", "time": "12:00pm"}, {"days": "Sun", "time": "Closed"}], "id": "5430100058", "name": "USPS COLLECTION BOX - PO LOBBY", "address": {"city": "GREEN BAY", "state": "WI", "street": "118 N MONROE AVE", "postcode": "54301"}}},
{"geometry": {"type": "Point", "coordinates": [-88.0123205329, 44.4830108794]}, "type": "Feature", "properties": {"collection_times": [{"days": "Mon-Fri", "time": "4:00pm"}, {"days": "Sat", "time": "10:00am"}, {"days": "Sun", "time": "Closed"}], "id": "5430100062", "name": "USPS COLLECTION BOX - BLUE BOX", "address": {"city": "GREEN BAY", "state": "WI", "street": "1920 LIBAL ST", "postcode": "54301"}}},
{"geometry": {"type": "Point", "coordinates": [-88.0108548468, 44.517212589]}, "type": "Feature", "properties": {"collection_times": [{"days": "Mon-Fri", "time": "3:30pm"}, {"days": "Sat", "time": "9:15am"}, {"days": "Sun", "time": "Closed"}], "id": "5430100065", "name": "USPS COLLECTION BOX - BLUE BOX", "address": {"city": "GREEN BAY", "state": "WI", "street": "333 MAIN ST", "postcode": "54301"}}},
{"geometry": {"type": "Point", "coordinates": [-87.9989542796, 44.5003601556]}, "type": "Feature", "properties": {"collection_times": [{"days": "Mon-Sat", "time": "11:00am"}, {"days": "Sun", "time": "Closed"}], "id": "5430100066", "name": "USPS COLLECTION BOX - BLUE BOX", "address": {"city": "GREEN BAY", "state": "WI", "street": "1401 E MASON ST", "postcode": "54301"}}},
{"geometry": {"type": "Point", "coordinates": [-88.01005325, 44.512889912]}, "type": "Feature", "properties": {"collection_times": [{"days": "Mon-Fri", "time": "5:45pm"}, {"days": "Sat", "time": "12:00pm"}, {"days": "Sun", "time": "Closed"}], "id": "5430100070", "name": "USPS COLLECTION BOX - PO LOBBY", "address": {"city": "GREEN BAY", "state": "WI", "street": "118 N MONROE AVE", "postcode": "54301"}}},
{"geometry": {"type": "Point", "coordinates": [-88.0186209724, 44.505567541]}, "type": "Feature", "properties": {"collection_times": [{"days": "Mon-Sat", "time": "9:00am"}, {"days": "Sun", "time": "Closed"}], "id": "5430100071", "name": "USPS COLLECTION BOX - BLUE BOX", "address": {"city": "GREEN BAY", "state": "WI", "street": "700 N JEFFERSON ST", "postcode": "54301"}}},
{"geometry": {"type": "Point", "coordinates": [-88.015871739, 44.5096589156]}, "type": "Feature", "properties": {"collection_times": [{"days": "Mon-Fri", "time": "4:15pm"}, {"days": "Sat", "time": "10:00am"}, {"days": "Sun", "time": "Closed"}], "id": "5430100072", "name": "USPS COLLECTION BOX - BLUE BOX", "address": {"city": "GREEN BAY", "state": "WI", "street": "400 S JEFFERSON ST", "postcode": "54301"}}},
{"geometry": {"type": "Point", "coordinates": [-88.0093178616, 44.5130882219]}, "type": "Feature", "properties": {"collection_times": [{"days": "Mon-Fri", "time": "4:15pm"}, {"days": "Sat", "time": "3:15pm"}, {"days": "Sun", "time": "Closed"}], "id": "5430100073", "name": "USPS COLLECTION BOX - BLUE BOX", "address": {"city": "GREEN BAY", "state": "WI", "street": "631 CHERRY ST", "postcode": "54301"}}},
{"geometry": {"type": "Point", "coordinates": [-88.0007057649, 44.4718738583]}, "type": "Feature", "properties": {"collection_times": [{"days": "Mon-Sat", "time": "10:30am"}, {"days": "Sun", "time": "Closed"}], "id": "5430200001", "name": "USPS COLLECTION BOX - BLUE BOX", "address": {"city": "GREEN BAY", "state": "WI", "street": "1331 BELLEVUE ST", "postcode": "54302"}}},
{"geometry": {"type": "Point", "coordinates": [-87.9957565339, 44.4846518626]}, "type": "Feature", "properties": {"collection_times": [{"days": "Mon-Fri", "time": "2:00pm"}, {"days": "Sat", "time": "11:00am"}, {"days": "Sun", "time": "Closed"}], "id": "5430200006", "name": "USPS COLLECTION BOX - BLUE BOX", "address": {"city": "GREEN BAY", "state": "WI", "street": "1234 BELLEVUE ST", "postcode": "54302"}}},
{"geometry": {"type": "Point", "coordinates": [-87.9733787068, 44.5193052434]}, "type": "Feature", "properties": {"collection_times": [{"days": "Mon-Fri", "time": "5:45pm"}, {"days": "Sat", "time": "4:45pm"}, {"days": "Sun", "time": "Closed"}], "id": "5430200007", "name": "USPS COLLECTION BOX - BLUE BOX", "address": {"city": "GREEN BAY", "state": "WI", "street": "1950 COFRIN DR", "postcode": "54302"}}},
{"geometry": {"type": "Point", "coordinates": [-87.9779349944, 44.4949173185]}, "type": "Feature", "properties": {"collection_times": [{"days": "Mon-Sat", "time": "9:00am"}, {"days": "Sun", "time": "Closed"}], "id": "5430200008", "name": "USPS COLLECTION BOX - BLUE BOX", "address": {"city": "GREEN BAY", "state": "WI", "street": "1819 MAIN ST", "postcode": "54302"}}},
{"geometry": {"type": "Point", "coordinates": [-87.97019, 44.51276]}, "type": "Feature", "properties": {"collection_times": [{"days": "Mon-Sat", "time": "10:30am"}, {"days": "Sun", "time": "Closed"}], "id": "5430200026", "name": "USPS COLLECTION BOX - BLUE BOX", "address": {"city": "GREEN BAY", "state": "WI", "street": "2080 UNIVERSITY AVE", "postcode": "54302"}}},
{"geometry": {"type": "Point", "coordinates": [-87.9852508829, 44.4938432346]}, "type": "Feature", "properties": {"collection_times": [{"days": "Mon-Sat", "time": "11:00am"}, {"days": "Sun", "time": "Closed"}], "id": "5430200029", "name": "USPS COLLECTION BOX - BLUE BOX", "address": {"city": "GREEN BAY", "state": "WI", "street": "1688 E MASON ST", "postcode": "54302"}}},
{"geometry": {"type": "Point", "coordinates": [-87.9701253312, 44.4835474138]}, "type": "Feature", "properties": {"collection_times": [{"days": "Mon-Fri", "time": "4:45pm"}, {"days": "Sat", "time": "3:45pm"}, {"days": "Sun", "time": "Closed"}], "id": "5430200030", "name": "USPS COLLECTION BOX - BLUE BOX", "address": {"city": "GREEN BAY", "state": "WI", "street": "2223 MAIN ST", "postcode": "54302"}}},
{"geometry": {"type": "Point", "coordinates": [-87.9701253312, 44.4835474138]}, "type": "Feature", "properties": {"collection_times": [{"days": "Mon-Fri", "time": "4:45pm"}, {"days": "Sat", "time": "3:45pm"}, {"days": "Sun", "time": "Closed"}], "id": "5430200031", "name": "USPS COLLECTION BOX - BLUE BOX", "address": {"city": "GREEN BAY", "state": "WI", "street": "2223 MAIN ST", "postcode": "54302"}}},
{"geometry": {"type": "Point", "coordinates": [-87.9701253312, 44.4835474138]}, "type": "Feature", "properties": {"collection_times": [{"days": "Mon-Fri", "time": "4:45pm"}, {"days": "Sat", "time": "3:45pm"}, {"days": "Sun", "time": "Closed"}], "id": "5430200036", "name": "USPS COLLECTION BOX - BLUE BOX", "address": {"city": "GREEN BAY", "state": "WI", "street": "2223 MAIN ST", "postcode": "54302"}}},
{"geometry": {"type": "Point", "coordinates": [-87.97322997, 44.51927159]}, "type": "Feature", "properties": {"collection_times": [{"days": "Mon-Fri", "time": "5:30pm"}, {"days": "Sat", "time": "4:45pm"}, {"days": "Sun", "time": "Closed"}], "id": "5430200040", "name": "USPS COLLECTION BOX - PO LOBBY", "address": {"city": "GREEN BAY", "state": "WI", "street": "1950 COFRIN DR", "postcode": "54302"}}},
{"geometry": {"type": "Point", "coordinates": [-88.0627572991, 44.525332222]}, "type": "Feature", "properties": {"collection_times": [{"days": "Mon-Fri", "time": "4:15pm"}, {"days": "Sat", "time": "2:00pm"}, {"days": "Sun", "time": "Closed"}], "id": "5430300003", "name": "USPS COLLECTION BOX - BLUE BOX", "address": {"city": "GREEN BAY", "state": "WI", "street": "503 S MILITARY AVE", "postcode": "54303"}}},
{"geometry": {"type": "Point", "coordinates": [-88.0708112374, 44.5336105789]}, "type": "Feature", "properties": {"collection_times": [{"days": "Mon-Sat", "time": "2:00pm"}, {"days": "Sun", "time": "Closed"}], "id": "5430300013", "name": "USPS COLLECTION BOX - BLUE BOX", "address": {"city": "GREEN BAY", "state": "WI", "street": "1871 SHAWANO AVE", "postcode": "54303"}}},
{"geometry": {"type": "Point", "coordinates": [-88.0329004701, 44.5297708814]}, "type": "Feature", "properties": {"collection_times": [{"days": "Mon-Sat", "time": "2:30pm"}, {"days": "Sun", "time": "Closed"}], "id": "5430300014", "name": "USPS COLLECTION BOX - BLUE BOX", "address": {"city": "GREEN BAY", "state": "WI", "street": "1066 MATHER ST", "postcode": "54303"}}},
{"geometry": {"type": "Point", "coordinates": [-88.0609839159, 44.5283430499]}, "type": "Feature", "properties": {"collection_times": [{"days": "Mon-Fri", "time": "4:30pm"}, {"days": "Sat", "time": "2:30pm"}, {"days": "Sun", "time": "Closed"}], "id": "5430300024", "name": "USPS COLLECTION BOX - BLUE BOX", "address": {"city": "GREEN BAY", "state": "WI", "street": "216 S MILITARY AVE", "postcode": "54303"}}},
{"geometry": {"type": "Point", "coordinates": [-88.0209242911, 44.5160233603]}, "type": "Feature", "properties": {"collection_times": [{"days": "Mon-Sat", "time": "2:00pm"}, {"days": "Sun", "time": "Closed"}], "id": "5430300025", "name": "USPS COLLECTION BOX - BLUE BOX", "address": {"city": "GREEN BAY", "state": "WI", "street": "310 W WALNUT ST", "postcode": "54303"}}},
{"geometry": {"type": "Point", "coordinates": [-88.0607981913, 44.5283844535]}, "type": "Feature", "properties": {"collection_times": [{"days": "Mon-Fri", "time": "5:00pm"}, {"days": "Sat", "time": "2:30pm"}, {"days": "Sun", "time": "Closed"}], "id": "5430300029", "name": "USPS COLLECTION BOX - BLUE BOX", "address": {"city": "GREEN BAY", "state": "WI", "street": "201 S MILITARY AVE", "postcode": "54303"}}},
{"geometry": {"type": "Point", "coordinates": [-88.0607981913, 44.5283844535]}, "type": "Feature", "properties": {"collection_times": [{"days": "Mon-Fri", "time": "5:00pm"}, {"days": "Sat", "time": "2:30pm"}, {"days": "Sun", "time": "Closed"}], "id": "5430300030", "name": "USPS COLLECTION BOX - BLUE BOX", "address": {"city": "GREEN BAY", "state": "WI", "street": "201 S MILITARY AVE", "postcode": "54303"}}},
{"geometry": {"type": "Point", "coordinates": [-88.0607981913, 44.5283844535]}, "type": "Feature", "properties": {"collection_times": [{"days": "Mon-Fri", "time": "5:00pm"}, {"days": "Sat", "time": "2:30pm"}, {"days": "Sun", "time": "Closed"}], "id": "5430300031", "name": "USPS COLLECTION BOX - BLUE BOX", "address": {"city": "GREEN BAY", "state": "WI", "street": "201 S MILITARY AVE", "postcode": "54303"}}},
{"geometry": {"type": "Point", "coordinates": [-88.0709787362, 44.5606815991]}, "type": "Feature", "properties": {"collection_times": [{"days": "Mon-Fri", "time": "2:30pm"}, {"days": "Sat", "time": "11:00am"}, {"days": "Sun", "time": "Closed"}], "id": "5430300034", "name": "USPS COLLECTION BOX - BLUE BOX", "address": {"city": "GREEN BAY", "state": "WI", "street": "2223 VELP AVE", "postcode": "54303"}}},
{"geometry": {"type": "Point", "coordinates": [-88.0944439102, 44.534277955]}, "type": "Feature", "properties": {"collection_times": [{"days": "Mon-Sat", "time": "7:30pm"}, {"days": "Sun", "time": "Closed"}], "id": "5430300040", "name": "USPS COLLECTION BOX - BLUE BOX", "address": {"city": "GREEN BAY", "state": "WI", "street": "300 PACKERLAND DR", "postcode": "54303"}}},
{"geometry": {"type": "Point", "coordinates": [-88.0944439102, 44.534277955]}, "type": "Feature", "properties": {"collection_times": [{"days": "Mon-Sat", "time": "7:30pm"}, {"days": "Sun", "time": "Closed"}], "id": "5430300041", "name": "USPS COLLECTION BOX - BLUE BOX", "address": {"city": "GREEN BAY", "state": "WI", "street": "300 PACKERLAND DR", "postcode": "54303"}}},
{"geometry": {"type": "Point", "coordinates": [-88.0903553245, 44.524131927]}, "type": "Feature", "properties": {"collection_times": [{"days": "Mon-Fri", "time": "2:45pm"}, {"days": "Sat", "time": "9:30am"}, {"days": "Sun", "time": "Closed"}], "id": "5430300044", "name": "USPS COLLECTION BOX - BLUE BOX", "address": {"city": "GREEN BAY", "state": "WI", "street": "2450 W MASON ST", "postcode": "54303"}}},
{"geometry": {"type": "Point", "coordinates": [-88.0407993495, 44.5154310467]}, "type": "Feature", "properties": {"collection_times": [{"days": "Mon-Sat", "time": "2:00pm"}, {"days": "Sun", "time": "Closed"}], "id": "5430300048", "name": "USPS COLLECTION BOX - BLUE BOX", "address": {"city": "GREEN BAY", "state": "WI", "street": "1029 W MASON ST", "postcode": "54303"}}},
{"geometry": {"type": "Point", "coordinates": [-88.0542954659, 44.5202161218]}, "type": "Feature", "properties": {"collection_times": [{"days": "Mon-Fri", "time": "4:15pm"}, {"days": "Sat", "time": "10:30am"}, {"days": "Sun", "time": "Closed"}], "id": "5430300049", "name": "USPS COLLECTION BOX - BLUE BOX", "address": {"city": "GREEN BAY", "state": "WI", "street": "1345 W MASON ST", "postcode": "54303"}}},
{"geometry": {"type": "Point", "coordinates": [-88.0870977721, 44.524232462]}, "type": "Feature", "properties": {"collection_times": [{"days": "Mon-Fri", "time": "2:45pm"}, {"days": "Sat", "time": "9:30am"}, {"days": "Sun", "time": "Closed"}], "id": "5430300050", "name": "USPS COLLECTION BOX - BLUE BOX", "address": {"city": "GREEN BAY", "state": "WI", "street": "2250 W MASON ST", "postcode": "54303"}}},
{"geometry": {"type": "Point", "coordinates": [-88.094499044, 44.534259194]}, "type": "Feature", "properties": {"collection_times": [{"days": "Mon-Sat", "time": "7:30pm"}, {"days": "Sun", "time": "Closed"}], "id": "5430300052", "name": "USPS COLLECTION BOX - PO LOBBY", "address": {"city": "GREEN BAY", "state": "WI", "street": "300 PACKERLAND DR", "postcode": "54303"}}},
{"geometry": {"type": "Point", "coordinates": [-88.0944439102, 44.534277955]}, "type": "Feature", "properties": {"collection_times": [{"days": "Mon-Sat", "time": "7:30pm"}, {"days": "Sun", "time": "Closed"}], "id": "5430300055", "name": "USPS COLLECTION BOX - APC", "address": {"city": "GREEN BAY", "state": "WI", "street": "300 PACKERLAND DR", "postcode": "54303"}}},
{"geometry": {"type": "Point", "coordinates": [-88.0996222571, 44.5574180357]}, "type": "Feature", "properties": {"collection_times": [{"days": "Mon-Fri", "time": "3:00pm"}, {"days": "Sat-Sun", "time": "Closed"}], "id": "5430300056", "name": "USPS COLLECTION BOX - BLUE BOX", "address": {"city": "GREEN BAY", "state": "WI", "street": "2984 SHAWANO AVE", "postcode": "54303"}}},
{"geometry": {"type": "Point", "coordinates": [-88.0677830368, 44.4845612781]}, "type": "Feature", "properties": {"collection_times": [{"days": "Mon-Fri", "time": "4:00pm"}, {"days": "Sat", "time": "2:30pm"}, {"days": "Sun", "time": "Closed"}], "id": "5430400001", "name": "USPS COLLECTION BOX - BLUE BOX", "address": {"city": "GREEN BAY", "state": "WI", "street": "301 BAY PARK SQ", "postcode": "54304"}}},
{"geometry": {"type": "Point", "coordinates": [-88.0755201156, 44.5075525461]}, "type": "Feature", "properties": {"collection_times": [{"days": "Mon-Fri", "time": "3:45pm"}, {"days": "Sat", "time": "2:30pm"}, {"days": "Sun", "time": "Closed"}], "id": "5430400005", "name": "USPS COLLECTION BOX - BLUE BOX", "address": {"city": "GREEN BAY", "state": "WI", "street": "1291 LOMBARDI ACCESS RD", "postcode": "54304"}}},
{"geometry": {"type": "Point", "coordinates": [-88.0617457415, 44.5193490129]}, "type": "Feature", "properties": {"collection_times": [{"days": "Mon-Fri", "time": "4:00pm"}, {"days": "Sat", "time": "2:30pm"}, {"days": "Sun", "time": "Closed"}], "id": "5430400007", "name": "USPS COLLECTION BOX - BLUE BOX", "address": {"city": "GREEN BAY", "state": "WI", "street": "908 S FISK ST", "postcode": "54304"}}},
{"geometry": {"type": "Point", "coordinates": [-88.0367302911, 44.4936159071]}, "type": "Feature", "properties": {"collection_times": [{"days": "Mon-Fri", "time": "2:00pm"}, {"days": "Sat-Sun", "time": "Closed"}], "id": "5430400009", "name": "USPS COLLECTION BOX - BLUE BOX", "address": {"city": "GREEN BAY", "state": "WI", "street": "1919 S BROADWAY", "postcode": "54304"}}},
{"geometry": {"type": "Point", "coordinates": [-88.0580892153, 44.4910550004]}, "type": "Feature", "properties": {"collection_times": [{"days": "Mon-Fri", "time": "4:00pm"}, {"days": "Sat", "time": "2:30pm"}, {"days": "Sun", "time": "Closed"}], "id": "5430400013", "name": "USPS COLLECTION BOX - BLUE BOX", "address": {"city": "GREEN BAY", "state": "WI", "street": "2155 HOLMGREN WAY", "postcode": "54304"}}},
{"geometry": {"type": "Point", "coordinates": [-88.0639422248, 44.5210487651]}, "type": "Feature", "properties": {"collection_times": [{"days": "Mon-Fri", "time": "4:00pm"}, {"days": "Sat-Sun", "time": "Closed"}], "id": "5430400015", "name": "USPS COLLECTION BOX - BLUE BOX", "address": {"city": "GREEN BAY", "state": "WI", "street": "713 GREEN BAY PLZ", "postcode": "54304"}}},
{"geometry": {"type": "Point", "coordinates": [-88.0684760144, 44.5171333707]}, "type": "Feature", "properties": {"collection_times": [{"days": "Mon-Sat", "time": "2:00pm"}, {"days": "Sun", "time": "Closed"}], "id": "5430400026", "name": "USPS COLLECTION BOX - BLUE BOX", "address": {"city": "GREEN BAY", "state": "WI", "street": "1231 S MILITARY AVE", "postcode": "54304"}}},
{"geometry": {"type": "Point", "coordinates": [-88.0608257732, 44.4955775085]}, "type": "Feature", "properties": {"collection_times": [{"days": "Mon-Fri", "time": "4:00pm"}, {"days": "Sat", "time": "2:30pm"}, {"days": "Sun", "time": "Closed"}], "id": "5430400027", "name": "USPS COLLECTION BOX - BLUE BOX", "address": {"city": "GREEN BAY", "state": "WI", "street": "2099 S ONEIDA ST", "postcode": "54304"}}},
{"geometry": {"type": "Point", "coordinates": [-88.0608257732, 44.4955775085]}, "type": "Feature", "properties": {"collection_times": [{"days": "Mon-Fri", "time": "4:00pm"}, {"days": "Sat", "time": "2:30pm"}, {"days": "Sun", "time": "Closed"}], "id": "5430400028", "name": "USPS COLLECTION BOX - BLUE BOX", "address": {"city": "GREEN BAY", "state": "WI", "street": "2099 S ONEIDA ST", "postcode": "54304"}}},
{"geometry": {"type": "Point", "coordinates": [-88.0404047444, 44.5073089371]}, "type": "Feature", "properties": {"collection_times": [{"days": "Mon-Sat", "time": "12:00pm"}, {"days": "Sun", "time": "Closed"}], "id": "5430400033", "name": "USPS COLLECTION BOX - BLUE BOX", "address": {"city": "GREEN BAY", "state": "WI", "street": "1224 12TH AVE", "postcode": "54304"}}},
{"geometry": {"type": "Point", "coordinates": [-88.0886580579, 44.5090998564]}, "type": "Feature", "properties": {"collection_times": [{"days": "Mon-Fri", "time": "3:45pm"}, {"days": "Sat", "time": "2:30pm"}, {"days": "Sun", "time": "Closed"}], "id": "5430400036", "name": "USPS COLLECTION BOX - BLUE BOX", "address": {"city": "GREEN BAY", "state": "WI", "street": "1551 PARK PL", "postcode": "54304"}}},
{"geometry": {"type": "Point", "coordinates": [-88.0886580579, 44.5090998564]}, "type": "Feature", "properties": {"collection_times": [{"days": "Mon-Fri", "time": "3:45pm"}, {"days": "Sat", "time": "2:30pm"}, {"days": "Sun", "time": "Closed"}], "id": "5430400038", "name": "USPS COLLECTION BOX - BLUE BOX", "address": {"city": "GREEN BAY", "state": "WI", "street": "1551 PARK PL", "postcode": "54304"}}},
{"geometry": {"type": "Point", "coordinates": [-88.0824950498, 44.4657759123]}, "type": "Feature", "properties": {"collection_times": [{"days": "Mon-Fri", "time": "4:15pm"}, {"days": "Sat-Sun", "time": "Closed"}], "id": "5430400041", "name": "USPS COLLECTION BOX - BLUE BOX", "address": {"city": "GREEN BAY", "state": "WI", "street": "900 PARKVIEW RD", "postcode": "54304"}}},
{"geometry": {"type": "Point", "coordinates": [-88.0848982572, 44.475259106]}, "type": "Feature", "properties": {"collection_times": [{"days": "Mon-Fri", "time": "4:15pm"}, {"days": "Sat", "time": "2:00pm"}, {"days": "Sun", "time": "Closed"}], "id": "5430400045", "name": "USPS COLLECTION BOX - BLUE BOX", "address": {"city": "GREEN BAY", "state": "WI", "street": "2777 S RIDGE RD", "postcode": "54304"}}},
{"geometry": {"type": "Point", "coordinates": [-88.0708320493, 44.4746225174]}, "type": "Feature", "properties": {"collection_times": [{"days": "Mon-Fri", "time": "5:30pm"}, {"days": "Sat", "time": "2:30pm"}, {"days": "Sun", "time": "Closed"}], "id": "5430400054", "name": "USPS COLLECTION BOX - BLUE BOX", "address": {"city": "GREEN BAY", "state": "WI", "street": "790 HANSEN RD", "postcode": "54304"}}},
{"geometry": {"type": "Point", "coordinates": [-88.07082186, 44.474706414]}, "type": "Feature", "properties": {"collection_times": [{"days": "Mon-Fri", "time": "5:30pm"}, {"days": "Sat", "time": "12:00pm"}, {"days": "Sun", "time": "Closed"}], "id": "5430400061", "name": "USPS COLLECTION BOX - PO LOBBY", "address": {"city": "GREEN BAY", "state": "WI", "street": "790 HANSEN RD", "postcode": "54304"}}},
{"geometry": {"type": "Point", "coordinates": [-88.07082186, 44.474706414]}, "type": "Feature", "properties": {"collection_times": [{"days": "Mon-Fri", "time": "5:30pm"}, {"days": "Sat", "time": "12:00pm"}, {"days": "Sun", "time": "Closed"}], "id": "5430400062", "name": "USPS COLLECTION BOX - PO LOBBY", "address": {"city": "GREEN BAY", "state": "WI", "street": "790 HANSEN RD", "postcode": "54304"}}},
{"geometry": {"type": "Point", "coordinates": [-88.084156899, 44.480543227]}, "type": "Feature", "properties": {"collection_times": [{"days": "Mon-Fri", "time": "2:00pm"}, {"days": "Sat-Sun", "time": "Closed"}], "id": "5430400068", "name": "USPS COLLECTION BOX - BLUE BOX", "address": {"city": "GREEN BAY", "state": "WI", "street": "1088 SPRINGHURST DR", "postcode": "54304"}}},
{"geometry": {"type": "Point", "coordinates": [-88.0010013842, 44.4715750596]}, "type": "Feature", "properties": {"collection_times": [{"days": "Mon-Sat", "time": "11:00am"}, {"days": "Sun", "time": "Closed"}], "id": "5431100002", "name": "USPS COLLECTION BOX - BLUE BOX", "address": {"city": "GREEN BAY", "state": "WI", "street": "1356 BELLEVUE ST", "postcode": "54311"}}},
{"geometry": {"type": "Point", "coordinates": [-87.9418611311, 44.458834747]}, "type": "Feature", "properties": {"collection_times": [{"days": "Mon-Fri", "time": "4:15pm"}, {"days": "Sat-Sun", "time": "Closed"}], "id": "5431100004", "name": "USPS COLLECTION BOX - BLUE BOX", "address": {"city": "GREEN BAY", "state": "WI", "street": "2828 ALLOUEZ AVE", "postcode": "54311"}}},
{"geometry": {"type": "Point", "coordinates": [-87.9230804745, 44.4431901147]}, "type": "Feature", "properties": {"collection_times": [{"days": "Mon-Fri", "time": "4:00pm"}, {"days": "Sat-Sun", "time": "Closed"}], "id": "5431100006", "name": "USPS COLLECTION BOX - BLUE BOX", "address": {"city": "GREEN BAY", "state": "WI", "street": "3223 MAIN ST", "postcode": "54311"}}},
{"geometry": {"type": "Point", "coordinates": [-88.0012458927, 44.4720779371]}, "type": "Feature", "properties": {"collection_times": [{"days": "Mon-Sat", "time": "10:30am"}, {"days": "Sun", "time": "Closed"}], "id": "5431100007", "name": "USPS COLLECTION BOX - BLUE BOX", "address": {"city": "GREEN BAY", "state": "WI", "street": "1595 ALLOUEZ AVE", "postcode": "54311"}}},
{"geometry": {"type": "Point", "coordinates": [-87.9329936707, 44.4820905373]}, "type": "Feature", "properties": {"collection_times": [{"days": "Mon-Fri", "time": "4:45pm"}, {"days": "Sat", "time": "10:30am"}, {"days": "Sun", "time": "Closed"}], "id": "5431100008", "name": "USPS COLLECTION BOX - BLUE BOX", "address": {"city": "GREEN BAY", "state": "WI", "street": "1015 CHALLENGER CT", "postcode": "54311"}}},
{"geometry": {"type": "Point", "coordinates": [-87.9329936707, 44.4820905373]}, "type": "Feature", "properties": {"collection_times": [{"days": "Mon-Fri", "time": "4:45pm"}, {"days": "Sat", "time": "10:30am"}, {"days": "Sun", "time": "Closed"}], "id": "5431100009", "name": "USPS COLLECTION BOX - BLUE BOX", "address": {"city": "GREEN BAY", "state": "WI", "street": "1015 CHALLENGER CT", "postcode": "54311"}}},
{"geometry": {"type": "Point", "coordinates": [-87.9562837668, 44.4684758626]}, "type": "Feature", "properties": {"collection_times": [{"days": "Mon-Fri", "time": "4:30pm"}, {"days": "Sat-Sun", "time": "Closed"}], "id": "5431100010", "name": "USPS COLLECTION BOX - BLUE BOX", "address": {"city": "GREEN BAY", "state": "WI", "street": "2534 STEFFENS CT", "postcode": "54311"}}},
{"geometry": {"type": "Point", "coordinates": [-87.9329936707, 44.4820905373]}, "type": "Feature", "properties": {"collection_times": [{"days": "Mon-Fri", "time": "4:45pm"}, {"days": "Sat", "time": "10:30am"}, {"days": "Sun", "time": "Closed"}], "id": "5431100014", "name": "USPS COLLECTION BOX - BLUE BOX", "address": {"city": "GREEN BAY", "state": "WI", "street": "1015 CHALLENGER CT", "postcode": "54311"}}},
{"geometry": {"type": "Point", "coordinates": [-87.9329936707, 44.4820905373]}, "type": "Feature", "properties": {"collection_times": [{"days": "Mon-Fri", "time": "4:45pm"}, {"days": "Sat", "time": "10:30am"}, {"days": "Sun", "time": "Closed"}], "id": "5431100015", "name": "USPS COLLECTION BOX - BLUE BOX", "address": {"city": "GREEN BAY", "state": "WI", "street": "1015 CHALLENGER CT", "postcode": "54311"}}},
{"geometry": {"type": "Point", "coordinates": [-87.9418611311, 44.458834747]}, "type": "Feature", "properties": {"collection_times": [{"days": "Mon-Fri", "time": "4:15pm"}, {"days": "Sat-Sun", "time": "Closed"}], "id": "5431100016", "name": "USPS COLLECTION BOX - BLUE BOX", "address": {"city": "GREEN BAY", "state": "WI", "street": "2828 ALLOUEZ AVE", "postcode": "54311"}}},
{"geometry": {"type": "Point", "coordinates": [-87.9824521434, 44.4626082126]}, "type": "Feature", "properties": {"collection_times": [{"days": "Mon-Sat", "time": "11:30am"}, {"days": "Sun", "time": "Closed"}], "id": "5431100020", "name": "USPS COLLECTION BOX - BLUE BOX", "address": {"city": "GREEN BAY", "state": "WI", "street": "2042 LIME KILN RD", "postcode": "54311"}}},
{"geometry": {"type": "Point", "coordinates": [-88.1296615047, 44.4955422538]}, "type": "Feature", "properties": {"collection_times": [{"days": "Mon-Fri", "time": "4:30pm"}, {"days": "Sat-Sun", "time": "Closed"}], "id": "5431300000", "name": "USPS COLLECTION BOX - BLUE BOX", "address": {"city": "GREEN BAY", "state": "WI", "street": "2077 AIRPORT DR", "postcode": "54313"}}},
{"geometry": {"type": "Point", "coordinates": [-88.0974344149, 44.4928915876]}, "type": "Feature", "properties": {"collection_times": [{"days": "Mon-Sat", "time": "11:00am"}, {"days": "Sun", "time": "Closed"}], "id": "5431300001", "name": "USPS COLLECTION BOX - BLUE BOX", "address": {"city": "GREEN BAY", "state": "WI", "street": "2486 BABCOCK RD", "postcode": "54313"}}},
{"geometry": {"type": "Point", "coordinates": [-88.077240138, 44.5620905033]}, "type": "Feature", "properties": {"collection_times": [{"days": "Mon-Fri", "time": "2:30pm"}, {"days": "Sat-Sun", "time": "Closed"}], "id": "5431300004", "name": "USPS COLLECTION BOX - BLUE BOX", "address": {"city": "GREEN BAY", "state": "WI", "street": "2456 GLENDALE AVE", "postcode": "54313"}}},
{"geometry": {"type": "Point", "coordinates": [-88.1051846735, 44.4936391062]}, "type": "Feature", "properties": {"collection_times": [{"days": "Mon-Fri", "time": "4:15pm"}, {"days": "Sat", "time": "2:30pm"}, {"days": "Sun", "time": "Closed"}], "id": "5431300005", "name": "USPS COLLECTION BOX - BLUE BOX", "address": {"city": "GREEN BAY", "state": "WI", "street": "2555 PACKERLAND DR", "postcode": "54313"}}},
{"geometry": {"type": "Point", "coordinates": [-88.0758282711, 44.5908578043]}, "type": "Feature", "properties": {"collection_times": [{"days": "Mon-Fri", "time": "2:45pm"}, {"days": "Sat", "time": "10:00am"}, {"days": "Sun", "time": "Closed"}], "id": "5431300007", "name": "USPS COLLECTION BOX - BLUE BOX", "address": {"city": "GREEN BAY", "state": "WI", "street": "2465 LINEVILLE RD", "postcode": "54313"}}}
]}
