{"type": "FeatureCollection", "features": [
{"geometry": {"type": "Point", "coordinates": [-89.655873394, 44.9305739192]}, "type": "Feature", "properties": {"collection_times": [{"days": "Mon-Fri", "time": "3:00pm"}, {"days": "Sat", "time": "1:00pm"}, {"days": "Sun", "time": "Closed"}], "id": "5440100006", "name": "USPS COLLECTION BOX - BLUE BOX", "address": {"city": "WAUSAU", "state": "WI", "street": "2900 RIB MOUNTAIN DR", "postcode": "54401"}}},
{"geometry": {"type": "Point", "coordinates": [-89.6498283367, 44.9178247046]}, "type": "Feature", "properties": {"collection_times": [{"days": "Mon-Fri", "time": "3:00pm"}, {"days": "Sat", "time": "1:00pm"}, {"days": "Sun", "time": "Closed"}], "id": "5440100007", "name": "USPS COLLECTION BOX - BLUE BOX", "address": {"city": "WAUSAU", "state": "WI", "street": "4300 RIB MOUNTAIN DR", "postcode": "54401"}}},
{"geometry": {"type": "Point", "coordinates": [-89.6685966367, 44.9520184544]}, "type": "Feature", "properties": {"collection_times": [{"days": "Mon-Fri", "time": "3:00pm"}, {"days": "Sat", "time": "1:00pm"}, {"days": "Sun", "time": "Closed"}], "id": "5440100008", "name": "USPS COLLECTION BOX - BLUE BOX", "address": {"city": "WAUSAU", "state": "WI", "street": "4300 RIB MOUNTAIN DR", "postcode": "54401"}}},
{"geometry": {"type": "Point", "coordinates": [-89.638192466, 44.9700030095]}, "type": "Feature", "properties": {"collection_times": [{"days": "Mon-Fri", "time": "3:00pm"}, {"days": "Sat", "time": "1:00pm"}, {"days": "Sun", "time": "Closed"}], "id": "5440100013", "name": "USPS COLLECTION BOX - BLUE BOX", "address": {"city": "WAUSAU", "state": "WI", "street": "205 W BRIDGE ST", "postcode": "54401"}}},
{"geometry": {"type": "Point", "coordinates": [-89.6557214897, 44.963641804]}, "type": "Feature", "properties": {"collection_times": [{"days": "Mon-Fri", "time": "3:00pm"}, {"days": "Sat", "time": "1:00pm"}, {"days": "Sun", "time": "Closed"}], "id": "5440100027", "name": "USPS COLLECTION BOX - BLUE BOX", "address": {"city": "WAUSAU", "state": "WI", "street": "110 S 17TH AVE", "postcode": "54401"}}},
{"geometry": {"type": "Point", "coordinates": [-89.6558227939, 44.9613383923]}, "type": "Feature", "properties": {"collection_times": [{"days": "Mon-Fri", "time": "3:00pm"}, {"days": "Sat", "time": "1:00pm"}, {"days": "Sun", "time": "Closed"}], "id": "5440100029", "name": "USPS COLLECTION BOX - BLUE BOX", "address": {"city": "WAUSAU", "state": "WI", "street": "220 S 18TH AVE", "postcode": "54401"}}},
{"geometry": {"type": "Point", "coordinates": [-89.6669543197, 44.9579982008]}, "type": "Feature", "properties": {"collection_times": [{"days": "Mon-Fri", "time": "3:00pm"}, {"days": "Sat", "time": "1:00pm"}, {"days": "Sun", "time": "Closed"}], "id": "5440100033", "name": "USPS COLLECTION BOX - BLUE BOX", "address": {"city": "WAUSAU", "state": "WI", "street": "2600 STEWART AVE", "postcode": "54401"}}},
{"geometry": {"type": "Point", "coordinates": [-89.6669543197, 44.9579982008]}, "type": "Feature", "properties": {"collection_times": [{"days": "Mon-Fri", "time": "3:00pm"}, {"days": "Sat", "time": "1:00pm"}, {"days": "Sun", "time": "Closed"}], "id": "5440100034", "name": "USPS COLLECTION BOX - BLUE BOX", "address": {"city": "WAUSAU", "state": "WI", "street": "2600 STEWART AVE", "postcode": "54401"}}},
{"geometry": {"type": "Point", "coordinates": [-89.6710787214, 44.9681778485]}, "type": "Feature", "properties": {"collection_times": [{"days": "Mon-Fri", "time": "3:00pm"}, {"days": "Sat", "time": "1:00pm"}, {"days": "Sun", "time": "Closed"}], "id": "5440100045", "name": "USPS COLLECTION BOX - BLUE BOX", "address": {"city": "WAUSAU", "state": "WI", "street": "2800 WESTHILL DR", "postcode": "54401"}}},
{"geometry": {"type": "Point", "coordinates": [-89.6701973125, 44.9656630932]}, "type": "Feature", "properties": {"collection_times": [{"days": "Mon-Fri", "time": "3:00pm"}, {"days": "Sat", "time": "1:00pm"}, {"days": "Sun", "time": "Closed"}], "id": "5440100059", "name": "USPS COLLECTION BOX - BLUE BOX", "address": {"city": "WAUSAU", "state": "WI", "street": "333 PINE RIDGE BLVD", "postcode": "54401"}}},
{"geometry": {"type": "Point", "coordinates": [-89.6502752722, 44.9881923135]}, "type": "Feature", "properties": {"collection_times": [{"days": "Mon-Fri", "time": "3:00pm"}, {"days": "Sat", "time": "10:00am"}, {"days": "Sun", "time": "Closed"}], "id": "5440100067", "name": "USPS COLLECTION BOX - BLUE BOX", "address": {"city": "WAUSAU", "state": "WI", "street": "1200 W CAMPUS DR", "postcode": "54401"}}},
{"geometry": {"type": "Point", "coordinates": [-89.6368003229, 44.9616027419]}, "type": "Feature", "properties": {"collection_times": [{"days": "Mon-Fri", "time": "3:00pm"}, {"days": "Sat", "time": "1:00pm"}, {"days": "Sun", "time": "Closed"}], "id": "5440100076", "name": "USPS COLLECTION BOX - BLUE BOX", "address": {"city": "WAUSAU", "state": "WI", "street": "220 S 1ST AVE", "postcode": "54401"}}},
{"geometry": {"type": "Point", "coordinates": [-89.6368003229, 44.9616027419]}, "type": "Feature", "properties": {"collection_times": [{"days": "Mon-Fri", "time": "3:00pm"}, {"days": "Sat", "time": "1:00pm"}, {"days": "Sun", "time": "Closed"}], "id": "5440100077", "name": "USPS COLLECTION BOX - BLUE BOX", "address": {"city": "WAUSAU", "state": "WI", "street": "220 S 1ST AVE", "postcode": "54401"}}},
{"geometry": {"type": "Point", "coordinates": [-89.6392548599, 44.9549381691]}, "type": "Feature", "properties": {"collection_times": [{"days": "Mon-Fri", "time": "3:00pm"}, {"days": "Sat", "time": "1:00pm"}, {"days": "Sun", "time": "Closed"}], "id": "5440100078", "name": "USPS COLLECTION BOX - BLUE BOX", "address": {"city": "WAUSAU", "state": "WI", "street": "735 S 3RD AVE", "postcode": "54401"}}},
{"geometry": {"type": "Point", "coordinates": [-89.6701973125, 44.9656630932]}, "type": "Feature", "properties": {"collection_times": [{"days": "Mon-Fri", "time": "3:00pm"}, {"days": "Sat", "time": "1:00pm"}, {"days": "Sun", "time": "Closed"}], "id": "5440100079", "name": "USPS COLLECTION BOX - BLUE BOX", "address": {"city": "WAUSAU", "state": "WI", "street": "333 PINE RIDGE BLVD", "postcode": "54401"}}},
{"geometry": {"type": "Point", "coordinates": [-89.7272480142, 44.9585514677]}, "type": "Feature", "properties": {"collection_times": [{"days": "Mon-Sat", "time": "12:00pm"}, {"days": "Sun", "time": "Closed"}], "id": "5440100080", "name": "USPS COLLECTION BOX - BLUE BOX", "address": {"city": "WAUSAU", "state": "WI", "street": "7201 HIGHLAND DR", "postcode": "54401"}}},
{"geometry": {"type": "Point", "coordinates": [-89.628428671, 44.9572336642]}, "type": "Feature", "properties": {"collection_times": [{"days": "Mon-Fri", "time": "6:00pm"}, {"days": "Sat", "time": "4:45pm"}, {"days": "Sun", "time": "Closed"}], "id": "5440300003", "name": "USPS COLLECTION BOX - BLUE BOX", "address": {"city": "WAUSAU", "state": "WI", "street": "235 FOREST ST", "postcode": "54403"}}},
{"geometry": {"type": "Point", "coordinates": [-89.6286791876, 44.957359016]}, "type": "Feature", "properties": {"collection_times": [{"days": "Mon-Fri", "time": "6:00pm"}, {"days": "Sat", "time": "4:45pm"}, {"days": "Sun", "time": "Closed"}], "id": "5440300005", "name": "USPS COLLECTION BOX - BLUE BOX", "address": {"city": "WAUSAU", "state": "WI", "street": "200 FOREST ST", "postcode": "54403"}}},
{"geometry": {"type": "Point", "coordinates": [-89.6286791876, 44.957359016]}, "type": "Feature", "properties": {"collection_times": [{"days": "Mon-Fri", "time": "6:00pm"}, {"days": "Sat", "time": "4:45pm"}, {"days": "Sun", "time": "Closed"}], "id": "5440300006", "name": "USPS COLLECTION BOX - BLUE BOX", "address": {"city": "WAUSAU", "state": "WI", "street": "200 FOREST ST", "postcode": "54403"}}},
{"geometry": {"type": "Point", "coordinates": [-89.6286791876, 44.957359016]}, "type": "Feature", "properties": {"collection_times": [{"days": "Mon-Fri", "time": "6:00pm"}, {"days": "Sat", "time": "4:45pm"}, {"days": "Sun", "time": "Closed"}], "id": "5440300008", "name": "USPS COLLECTION BOX - BLUE BOX", "address": {"city": "WAUSAU", "state": "WI", "street": "200 FOREST ST", "postcode": "54403"}}},
{"geometry": {"type": "Point", "coordinates": [-89.6286791876, 44.957359016]}, "type": "Feature", "properties": {"collection_times": [{"days": "Mon-Fri", "time": "6:00pm"}, {"days": "Sat", "time": "4:45pm"}, {"days": "Sun", "time": "Closed"}], "id": "5440300009", "name": "USPS COLLECTION BOX - BLUE BOX", "address": {"city": "WAUSAU", "state": "WI", "street": "200 FOREST ST", "postcode": "54403"}}},
{"geometry": {"type": "Point", "coordinates": [-89.615807516, 44.9342376154]}, "type": "Feature", "properties": {"collection_times": [{"days": "Mon-Fri", "time": "3:00pm"}, {"days": "Sat", "time": "1:00pm"}, {"days": "Sun", "time": "Closed"}], "id": "5440300012", "name": "USPS COLLECTION BOX - BLUE BOX", "address": {"city": "WAUSAU", "state": "WI", "street": "200 E KENT ST", "postcode": "54403"}}},
{"geometry": {"type": "Point", "coordinates": [-89.6258956337, 44.9571931261]}, "type": "Feature", "properties": {"collection_times": [{"days": "Mon-Fri", "time": "3:00pm"}, {"days": "Sat", "time": "1:00pm"}, {"days": "Sun", "time": "Closed"}], "id": "5440300020", "name": "USPS COLLECTION BOX - BLUE BOX", "address": {"city": "WAUSAU", "state": "WI", "street": "500 FOREST ST", "postcode": "54403"}}},
{"geometry": {"type": "Point", "coordinates": [-89.6263892524, 44.9622037933]}, "type": "Feature", "properties": {"collection_times": [{"days": "Mon-Fri", "time": "3:00pm"}, {"days": "Sat", "time": "1:00pm"}, {"days": "Sun", "time": "Closed"}], "id": "5440300046", "name": "USPS COLLECTION BOX - BLUE BOX", "address": {"city": "WAUSAU", "state": "WI", "street": "407 GRANT ST", "postcode": "54403"}}},
{"geometry": {"type": "Point", "coordinates": [-89.6235507893, 44.953513527]}, "type": "Feature", "properties": {"collection_times": [{"days": "Mon-Fri", "time": "3:00pm"}, {"days": "Sat", "time": "1:00pm"}, {"days": "Sun", "time": "Closed"}], "id": "5440300051", "name": "USPS COLLECTION BOX - BLUE BOX", "address": {"city": "WAUSAU", "state": "WI", "street": "364 GRAND AVE", "postcode": "54403"}}},
{"geometry": {"type": "Point", "coordinates": [-89.6280630023, 44.9589961647]}, "type": "Feature", "properties": {"collection_times": [{"days": "Mon-Fri", "time": "3:00pm"}, {"days": "Sat", "time": "1:00pm"}, {"days": "Sun", "time": "Closed"}], "id": "5440300064", "name": "USPS COLLECTION BOX - BLUE BOX", "address": {"city": "WAUSAU", "state": "WI", "street": "300 3RD ST", "postcode": "54403"}}},
{"geometry": {"type": "Point", "coordinates": [-89.6198692272, 44.9739525941]}, "type": "Feature", "properties": {"collection_times": [{"days": "Mon-Sat", "time": "10:00am"}, {"days": "Sun", "time": "Closed"}], "id": "5440300066", "name": "USPS COLLECTION BOX - BLUE BOX", "address": {"city": "WAUSAU", "state": "WI", "street": "730 E WAUSAU AVE", "postcode": "54403"}}},
{"geometry": {"type": "Point", "coordinates": [-89.628342083, 44.957252496]}, "type": "Feature", "properties": {"collection_times": [{"days": "Mon-Fri", "time": "6:00pm"}, {"days": "Sat", "time": "4:45pm"}, {"days": "Sun", "time": "Closed"}], "id": "5440300083", "name": "USPS COLLECTION BOX - PO LOBBY", "address": {"city": "WAUSAU", "state": "WI", "street": "235 FOREST ST", "postcode": "54403"}}},
{"geometry": {"type": "Point", "coordinates": [-89.6233449121, 44.9604262343]}, "type": "Feature", "properties": {"collection_times": [{"days": "Mon-Fri", "time": "3:00pm"}, {"days": "Sat", "time": "1:00pm"}, {"days": "Sun", "time": "Closed"}], "id": "5440300089", "name": "USPS COLLECTION BOX - BLUE BOX", "address": {"city": "WAUSAU", "state": "WI", "street": "602 SCOTT ST", "postcode": "54403"}}},
{"geometry": {"type": "Point", "coordinates": [-89.6184661444, 44.9951015463]}, "type": "Feature", "properties": {"collection_times": [{"days": "Mon-Sat", "time": "2:00pm"}, {"days": "Sun", "time": "Closed"}], "id": "5440300092", "name": "USPS COLLECTION BOX - BLUE BOX", "address": {"city": "WAUSAU", "state": "WI", "street": "3853 6TH ST", "postcode": "54403"}}},
{"geometry": {"type": "Point", "coordinates": [-90.3175923696, 44.9460146753]}, "type": "Feature", "properties": {"collection_times": [{"days": "Mon-Fri", "time": "4:30pm"}, {"days": "Sat", "time": "11:00am"}, {"days": "Sun", "time": "Closed"}], "id": "5440500000", "name": "USPS COLLECTION BOX - BLUE BOX", "address": {"city": "ABBOTSFORD", "state": "WI", "street": "113 N 2ND ST", "postcode": "54405"}}},
{"geometry": {"type": "Point", "coordinates": [-90.3175923696, 44.9460146753]}, "type": "Feature", "properties": {"collection_times": [{"days": "Mon-Fri", "time": "4:45pm"}, {"days": "Sat", "time": "11:00am"}, {"days": "Sun", "time": "Closed"}], "id": "5440500001", "name": "USPS COLLECTION BOX - PO LOBBY", "address": {"city": "ABBOTSFORD", "state": "WI", "street": "113 N 2ND ST", "postcode": "54405"}}},
{"geometry": {"type": "Point", "coordinates": [-89.2842588242, 44.4560760018]}, "type": "Feature", "properties": {"collection_times": [{"days": "Mon-Fri", "time": "4:15pm"}, {"days": "Sat", "time": "10:30am"}, {"days": "Sun", "time": "Closed"}], "id": "5440600000", "name": "USPS COLLECTION BOX - BLUE BOX", "address": {"city": "AMHERST", "state": "WI", "street": "187 N MAIN ST", "postcode": "54406"}}},
{"geometry": {"type": "Point", "coordinates": [-89.2922978042, 44.451277472]}, "type": "Feature", "properties": {"collection_times": [{"days": "Mon-Sat", "time": "10:00am"}, {"days": "Sun", "time": "Closed"}], "id": "5440600002", "name": "USPS COLLECTION BOX - BLUE BOX", "address": {"city": "AMHERST", "state": "WI", "street": "113 CHRISTY ST", "postcode": "54406"}}},
{"geometry": {"type": "Point", "coordinates": [-89.2842588242, 44.4560760018]}, "type": "Feature", "properties": {"collection_times": [{"days": "Mon-Fri", "time": "4:15pm"}, {"days": "Sat", "time": "10:30am"}, {"days": "Sun", "time": "Closed"}], "id": "5440600003", "name": "USPS COLLECTION BOX - PO LOBBY", "address": {"city": "AMHERST", "state": "WI", "street": "187 N MAIN ST", "postcode": "54406"}}},
{"geometry": {"type": "Point", "coordinates": [-89.2842588242, 44.4560760018]}, "type": "Feature", "properties": {"collection_times": [{"days": "Mon-Fri", "time": "4:15pm"}, {"days": "Sat", "time": "10:30am"}, {"days": "Sun", "time": "Closed"}], "id": "5440600004", "name": "USPS COLLECTION BOX - PO LOBBY", "address": {"city": "AMHERST", "state": "WI", "street": "187 N MAIN ST", "postcode": "54406"}}},
{"geometry": {"type": "Point", "coordinates": [-89.3138569188, 44.4682272385]}, "type": "Feature", "properties": {"collection_times": [{"days": "Mon-Fri", "time": "4:00pm"}, {"days": "Sat", "time": "10:00am"}, {"days": "Sun", "time": "Closed"}], "id": "5440700000", "name": "USPS COLLECTION BOX - BLUE BOX", "address": {"city": "AMHERST JCT", "state": "WI", "street": "9453 MAIN ST", "postcode": "54407"}}},
{"geometry": {"type": "Point", "coordinates": [-89.3138569188, 44.4682272385]}, "type": "Feature", "properties": {"collection_times": [{"days": "Mon-Fri", "time": "11:45am"}, {"days": "Sat", "time": "9:30am"}, {"days": "Sun", "time": "Closed"}], "id": "5440700001", "name": "USPS COLLECTION BOX - PO LOBBY", "address": {"city": "AMHERST JCT", "state": "WI", "street": "9453 MAIN ST", "postcode": "54407"}}},
{"geometry": {"type": "Point", "coordinates": [-89.3157935234, 45.0281216973]}, "type": "Feature", "properties": {"collection_times": [{"days": "Mon-Fri", "time": "4:15pm"}, {"days": "Sat", "time": "10:00am"}, {"days": "Sun", "time": "Closed"}], "id": "5440800000", "name": "USPS COLLECTION BOX - BLUE BOX", "address": {"city": "ANIWA", "state": "WI", "street": "W19057 1ST ST", "postcode": "54408"}}},
{"geometry": {"type": "Point", "coordinates": [-89.3157935234, 45.0281216973]}, "type": "Feature", "properties": {"collection_times": [{"days": "Mon-Fri", "time": "4:15pm"}, {"days": "Sat", "time": "10:00am"}, {"days": "Sun", "time": "Closed"}], "id": "5440800001", "name": "USPS COLLECTION BOX - PO LOBBY", "address": {"city": "ANIWA", "state": "WI", "street": "W19057 1ST ST", "postcode": "54408"}}},
{"geometry": {"type": "Point", "coordinates": [-89.154270277, 45.1389336304]}, "type": "Feature", "properties": {"collection_times": [{"days": "Mon-Fri", "time": "5:00pm"}, {"days": "Sat", "time": "3:45pm"}, {"days": "Sun", "time": "Closed"}], "id": "5440900002", "name": "USPS COLLECTION BOX - PO LOBBY", "address": {"city": "ANTIGO", "state": "WI", "street": "501 CLERMONT ST", "postcode": "54409"}}},
{"geometry": {"type": "Point", "coordinates": [-89.1522787184, 45.1405350266]}, "type": "Feature", "properties": {"collection_times": [{"days": "Mon-Fri", "time": "3:00pm"}, {"days": "Sat", "time": "2:15pm"}, {"days": "Sun", "time": "Closed"}], "id": "5440900005", "name": "USPS COLLECTION BOX - BLUE BOX", "address": {"city": "ANTIGO", "state": "WI", "street": "700 5TH AVE", "postcode": "54409"}}},
{"geometry": {"type": "Point", "coordinates": [-89.1515665518, 45.1620589915]}, "type": "Feature", "properties": {"collection_times": [{"days": "Mon-Fri", "time": "3:00pm"}, {"days": "Sat", "time": "10:00am"}, {"days": "Sun", "time": "Closed"}], "id": "5440900006", "name": "USPS COLLECTION BOX - BLUE BOX", "address": {"city": "ANTIGO", "state": "WI", "street": "701 CENTURY AVE", "postcode": "54409"}}},
{"geometry": {"type": "Point", "coordinates": [-89.154270277, 45.1389336304]}, "type": "Feature", "properties": {"collection_times": [{"days": "Mon-Fri", "time": "5:00pm"}, {"days": "Sat", "time": "3:45pm"}, {"days": "Sun", "time": "Closed"}], "id": "5440900018", "name": "USPS COLLECTION BOX - BLUE BOX", "address": {"city": "ANTIGO", "state": "WI", "street": "501 CLERMONT ST", "postcode": "54409"}}},
{"geometry": {"type": "Point", "coordinates": [-89.154270277, 45.1389336304]}, "type": "Feature", "properties": {"collection_times": [{"days": "Mon-Fri", "time": "5:00pm"}, {"days": "Sat", "time": "3:45pm"}, {"days": "Sun", "time": "Closed"}], "id": "5440900019", "name": "USPS COLLECTION BOX - BLUE BOX", "address": {"city": "ANTIGO", "state": "WI", "street": "501 CLERMONT ST", "postcode": "54409"}}},
{"geometry": {"type": "Point", "coordinates": [-89.1515665518, 45.1620589915]}, "type": "Feature", "properties": {"collection_times": [{"days": "Mon-Fri", "time": "3:00pm"}, {"days": "Sat", "time": "10:00am"}, {"days": "Sun", "time": "Closed"}], "id": "5440900021", "name": "USPS COLLECTION BOX - BLUE BOX", "address": {"city": "ANTIGO", "state": "WI", "street": "701 CENTURY AVE", "postcode": "54409"}}},
{"geometry": {"type": "Point", "coordinates": [-89.1562869607, 45.1419857931]}, "type": "Feature", "properties": {"collection_times": [{"days": "Mon-Sat", "time": "3:00pm"}, {"days": "Sun", "time": "Closed"}], "id": "5440900022", "name": "USPS COLLECTION BOX - BLUE BOX", "address": {"city": "ANTIGO", "state": "WI", "street": "700 EDISON ST", "postcode": "54409"}}},
{"geometry": {"type": "Point", "coordinates": [-89.1562869607, 45.1419857931]}, "type": "Feature", "properties": {"collection_times": [{"days": "Mon-Sat", "time": "3:00pm"}, {"days": "Sun", "time": "Closed"}], "id": "5440900023", "name": "USPS COLLECTION BOX - BLUE BOX", "address": {"city": "ANTIGO", "state": "WI", "street": "700 EDISON ST", "postcode": "54409"}}},
{"geometry": {"type": "Point", "coordinates": [-89.3407698579, 45.1465957763]}, "type": "Feature", "properties": {"collection_times": [{"days": "Mon-Sat", "time": "11:30am"}, {"days": "Sun", "time": "Closed"}], "id": "5440900024", "name": "USPS COLLECTION BOX - BLUE BOX", "address": {"city": "ANTIGO", "state": "WI", "street": "W4904 STATE HIGHWAY 64", "postcode": "54409"}}},
{"geometry": {"type": "Point", "coordinates": [-90.0454693787, 44.5477982478]}, "type": "Feature", "properties": {"collection_times": [{"days": "Mon-Sat", "time": "4:00pm"}, {"days": "Sun", "time": "Closed"}], "id": "5441000000", "name": "USPS COLLECTION BOX - BLUE BOX", "address": {"city": "ARPIN", "state": "WI", "street": "8095 CHURCH RD", "postcode": "54410"}}},
{"geometry": {"type": "Point", "coordinates": [-90.0454693787, 44.5477982478]}, "type": "Feature", "properties": {"collection_times": [{"days": "Mon-Fri", "time": "11:15am"}, {"days": "Sat", "time": "9:00am"}, {"days": "Sun", "time": "Closed"}], "id": "5441000001", "name": "USPS COLLECTION BOX - PO LOBBY", "address": {"city": "ARPIN", "state": "WI", "street": "8095 CHURCH RD", "postcode": "54410"}}},
{"geometry": {"type": "Point", "coordinates": [-90.0454693787, 44.5477982478]}, "type": "Feature", "properties": {"collection_times": [{"days": "Mon-Sat", "time": "11:30am"}, {"days": "Sun", "time": "Closed"}], "id": "5441000002", "name": "USPS COLLECTION BOX - BLUE BOX", "address": {"city": "ARPIN", "state": "WI", "street": "6120 MILL RD", "postcode": "54410"}}},
{"geometry": {"type": "Point", "coordinates": [-90.0857155009, 45.0328571738]}, "type": "Feature", "properties": {"collection_times": [{"days": "Mon-Fri", "time": "4:15pm"}, {"days": "Sat", "time": "10:00am"}, {"days": "Sun", "time": "Closed"}], "id": "5441100000", "name": "USPS COLLECTION BOX - BLUE BOX", "address": {"city": "ATHENS", "state": "WI", "street": "308 CAROLINE ST", "postcode": "54411"}}},
{"geometry": {"type": "Point", "coordinates": [-90.0755025656, 45.0339310609]}, "type": "Feature", "properties": {"collection_times": [{"days": "Mon-Fri", "time": "4:15pm"}, {"days": "Sat", "time": "10:00am"}, {"days": "Sun", "time": "Closed"}], "id": "5441100002", "name": "USPS COLLECTION BOX - PO LOBBY", "address": {"city": "ATHENS", "state": "WI", "street": "308 CAROLINE ST", "postcode": "54411"}}},
{"geometry": {"type": "Point", "coordinates": [-90.0080423778, 44.6265766127]}, "type": "Feature", "properties": {"collection_times": [{"days": "Mon-Sat", "time": "3:45pm"}, {"days": "Sun", "time": "Closed"}], "id": "5441200000", "name": "USPS COLLECTION BOX - BLUE BOX", "address": {"city": "AUBURNDALE", "state": "WI", "street": "10548 GEORGE AVE", "postcode": "54412"}}},
{"geometry": {"type": "Point", "coordinates": [-90.0080423778, 44.6265766127]}, "type": "Feature", "properties": {"collection_times": [{"days": "Mon-Fri", "time": "1:15pm"}, {"days": "Sat", "time": "10:15am"}, {"days": "Sun", "time": "Closed"}], "id": "5441200001", "name": "USPS COLLECTION BOX - PO LOBBY", "address": {"city": "AUBURNDALE", "state": "WI", "street": "10548 GEORGE AVE", "postcode": "54412"}}},
{"geometry": {"type": "Point", "coordinates": [-90.0080423778, 44.6265766127]}, "type": "Feature", "properties": {"collection_times": [{"days": "Mon-Fri", "time": "1:15pm"}, {"days": "Sat", "time": "10:15am"}, {"days": "Sun", "time": "Closed"}], "id": "5441200002", "name": "USPS COLLECTION BOX - PO LOBBY", "address": {"city": "AUBURNDALE", "state": "WI", "street": "10548 GEORGE AVE", "postcode": "54412"}}},
{"geometry": {"type": "Point", "coordinates": [-89.9946371594, 44.6556890793]}, "type": "Feature", "properties": {"collection_times": [{"days": "Mon-Sat", "time": "11:30am"}, {"days": "Sun", "time": "Closed"}], "id": "5441200003", "name": "USPS COLLECTION BOX - BLUE BOX", "address": {"city": "AUBURNDALE", "state": "WI", "street": "5768 MAIN ST", "postcode": "54412"}}},
{"geometry": {"type": "Point", "coordinates": [-90.1349846858, 44.2799134125]}, "type": "Feature", "properties": {"collection_times": [{"days": "Mon-Fri", "time": "4:15pm"}, {"days": "Sat", "time": "10:30am"}, {"days": "Sun", "time": "Closed"}], "id": "5441300000", "name": "USPS COLLECTION BOX - BLUE BOX", "address": {"city": "BABCOCK", "state": "WI", "street": "1608 STATE HIGHWAY 80", "postcode": "54413"}}},
{"geometry": {"type": "Point", "coordinates": [-90.1100898387, 44.3034698278]}, "type": "Feature", "properties": {"collection_times": [{"days": "Mon-Fri", "time": "4:15pm"}, {"days": "Sat", "time": "11:30am"}, {"days": "Sun", "time": "Closed"}], "id": "5441300001", "name": "USPS COLLECTION BOX - PO LOBBY", "address": {"city": "BABCOCK", "state": "WI", "street": "1608 STATE HIGHWAY 80", "postcode": "54413"}}},
{"geometry": {"type": "Point", "coordinates": [-89.2044538114, 44.9335526219]}, "type": "Feature", "properties": {"collection_times": [{"days": "Mon-Sat", "time": "3:45pm"}, {"days": "Sun", "time": "Closed"}], "id": "5441400000", "name": "USPS COLLECTION BOX - BLUE BOX", "address": {"city": "BIRNAMWOOD", "state": "WI", "street": "405 MAIN ST", "postcode": "54414"}}},
{"geometry": {"type": "Point", "coordinates": [-89.2044538114, 44.9335526219]}, "type": "Feature", "properties": {"collection_times": [{"days": "Mon-Fri", "time": "12:45pm"}, {"days": "Sat", "time": "10:00am"}, {"days": "Sun", "time": "Closed"}], "id": "5441400001", "name": "USPS COLLECTION BOX - PO LOBBY", "address": {"city": "BIRNAMWOOD", "state": "WI", "street": "405 MAIN ST", "postcode": "54414"}}},
{"geometry": {"type": "Point", "coordinates": [-89.1838895481, 44.9521574946]}, "type": "Feature", "properties": {"collection_times": [{"days": "Mon-Sat", "time": "1:30pm"}, {"days": "Sun", "time": "Closed"}], "id": "5441400002", "name": "USPS COLLECTION BOX - BLUE BOX", "address": {"city": "BIRNAMWOOD", "state": "WI", "street": "382 MAIN ST", "postcode": "54414"}}},
{"geometry": {"type": "Point", "coordinates": [-89.9161348642, 44.6146150065]}, "type": "Feature", "properties": {"collection_times": [{"days": "Mon-Sat", "time": "4:00pm"}, {"days": "Sun", "time": "Closed"}], "id": "5441500000", "name": "USPS COLLECTION BOX - BLUE BOX", "address": {"city": "BLENKER", "state": "WI", "street": "3888 COUNTY ROAD P", "postcode": "54415"}}},
{"geometry": {"type": "Point", "coordinates": [-89.9161348642, 44.6146150065]}, "type": "Feature", "properties": {"collection_times": [{"days": "Mon-Fri", "time": "10:15am"}, {"days": "Sat", "time": "9:45am"}, {"days": "Sun", "time": "Closed"}], "id": "5441500001", "name": "USPS COLLECTION BOX - PO LOBBY", "address": {"city": "BLENKER", "state": "WI", "street": "3888 COUNTY ROAD P", "postcode": "54415"}}},
{"geometry": {"type": "Point", "coordinates": [-88.9816907613, 44.8630577148]}, "type": "Feature", "properties": {"collection_times": [{"days": "Mon-Fri", "time": "4:00pm"}, {"days": "Sat", "time": "10:15am"}, {"days": "Sun", "time": "Closed"}], "id": "5441600000", "name": "USPS COLLECTION BOX - BLUE BOX", "address": {"city": "BOWLER", "state": "WI", "street": "111 W MAIN ST", "postcode": "54416"}}},
{"geometry": {"type": "Point", "coordinates": [-88.9835331985, 44.8629809857]}, "type": "Feature", "properties": {"collection_times": [{"days": "Mon-Fri", "time": "3:30pm"}, {"days": "Sat", "time": "9:15am"}, {"days": "Sun", "time": "Closed"}], "id": "5441600001", "name": "USPS COLLECTION BOX - PO LOBBY", "address": {"city": "BOWLER", "state": "WI", "street": "111 W MAIN ST", "postcode": "54416"}}},
{"geometry": {"type": "Point", "coordinates": [-89.6535084378, 45.0271953455]}, "type": "Feature", "properties": {"collection_times": [{"days": "Mon-Fri", "time": "4:00pm"}, {"days": "Sat", "time": "9:45am"}, {"days": "Sun", "time": "Closed"}], "id": "5441700000", "name": "USPS COLLECTION BOX - BLUE BOX", "address": {"city": "BROKAW", "state": "WI", "street": "207 2ND ST", "postcode": "54417"}}},
{"geometry": {"type": "Point", "coordinates": [-89.6535084378, 45.0271953455]}, "type": "Feature", "properties": {"collection_times": [{"days": "Mon-Fri", "time": "12:45pm"}, {"days": "Sat", "time": "9:45am"}, {"days": "Sun", "time": "Closed"}], "id": "5441700001", "name": "USPS COLLECTION BOX - PO LOBBY", "address": {"city": "BROKAW", "state": "WI", "street": "207 2ND ST", "postcode": "54417"}}},
{"geometry": {"type": "Point", "coordinates": [-90.3580882454, 44.6269964346]}, "type": "Feature", "properties": {"collection_times": [{"days": "Mon-Sat", "time": "3:30pm"}, {"days": "Sun", "time": "Closed"}], "id": "5442000000", "name": "USPS COLLECTION BOX - BLUE BOX", "address": {"city": "CHILI", "state": "WI", "street": "W931 CHILI RD", "postcode": "54420"}}},
{"geometry": {"type": "Point", "coordinates": [-90.3580882454, 44.6269964346]}, "type": "Feature", "properties": {"collection_times": [{"days": "Mon-Fri", "time": "11:30am"}, {"days": "Sat", "time": "8:45am"}, {"days": "Sun", "time": "Closed"}], "id": "5442000001", "name": "USPS COLLECTION BOX - PO LOBBY", "address": {"city": "CHILI", "state": "WI", "street": "W931 CHILI RD", "postcode": "54420"}}},
{"geometry": {"type": "Point", "coordinates": [-90.3170304474, 44.9095973296]}, "type": "Feature", "properties": {"collection_times": [{"days": "Mon-Fri", "time": "3:45pm"}, {"days": "Sat", "time": "10:15am"}, {"days": "Sun", "time": "Closed"}], "id": "5442100000", "name": "USPS COLLECTION BOX - BLUE BOX", "address": {"city": "COLBY", "state": "WI", "street": "200 W SPENCE ST", "postcode": "54421"}}},
{"geometry": {"type": "Point", "coordinates": [-90.3165171779, 44.9096448804]}, "type": "Feature", "properties": {"collection_times": [{"days": "Mon-Fri", "time": "4:00pm"}, {"days": "Sat", "time": "10:15am"}, {"days": "Sun", "time": "Closed"}], "id": "5442100001", "name": "USPS COLLECTION BOX - PO LOBBY", "address": {"city": "COLBY", "state": "WI", "street": "200 W SPENCE ST", "postcode": "54421"}}},
{"geometry": {"type": "Point", "coordinates": [-90.4341067367, 44.9534128911]}, "type": "Feature", "properties": {"collection_times": [{"days": "Mon-Sat", "time": "3:45pm"}, {"days": "Sun", "time": "Closed"}], "id": "5442200000", "name": "USPS COLLECTION BOX - BLUE BOX", "address": {"city": "CURTISS", "state": "WI", "street": "915 MERIDIAN ST", "postcode": "54422"}}},
{"geometry": {"type": "Point", "coordinates": [-90.4341067367, 44.9534128911]}, "type": "Feature", "properties": {"collection_times": [{"days": "Mon-Fri", "time": "11:30am"}, {"days": "Sat", "time": "8:45am"}, {"days": "Sun", "time": "Closed"}], "id": "5442200001", "name": "USPS COLLECTION BOX - PO LOBBY", "address": {"city": "CURTISS", "state": "WI", "street": "915 MERIDIAN ST", "postcode": "54422"}}},
{"geometry": {"type": "Point", "coordinates": [-90.4544560564, 44.9672563887]}, "type": "Feature", "properties": {"collection_times": [{"days": "Mon-Sat", "time": "9:00am"}, {"days": "Sun", "time": "Closed"}], "id": "5442200002", "name": "USPS COLLECTION BOX - BLUE BOX", "address": {"city": "CURTISS", "state": "WI", "street": "219 PLAZA DR", "postcode": "54422"}}},
{"geometry": {"type": "Point", "coordinates": [-89.4261911896, 44.5117048601]}, "type": "Feature", "properties": {"collection_times": [{"days": "Mon-Fri", "time": "4:00pm"}, {"days": "Sat", "time": "10:00am"}, {"days": "Sun", "time": "Closed"}], "id": "5442300000", "name": "USPS COLLECTION BOX - BLUE BOX", "address": {"city": "CUSTER", "state": "WI", "street": "2224 CUSTER DR", "postcode": "54423"}}},
{"geometry": {"type": "Point", "coordinates": [-89.4261911896, 44.5117048601]}, "type": "Feature", "properties": {"collection_times": [{"days": "Mon-Fri", "time": "4:00pm"}, {"days": "Sat", "time": "10:00am"}, {"days": "Sun", "time": "Closed"}], "id": "5442300002", "name": "USPS COLLECTION BOX - PO LOBBY", "address": {"city": "CUSTER", "state": "WI", "street": "2224 CUSTER DR", "postcode": "54423"}}},
{"geometry": {"type": "Point", "coordinates": [-89.4261911896, 44.5117048601]}, "type": "Feature", "properties": {"collection_times": [{"days": "Mon-Fri", "time": "4:00pm"}, {"days": "Sat", "time": "10:00am"}, {"days": "Sun", "time": "Closed"}], "id": "5442300003", "name": "USPS COLLECTION BOX - PO LOBBY", "address": {"city": "CUSTER", "state": "WI", "street": "2224 CUSTER DR", "postcode": "54423"}}},
{"geometry": {"type": "Point", "coordinates": [-89.1728488891, 45.2814567715]}, "type": "Feature", "properties": {"collection_times": [{"days": "Mon-Fri", "time": "3:30pm"}, {"days": "Sat", "time": "10:00am"}, {"days": "Sun", "time": "Closed"}], "id": "5442400000", "name": "USPS COLLECTION BOX - BLUE BOX", "address": {"city": "DEERBROOK", "state": "WI", "street": "N5294 COUNTY ROAD A", "postcode": "54424"}}},
{"geometry": {"type": "Point", "coordinates": [-89.1448155663, 45.2196626429]}, "type": "Feature", "properties": {"collection_times": [{"days": "Mon-Fri", "time": "3:45pm"}, {"days": "Sat", "time": "10:00am"}, {"days": "Sun", "time": "Closed"}], "id": "5442400002", "name": "USPS COLLECTION BOX - PO LOBBY", "address": {"city": "DEERBROOK", "state": "WI", "street": "N5290 COUNTY ROAD A", "postcode": "54424"}}},
{"geometry": {"type": "Point", "coordinates": [-90.3309466575, 45.0032512597]}, "type": "Feature", "properties": {"collection_times": [{"days": "Mon-Fri", "time": "4:00pm"}, {"days": "Sat", "time": "12:00pm"}, {"days": "Sun", "time": "Closed"}], "id": "5442500000", "name": "USPS COLLECTION BOX - BLUE BOX", "address": {"city": "DORCHESTER", "state": "WI", "street": "101 E CENTER AVE", "postcode": "54425"}}},
{"geometry": {"type": "Point", "coordinates": [-90.3310875566, 45.0032588709]}, "type": "Feature", "properties": {"collection_times": [{"days": "Mon-Fri", "time": "1:15pm"}, {"days": "Sat", "time": "10:00am"}, {"days": "Sun", "time": "Closed"}], "id": "5442500001", "name": "USPS COLLECTION BOX - PO LOBBY", "address": {"city": "DORCHESTER", "state": "WI", "street": "101 E CENTER AVE", "postcode": "54425"}}},
{"geometry": {"type": "Point", "coordinates": [-90.3310875566, 45.0032588709]}, "type": "Feature", "properties": {"collection_times": [{"days": "Mon-Fri", "time": "1:15pm"}, {"days": "Sat", "time": "10:00am"}, {"days": "Sun", "time": "Closed"}], "id": "5442500002", "name": "USPS COLLECTION BOX - PO LOBBY", "address": {"city": "DORCHESTER", "state": "WI", "street": "101 E CENTER AVE", "postcode": "54425"}}},
{"geometry": {"type": "Point", "coordinates": [-90.014828471, 44.864156631]}, "type": "Feature", "properties": {"collection_times": [{"days": "Mon-Sat", "time": "11:00am"}, {"days": "Sun", "time": "Closed"}], "id": "5442600000", "name": "USPS COLLECTION BOX - BLUE BOX", "address": {"city": "EDGAR", "state": "WI", "street": "3781 REDWOOD ST", "postcode": "54426"}}},
{"geometry": {"type": "Point", "coordinates": [-89.9641786363, 44.9225662515]}, "type": "Feature", "properties": {"collection_times": [{"days": "Mon-Fri", "time": "4:00pm"}, {"days": "Sat", "time": "9:30am"}, {"days": "Sun", "time": "Closed"}], "id": "5442600001", "name": "USPS COLLECTION BOX - BLUE BOX", "address": {"city": "EDGAR", "state": "WI", "street": "111 W BEECH ST", "postcode": "54426"}}},
{"geometry": {"type": "Point", "coordinates": [-89.9641786363, 44.9225662515]}, "type": "Feature", "properties": {"collection_times": [{"days": "Mon-Fri", "time": "4:00pm"}, {"days": "Sat", "time": "9:30am"}, {"days": "Sun", "time": "Closed"}], "id": "5442600002", "name": "USPS COLLECTION BOX - PO LOBBY", "address": {"city": "EDGAR", "state": "WI", "street": "111 W BEECH ST", "postcode": "54426"}}},
{"geometry": {"type": "Point", "coordinates": [-89.265286037, 44.8205606356]}, "type": "Feature", "properties": {"collection_times": [{"days": "Mon-Fri", "time": "4:00pm"}, {"days": "Sat", "time": "11:00am"}, {"days": "Sun", "time": "Closed"}], "id": "5442700000", "name": "USPS COLLECTION BOX - BLUE BOX", "address": {"city": "ELAND", "state": "WI", "street": "N7701 WHEELER AVE", "postcode": "54427"}}},
{"geometry": {"type": "Point", "coordinates": [-89.265286037, 44.8205606356]}, "type": "Feature", "properties": {"collection_times": [{"days": "Mon-Fri", "time": "4:00pm"}, {"days": "Sat", "time": "11:00am"}, {"days": "Sun", "time": "Closed"}], "id": "5442700001", "name": "USPS COLLECTION BOX - PO LOBBY", "address": {"city": "ELAND", "state": "WI", "street": "N7701 WHEELER AVE", "postcode": "54427"}}},
{"geometry": {"type": "Point", "coordinates": [-89.1818731702, 45.4370374252]}, "type": "Feature", "properties": {"collection_times": [{"days": "Mon-Fri", "time": "3:30pm"}, {"days": "Sat", "time": "9:30am"}, {"days": "Sun", "time": "Closed"}], "id": "5442800001", "name": "USPS COLLECTION BOX - PO LOBBY", "address": {"city": "ELCHO", "state": "WI", "street": "N11262 DORR ST", "postcode": "54428"}}},
{"geometry": {"type": "Point", "coordinates": [-89.1818731702, 45.4370374252]}, "type": "Feature", "properties": {"collection_times": [{"days": "Mon-Sat", "time": "4:00pm"}, {"days": "Sun", "time": "Closed"}], "id": "5442800003", "name": "USPS COLLECTION BOX - BLUE BOX", "address": {"city": "ELCHO", "state": "WI", "street": "N11262 DORR ST", "postcode": "54428"}}},
{"geometry": {"type": "Point", "coordinates": [-89.1818731702, 45.4370374252]}, "type": "Feature", "properties": {"collection_times": [{"days": "Mon-Fri", "time": "3:30pm"}, {"days": "Sat", "time": "9:30am"}, {"days": "Sun", "time": "Closed"}], "id": "5442800004", "name": "USPS COLLECTION BOX - PO LOBBY", "address": {"city": "ELCHO", "state": "WI", "street": "N11262 DORR ST", "postcode": "54428"}}},
{"geometry": {"type": "Point", "coordinates": [-89.2446, 44.78228]}, "type": "Feature", "properties": {"collection_times": [{"days": "Mon-Sat", "time": "1:30pm"}, {"days": "Sun", "time": "Closed"}], "id": "5442900000", "name": "USPS COLLECTION BOX - BLUE BOX", "address": {"city": "ELDERON", "state": "WI", "street": "467 HIGHLAND AVE", "postcode": "54429"}}},
{"geometry": {"type": "Point", "coordinates": [-90.814143408, 45.1664354776]}, "type": "Feature", "properties": {"collection_times": [{"days": "Mon-Fri", "time": "4:00pm"}, {"days": "Sat", "time": "3:00pm"}, {"days": "Sun", "time": "Closed"}], "id": "5443300000", "name": "USPS COLLECTION BOX - BLUE BOX", "address": {"city": "GILMAN", "state": "WI", "street": "121 W MAIN ST", "postcode": "54433"}}},
{"geometry": {"type": "Point", "coordinates": [-90.814143408, 45.1664354776]}, "type": "Feature", "properties": {"collection_times": [{"days": "Mon-Fri", "time": "4:00pm"}, {"days": "Sat", "time": "9:45am"}, {"days": "Sun", "time": "Closed"}], "id": "5443300001", "name": "USPS COLLECTION BOX - PO LOBBY", "address": {"city": "GILMAN", "state": "WI", "street": "121 W MAIN ST", "postcode": "54433"}}},
{"geometry": {"type": "Point", "coordinates": [-89.4977817754, 45.3086261401]}, "type": "Feature", "properties": {"collection_times": [{"days": "Mon-Fri", "time": "4:00pm"}, {"days": "Sat", "time": "11:00am"}, {"days": "Sun", "time": "Closed"}], "id": "5443500000", "name": "USPS COLLECTION BOX - BLUE BOX", "address": {"city": "GLEASON", "state": "WI", "street": "N5365 STATE HIGHWAY 17", "postcode": "54435"}}},
{"geometry": {"type": "Point", "coordinates": [-89.4977817754, 45.3086261401]}, "type": "Feature", "properties": {"collection_times": [{"days": "Mon-Fri", "time": "3:00pm"}, {"days": "Sat", "time": "9:45am"}, {"days": "Sun", "time": "Closed"}], "id": "5443500001", "name": "USPS COLLECTION BOX - PO LOBBY", "address": {"city": "GLEASON", "state": "WI", "street": "N5365 STATE HIGHWAY 17", "postcode": "54435"}}},
{"geometry": {"type": "Point", "coordinates": [-90.4625124402, 44.5871387091]}, "type": "Feature", "properties": {"collection_times": [{"days": "Mon-Fri", "time": "4:00pm"}, {"days": "Sat", "time": "11:00am"}, {"days": "Sun", "time": "Closed"}], "id": "5443600000", "name": "USPS COLLECTION BOX - BLUE BOX", "address": {"city": "GRANTON", "state": "WI", "street": "214 MAPLE ST", "postcode": "54436"}}},
{"geometry": {"type": "Point", "coordinates": [-90.462564322, 44.5876215353]}, "type": "Feature", "properties": {"collection_times": [{"days": "Mon-Fri", "time": "3:00pm"}, {"days": "Sat", "time": "10:00am"}, {"days": "Sun", "time": "Closed"}], "id": "5443600001", "name": "USPS COLLECTION BOX - PO LOBBY", "address": {"city": "GRANTON", "state": "WI", "street": "214 MAPLE ST", "postcode": "54436"}}},
{"geometry": {"type": "Point", "coordinates": [-90.462564322, 44.5876215353]}, "type": "Feature", "properties": {"collection_times": [{"days": "Mon-Fri", "time": "3:00pm"}, {"days": "Sat", "time": "10:00am"}, {"days": "Sun", "time": "Closed"}], "id": "5443600002", "name": "USPS COLLECTION BOX - PO LOBBY", "address": {"city": "GRANTON", "state": "WI", "street": "214 MAPLE ST", "postcode": "54436"}}},
{"geometry": {"type": "Point", "coordinates": [-90.5979860441, 44.767008793]}, "type": "Feature", "properties": {"collection_times": [{"days": "Mon-Fri", "time": "4:00pm"}, {"days": "Sat", "time": "10:45am"}, {"days": "Sun", "time": "Closed"}], "id": "5443700000", "name": "USPS COLLECTION BOX - BLUE BOX", "address": {"city": "GREENWOOD", "state": "WI", "street": "110 E DIVISION ST", "postcode": "54437"}}},
{"geometry": {"type": "Point", "coordinates": [-90.5979860441, 44.767008793]}, "type": "Feature", "properties": {"collection_times": [{"days": "Mon-Fri", "time": "4:00pm"}, {"days": "Sat", "time": "10:45am"}, {"days": "Sun", "time": "Closed"}], "id": "5443700001", "name": "USPS COLLECTION BOX - PO LOBBY", "address": {"city": "GREENWOOD", "state": "WI", "street": "110 E DIVISION ST", "postcode": "54437"}}},
{"geometry": {"type": "Point", "coordinates": [-89.387216386, 44.8191867365]}, "type": "Feature", "properties": {"collection_times": [{"days": "Mon-Fri", "time": "4:00pm"}, {"days": "Sat", "time": "10:00am"}, {"days": "Sun", "time": "Closed"}], "id": "5444000000", "name": "USPS COLLECTION BOX - BLUE BOX", "address": {"city": "HATLEY", "state": "WI", "street": "200 CLARK ST", "postcode": "54440"}}},
{"geometry": {"type": "Point", "coordinates": [-89.387216386, 44.8191867365]}, "type": "Feature", "properties": {"collection_times": [{"days": "Mon-Fri", "time": "4:00pm"}, {"days": "Sat", "time": "10:00am"}, {"days": "Sun", "time": "Closed"}], "id": "5444000001", "name": "USPS COLLECTION BOX - PO LOBBY", "address": {"city": "HATLEY", "state": "WI", "street": "200 CLARK ST", "postcode": "54440"}}},
{"geometry": {"type": "Point", "coordinates": [-89.6701853878, 45.3524540365]}, "type": "Feature", "properties": {"collection_times": [{"days": "Mon-Fri", "time": "12:45pm"}, {"days": "Sat", "time": "10:00am"}, {"days": "Sun", "time": "Closed"}], "id": "5444200000", "name": "USPS COLLECTION BOX - PO LOBBY", "address": {"city": "IRMA", "state": "WI", "street": "N6525 RAILWAY ST", "postcode": "54442"}}},
{"geometry": {"type": "Point", "coordinates": [-89.6701853878, 45.3524540365]}, "type": "Feature", "properties": {"collection_times": [{"days": "Mon-Sat", "time": "4:00pm"}, {"days": "Sun", "time": "Closed"}], "id": "5444200001", "name": "USPS COLLECTION BOX - BLUE BOX", "address": {"city": "IRMA", "state": "WI", "street": "N6525 RAILWAY ST", "postcode": "54442"}}},
{"geometry": {"type": "Point", "coordinates": [-89.7715463275, 44.5913717562]}, "type": "Feature", "properties": {"collection_times": [{"days": "Mon-Fri", "time": "4:00pm"}, {"days": "Sat", "time": "10:30am"}, {"days": "Sun", "time": "Closed"}], "id": "5444300000", "name": "USPS COLLECTION BOX - BLUE BOX", "address": {"city": "JUNCTION CITY", "state": "WI", "street": "408 MAIN ST", "postcode": "54443"}}},
{"geometry": {"type": "Point", "coordinates": [-89.7713565239, 44.591376802]}, "type": "Feature", "properties": {"collection_times": [{"days": "Mon-Fri", "time": "2:45pm"}, {"days": "Sat", "time": "9:30am"}, {"days": "Sun", "time": "Closed"}], "id": "5444300001", "name": "USPS COLLECTION BOX - PO LOBBY", "address": {"city": "JUNCTION CITY", "state": "WI", "street": "408 MAIN ST", "postcode": "54443"}}},
{"geometry": {"type": "Point", "coordinates": [-90.4958518615, 44.7377036037]}, "type": "Feature", "properties": {"collection_times": [{"days": "Mon-Fri", "time": "4:00pm"}, {"days": "Sat", "time": "10:30am"}, {"days": "Sun", "time": "Closed"}], "id": "5444600000", "name": "USPS COLLECTION BOX - BLUE BOX", "address": {"city": "LOYAL", "state": "WI", "street": "327 N MAIN ST", "postcode": "54446"}}},
{"geometry": {"type": "Point", "coordinates": [-90.4958518615, 44.7377036037]}, "type": "Feature", "properties": {"collection_times": [{"days": "Mon-Fri", "time": "4:00pm"}, {"days": "Sat", "time": "10:30am"}, {"days": "Sun", "time": "Closed"}], "id": "5444600002", "name": "USPS COLLECTION BOX - PO LOBBY", "address": {"city": "LOYAL", "state": "WI", "street": "327 N MAIN ST", "postcode": "54446"}}},
{"geometry": {"type": "Point", "coordinates": [-90.7251368002, 45.0749336575]}, "type": "Feature", "properties": {"collection_times": [{"days": "Mon-Sat", "time": "4:00pm"}, {"days": "Sun", "time": "Closed"}], "id": "5444700000", "name": "USPS COLLECTION BOX - BLUE BOX", "address": {"city": "LUBLIN", "state": "WI", "street": "W13321 SOUTH ST", "postcode": "54447"}}},
{"geometry": {"type": "Point", "coordinates": [-90.7251368002, 45.0749336575]}, "type": "Feature", "properties": {"collection_times": [{"days": "Mon-Fri", "time": "11:45am"}, {"days": "Sat", "time": "9:30am"}, {"days": "Sun", "time": "Closed"}], "id": "5444700001", "name": "USPS COLLECTION BOX - PO LOBBY", "address": {"city": "LUBLIN", "state": "WI", "street": "W13321 SOUTH ST", "postcode": "54447"}}},
{"geometry": {"type": "Point", "coordinates": [-89.8415227274, 44.9320942587]}, "type": "Feature", "properties": {"collection_times": [{"days": "Mon-Fri", "time": "4:30pm"}, {"days": "Sat", "time": "10:30am"}, {"days": "Sun", "time": "Closed"}], "id": "5444800000", "name": "USPS COLLECTION BOX - BLUE BOX", "address": {"city": "MARATHON", "state": "WI", "street": "311 WALNUT ST", "postcode": "54448"}}},
{"geometry": {"type": "Point", "coordinates": [-89.8415227274, 44.9320942587]}, "type": "Feature", "properties": {"collection_times": [{"days": "Mon-Fri", "time": "4:30pm"}, {"days": "Sat", "time": "10:30am"}, {"days": "Sun", "time": "Closed"}], "id": "5444800001", "name": "USPS COLLECTION BOX - PO LOBBY", "address": {"city": "MARATHON", "state": "WI", "street": "311 WALNUT ST", "postcode": "54448"}}},
{"geometry": {"type": "Point", "coordinates": [-89.8415227274, 44.9320942587]}, "type": "Feature", "properties": {"collection_times": [{"days": "Mon-Fri", "time": "4:30pm"}, {"days": "Sat", "time": "10:30am"}, {"days": "Sun", "time": "Closed"}], "id": "5444800002", "name": "USPS COLLECTION BOX - BLUE BOX", "address": {"city": "MARATHON", "state": "WI", "street": "311 WALNUT ST", "postcode": "54448"}}},
{"geometry": {"type": "Point", "coordinates": [-90.1758554814, 44.6664422865]}, "type": "Feature", "properties": {"collection_times": [{"days": "Mon-Fri", "time": "5:15pm"}, {"days": "Sat", "time": "4:00pm"}, {"days": "Sun", "time": "Closed"}], "id": "5444900000", "name": "USPS COLLECTION BOX - BLUE BOX", "address": {"city": "MARSHFIELD", "state": "WI", "street": "202 S CHESTNUT AVE", "postcode": "54449"}}},
{"geometry": {"type": "Point", "coordinates": [-90.184539957, 44.6511488012]}, "type": "Feature", "properties": {"collection_times": [{"days": "Mon-Sat", "time": "3:00pm"}, {"days": "Sun", "time": "Closed"}], "id": "5444900007", "name": "USPS COLLECTION BOX - BLUE BOX", "address": {"city": "MARSHFIELD", "state": "WI", "street": "1905 S CENTRAL AVE", "postcode": "54449"}}},
{"geometry": {"type": "Point", "coordinates": [-90.1652746317, 44.678947501]}, "type": "Feature", "properties": {"collection_times": [{"days": "Mon-Sat", "time": "3:00pm"}, {"days": "Sun", "time": "Closed"}], "id": "5444900011", "name": "USPS COLLECTION BOX - BLUE BOX", "address": {"city": "MARSHFIELD", "state": "WI", "street": "1306 N CENTRAL AVE", "postcode": "54449"}}},
{"geometry": {"type": "Point", "coordinates": [-90.1756151072, 44.6791337227]}, "type": "Feature", "properties": {"collection_times": [{"days": "Mon-Sat", "time": "3:00pm"}, {"days": "Sun", "time": "Closed"}], "id": "5444900015", "name": "USPS COLLECTION BOX - BLUE BOX", "address": {"city": "MARSHFIELD", "state": "WI", "street": "1000 N OAK AVE", "postcode": "54449"}}},
{"geometry": {"type": "Point", "coordinates": [-90.1454947738, 44.6551622706]}, "type": "Feature", "properties": {"collection_times": [{"days": "Mon-Sat", "time": "12:30pm"}, {"days": "Sun", "time": "Closed"}], "id": "5444900022", "name": "USPS COLLECTION BOX - BLUE BOX", "address": {"city": "MARSHFIELD", "state": "WI", "street": "400 S ANTON AVE", "postcode": "54449"}}},
{"geometry": {"type": "Point", "coordinates": [-90.18229247, 44.6545677188]}, "type": "Feature", "properties": {"collection_times": [{"days": "Mon-Sat", "time": "3:00pm"}, {"days": "Sun", "time": "Closed"}], "id": "5444900025", "name": "USPS COLLECTION BOX - BLUE BOX", "address": {"city": "MARSHFIELD", "state": "WI", "street": "1502 S CENTRAL AVE", "postcode": "54449"}}},
{"geometry": {"type": "Point", "coordinates": [-90.176068602, 44.666088002]}, "type": "Feature", "properties": {"collection_times": [{"days": "Mon-Fri", "time": "5:15pm"}, {"days": "Sat", "time": "4:00pm"}, {"days": "Sun", "time": "Closed"}], "id": "5444900027", "name": "USPS COLLECTION BOX - PO LOBBY", "address": {"city": "MARSHFIELD", "state": "WI", "street": "202 S CHESTNUT AVE", "postcode": "54449"}}},
{"geometry": {"type": "Point", "coordinates": [-90.1971448279, 44.6403042203]}, "type": "Feature", "properties": {"collection_times": [{"days": "Mon-Sat", "time": "11:00am"}, {"days": "Sun", "time": "Closed"}], "id": "5444900028", "name": "USPS COLLECTION BOX - BLUE BOX", "address": {"city": "MARSHFIELD", "state": "WI", "street": "11079 MAIN ST", "postcode": "54449"}}},
{"geometry": {"type": "Point", "coordinates": [-90.1578394466, 44.6878034489]}, "type": "Feature", "properties": {"collection_times": [{"days": "Mon-Sat", "time": "3:00pm"}, {"days": "Sun", "time": "Closed"}], "id": "5444900029", "name": "USPS COLLECTION BOX - BLUE BOX", "address": {"city": "MARSHFIELD", "state": "WI", "street": "2005 N CENTRAL AVE", "postcode": "54449"}}},
{"geometry": {"type": "Point", "coordinates": [-90.1758554814, 44.6664422865]}, "type": "Feature", "properties": {"collection_times": [{"days": "Mon-Fri", "time": "5:15pm"}, {"days": "Sat", "time": "4:00pm"}, {"days": "Sun", "time": "Closed"}], "id": "5444900030", "name": "USPS COLLECTION BOX - BLUE BOX", "address": {"city": "MARSHFIELD", "state": "WI", "street": "202 S CHESTNUT AVE", "postcode": "54449"}}},
{"geometry": {"type": "Point", "coordinates": [-89.0419540121, 45.0051327654]}, "type": "Feature", "properties": {"collection_times": [{"days": "Mon-Sat", "time": "3:00pm"}, {"days": "Sun", "time": "Closed"}], "id": "5445000000", "name": "USPS COLLECTION BOX - BLUE BOX", "address": {"city": "MATTOON", "state": "WI", "street": "811 4TH ST", "postcode": "54450"}}},
{"geometry": {"type": "Point", "coordinates": [-89.0419540121, 45.0051327654]}, "type": "Feature", "properties": {"collection_times": [{"days": "Mon-Fri", "time": "11:45am"}, {"days": "Sat", "time": "9:15am"}, {"days": "Sun", "time": "Closed"}], "id": "5445000002", "name": "USPS COLLECTION BOX - PO LOBBY", "address": {"city": "MATTOON", "state": "WI", "street": "811 4TH ST", "postcode": "54450"}}},
{"geometry": {"type": "Point", "coordinates": [-89.041929528, 45.0050579824]}, "type": "Feature", "properties": {"collection_times": [{"days": "Mon-Sat", "time": "12:00pm"}, {"days": "Sun", "time": "Closed"}], "id": "5445000003", "name": "USPS COLLECTION BOX - BLUE BOX", "address": {"city": "MATTOON", "state": "WI", "street": "1017 4TH ST", "postcode": "54450"}}},
{"geometry": {"type": "Point", "coordinates": [-90.34575519, 45.1388586324]}, "type": "Feature", "properties": {"collection_times": [{"days": "Mon-Fri", "time": "5:00pm"}, {"days": "Sat", "time": "2:30pm"}, {"days": "Sun", "time": "Closed"}], "id": "5445100000", "name": "USPS COLLECTION BOX - BLUE BOX", "address": {"city": "MEDFORD", "state": "WI", "street": "120 W BROADWAY AVE", "postcode": "54451"}}},
{"geometry": {"type": "Point", "coordinates": [-90.4181664068, 45.2010710153]}, "type": "Feature", "properties": {"collection_times": [{"days": "Mon-Sat", "time": "12:00pm"}, {"days": "Sun", "time": "Closed"}], "id": "5445100002", "name": "USPS COLLECTION BOX - BLUE BOX", "address": {"city": "MEDFORD", "state": "WI", "street": "190 MEDFORD PLZ", "postcode": "54451"}}},
{"geometry": {"type": "Point", "coordinates": [-90.34575519, 45.1388586324]}, "type": "Feature", "properties": {"collection_times": [{"days": "Mon-Fri", "time": "4:45pm"}, {"days": "Sat", "time": "2:30pm"}, {"days": "Sun", "time": "Closed"}], "id": "5445100007", "name": "USPS COLLECTION BOX - PO LOBBY", "address": {"city": "MEDFORD", "state": "WI", "street": "120 W BROADWAY AVE", "postcode": "54451"}}},
{"geometry": {"type": "Point", "coordinates": [-89.6945386011, 45.1809939512]}, "type": "Feature", "properties": {"collection_times": [{"days": "Mon-Fri", "time": "5:00pm"}, {"days": "Sat", "time": "2:30pm"}, {"days": "Sun", "time": "Closed"}], "id": "5445200000", "name": "USPS COLLECTION BOX - BLUE BOX", "address": {"city": "MERRILL", "state": "WI", "street": "430 E 2ND ST", "postcode": "54452"}}},
{"geometry": {"type": "Point", "coordinates": [-89.6831113251, 45.1811411373]}, "type": "Feature", "properties": {"collection_times": [{"days": "Mon-Fri", "time": "2:30pm"}, {"days": "Sat", "time": "1:00pm"}, {"days": "Sun", "time": "Closed"}], "id": "5445200008", "name": "USPS COLLECTION BOX - BLUE BOX", "address": {"city": "MERRILL", "state": "WI", "street": "105 S CENTER AVE", "postcode": "54452"}}},
{"geometry": {"type": "Point", "coordinates": [-89.6945386011, 45.1809939512]}, "type": "Feature", "properties": {"collection_times": [{"days": "Mon-Fri", "time": "5:00pm"}, {"days": "Sat", "time": "2:30pm"}, {"days": "Sun", "time": "Closed"}], "id": "5445200020", "name": "USPS COLLECTION BOX - PO LOBBY", "address": {"city": "MERRILL", "state": "WI", "street": "430 E 2ND ST", "postcode": "54452"}}},
{"geometry": {"type": "Point", "coordinates": [-89.6945386011, 45.1809939512]}, "type": "Feature", "properties": {"collection_times": [{"days": "Mon-Fri", "time": "5:00pm"}, {"days": "Sat", "time": "2:30pm"}, {"days": "Sun", "time": "Closed"}], "id": "5445200021", "name": "USPS COLLECTION BOX - BLUE BOX", "address": {"city": "MERRILL", "state": "WI", "street": "430 E 2ND ST", "postcode": "54452"}}},
{"geometry": {"type": "Point", "coordinates": [-89.6945386011, 45.1809939512]}, "type": "Feature", "properties": {"collection_times": [{"days": "Mon-Fri", "time": "5:00pm"}, {"days": "Sat", "time": "2:30pm"}, {"days": "Sun", "time": "Closed"}], "id": "5445200022", "name": "USPS COLLECTION BOX - PO LOBBY", "address": {"city": "MERRILL", "state": "WI", "street": "430 E 2ND ST", "postcode": "54452"}}},
{"geometry": {"type": "Point", "coordinates": [-89.6521527979, 45.1789504282]}, "type": "Feature", "properties": {"collection_times": [{"days": "Mon-Fri", "time": "1:00pm"}, {"days": "Sat", "time": "12:00pm"}, {"days": "Sun", "time": "Closed"}], "id": "5445200023", "name": "USPS COLLECTION BOX - BLUE BOX", "address": {"city": "MERRILL", "state": "WI", "street": "300 S PINE RIDGE AVE", "postcode": "54452"}}},
{"geometry": {"type": "Point", "coordinates": [-89.8517360632, 44.6036167612]}, "type": "Feature", "properties": {"collection_times": [{"days": "Mon-Fri", "time": "3:30pm"}, {"days": "Sat", "time": "9:30am"}, {"days": "Sun", "time": "Closed"}], "id": "5445400000", "name": "USPS COLLECTION BOX - BLUE BOX", "address": {"city": "MILLADORE", "state": "WI", "street": "120 MAIN ST", "postcode": "54454"}}},
{"geometry": {"type": "Point", "coordinates": [-89.7013329, 44.7915168695]}, "type": "Feature", "properties": {"collection_times": [{"days": "Mon-Fri", "time": "5:00pm"}, {"days": "Sat", "time": "3:00pm"}, {"days": "Sun", "time": "Closed"}], "id": "5445500000", "name": "USPS COLLECTION BOX - BLUE BOX", "address": {"city": "MOSINEE", "state": "WI", "street": "408 2ND ST", "postcode": "54455"}}},
{"geometry": {"type": "Point", "coordinates": [-89.7291074307, 44.7884978834]}, "type": "Feature", "properties": {"collection_times": [{"days": "Mon-Sat", "time": "10:00am"}, {"days": "Sun", "time": "Closed"}], "id": "5445500003", "name": "USPS COLLECTION BOX - BLUE BOX", "address": {"city": "MOSINEE", "state": "WI", "street": "530 W STATE HIGHWAY 153", "postcode": "54455"}}},
{"geometry": {"type": "Point", "coordinates": [-89.7013329, 44.7915168695]}, "type": "Feature", "properties": {"collection_times": [{"days": "Mon-Fri", "time": "5:00pm"}, {"days": "Sat", "time": "3:00pm"}, {"days": "Sun", "time": "Closed"}], "id": "5445500006", "name": "USPS COLLECTION BOX - BLUE BOX", "address": {"city": "MOSINEE", "state": "WI", "street": "408 2ND ST", "postcode": "54455"}}},
{"geometry": {"type": "Point", "coordinates": [-89.7013329, 44.7915168695]}, "type": "Feature", "properties": {"collection_times": [{"days": "Mon-Fri", "time": "5:00pm"}, {"days": "Sat", "time": "3:00pm"}, {"days": "Sun", "time": "Closed"}], "id": "5445500010", "name": "USPS COLLECTION BOX - PO LOBBY", "address": {"city": "MOSINEE", "state": "WI", "street": "408 2ND ST", "postcode": "54455"}}},
{"geometry": {"type": "Point", "coordinates": [-89.68309592, 44.7933996837]}, "type": "Feature", "properties": {"collection_times": [{"days": "Mon-Sat", "time": "1:00pm"}, {"days": "Sun", "time": "Closed"}], "id": "5445500012", "name": "USPS COLLECTION BOX - BLUE BOX", "address": {"city": "MOSINEE", "state": "WI", "street": "100 CWA DR", "postcode": "54455"}}},
{"geometry": {"type": "Point", "coordinates": [-90.5948108919, 44.5600405002]}, "type": "Feature", "properties": {"collection_times": [{"days": "Mon-Fri", "time": "3:00pm"}, {"days": "Sat-Sun", "time": "Closed"}], "id": "5445600000", "name": "USPS COLLECTION BOX - BLUE BOX", "address": {"city": "NEILLSVILLE", "state": "WI", "street": "517 COURT ST", "postcode": "54456"}}},
{"geometry": {"type": "Point", "coordinates": [-90.5964393662, 44.5527832423]}, "type": "Feature", "properties": {"collection_times": [{"days": "Mon-Fri", "time": "3:00pm"}, {"days": "Sat", "time": "9:30am"}, {"days": "Sun", "time": "Closed"}], "id": "5445600001", "name": "USPS COLLECTION BOX - BLUE BOX", "address": {"city": "NEILLSVILLE", "state": "WI", "street": "106 W DIVISION ST", "postcode": "54456"}}},
{"geometry": {"type": "Point", "coordinates": [-90.5963170908, 44.5591201905]}, "type": "Feature", "properties": {"collection_times": [{"days": "Mon-Sat", "time": "3:00pm"}, {"days": "Sun", "time": "Closed"}], "id": "5445600002", "name": "USPS COLLECTION BOX - BLUE BOX", "address": {"city": "NEILLSVILLE", "state": "WI", "street": "419 HEWETT ST", "postcode": "54456"}}},
{"geometry": {"type": "Point", "coordinates": [-90.6381408671, 44.5412030449]}, "type": "Feature", "properties": {"collection_times": [{"days": "Mon-Sat", "time": "3:45pm"}, {"days": "Sun", "time": "Closed"}], "id": "5445600003", "name": "USPS COLLECTION BOX - BLUE BOX", "address": {"city": "NEILLSVILLE", "state": "WI", "street": "EAST 6TH ST", "postcode": "54456"}}},
{"geometry": {"type": "Point", "coordinates": [-90.5963172565, 44.5607332206]}, "type": "Feature", "properties": {"collection_times": [{"days": "Mon-Fri", "time": "4:15pm"}, {"days": "Sat", "time": "3:45pm"}, {"days": "Sun", "time": "Closed"}], "id": "5445600004", "name": "USPS COLLECTION BOX - PO LOBBY", "address": {"city": "NEILLSVILLE", "state": "WI", "street": "619 HEWETT ST", "postcode": "54456"}}},
{"geometry": {"type": "Point", "coordinates": [-90.5963172565, 44.5607332206]}, "type": "Feature", "properties": {"collection_times": [{"days": "Mon-Fri", "time": "4:15pm"}, {"days": "Sat", "time": "3:45pm"}, {"days": "Sun", "time": "Closed"}], "id": "5445600005", "name": "USPS COLLECTION BOX - PO LOBBY", "address": {"city": "NEILLSVILLE", "state": "WI", "street": "619 HEWETT ST", "postcode": "54456"}}},
{"geometry": {"type": "Point", "coordinates": [-89.9043490493, 44.3152138544]}, "type": "Feature", "properties": {"collection_times": [{"days": "Mon-Fri", "time": "5:00pm"}, {"days": "Sat", "time": "11:00am"}, {"days": "Sun", "time": "Closed"}], "id": "5445700001", "name": "USPS COLLECTION BOX - BLUE BOX", "address": {"city": "NEKOOSA", "state": "WI", "street": "1001 MARKET ST", "postcode": "54457"}}},
{"geometry": {"type": "Point", "coordinates": [-89.8901848549, 44.315480916]}, "type": "Feature", "properties": {"collection_times": [{"days": "Mon-Sat", "time": "10:00am"}, {"days": "Sun", "time": "Closed"}], "id": "5445700002", "name": "USPS COLLECTION BOX - BLUE BOX", "address": {"city": "NEKOOSA", "state": "WI", "street": "210 MARKET ST", "postcode": "54457"}}},
{"geometry": {"type": "Point", "coordinates": [-89.8083213684, 44.2121285824]}, "type": "Feature", "properties": {"collection_times": [{"days": "Mon-Sat", "time": "1:00pm"}, {"days": "Sun", "time": "Closed"}], "id": "5445700003", "name": "USPS COLLECTION BOX - BLUE BOX", "address": {"city": "NEKOOSA", "state": "WI", "street": "251 STATE RD 13", "postcode": "54457"}}},
{"geometry": {"type": "Point", "coordinates": [-89.9043490493, 44.3152138544]}, "type": "Feature", "properties": {"collection_times": [{"days": "Mon-Fri", "time": "5:00pm"}, {"days": "Sat", "time": "11:00am"}, {"days": "Sun", "time": "Closed"}], "id": "5445700004", "name": "USPS COLLECTION BOX - PO LOBBY", "address": {"city": "NEKOOSA", "state": "WI", "street": "1001 MARKET ST", "postcode": "54457"}}},
{"geometry": {"type": "Point", "coordinates": [-89.3146086635, 44.4997257332]}, "type": "Feature", "properties": {"collection_times": [{"days": "Mon-Sat", "time": "4:00pm"}, {"days": "Sun", "time": "Closed"}], "id": "5445800000", "name": "USPS COLLECTION BOX - BLUE BOX", "address": {"city": "NELSONVILLE", "state": "WI", "street": "3136 HIGH ST", "postcode": "54458"}}},
{"geometry": {"type": "Point", "coordinates": [-89.3146086635, 44.4997257332]}, "type": "Feature", "properties": {"collection_times": [{"days": "Mon-Fri", "time": "9:45am"}, {"days": "Sat", "time": "9:15am"}, {"days": "Sun", "time": "Closed"}], "id": "5445800001", "name": "USPS COLLECTION BOX - PO LOBBY", "address": {"city": "NELSONVILLE", "state": "WI", "street": "3136 HIGH ST", "postcode": "54458"}}},
{"geometry": {"type": "Point", "coordinates": [-90.2959385217, 45.4436332448]}, "type": "Feature", "properties": {"collection_times": [{"days": "Mon-Sat", "time": "4:00pm"}, {"days": "Sun", "time": "Closed"}], "id": "5445900000", "name": "USPS COLLECTION BOX - BLUE BOX", "address": {"city": "OGEMA", "state": "WI", "street": "W4997 STATE RD 86", "postcode": "54459"}}},
{"geometry": {"type": "Point", "coordinates": [-90.2959385217, 45.4436332448]}, "type": "Feature", "properties": {"collection_times": [{"days": "Mon-Fri", "time": "11:15am"}, {"days": "Sat", "time": "10:00am"}, {"days": "Sun", "time": "Closed"}], "id": "5445900001", "name": "USPS COLLECTION BOX - PO LOBBY", "address": {"city": "OGEMA", "state": "WI", "street": "W4997 STATE RD 86", "postcode": "54459"}}},
{"geometry": {"type": "Point", "coordinates": [-90.5460867854, 44.969095184]}, "type": "Feature", "properties": {"collection_times": [{"days": "Mon-Fri", "time": "3:45pm"}, {"days": "Sat", "time": "9:00am"}, {"days": "Sun", "time": "Closed"}], "id": "5446000000", "name": "USPS COLLECTION BOX - BLUE BOX", "address": {"city": "OWEN", "state": "WI", "street": "320 N CENTRAL AVE", "postcode": "54460"}}},
{"geometry": {"type": "Point", "coordinates": [-90.5460867854, 44.969095184]}, "type": "Feature", "properties": {"collection_times": [{"days": "Mon-Fri", "time": "3:45pm"}, {"days": "Sat", "time": "9:00am"}, {"days": "Sun", "time": "Closed"}], "id": "5446000002", "name": "USPS COLLECTION BOX - PO LOBBY", "address": {"city": "OWEN", "state": "WI", "street": "320 N CENTRAL AVE", "postcode": "54460"}}},
{"geometry": {"type": "Point", "coordinates": [-89.1679799973, 45.4973816193]}, "type": "Feature", "properties": {"collection_times": [{"days": "Mon-Fri", "time": "3:45pm"}, {"days": "Sat", "time": "10:15am"}, {"days": "Sun", "time": "Closed"}], "id": "5446300000", "name": "USPS COLLECTION BOX - BLUE BOX", "address": {"city": "PELICAN LAKE", "state": "WI", "street": "737 US HIGHWAY 45", "postcode": "54463"}}},
{"geometry": {"type": "Point", "coordinates": [-89.1679799973, 45.4973816193]}, "type": "Feature", "properties": {"collection_times": [{"days": "Mon-Fri", "time": "11:15am"}, {"days": "Sat", "time": "10:00am"}, {"days": "Sun", "time": "Closed"}], "id": "5446300001", "name": "USPS COLLECTION BOX - PO LOBBY", "address": {"city": "PELICAN LAKE", "state": "WI", "street": "737 US HIGHWAY 45", "postcode": "54463"}}},
{"geometry": {"type": "Point", "coordinates": [-88.9214069689, 45.3653352875]}, "type": "Feature", "properties": {"collection_times": [{"days": "Mon-Fri", "time": "3:30pm"}, {"days": "Sat", "time": "10:30am"}, {"days": "Sun", "time": "Closed"}], "id": "5446500000", "name": "USPS COLLECTION BOX - BLUE BOX", "address": {"city": "PICKEREL", "state": "WI", "street": "N9238 STATE HIGHWAY 55", "postcode": "54465"}}},
{"geometry": {"type": "Point", "coordinates": [-88.9214069689, 45.3653352875]}, "type": "Feature", "properties": {"collection_times": [{"days": "Mon-Fri", "time": "12:15pm"}, {"days": "Sat", "time": "10:15am"}, {"days": "Sun", "time": "Closed"}], "id": "5446500002", "name": "USPS COLLECTION BOX - PO LOBBY", "address": {"city": "PICKEREL", "state": "WI", "street": "N9238 STATE HIGHWAY 55", "postcode": "54465"}}},
{"geometry": {"type": "Point", "coordinates": [-88.9091070553, 45.3771685526]}, "type": "Feature", "properties": {"collection_times": [{"days": "Mon-Sat", "time": "10:30am"}, {"days": "Sun", "time": "Closed"}], "id": "5446500004", "name": "USPS COLLECTION BOX - BLUE BOX", "address": {"city": "PICKEREL", "state": "WI", "street": "N9184 STATE HIGHWAY 55", "postcode": "54465"}}},
{"geometry": {"type": "Point", "coordinates": [-90.1254679301, 44.4389828797]}, "type": "Feature", "properties": {"collection_times": [{"days": "Mon-Fri", "time": "3:45pm"}, {"days": "Sat", "time": "10:45am"}, {"days": "Sun", "time": "Closed"}], "id": "5446600000", "name": "USPS COLLECTION BOX - BLUE BOX", "address": {"city": "PITTSVILLE", "state": "WI", "street": "8250 MAIN ST", "postcode": "54466"}}},
{"geometry": {"type": "Point", "coordinates": [-90.1254679301, 44.4389828797]}, "type": "Feature", "properties": {"collection_times": [{"days": "Mon-Fri", "time": "3:45pm"}, {"days": "Sat", "time": "10:30am"}, {"days": "Sun", "time": "Closed"}], "id": "5446600002", "name": "USPS COLLECTION BOX - PO LOBBY", "address": {"city": "PITTSVILLE", "state": "WI", "street": "8250 MAIN ST", "postcode": "54466"}}},
{"geometry": {"type": "Point", "coordinates": [-89.5436210687, 44.4580507237]}, "type": "Feature", "properties": {"collection_times": [{"days": "Mon-Fri", "time": "5:00pm"}, {"days": "Sat", "time": "3:00pm"}, {"days": "Sun", "time": "Closed"}], "id": "5446700001", "name": "USPS COLLECTION BOX - BLUE BOX", "address": {"city": "PLOVER", "state": "WI", "street": "2601 POST RD", "postcode": "54467"}}},
{"geometry": {"type": "Point", "coordinates": [-89.5448993941, 44.4580960818]}, "type": "Feature", "properties": {"collection_times": [{"days": "Mon-Fri", "time": "5:00pm"}, {"days": "Sat", "time": "3:00pm"}, {"days": "Sun", "time": "Closed"}], "id": "5446700005", "name": "USPS COLLECTION BOX - BLUE BOX", "address": {"city": "PLOVER", "state": "WI", "street": "2801 CHESTNUT DR", "postcode": "54467"}}},
{"geometry": {"type": "Point", "coordinates": [-89.5448993941, 44.4580960818]}, "type": "Feature", "properties": {"collection_times": [{"days": "Mon-Fri", "time": "5:00pm"}, {"days": "Sat", "time": "3:00pm"}, {"days": "Sun", "time": "Closed"}], "id": "5446700006", "name": "USPS COLLECTION BOX - BLUE BOX", "address": {"city": "PLOVER", "state": "WI", "street": "2801 CHESTNUT DR", "postcode": "54467"}}},
{"geometry": {"type": "Point", "coordinates": [-89.5436210687, 44.4580507237]}, "type": "Feature", "properties": {"collection_times": [{"days": "Mon-Fri", "time": "5:00pm"}, {"days": "Sat", "time": "3:00pm"}, {"days": "Sun", "time": "Closed"}], "id": "5446700009", "name": "USPS COLLECTION BOX - PO LOBBY", "address": {"city": "PLOVER", "state": "WI", "street": "2601 POST RD", "postcode": "54467"}}},
{"geometry": {"type": "Point", "coordinates": [-89.5257856723, 44.4540388625]}, "type": "Feature", "properties": {"collection_times": [{"days": "Mon-Sat", "time": "11:00am"}, {"days": "Sun", "time": "Closed"}], "id": "5446700010", "name": "USPS COLLECTION BOX - BLUE BOX", "address": {"city": "PLOVER", "state": "WI", "street": "1850 PLOVER RD", "postcode": "54467"}}},
{"geometry": {"type": "Point", "coordinates": [-89.8596636012, 44.342943633]}, "type": "Feature", "properties": {"collection_times": [{"days": "Mon-Fri", "time": "4:15pm"}, {"days": "Sat", "time": "10:00am"}, {"days": "Sun", "time": "Closed"}], "id": "5446900000", "name": "USPS COLLECTION BOX - BLUE BOX", "address": {"city": "PORT EDWARDS", "state": "WI", "street": "160 MARKET AVE", "postcode": "54469"}}},
{"geometry": {"type": "Point", "coordinates": [-89.8576542596, 44.3429268091]}, "type": "Feature", "properties": {"collection_times": [{"days": "Mon-Fri", "time": "1:00pm"}, {"days": "Sat", "time": "9:00am"}, {"days": "Sun", "time": "Closed"}], "id": "5446900002", "name": "USPS COLLECTION BOX - PO LOBBY", "address": {"city": "PORT EDWARDS", "state": "WI", "street": "16O MARKET AVE", "postcode": "54469"}}},
{"geometry": {"type": "Point", "coordinates": [-89.8596636012, 44.342943633]}, "type": "Feature", "properties": {"collection_times": [{"days": "Mon-Fri", "time": "1:00pm"}, {"days": "Sat", "time": "9:00am"}, {"days": "Sun", "time": "Closed"}], "id": "5446900003", "name": "USPS COLLECTION BOX - PO LOBBY", "address": {"city": "PORT EDWARDS", "state": "WI", "street": "160 MARKET AVE", "postcode": "54469"}}},
{"geometry": {"type": "Point", "coordinates": [-90.2042696044, 45.3182611319]}, "type": "Feature", "properties": {"collection_times": [{"days": "Mon-Sat", "time": "4:00pm"}, {"days": "Sun", "time": "Closed"}], "id": "5447000000", "name": "USPS COLLECTION BOX - BLUE BOX", "address": {"city": "RIB LAKE", "state": "WI", "street": "705 MCCOMB AVE", "postcode": "54470"}}},
{"geometry": {"type": "Point", "coordinates": [-90.2042696044, 45.3182611319]}, "type": "Feature", "properties": {"collection_times": [{"days": "Mon-Fri", "time": "3:15pm"}, {"days": "Sat", "time": "10:45am"}, {"days": "Sun", "time": "Closed"}], "id": "5447000001", "name": "USPS COLLECTION BOX - PO LOBBY", "address": {"city": "RIB LAKE", "state": "WI", "street": "705 MCCOMB AVE", "postcode": "54470"}}},
{"geometry": {"type": "Point", "coordinates": [-89.4270583887, 44.8909330866]}, "type": "Feature", "properties": {"collection_times": [{"days": "Mon-Sat", "time": "3:45pm"}, {"days": "Sun", "time": "Closed"}], "id": "5447100000", "name": "USPS COLLECTION BOX - BLUE BOX", "address": {"city": "RINGLE", "state": "WI", "street": "R15405 2ND AVE", "postcode": "54471"}}},
{"geometry": {"type": "Point", "coordinates": [-89.4270583887, 44.8909330866]}, "type": "Feature", "properties": {"collection_times": [{"days": "Mon-Fri", "time": "11:30am"}, {"days": "Sat", "time": "9:30am"}, {"days": "Sun", "time": "Closed"}], "id": "5447100001", "name": "USPS COLLECTION BOX - PO LOBBY", "address": {"city": "RINGLE", "state": "WI", "street": "R15405 2ND AVE", "postcode": "54471"}}},
{"geometry": {"type": "Point", "coordinates": [-89.308788062, 44.628052881]}, "type": "Feature", "properties": {"collection_times": [{"days": "Mon-Fri", "time": "4:00pm"}, {"days": "Sat", "time": "10:00am"}, {"days": "Sun", "time": "Closed"}], "id": "5447300000", "name": "USPS COLLECTION BOX - BLUE BOX", "address": {"city": "ROSHOLT", "state": "WI", "street": "108 N MAIN ST", "postcode": "54473"}}},
{"geometry": {"type": "Point", "coordinates": [-89.308788062, 44.628052881]}, "type": "Feature", "properties": {"collection_times": [{"days": "Mon-Fri", "time": "3:00pm"}, {"days": "Sat", "time": "9:15am"}, {"days": "Sun", "time": "Closed"}], "id": "5447300001", "name": "USPS COLLECTION BOX - PO LOBBY", "address": {"city": "ROSHOLT", "state": "WI", "street": "108 N MAIN ST", "postcode": "54473"}}},
{"geometry": {"type": "Point", "coordinates": [-89.6113052221, 44.898666579]}, "type": "Feature", "properties": {"collection_times": [{"days": "Mon-Sat", "time": "2:00pm"}, {"days": "Sun", "time": "Closed"}], "id": "5447400002", "name": "USPS COLLECTION BOX - BLUE BOX", "address": {"city": "ROTHSCHILD", "state": "WI", "street": "1105 E GRAND AVE", "postcode": "54474"}}},
{"geometry": {"type": "Point", "coordinates": [-89.6222871109, 44.8902431609]}, "type": "Feature", "properties": {"collection_times": [{"days": "Mon-Fri", "time": "5:00pm"}, {"days": "Sat", "time": "10:30am"}, {"days": "Sun", "time": "Closed"}], "id": "5447400003", "name": "USPS COLLECTION BOX - BLUE BOX", "address": {"city": "ROTHSCHILD", "state": "WI", "street": "29 BROWN BLVD", "postcode": "54474"}}},
{"geometry": {"type": "Point", "coordinates": [-89.6222871109, 44.8902431609]}, "type": "Feature", "properties": {"collection_times": [{"days": "Mon-Fri", "time": "5:00pm"}, {"days": "Sat", "time": "10:30am"}, {"days": "Sun", "time": "Closed"}], "id": "5447400004", "name": "USPS COLLECTION BOX - PO LOBBY", "address": {"city": "ROTHSCHILD", "state": "WI", "street": "29 BROWN BLVD", "postcode": "54474"}}},
{"geometry": {"type": "Point", "coordinates": [-89.6363358808, 44.8651502891]}, "type": "Feature", "properties": {"collection_times": [{"days": "Mon-Sat", "time": "9:00am"}, {"days": "Sun", "time": "Closed"}], "id": "5447400005", "name": "USPS COLLECTION BOX - BLUE BOX", "address": {"city": "ROTHSCHILD", "state": "WI", "street": "10101 MARKET ST", "postcode": "54474"}}},
{"geometry": {"type": "Point", "coordinates": [-89.8017547054, 44.4961339183]}, "type": "Feature", "properties": {"collection_times": [{"days": "Mon-Fri", "time": "4:15pm"}, {"days": "Sat", "time": "10:15am"}, {"days": "Sun", "time": "Closed"}], "id": "5447500000", "name": "USPS COLLECTION BOX - BLUE BOX", "address": {"city": "RUDOLPH", "state": "WI", "street": "1570 MAIN ST", "postcode": "54475"}}},
{"geometry": {"type": "Point", "coordinates": [-89.8017547054, 44.4961339183]}, "type": "Feature", "properties": {"collection_times": [{"days": "Mon-Fri", "time": "4:15pm"}, {"days": "Sat", "time": "10:15am"}, {"days": "Sun", "time": "Closed"}], "id": "5447500001", "name": "USPS COLLECTION BOX - PO LOBBY", "address": {"city": "RUDOLPH", "state": "WI", "street": "1570 MAIN ST", "postcode": "54475"}}},
{"geometry": {"type": "Point", "coordinates": [-89.6027298335, 44.9078259711]}, "type": "Feature", "properties": {"collection_times": [{"days": "Mon-Fri", "time": "5:00pm"}, {"days": "Sat", "time": "3:45pm"}, {"days": "Sun", "time": "Closed"}], "id": "5447600000", "name": "USPS COLLECTION BOX - BLUE BOX", "address": {"city": "SCHOFIELD", "state": "WI", "street": "5404 NORMANDY ST", "postcode": "54476"}}},
{"geometry": {"type": "Point", "coordinates": [-89.6027298335, 44.9078259711]}, "type": "Feature", "properties": {"collection_times": [{"days": "Mon-Fri", "time": "5:00pm"}, {"days": "Sat", "time": "3:45pm"}, {"days": "Sun", "time": "Closed"}], "id": "5447600001", "name": "USPS COLLECTION BOX - BLUE BOX", "address": {"city": "SCHOFIELD", "state": "WI", "street": "5404 NORMANDY ST", "postcode": "54476"}}},
{"geometry": {"type": "Point", "coordinates": [-89.5908605409, 44.9080414267]}, "type": "Feature", "properties": {"collection_times": [{"days": "Mon-Sat", "time": "2:00pm"}, {"days": "Sun", "time": "Closed"}], "id": "5447600007", "name": "USPS COLLECTION BOX - BLUE BOX", "address": {"city": "SCHOFIELD", "state": "WI", "street": "2700 SCHOFIELD AVE", "postcode": "54476"}}},
{"geometry": {"type": "Point", "coordinates": [-89.6027298335, 44.9078259711]}, "type": "Feature", "properties": {"collection_times": [{"days": "Mon-Fri", "time": "5:00pm"}, {"days": "Sat", "time": "3:45pm"}, {"days": "Sun", "time": "Closed"}], "id": "5447600011", "name": "USPS COLLECTION BOX - PO LOBBY", "address": {"city": "SCHOFIELD", "state": "WI", "street": "5404 NORMANDY ST", "postcode": "54476"}}},
{"geometry": {"type": "Point", "coordinates": [-90.2996486443, 44.7564927133]}, "type": "Feature", "properties": {"collection_times": [{"days": "Mon-Fri", "time": "4:00pm"}, {"days": "Sat", "time": "10:30am"}, {"days": "Sun", "time": "Closed"}], "id": "5447900000", "name": "USPS COLLECTION BOX - BLUE BOX", "address": {"city": "SPENCER", "state": "WI", "street": "102 W DEARBORN ST", "postcode": "54479"}}},
{"geometry": {"type": "Point", "coordinates": [-90.2996486443, 44.7564927133]}, "type": "Feature", "properties": {"collection_times": [{"days": "Mon-Fri", "time": "4:00pm"}, {"days": "Sat", "time": "10:30am"}, {"days": "Sun", "time": "Closed"}], "id": "5447900002", "name": "USPS COLLECTION BOX - PO LOBBY", "address": {"city": "SPENCER", "state": "WI", "street": "102 W DEARBORN ST", "postcode": "54479"}}},
{"geometry": {"type": "Point", "coordinates": [-90.2996486443, 44.7564927133]}, "type": "Feature", "properties": {"collection_times": [{"days": "Mon-Fri", "time": "4:00pm"}, {"days": "Sat", "time": "10:30am"}, {"days": "Sun", "time": "Closed"}], "id": "5447900003", "name": "USPS COLLECTION BOX - PO LOBBY", "address": {"city": "SPENCER", "state": "WI", "street": "102 W DEARBORN ST", "postcode": "54479"}}},
{"geometry": {"type": "Point", "coordinates": [-90.3146867072, 45.0767674365]}, "type": "Feature", "properties": {"collection_times": [{"days": "Mon-Sat", "time": "4:00pm"}, {"days": "Sun", "time": "Closed"}], "id": "5448000000", "name": "USPS COLLECTION BOX - BLUE BOX", "address": {"city": "STETSONVILLE", "state": "WI", "street": "106 S STATE HIGHWAY 13", "postcode": "54480"}}},
{"geometry": {"type": "Point", "coordinates": [-90.3146867072, 45.0767674365]}, "type": "Feature", "properties": {"collection_times": [{"days": "Mon-Fri", "time": "12:15pm"}, {"days": "Sat", "time": "9:45am"}, {"days": "Sun", "time": "Closed"}], "id": "5448000001", "name": "USPS COLLECTION BOX - PO LOBBY", "address": {"city": "STETSONVILLE", "state": "WI", "street": "106 S STATE HIGHWAY 13", "postcode": "54480"}}},
{"geometry": {"type": "Point", "coordinates": [-89.5802139305, 44.5209253957]}, "type": "Feature", "properties": {"collection_times": [{"days": "Mon-Fri", "time": "2:00pm"}, {"days": "Sat", "time": "11:00am"}, {"days": "Sun", "time": "Closed"}], "id": "5448100000", "name": "USPS COLLECTION BOX - BLUE BOX", "address": {"city": "STEVENS POINT", "state": "WI", "street": "5417 VERN HOLMES DR", "postcode": "54481"}}},
{"geometry": {"type": "Point", "coordinates": [-89.5662496872, 44.5277419665]}, "type": "Feature", "properties": {"collection_times": [{"days": "Mon-Fri", "time": "2:00pm"}, {"days": "Sat", "time": "1:00pm"}, {"days": "Sun", "time": "Closed"}], "id": "5448100005", "name": "USPS COLLECTION BOX - BLUE BOX", "address": {"city": "STEVENS POINT", "state": "WI", "street": "824 ILLINOIS AVE", "postcode": "54481"}}},
{"geometry": {"type": "Point", "coordinates": [-89.5752802566, 44.535566903]}, "type": "Feature", "properties": {"collection_times": [{"days": "Mon-Fri", "time": "11:00am"}, {"days": "Sat", "time": "10:00am"}, {"days": "Sun", "time": "Closed"}], "id": "5448100007", "name": "USPS COLLECTION BOX - BLUE BOX", "address": {"city": "STEVENS POINT", "state": "WI", "street": "1600 ACADEMY AVE", "postcode": "54481"}}},
{"geometry": {"type": "Point", "coordinates": [-89.5847283477, 44.5234185588]}, "type": "Feature", "properties": {"collection_times": [{"days": "Mon-Fri", "time": "3:00pm"}, {"days": "Sat", "time": "9:30am"}, {"days": "Sun", "time": "Closed"}], "id": "5448100010", "name": "USPS COLLECTION BOX - BLUE BOX", "address": {"city": "STEVENS POINT", "state": "WI", "street": "937 MAIN ST", "postcode": "54481"}}},
{"geometry": {"type": "Point", "coordinates": [-89.5843584424, 44.5224634375]}, "type": "Feature", "properties": {"collection_times": [{"days": "Mon-Fri", "time": "3:00pm"}, {"days": "Sat", "time": "2:00pm"}, {"days": "Sun", "time": "Closed"}], "id": "5448100011", "name": "USPS COLLECTION BOX - BLUE BOX", "address": {"city": "STEVENS POINT", "state": "WI", "street": "1025 CLARK ST", "postcode": "54481"}}},
{"geometry": {"type": "Point", "coordinates": [-89.5919996372, 44.5207670879]}, "type": "Feature", "properties": {"collection_times": [{"days": "Mon-Sat", "time": "2:00pm"}, {"days": "Sun", "time": "Closed"}], "id": "5448100025", "name": "USPS COLLECTION BOX - BLUE BOX", "address": {"city": "STEVENS POINT", "state": "WI", "street": "201 W CLARK ST", "postcode": "54481"}}},
{"geometry": {"type": "Point", "coordinates": [-89.4751573538, 44.5225003644]}, "type": "Feature", "properties": {"collection_times": [{"days": "Mon-Sat", "time": "2:00pm"}, {"days": "Sun", "time": "Closed"}], "id": "5448100029", "name": "USPS COLLECTION BOX - BLUE BOX", "address": {"city": "STEVENS POINT", "state": "WI", "street": "1500 PINECREST AVE", "postcode": "54481"}}},
{"geometry": {"type": "Point", "coordinates": [-89.5799344719, 44.5234862504]}, "type": "Feature", "properties": {"collection_times": [{"days": "Mon-Fri", "time": "5:15pm"}, {"days": "Sat", "time": "4:30pm"}, {"days": "Sun", "time": "Closed"}], "id": "5448100032", "name": "USPS COLLECTION BOX - BLUE BOX", "address": {"city": "STEVENS POINT", "state": "WI", "street": "1320 MAIN ST", "postcode": "54481"}}},
{"geometry": {"type": "Point", "coordinates": [-89.5799344719, 44.5234862504]}, "type": "Feature", "properties": {"collection_times": [{"days": "Mon-Fri", "time": "5:15pm"}, {"days": "Sat", "time": "4:30pm"}, {"days": "Sun", "time": "Closed"}], "id": "5448100033", "name": "USPS COLLECTION BOX - BLUE BOX", "address": {"city": "STEVENS POINT", "state": "WI", "street": "1320 MAIN ST", "postcode": "54481"}}},
{"geometry": {"type": "Point", "coordinates": [-89.5799344719, 44.5234862504]}, "type": "Feature", "properties": {"collection_times": [{"days": "Mon-Fri", "time": "5:15pm"}, {"days": "Sat", "time": "4:30pm"}, {"days": "Sun", "time": "Closed"}], "id": "5448100034", "name": "USPS COLLECTION BOX - BLUE BOX", "address": {"city": "STEVENS POINT", "state": "WI", "street": "1320 MAIN ST", "postcode": "54481"}}},
{"geometry": {"type": "Point", "coordinates": [-89.579130166, 44.523466836]}, "type": "Feature", "properties": {"collection_times": [{"days": "Mon-Fri", "time": "5:30pm"}, {"days": "Sat", "time": "4:45pm"}, {"days": "Sun", "time": "Closed"}], "id": "5448100035", "name": "USPS COLLECTION BOX - PO LOBBY", "address": {"city": "STEVENS POINT", "state": "WI", "street": "1320 MAIN ST", "postcode": "54481"}}},
{"geometry": {"type": "Point", "coordinates": [-89.5657205177, 44.5032043567]}, "type": "Feature", "properties": {"collection_times": [{"days": "Mon-Fri", "time": "3:00pm"}, {"days": "Sat", "time": "2:00pm"}, {"days": "Sun", "time": "Closed"}], "id": "5448100036", "name": "USPS COLLECTION BOX - BLUE BOX", "address": {"city": "STEVENS POINT", "state": "WI", "street": "3301 CHURCH ST", "postcode": "54481"}}},
{"geometry": {"type": "Point", "coordinates": [-89.5479543846, 44.5237492436]}, "type": "Feature", "properties": {"collection_times": [{"days": "Mon-Fri", "time": "2:00pm"}, {"days": "Sat", "time": "1:30pm"}, {"days": "Sun", "time": "Closed"}], "id": "5448100038", "name": "USPS COLLECTION BOX - BLUE BOX", "address": {"city": "STEVENS POINT", "state": "WI", "street": "10 PARK RIDGE DR", "postcode": "54481"}}},
{"geometry": {"type": "Point", "coordinates": [-90.0762508719, 44.8031109122]}, "type": "Feature", "properties": {"collection_times": [{"days": "Mon-Sat", "time": "3:45pm"}, {"days": "Sun", "time": "Closed"}], "id": "5448400000", "name": "USPS COLLECTION BOX - BLUE BOX", "address": {"city": "STRATFORD", "state": "WI", "street": "313 N 3RD AVE", "postcode": "54484"}}},
{"geometry": {"type": "Point", "coordinates": [-90.0762508719, 44.8031109122]}, "type": "Feature", "properties": {"collection_times": [{"days": "Mon-Fri", "time": "12:45pm"}, {"days": "Sat", "time": "10:15am"}, {"days": "Sun", "time": "Closed"}], "id": "5448400002", "name": "USPS COLLECTION BOX - PO LOBBY", "address": {"city": "STRATFORD", "state": "WI", "street": "313 N 3RD AVE", "postcode": "54484"}}},
{"geometry": {"type": "Point", "coordinates": [-89.1906384678, 45.3745687496]}, "type": "Feature", "properties": {"collection_times": [{"days": "Mon-Sat", "time": "4:15pm"}, {"days": "Sun", "time": "Closed"}], "id": "5448500000", "name": "USPS COLLECTION BOX - BLUE BOX", "address": {"city": "SUMMIT LAKE", "state": "WI", "street": "N9575 COUNTY ROAD B", "postcode": "54485"}}},
{"geometry": {"type": "Point", "coordinates": [-89.1906384678, 45.3745687496]}, "type": "Feature", "properties": {"collection_times": [{"days": "Mon-Fri", "time": "12:45pm"}, {"days": "Sat", "time": "10:00am"}, {"days": "Sun", "time": "Closed"}], "id": "5448500001", "name": "USPS COLLECTION BOX - PO LOBBY", "address": {"city": "SUMMIT LAKE", "state": "WI", "street": "N9575 COUNTY ROAD B", "postcode": "54485"}}},
{"geometry": {"type": "Point", "coordinates": [-89.0625220839, 44.7421200779]}, "type": "Feature", "properties": {"collection_times": [{"days": "Mon-Fri", "time": "4:00pm"}, {"days": "Sat", "time": "10:00am"}, {"days": "Sun", "time": "Closed"}], "id": "5448600000", "name": "USPS COLLECTION BOX - BLUE BOX", "address": {"city": "TIGERTON", "state": "WI", "street": "233 W ALDER ST", "postcode": "54486"}}},
{"geometry": {"type": "Point", "coordinates": [-89.0621772526, 44.7413697575]}, "type": "Feature", "properties": {"collection_times": [{"days": "Mon-Fri", "time": "3:00pm"}, {"days": "Sat", "time": "9:15am"}, {"days": "Sun", "time": "Closed"}], "id": "5448600001", "name": "USPS COLLECTION BOX - PO LOBBY", "address": {"city": "TIGERTON", "state": "WI", "street": "232 BIRCH ST", "postcode": "54486"}}},
{"geometry": {"type": "Point", "coordinates": [-89.7339075189, 45.4709159322]}, "type": "Feature", "properties": {"collection_times": [{"days": "Mon-Fri", "time": "5:00pm"}, {"days": "Sat", "time": "12:00pm"}, {"days": "Sun", "time": "Closed"}], "id": "5448700000", "name": "USPS COLLECTION BOX - BLUE BOX", "address": {"city": "TOMAHAWK", "state": "WI", "street": "311 W WISCONSIN AVE", "postcode": "54487"}}},
{"geometry": {"type": "Point", "coordinates": [-89.729122217, 45.4790585368]}, "type": "Feature", "properties": {"collection_times": [{"days": "Mon-Sat", "time": "9:15am"}, {"days": "Sun", "time": "Closed"}], "id": "5448700004", "name": "USPS COLLECTION BOX - BLUE BOX", "address": {"city": "TOMAHAWK", "state": "WI", "street": "684 N 4TH ST", "postcode": "54487"}}},
{"geometry": {"type": "Point", "coordinates": [-89.7339075189, 45.4709159322]}, "type": "Feature", "properties": {"collection_times": [{"days": "Mon-Fri", "time": "5:00pm"}, {"days": "Sat", "time": "12:00pm"}, {"days": "Sun", "time": "Closed"}], "id": "5448700010", "name": "USPS COLLECTION BOX - PO LOBBY", "address": {"city": "TOMAHAWK", "state": "WI", "street": "311 W WISCONSIN AVE", "postcode": "54487"}}},
{"geometry": {"type": "Point", "coordinates": [-89.7339075189, 45.4709159322]}, "type": "Feature", "properties": {"collection_times": [{"days": "Mon-Fri", "time": "5:00pm"}, {"days": "Sat", "time": "12:00pm"}, {"days": "Sun", "time": "Closed"}], "id": "5448700011", "name": "USPS COLLECTION BOX - PO LOBBY", "address": {"city": "TOMAHAWK", "state": "WI", "street": "311 W WISCONSIN AVE", "postcode": "54487"}}},
{"geometry": {"type": "Point", "coordinates": [-90.315922717, 44.8512829209]}, "type": "Feature", "properties": {"collection_times": [{"days": "Mon-Sat", "time": "4:00pm"}, {"days": "Sun", "time": "Closed"}], "id": "5448800000", "name": "USPS COLLECTION BOX - BLUE BOX", "address": {"city": "UNITY", "state": "WI", "street": "102 S FRONT ST", "postcode": "54488"}}},
{"geometry": {"type": "Point", "coordinates": [-90.315922717, 44.8512829209]}, "type": "Feature", "properties": {"collection_times": [{"days": "Mon-Fri", "time": "11:15am"}, {"days": "Sat", "time": "8:45am"}, {"days": "Sun", "time": "Closed"}], "id": "5448800001", "name": "USPS COLLECTION BOX - PO LOBBY", "address": {"city": "UNITY", "state": "WI", "street": "102 S FRONT ST", "postcode": "54488"}}},
{"geometry": {"type": "Point", "coordinates": [-89.9810038247, 44.4879241448]}, "type": "Feature", "properties": {"collection_times": [{"days": "Mon-Sat", "time": "4:00pm"}, {"days": "Sun", "time": "Closed"}], "id": "5448900000", "name": "USPS COLLECTION BOX - BLUE BOX", "address": {"city": "VESPER", "state": "WI", "street": "6565 CAMERON AVE", "postcode": "54489"}}},
{"geometry": {"type": "Point", "coordinates": [-89.9810038247, 44.4879241448]}, "type": "Feature", "properties": {"collection_times": [{"days": "Mon-Fri", "time": "11:45am"}, {"days": "Sat", "time": "9:15am"}, {"days": "Sun", "time": "Closed"}], "id": "5448900001", "name": "USPS COLLECTION BOX - PO LOBBY", "address": {"city": "VESPER", "state": "WI", "street": "6565 CAMERON AVE", "postcode": "54489"}}},
{"geometry": {"type": "Point", "coordinates": [-90.3884904702, 45.3405807373]}, "type": "Feature", "properties": {"collection_times": [{"days": "Mon-Fri", "time": "4:00pm"}, {"days": "Sat", "time": "10:15am"}, {"days": "Sun", "time": "Closed"}], "id": "5449000000", "name": "USPS COLLECTION BOX - BLUE BOX", "address": {"city": "WESTBORO", "state": "WI", "street": "N8875 BUS HIGHWAY 13", "postcode": "54490"}}},
{"geometry": {"type": "Point", "coordinates": [-90.3884904702, 45.3405807373]}, "type": "Feature", "properties": {"collection_times": [{"days": "Mon-Fri", "time": "4:00pm"}, {"days": "Sat", "time": "10:15am"}, {"days": "Sun", "time": "Closed"}], "id": "5449000001", "name": "USPS COLLECTION BOX - PO LOBBY", "address": {"city": "WESTBORO", "state": "WI", "street": "N8875 BUS HIGHWAY 13", "postcode": "54490"}}},
{"geometry": {"type": "Point", "coordinates": [-88.7654881296, 45.1568537274]}, "type": "Feature", "properties": {"collection_times": [{"days": "Mon-Fri", "time": "4:00pm"}, {"days": "Sat", "time": "11:00am"}, {"days": "Sun", "time": "Closed"}], "id": "5449100000", "name": "USPS COLLECTION BOX - BLUE BOX", "address": {"city": "WHITE LAKE", "state": "WI", "street": "621 SCHOOL ST", "postcode": "54491"}}},
{"geometry": {"type": "Point", "coordinates": [-88.7654881296, 45.1568537274]}, "type": "Feature", "properties": {"collection_times": [{"days": "Mon-Fri", "time": "4:00pm"}, {"days": "Sat", "time": "10:00am"}, {"days": "Sun", "time": "Closed"}], "id": "5449100002", "name": "USPS COLLECTION BOX - PO LOBBY", "address": {"city": "WHITE LAKE", "state": "WI", "street": "621 SCHOOL ST", "postcode": "54491"}}},
{"geometry": {"type": "Point", "coordinates": [-88.77288359, 45.1758429451]}, "type": "Feature", "properties": {"collection_times": [{"days": "Mon-Sat", "time": "1:30pm"}, {"days": "Sun", "time": "Closed"}], "id": "5449100003", "name": "USPS COLLECTION BOX - BLUE BOX", "address": {"city": "WHITE LAKE", "state": "WI", "street": "W2671 STATE HIGHWAY 64", "postcode": "54491"}}},
{"geometry": {"type": "Point", "coordinates": [-90.7212574928, 44.7342226126]}, "type": "Feature", "properties": {"collection_times": [{"days": "Mon-Sat", "time": "3:45pm"}, {"days": "Sun", "time": "Closed"}], "id": "5449300000", "name": "USPS COLLECTION BOX - BLUE BOX", "address": {"city": "WILLARD", "state": "WI", "street": "W8120 MAIN ST", "postcode": "54493"}}},
{"geometry": {"type": "Point", "coordinates": [-90.7212574928, 44.7342226126]}, "type": "Feature", "properties": {"collection_times": [{"days": "Mon-Fri", "time": "11:45am"}, {"days": "Sat", "time": "9:30am"}, {"days": "Sun", "time": "Closed"}], "id": "5449300001", "name": "USPS COLLECTION BOX - PO LOBBY", "address": {"city": "WILLARD", "state": "WI", "street": "W8120 MAIN ST", "postcode": "54493"}}},
{"geometry": {"type": "Point", "coordinates": [-89.8200695454, 44.3882239333]}, "type": "Feature", "properties": {"collection_times": [{"days": "Mon-Fri", "time": "2:45pm"}, {"days": "Sat", "time": "2:00pm"}, {"days": "Sun", "time": "Closed"}], "id": "5449400002", "name": "USPS COLLECTION BOX - BLUE BOX", "address": {"city": "WISC RAPIDS", "state": "WI", "street": "555 W GRAND AVE", "postcode": "54494"}}},
{"geometry": {"type": "Point", "coordinates": [-89.7284605303, 44.3421368568]}, "type": "Feature", "properties": {"collection_times": [{"days": "Mon-Sat", "time": "2:00pm"}, {"days": "Sun", "time": "Closed"}], "id": "5449400003", "name": "USPS COLLECTION BOX - BLUE BOX", "address": {"city": "WISC RAPIDS", "state": "WI", "street": "1110 ALTON ST", "postcode": "54494"}}},
{"geometry": {"type": "Point", "coordinates": [-89.803512112, 44.3940103758]}, "type": "Feature", "properties": {"collection_times": [{"days": "Mon-Sat", "time": "11:30am"}, {"days": "Sun", "time": "Closed"}], "id": "5449400007", "name": "USPS COLLECTION BOX - BLUE BOX", "address": {"city": "WISC RAPIDS", "state": "WI", "street": "1811 BAKER DR", "postcode": "54494"}}},
{"geometry": {"type": "Point", "coordinates": [-89.8155546423, 44.3799183962]}, "type": "Feature", "properties": {"collection_times": [{"days": "Mon-Sat", "time": "11:45am"}, {"days": "Sun", "time": "Closed"}], "id": "5449400008", "name": "USPS COLLECTION BOX - BLUE BOX", "address": {"city": "WISC RAPIDS", "state": "WI", "street": "1000 E RIVERVIEW EXPY", "postcode": "54494"}}},
{"geometry": {"type": "Point", "coordinates": [-89.8167147899, 44.3657696271]}, "type": "Feature", "properties": {"collection_times": [{"days": "Mon-Fri", "time": "3:00pm"}, {"days": "Sat", "time": "12:00pm"}, {"days": "Sun", "time": "Closed"}], "id": "5449400011", "name": "USPS COLLECTION BOX - BLUE BOX", "address": {"city": "WISC RAPIDS", "state": "WI", "street": "3215 8TH ST S", "postcode": "54494"}}},
{"geometry": {"type": "Point", "coordinates": [-89.8240633552, 44.3896212292]}, "type": "Feature", "properties": {"collection_times": [{"days": "Mon-Fri", "time": "5:45pm"}, {"days": "Sat", "time": "4:00pm"}, {"days": "Sun", "time": "Closed"}], "id": "5449400014", "name": "USPS COLLECTION BOX - BLUE BOX", "address": {"city": "WISC RAPIDS", "state": "WI", "street": "200 4TH ST S", "postcode": "54494"}}},
{"geometry": {"type": "Point", "coordinates": [-89.8240633552, 44.3896212292]}, "type": "Feature", "properties": {"collection_times": [{"days": "Mon-Fri", "time": "5:45pm"}, {"days": "Sat", "time": "4:00pm"}, {"days": "Sun", "time": "Closed"}], "id": "5449400017", "name": "USPS COLLECTION BOX - BLUE BOX", "address": {"city": "WISC RAPIDS", "state": "WI", "street": "200 4TH ST S", "postcode": "54494"}}},
{"geometry": {"type": "Point", "coordinates": [-89.8243634773, 44.3901976306]}, "type": "Feature", "properties": {"collection_times": [{"days": "Mon-Fri", "time": "5:45pm"}, {"days": "Sat", "time": "4:00pm"}, {"days": "Sun", "time": "Closed"}], "id": "5449400019", "name": "USPS COLLECTION BOX - PO LOBBY", "address": {"city": "WISC RAPIDS", "state": "WI", "street": "320 E GRAND AVE", "postcode": "54494"}}},
{"geometry": {"type": "Point", "coordinates": [-89.8243634773, 44.3901976306]}, "type": "Feature", "properties": {"collection_times": [{"days": "Mon-Fri", "time": "5:45pm"}, {"days": "Sat", "time": "4:00pm"}, {"days": "Sun", "time": "Closed"}], "id": "5449400022", "name": "USPS COLLECTION BOX - PO LOBBY", "address": {"city": "WISC RAPIDS", "state": "WI", "street": "320 E GRAND AVE", "postcode": "54494"}}},
{"geometry": {"type": "Point", "coordinates": [-89.7284605303, 44.3421368568]}, "type": "Feature", "properties": {"collection_times": [{"days": "Mon-Sat", "time": "11:00am"}, {"days": "Sun", "time": "Closed"}], "id": "5449400025", "name": "USPS COLLECTION BOX - BLUE BOX", "address": {"city": "WISC RAPIDS", "state": "WI", "street": "1740 17TH AVE S", "postcode": "54494"}}},
{"geometry": {"type": "Point", "coordinates": [-89.8167866141, 44.3690151729]}, "type": "Feature", "properties": {"collection_times": [{"days": "Mon-Fri", "time": "3:00pm"}, {"days": "Sat", "time": "11:00am"}, {"days": "Sun", "time": "Closed"}], "id": "5449400027", "name": "USPS COLLECTION BOX - BLUE BOX", "address": {"city": "WISC RAPIDS", "state": "WI", "street": "2821 8TH ST S", "postcode": "54494"}}},
{"geometry": {"type": "Point", "coordinates": [-90.5978924158, 44.9576799271]}, "type": "Feature", "properties": {"collection_times": [{"days": "Mon-Fri", "time": "3:45pm"}, {"days": "Sat", "time": "10:00am"}, {"days": "Sun", "time": "Closed"}], "id": "5449800000", "name": "USPS COLLECTION BOX - BLUE BOX", "address": {"city": "WITHEE", "state": "WI", "street": "505 DIVISION ST", "postcode": "54498"}}},
{"geometry": {"type": "Point", "coordinates": [-90.5978924158, 44.9576799271]}, "type": "Feature", "properties": {"collection_times": [{"days": "Mon-Fri", "time": "3:45pm"}, {"days": "Sat", "time": "10:00am"}, {"days": "Sun", "time": "Closed"}], "id": "5449800002", "name": "USPS COLLECTION BOX - PO LOBBY", "address": {"city": "WITHEE", "state": "WI", "street": "505 DIVISION ST", "postcode": "54498"}}},
{"geometry": {"type": "Point", "coordinates": [-89.1683628561, 44.8237294825]}, "type": "Feature", "properties": {"collection_times": [{"days": "Mon-Fri", "time": "4:00pm"}, {"days": "Sat", "time": "10:30am"}, {"days": "Sun", "time": "Closed"}], "id": "5449900002", "name": "USPS COLLECTION BOX - PO LOBBY", "address": {"city": "WITTENBERG", "state": "WI", "street": "101 W VINAL ST", "postcode": "54499"}}},
{"geometry": {"type": "Point", "coordinates": [-89.1683628561, 44.8237294825]}, "type": "Feature", "properties": {"collection_times": [{"days": "Mon-Fri", "time": "4:00pm"}, {"days": "Sat", "time": "10:30am"}, {"days": "Sun", "time": "Closed"}], "id": "5449900003", "name": "USPS COLLECTION BOX - BLUE BOX", "address": {"city": "WITTENBERG", "state": "WI", "street": "101 W VINAL ST", "postcode": "54499"}}}
]}
