{"type": "FeatureCollection", "features": [
{"geometry": {"type": "Point", "coordinates": [-89.3817110682, 45.6333007855]}, "type": "Feature", "properties": {"collection_times": [{"days": "Mon-Sat", "time": "9:00am"}, {"days": "Sun", "time": "Closed"}], "id": "5450100001", "name": "USPS COLLECTION BOX - BLUE BOX", "address": {"city": "RHINELANDER", "state": "WI", "street": "2121 LINCOLN ST", "postcode": "54501"}}},
{"geometry": {"type": "Point", "coordinates": [-89.4128624397, 45.6351272898]}, "type": "Feature", "properties": {"collection_times": [{"days": "Mon-Sat", "time": "5:30pm"}, {"days": "Sun", "time": "Closed"}], "id": "5450100010", "name": "USPS COLLECTION BOX - BLUE BOX", "address": {"city": "RHINELANDER", "state": "WI", "street": "156 S COURTNEY ST", "postcode": "54501"}}},
{"geometry": {"type": "Point", "coordinates": [-89.4114652124, 45.6379112891]}, "type": "Feature", "properties": {"collection_times": [{"days": "Mon-Sat", "time": "3:00pm"}, {"days": "Sun", "time": "Closed"}], "id": "5450100018", "name": "USPS COLLECTION BOX - BLUE BOX", "address": {"city": "RHINELANDER", "state": "WI", "street": "8 W DAVENPORT ST", "postcode": "54501"}}},
{"geometry": {"type": "Point", "coordinates": [-89.412854283, 45.637959527]}, "type": "Feature", "properties": {"collection_times": [{"days": "Mon-Sat", "time": "3:00pm"}, {"days": "Sun", "time": "Closed"}], "id": "5450100020", "name": "USPS COLLECTION BOX - BLUE BOX", "address": {"city": "RHINELANDER", "state": "WI", "street": "7 N BROWN ST", "postcode": "54501"}}},
{"geometry": {"type": "Point", "coordinates": [-89.4085768135, 45.6383399437]}, "type": "Feature", "properties": {"collection_times": [{"days": "Mon-Sat", "time": "3:00pm"}, {"days": "Sun", "time": "Closed"}], "id": "5450100023", "name": "USPS COLLECTION BOX - BLUE BOX", "address": {"city": "RHINELANDER", "state": "WI", "street": "1 S ONEIDA AVE", "postcode": "54501"}}},
{"geometry": {"type": "Point", "coordinates": [-89.4128624397, 45.6351272898]}, "type": "Feature", "properties": {"collection_times": [{"days": "Mon-Sat", "time": "5:30pm"}, {"days": "Sun", "time": "Closed"}], "id": "5450100028", "name": "USPS COLLECTION BOX - PO LOBBY", "address": {"city": "RHINELANDER", "state": "WI", "street": "156 S COURTNEY ST", "postcode": "54501"}}},
{"geometry": {"type": "Point", "coordinates": [-89.4128624397, 45.6351272898]}, "type": "Feature", "properties": {"collection_times": [{"days": "Mon-Sat", "time": "5:30pm"}, {"days": "Sun", "time": "Closed"}], "id": "5450100030", "name": "USPS COLLECTION BOX - APC", "address": {"city": "RHINELANDER", "state": "WI", "street": "156 S COURTNEY ST", "postcode": "54501"}}},
{"geometry": {"type": "Point", "coordinates": [-89.1610055217, 45.575806877]}, "type": "Feature", "properties": {"collection_times": [{"days": "Mon-Sat", "time": "8:30am"}, {"days": "Sun", "time": "Closed"}], "id": "5450100031", "name": "USPS COLLECTION BOX - BLUE BOX", "address": {"city": "RHINELANDER", "state": "WI", "street": "1692 HIGHWAY 8", "postcode": "54501"}}},
{"geometry": {"type": "Point", "coordinates": [-89.7391818064, 44.6448297939]}, "type": "Feature", "properties": {"collection_times": [{"days": "Mon-Fri", "time": "3:15pm"}, {"days": "Sat", "time": "9:00am"}, {"days": "Sun", "time": "Closed"}], "id": "5451100000", "name": "USPS COLLECTION BOX - BLUE BOX", "address": {"city": "ARGONNE", "state": "WI", "street": "7894 STATE HIGHWAY 32 55", "postcode": "54511"}}},
{"geometry": {"type": "Point", "coordinates": [-88.8546905347, 45.7263650709]}, "type": "Feature", "properties": {"collection_times": [{"days": "Mon-Fri", "time": "12:15pm"}, {"days": "Sat", "time": "9:00am"}, {"days": "Sun", "time": "Closed"}], "id": "5451100002", "name": "USPS COLLECTION BOX - PO LOBBY", "address": {"city": "ARGONNE", "state": "WI", "street": "7894 STATE HWY 32 & 55", "postcode": "54511"}}},
{"geometry": {"type": "Point", "coordinates": [-89.6396348093, 46.1115159915]}, "type": "Feature", "properties": {"collection_times": [{"days": "Mon-Fri", "time": "3:30pm"}, {"days": "Sat", "time": "10:30am"}, {"days": "Sun", "time": "Closed"}], "id": "5451200000", "name": "USPS COLLECTION BOX - BLUE BOX", "address": {"city": "BOULDER JCT", "state": "WI", "street": "10328 MAIN ST", "postcode": "54512"}}},
{"geometry": {"type": "Point", "coordinates": [-89.6396348093, 46.1115159915]}, "type": "Feature", "properties": {"collection_times": [{"days": "Mon-Fri", "time": "3:30pm"}, {"days": "Sat", "time": "10:30am"}, {"days": "Sun", "time": "Closed"}], "id": "5451200001", "name": "USPS COLLECTION BOX - PO LOBBY", "address": {"city": "BOULDER JCT", "state": "WI", "street": "10328 MAIN ST", "postcode": "54512"}}},
{"geometry": {"type": "Point", "coordinates": [-90.1055666216, 45.5536867812]}, "type": "Feature", "properties": {"collection_times": [{"days": "Mon-Sat", "time": "3:45pm"}, {"days": "Sun", "time": "Closed"}], "id": "5451300000", "name": "USPS COLLECTION BOX - BLUE BOX", "address": {"city": "BRANTWOOD", "state": "WI", "street": "W1511 US HIGHWAY 8", "postcode": "54513"}}},
{"geometry": {"type": "Point", "coordinates": [-90.1055666216, 45.5536867812]}, "type": "Feature", "properties": {"collection_times": [{"days": "Mon-Fri", "time": "11:45am"}, {"days": "Sat", "time": "9:30am"}, {"days": "Sun", "time": "Closed"}], "id": "5451300001", "name": "USPS COLLECTION BOX - PO LOBBY", "address": {"city": "BRANTWOOD", "state": "WI", "street": "W1511 US HIGHWAY 8", "postcode": "54513"}}},
{"geometry": {"type": "Point", "coordinates": [-90.4913882025, 46.0101677511]}, "type": "Feature", "properties": {"collection_times": [{"days": "Mon-Sat", "time": "4:15pm"}, {"days": "Sun", "time": "Closed"}], "id": "5451400000", "name": "USPS COLLECTION BOX - BLUE BOX", "address": {"city": "BUTTERNUT", "state": "WI", "street": "101 E MAIN ST", "postcode": "54514"}}},
{"geometry": {"type": "Point", "coordinates": [-90.4913882025, 46.0101677511]}, "type": "Feature", "properties": {"collection_times": [{"days": "Mon-Fri", "time": "3:45pm"}, {"days": "Sat", "time": "9:15am"}, {"days": "Sun", "time": "Closed"}], "id": "5451400001", "name": "USPS COLLECTION BOX - PO LOBBY", "address": {"city": "BUTTERNUT", "state": "WI", "street": "101 E MAIN ST", "postcode": "54514"}}},
{"geometry": {"type": "Point", "coordinates": [-90.5292341332, 45.536551042]}, "type": "Feature", "properties": {"collection_times": [{"days": "Mon-Fri", "time": "4:15pm"}, {"days": "Sat", "time": "4:00pm"}, {"days": "Sun", "time": "Closed"}], "id": "5451500000", "name": "USPS COLLECTION BOX - BLUE BOX", "address": {"city": "CATAWBA", "state": "WI", "street": "W9208 US HIGHWAY 8", "postcode": "54515"}}},
{"geometry": {"type": "Point", "coordinates": [-90.5292341332, 45.536551042]}, "type": "Feature", "properties": {"collection_times": [{"days": "Mon-Fri", "time": "4:00pm"}, {"days": "Sat", "time": "11:15am"}, {"days": "Sun", "time": "Closed"}], "id": "5451500001", "name": "USPS COLLECTION BOX - PO LOBBY", "address": {"city": "CATAWBA", "state": "WI", "street": "W9208 US HIGHWAY 8", "postcode": "54515"}}},
{"geometry": {"type": "Point", "coordinates": [-90.9043282633, 46.1643645172]}, "type": "Feature", "properties": {"collection_times": [{"days": "Mon-Sat", "time": "10:45am"}, {"days": "Sun", "time": "Closed"}], "id": "5451700000", "name": "USPS COLLECTION BOX - BLUE BOX", "address": {"city": "CLAM LAKE", "state": "WI", "street": "60967 STATE HIGHWAY 77", "postcode": "54517"}}},
{"geometry": {"type": "Point", "coordinates": [-90.9043282633, 46.1643645172]}, "type": "Feature", "properties": {"collection_times": [{"days": "Mon-Sat", "time": "10:45am"}, {"days": "Sun", "time": "Closed"}], "id": "5451700001", "name": "USPS COLLECTION BOX - PO LOBBY", "address": {"city": "CLAM LAKE", "state": "WI", "street": "60967 STATE HIGHWAY 77", "postcode": "54517"}}},
{"geometry": {"type": "Point", "coordinates": [-89.248767822, 46.0512019709]}, "type": "Feature", "properties": {"collection_times": [{"days": "Mon-Fri", "time": "4:15pm"}, {"days": "Sat", "time": "11:00am"}, {"days": "Sun", "time": "Closed"}], "id": "5451900000", "name": "USPS COLLECTION BOX - BLUE BOX", "address": {"city": "CONOVER", "state": "WI", "street": "4665 COUNTY ROAD K E", "postcode": "54519"}}},
{"geometry": {"type": "Point", "coordinates": [-89.248767822, 46.0512019709]}, "type": "Feature", "properties": {"collection_times": [{"days": "Mon-Fri", "time": "3:45pm"}, {"days": "Sat", "time": "10:45am"}, {"days": "Sun", "time": "Closed"}], "id": "5451900002", "name": "USPS COLLECTION BOX - PO LOBBY", "address": {"city": "CONOVER", "state": "WI", "street": "4665 COUNTY ROAD K E", "postcode": "54519"}}},
{"geometry": {"type": "Point", "coordinates": [-89.248767822, 46.0512019709]}, "type": "Feature", "properties": {"collection_times": [{"days": "Mon-Fri", "time": "3:45pm"}, {"days": "Sat", "time": "10:45am"}, {"days": "Sun", "time": "Closed"}], "id": "5451900003", "name": "USPS COLLECTION BOX - PO LOBBY", "address": {"city": "CONOVER", "state": "WI", "street": "4665 COUNTY ROAD K E", "postcode": "54519"}}},
{"geometry": {"type": "Point", "coordinates": [-88.9033753387, 45.57014375]}, "type": "Feature", "properties": {"collection_times": [{"days": "Mon-Fri", "time": "4:30pm"}, {"days": "Sat", "time": "11:30am"}, {"days": "Sun", "time": "Closed"}], "id": "5452000001", "name": "USPS COLLECTION BOX - BLUE BOX", "address": {"city": "CRANDON", "state": "WI", "street": "111 W WASHINGTON ST", "postcode": "54520"}}},
{"geometry": {"type": "Point", "coordinates": [-88.904280024, 45.570102155]}, "type": "Feature", "properties": {"collection_times": [{"days": "Mon-Fri", "time": "4:30pm"}, {"days": "Sat", "time": "11:30am"}, {"days": "Sun", "time": "Closed"}], "id": "5452000005", "name": "USPS COLLECTION BOX - PO LOBBY", "address": {"city": "CRANDON", "state": "WI", "street": "111 W WASHINGTON ST", "postcode": "54520"}}},
{"geometry": {"type": "Point", "coordinates": [-88.900232405, 45.5647149223]}, "type": "Feature", "properties": {"collection_times": [{"days": "Mon-Sat", "time": "1:00pm"}, {"days": "Sun", "time": "Closed"}], "id": "5452000006", "name": "USPS COLLECTION BOX - BLUE BOX", "address": {"city": "CRANDON", "state": "WI", "street": "600 E PIONEER ST", "postcode": "54520"}}},
{"geometry": {"type": "Point", "coordinates": [-89.2449304796, 45.9152575888]}, "type": "Feature", "properties": {"collection_times": [{"days": "Mon-Sat", "time": "5:00pm"}, {"days": "Sun", "time": "Closed"}], "id": "5452100000", "name": "USPS COLLECTION BOX - BLUE BOX", "address": {"city": "EAGLE RIVER", "state": "WI", "street": "401 E WALL ST", "postcode": "54521"}}},
{"geometry": {"type": "Point", "coordinates": [-89.2449304796, 45.9152575888]}, "type": "Feature", "properties": {"collection_times": [{"days": "Mon-Sat", "time": "5:00pm"}, {"days": "Sun", "time": "Closed"}], "id": "5452100001", "name": "USPS COLLECTION BOX - BLUE BOX", "address": {"city": "EAGLE RIVER", "state": "WI", "street": "401 E WALL ST", "postcode": "54521"}}},
{"geometry": {"type": "Point", "coordinates": [-89.2449304796, 45.9152575888]}, "type": "Feature", "properties": {"collection_times": [{"days": "Mon-Sat", "time": "5:00pm"}, {"days": "Sun", "time": "Closed"}], "id": "5452100002", "name": "USPS COLLECTION BOX - BLUE BOX", "address": {"city": "EAGLE RIVER", "state": "WI", "street": "401 E WALL ST", "postcode": "54521"}}},
{"geometry": {"type": "Point", "coordinates": [-89.2239664492, 45.9054214745]}, "type": "Feature", "properties": {"collection_times": [{"days": "Mon-Sat", "time": "1:00pm"}, {"days": "Sun", "time": "Closed"}], "id": "5452100004", "name": "USPS COLLECTION BOX - BLUE BOX", "address": {"city": "EAGLE RIVER", "state": "WI", "street": "711 US HIGHWAY 45 N", "postcode": "54521"}}},
{"geometry": {"type": "Point", "coordinates": [-89.2449304796, 45.9152575888]}, "type": "Feature", "properties": {"collection_times": [{"days": "Mon-Sat", "time": "5:00pm"}, {"days": "Sun", "time": "Closed"}], "id": "5452100008", "name": "USPS COLLECTION BOX - PO LOBBY", "address": {"city": "EAGLE RIVER", "state": "WI", "street": "401 E WALL ST", "postcode": "54521"}}},
{"geometry": {"type": "Point", "coordinates": [-90.42264217, 45.8733972614]}, "type": "Feature", "properties": {"collection_times": [{"days": "Mon-Fri", "time": "4:30pm"}, {"days": "Sat", "time": "10:00am"}, {"days": "Sun", "time": "Closed"}], "id": "5452400000", "name": "USPS COLLECTION BOX - BLUE BOX", "address": {"city": "FIFIELD", "state": "WI", "street": "N14007 FLAMBEAU AVE", "postcode": "54524"}}},
{"geometry": {"type": "Point", "coordinates": [-90.4214785327, 45.8777070171]}, "type": "Feature", "properties": {"collection_times": [{"days": "Mon-Fri", "time": "1:00pm"}, {"days": "Sat", "time": "10:00am"}, {"days": "Sun", "time": "Closed"}], "id": "5452400001", "name": "USPS COLLECTION BOX - PO LOBBY", "address": {"city": "FIFIELD", "state": "WI", "street": "N14007 FLAMBEAU AVE", "postcode": "54524"}}},
{"geometry": {"type": "Point", "coordinates": [-90.421221574, 45.878459457]}, "type": "Feature", "properties": {"collection_times": [{"days": "Mon-Sat", "time": "10:00am"}, {"days": "Sun", "time": "Closed"}], "id": "5452400002", "name": "USPS COLLECTION BOX - BLUE BOX", "address": {"city": "FIFIELD", "state": "WI", "street": "N14030 FLAMBEAU AVE", "postcode": "54524"}}},
{"geometry": {"type": "Point", "coordinates": [-90.8533940589, 45.5024337243]}, "type": "Feature", "properties": {"collection_times": [{"days": "Mon-Fri", "time": "3:45pm"}, {"days": "Sat", "time": "10:30am"}, {"days": "Sun", "time": "Closed"}], "id": "5452600000", "name": "USPS COLLECTION BOX - BLUE BOX", "address": {"city": "GLEN FLORA", "state": "WI", "street": "W4230 US HWY 8", "postcode": "54526"}}},
{"geometry": {"type": "Point", "coordinates": [-90.8533940589, 45.5024337243]}, "type": "Feature", "properties": {"collection_times": [{"days": "Mon-Fri", "time": "3:45pm"}, {"days": "Sat", "time": "10:30am"}, {"days": "Sun", "time": "Closed"}], "id": "5452600002", "name": "USPS COLLECTION BOX - PO LOBBY", "address": {"city": "GLEN FLORA", "state": "WI", "street": "W4230 US HWY 8", "postcode": "54526"}}},
{"geometry": {"type": "Point", "coordinates": [-90.5762962887, 46.1358273882]}, "type": "Feature", "properties": {"collection_times": [{"days": "Mon-Sat", "time": "4:00pm"}, {"days": "Sun", "time": "Closed"}], "id": "5452700000", "name": "USPS COLLECTION BOX - BLUE BOX", "address": {"city": "GLIDDEN", "state": "WI", "street": "237 GRANT ST", "postcode": "54527"}}},
{"geometry": {"type": "Point", "coordinates": [-90.5762962887, 46.1358273882]}, "type": "Feature", "properties": {"collection_times": [{"days": "Mon-Fri", "time": "3:15pm"}, {"days": "Sat", "time": "9:00am"}, {"days": "Sun", "time": "Closed"}], "id": "5452700001", "name": "USPS COLLECTION BOX - PO LOBBY", "address": {"city": "GLIDDEN", "state": "WI", "street": "237 GRANT ST", "postcode": "54527"}}},
{"geometry": {"type": "Point", "coordinates": [-89.668011388, 45.7251006496]}, "type": "Feature", "properties": {"collection_times": [{"days": "Mon-Fri", "time": "4:15pm"}, {"days": "Sat", "time": "4:00pm"}, {"days": "Sun", "time": "Closed"}], "id": "5452900000", "name": "USPS COLLECTION BOX - BLUE BOX", "address": {"city": "HARSHAW", "state": "WI", "street": "5188 LAKEWOOD RD", "postcode": "54529"}}},
{"geometry": {"type": "Point", "coordinates": [-89.668011388, 45.7251006496]}, "type": "Feature", "properties": {"collection_times": [{"days": "Mon-Fri", "time": "11:45am"}, {"days": "Sat", "time": "10:00am"}, {"days": "Sun", "time": "Closed"}], "id": "5452900001", "name": "USPS COLLECTION BOX - PO LOBBY", "address": {"city": "HARSHAW", "state": "WI", "street": "5188 LAKEWOOD RD", "postcode": "54529"}}},
{"geometry": {"type": "Point", "coordinates": [-90.7148153332, 45.5159735359]}, "type": "Feature", "properties": {"collection_times": [{"days": "Mon-Fri", "time": "4:15pm"}, {"days": "Sat", "time": "3:45pm"}, {"days": "Sun", "time": "Closed"}], "id": "5453000000", "name": "USPS COLLECTION BOX - BLUE BOX", "address": {"city": "HAWKINS", "state": "WI", "street": "1016 MAIN ST", "postcode": "54530"}}},
{"geometry": {"type": "Point", "coordinates": [-90.7148153332, 45.5159735359]}, "type": "Feature", "properties": {"collection_times": [{"days": "Mon-Fri", "time": "12:00pm"}, {"days": "Sat", "time": "10:15am"}, {"days": "Sun", "time": "Closed"}], "id": "5453000001", "name": "USPS COLLECTION BOX - PO LOBBY", "address": {"city": "HAWKINS", "state": "WI", "street": "1016 MAIN ST", "postcode": "54530"}}},
{"geometry": {"type": "Point", "coordinates": [-89.7246198135, 45.8070654806]}, "type": "Feature", "properties": {"collection_times": [{"days": "Mon-Fri", "time": "3:45pm"}, {"days": "Sat", "time": "10:45am"}, {"days": "Sun", "time": "Closed"}], "id": "5453100001", "name": "USPS COLLECTION BOX - BLUE BOX", "address": {"city": "HAZELHURST", "state": "WI", "street": "7057 US HIGHWAY 51", "postcode": "54531"}}},
{"geometry": {"type": "Point", "coordinates": [-89.7246198135, 45.8070654806]}, "type": "Feature", "properties": {"collection_times": [{"days": "Mon-Fri", "time": "3:45pm"}, {"days": "Sat", "time": "10:45am"}, {"days": "Sun", "time": "Closed"}], "id": "5453100002", "name": "USPS COLLECTION BOX - PO LOBBY", "address": {"city": "HAZELHURST", "state": "WI", "street": "7057 US HIGHWAY 51", "postcode": "54531"}}},
{"geometry": {"type": "Point", "coordinates": [-90.1849351039, 46.4497612652]}, "type": "Feature", "properties": {"collection_times": [{"days": "Mon-Sat", "time": "4:00pm"}, {"days": "Sun", "time": "Closed"}], "id": "5453400000", "name": "USPS COLLECTION BOX - BLUE BOX", "address": {"city": "HURLEY", "state": "WI", "street": "417 SILVER ST", "postcode": "54534"}}},
{"geometry": {"type": "Point", "coordinates": [-90.1849351039, 46.4497612652]}, "type": "Feature", "properties": {"collection_times": [{"days": "Mon-Sat", "time": "4:00pm"}, {"days": "Sun", "time": "Closed"}], "id": "5453400002", "name": "USPS COLLECTION BOX - PO LOBBY", "address": {"city": "HURLEY", "state": "WI", "street": "417 SILVER ST", "postcode": "54534"}}},
{"geometry": {"type": "Point", "coordinates": [-90.1849351039, 46.4497612652]}, "type": "Feature", "properties": {"collection_times": [{"days": "Mon-Sat", "time": "4:00pm"}, {"days": "Sun", "time": "Closed"}], "id": "5453400003", "name": "USPS COLLECTION BOX - PO LOBBY", "address": {"city": "HURLEY", "state": "WI", "street": "417 SILVER ST", "postcode": "54534"}}},
{"geometry": {"type": "Point", "coordinates": [-90.3518965466, 46.2144163524]}, "type": "Feature", "properties": {"collection_times": [{"days": "Mon-Sat", "time": "3:15pm"}, {"days": "Sun", "time": "Closed"}], "id": "5453600000", "name": "USPS COLLECTION BOX - BLUE BOX", "address": {"city": "IRON BELT", "state": "WI", "street": "11715 MCKINNAN ST", "postcode": "54536"}}},
{"geometry": {"type": "Point", "coordinates": [-90.3518965466, 46.2144163524]}, "type": "Feature", "properties": {"collection_times": [{"days": "Mon-Fri", "time": "12:00pm"}, {"days": "Sat", "time": "9:30am"}, {"days": "Sun", "time": "Closed"}], "id": "5453600001", "name": "USPS COLLECTION BOX - PO LOBBY", "address": {"city": "IRON BELT", "state": "WI", "street": "11715 MCKINNAN ST", "postcode": "54536"}}},
{"geometry": {"type": "Point", "coordinates": [-90.5894686188, 45.5311972658]}, "type": "Feature", "properties": {"collection_times": [{"days": "Mon-Fri", "time": "4:15pm"}, {"days": "Sat", "time": "3:45pm"}, {"days": "Sun", "time": "Closed"}], "id": "5453700000", "name": "USPS COLLECTION BOX - BLUE BOX", "address": {"city": "KENNAN", "state": "WI", "street": "W10419 MAIN ST", "postcode": "54537"}}},
{"geometry": {"type": "Point", "coordinates": [-90.5894686188, 45.5311972658]}, "type": "Feature", "properties": {"collection_times": [{"days": "Mon-Fri", "time": "11:45am"}, {"days": "Sat", "time": "9:45am"}, {"days": "Sun", "time": "Closed"}], "id": "5453700001", "name": "USPS COLLECTION BOX - PO LOBBY", "address": {"city": "KENNAN", "state": "WI", "street": "W10419 MAIN ST", "postcode": "54537"}}},
{"geometry": {"type": "Point", "coordinates": [-89.8927450665, 45.9701549112]}, "type": "Feature", "properties": {"collection_times": [{"days": "Mon-Fri", "time": "4:15pm"}, {"days": "Sat", "time": "11:00am"}, {"days": "Sun", "time": "Closed"}], "id": "5453800000", "name": "USPS COLLECTION BOX - BLUE BOX", "address": {"city": "LAC DU FLAMBEAU", "state": "WI", "street": "614 PEACE PIPE RD", "postcode": "54538"}}},
{"geometry": {"type": "Point", "coordinates": [-89.8927450665, 45.9701549112]}, "type": "Feature", "properties": {"collection_times": [{"days": "Mon-Fri", "time": "4:15pm"}, {"days": "Sat", "time": "11:00am"}, {"days": "Sun", "time": "Closed"}], "id": "5453800001", "name": "USPS COLLECTION BOX - PO LOBBY", "address": {"city": "LAC DU FLAMBEAU", "state": "WI", "street": "614 PEACE PIPE RD", "postcode": "54538"}}},
{"geometry": {"type": "Point", "coordinates": [-89.8927450665, 45.9701549112]}, "type": "Feature", "properties": {"collection_times": [{"days": "Mon-Fri", "time": "4:15pm"}, {"days": "Sat", "time": "11:00am"}, {"days": "Sun", "time": "Closed"}], "id": "5453800002", "name": "USPS COLLECTION BOX - PO LOBBY", "address": {"city": "LAC DU FLAMBEAU", "state": "WI", "street": "614 PEACE PIPE RD", "postcode": "54538"}}},
{"geometry": {"type": "Point", "coordinates": [-89.5747813194, 45.8023173961]}, "type": "Feature", "properties": {"collection_times": [{"days": "Mon-Fri", "time": "4:45pm"}, {"days": "Sat", "time": "10:45am"}, {"days": "Sun", "time": "Closed"}], "id": "5453900000", "name": "USPS COLLECTION BOX - BLUE BOX", "address": {"city": "LAKE TOMAHAWK", "state": "WI", "street": "7229 BRADLEY ST", "postcode": "54539"}}},
{"geometry": {"type": "Point", "coordinates": [-89.5934926071, 45.8146967904]}, "type": "Feature", "properties": {"collection_times": [{"days": "Mon-Fri", "time": "4:00pm"}, {"days": "Sat", "time": "10:00am"}, {"days": "Sun", "time": "Closed"}], "id": "5453900001", "name": "USPS COLLECTION BOX - PO LOBBY", "address": {"city": "LAKE TOMAHAWK", "state": "WI", "street": "7229 BRADLEY ST", "postcode": "54539"}}},
{"geometry": {"type": "Point", "coordinates": [-89.2123544561, 46.1612900463]}, "type": "Feature", "properties": {"collection_times": [{"days": "Mon-Fri", "time": "4:00pm"}, {"days": "Sat", "time": "11:00am"}, {"days": "Sun", "time": "Closed"}], "id": "5454000000", "name": "USPS COLLECTION BOX - BLUE BOX", "address": {"city": "LAND O LAKES", "state": "WI", "street": "4272 COUNTY ROAD B", "postcode": "54540"}}},
{"geometry": {"type": "Point", "coordinates": [-89.2123544561, 46.1612900463]}, "type": "Feature", "properties": {"collection_times": [{"days": "Mon-Fri", "time": "4:00pm"}, {"days": "Sat", "time": "11:00am"}, {"days": "Sun", "time": "Closed"}], "id": "5454000001", "name": "USPS COLLECTION BOX - PO LOBBY", "address": {"city": "LAND O LAKES", "state": "WI", "street": "4272 COUNTY ROAD B", "postcode": "54540"}}},
{"geometry": {"type": "Point", "coordinates": [-89.2123544561, 46.1612900463]}, "type": "Feature", "properties": {"collection_times": [{"days": "Mon-Fri", "time": "4:00pm"}, {"days": "Sat", "time": "11:00am"}, {"days": "Sun", "time": "Closed"}], "id": "5454000002", "name": "USPS COLLECTION BOX - PO LOBBY", "address": {"city": "LAND O LAKES", "state": "WI", "street": "4272 COUNTY ROAD B", "postcode": "54540"}}},
{"geometry": {"type": "Point", "coordinates": [-88.6741306857, 45.564993773]}, "type": "Feature", "properties": {"collection_times": [{"days": "Mon-Sat", "time": "4:00pm"}, {"days": "Sun", "time": "Closed"}], "id": "5454100000", "name": "USPS COLLECTION BOX - BLUE BOX", "address": {"city": "LAONA", "state": "WI", "street": "5324 LINDEN ST", "postcode": "54541"}}},
{"geometry": {"type": "Point", "coordinates": [-88.6741306857, 45.564993773]}, "type": "Feature", "properties": {"collection_times": [{"days": "Mon-Fri", "time": "11:15am"}, {"days": "Sat", "time": "10:00am"}, {"days": "Sun", "time": "Closed"}], "id": "5454100001", "name": "USPS COLLECTION BOX - PO LOBBY", "address": {"city": "LAONA", "state": "WI", "street": "5324 LINDEN ST", "postcode": "54541"}}},
{"geometry": {"type": "Point", "coordinates": [-88.6741306857, 45.564993773]}, "type": "Feature", "properties": {"collection_times": [{"days": "Mon-Fri", "time": "11:15am"}, {"days": "Sat", "time": "10:00am"}, {"days": "Sun", "time": "Closed"}], "id": "5454100002", "name": "USPS COLLECTION BOX - PO LOBBY", "address": {"city": "LAONA", "state": "WI", "street": "5324 LINDEN ST", "postcode": "54541"}}},
{"geometry": {"type": "Point", "coordinates": [-88.6255389613, 45.9064597426]}, "type": "Feature", "properties": {"collection_times": [{"days": "Mon-Fri", "time": "3:45pm"}, {"days": "Sat", "time": "9:15am"}, {"days": "Sun", "time": "Closed"}], "id": "5454200000", "name": "USPS COLLECTION BOX - BLUE BOX", "address": {"city": "LONG LAKE", "state": "WI", "street": "3357 STATE HIGHWAY 139", "postcode": "54542"}}},
{"geometry": {"type": "Point", "coordinates": [-88.7529552239, 45.9216192928]}, "type": "Feature", "properties": {"collection_times": [{"days": "Mon-Fri", "time": "2:45pm"}, {"days": "Sat", "time": "9:15am"}, {"days": "Sun", "time": "Closed"}], "id": "5454200001", "name": "USPS COLLECTION BOX - PO LOBBY", "address": {"city": "LONG LAKE", "state": "WI", "street": "3357 N STATE ROAD 139", "postcode": "54542"}}},
{"geometry": {"type": "Point", "coordinates": [-89.4113157414, 45.6352700191]}, "type": "Feature", "properties": {"collection_times": [{"days": "Mon-Sat", "time": "10:30am"}, {"days": "Sun", "time": "Closed"}], "id": "5454300000", "name": "USPS COLLECTION BOX - BLUE BOX", "address": {"city": "MCNAUGHTON", "state": "WI", "street": "5340 BRIDGE RD", "postcode": "54543"}}},
{"geometry": {"type": "Point", "coordinates": [-89.833168065, 46.1204469185]}, "type": "Feature", "properties": {"collection_times": [{"days": "Mon-Fri", "time": "3:45pm"}, {"days": "Sat", "time": "10:45am"}, {"days": "Sun", "time": "Closed"}], "id": "5454500000", "name": "USPS COLLECTION BOX - BLUE BOX", "address": {"city": "MANITOWISH WATER", "state": "WI", "street": "71 COUNTY RD W", "postcode": "54545"}}},
{"geometry": {"type": "Point", "coordinates": [-89.886753755, 46.135276495]}, "type": "Feature", "properties": {"collection_times": [{"days": "Mon-Fri", "time": "3:45pm"}, {"days": "Sat", "time": "10:45am"}, {"days": "Sun", "time": "Closed"}], "id": "5454500002", "name": "USPS COLLECTION BOX - PO LOBBY", "address": {"city": "MANITOWISH WATER", "state": "WI", "street": "71 COUNTY RD W", "postcode": "54545"}}},
{"geometry": {"type": "Point", "coordinates": [-89.833168065, 46.1204469185]}, "type": "Feature", "properties": {"collection_times": [{"days": "Mon-Sat", "time": "9:30am"}, {"days": "Sun", "time": "Closed"}], "id": "5454500003", "name": "USPS COLLECTION BOX - BLUE BOX", "address": {"city": "MANITOWISH WATER", "state": "WI", "street": "522 US HIGHWAY 51", "postcode": "54545"}}},
{"geometry": {"type": "Point", "coordinates": [-90.6588291297, 46.3270465739]}, "type": "Feature", "properties": {"collection_times": [{"days": "Mon-Fri", "time": "3:45pm"}, {"days": "Sat", "time": "10:30am"}, {"days": "Sun", "time": "Closed"}], "id": "5454600000", "name": "USPS COLLECTION BOX - BLUE BOX", "address": {"city": "MELLEN", "state": "WI", "street": "121 E BENNETT AVE", "postcode": "54546"}}},
{"geometry": {"type": "Point", "coordinates": [-90.6588291297, 46.3270465739]}, "type": "Feature", "properties": {"collection_times": [{"days": "Mon-Fri", "time": "3:15pm"}, {"days": "Sat", "time": "9:30am"}, {"days": "Sun", "time": "Closed"}], "id": "5454600001", "name": "USPS COLLECTION BOX - PO LOBBY", "address": {"city": "MELLEN", "state": "WI", "street": "121 E BENNETT AVE", "postcode": "54546"}}},
{"geometry": {"type": "Point", "coordinates": [-90.6588291297, 46.3270465739]}, "type": "Feature", "properties": {"collection_times": [{"days": "Mon-Fri", "time": "3:15pm"}, {"days": "Sat", "time": "9:30am"}, {"days": "Sun", "time": "Closed"}], "id": "5454600002", "name": "USPS COLLECTION BOX - PO LOBBY", "address": {"city": "MELLEN", "state": "WI", "street": "121 E BENNETT AVE", "postcode": "54546"}}},
{"geometry": {"type": "Point", "coordinates": [-90.0766361032, 46.1715268031]}, "type": "Feature", "properties": {"collection_times": [{"days": "Mon-Fri", "time": "3:30pm"}, {"days": "Sat", "time": "10:30am"}, {"days": "Sun", "time": "Closed"}], "id": "5454700000", "name": "USPS COLLECTION BOX - BLUE BOX", "address": {"city": "MERCER", "state": "WI", "street": "5245 N LAKEVIEW AVE", "postcode": "54547"}}},
{"geometry": {"type": "Point", "coordinates": [-90.0766361032, 46.1715268031]}, "type": "Feature", "properties": {"collection_times": [{"days": "Mon-Fri", "time": "3:30pm"}, {"days": "Sat", "time": "10:30am"}, {"days": "Sun", "time": "Closed"}], "id": "5454700002", "name": "USPS COLLECTION BOX - PO LOBBY", "address": {"city": "MERCER", "state": "WI", "street": "5245 N LAKEVIEW AVE", "postcode": "54547"}}},
{"geometry": {"type": "Point", "coordinates": [-89.7126931754, 45.8712097916]}, "type": "Feature", "properties": {"collection_times": [{"days": "Mon-Fri", "time": "4:15pm"}, {"days": "Sat", "time": "12:00pm"}, {"days": "Sun", "time": "Closed"}], "id": "5454800000", "name": "USPS COLLECTION BOX - BLUE BOX", "address": {"city": "MINOCQUA", "state": "WI", "street": "126 W FRONT ST", "postcode": "54548"}}},
{"geometry": {"type": "Point", "coordinates": [-89.762118535, 45.8725686997]}, "type": "Feature", "properties": {"collection_times": [{"days": "Mon-Sat", "time": "1:00pm"}, {"days": "Sun", "time": "Closed"}], "id": "5454800001", "name": "USPS COLLECTION BOX - BLUE BOX", "address": {"city": "MINOCQUA", "state": "WI", "street": "8518 US HIGHWAY 51 N", "postcode": "54548"}}},
{"geometry": {"type": "Point", "coordinates": [-89.8311633957, 45.8655593786]}, "type": "Feature", "properties": {"collection_times": [{"days": "Mon-Sat", "time": "1:00pm"}, {"days": "Sun", "time": "Closed"}], "id": "5454800002", "name": "USPS COLLECTION BOX - BLUE BOX", "address": {"city": "MINOCQUA", "state": "WI", "street": "9670 STATE HIGHWAY 70", "postcode": "54548"}}},
{"geometry": {"type": "Point", "coordinates": [-89.7126931754, 45.8712097916]}, "type": "Feature", "properties": {"collection_times": [{"days": "Mon-Fri", "time": "4:15pm"}, {"days": "Sat", "time": "12:00pm"}, {"days": "Sun", "time": "Closed"}], "id": "5454800003", "name": "USPS COLLECTION BOX - BLUE BOX", "address": {"city": "MINOCQUA", "state": "WI", "street": "126 W FRONT ST", "postcode": "54548"}}},
{"geometry": {"type": "Point", "coordinates": [-89.7126931754, 45.8712097916]}, "type": "Feature", "properties": {"collection_times": [{"days": "Mon-Fri", "time": "4:30pm"}, {"days": "Sat", "time": "12:00pm"}, {"days": "Sun", "time": "Closed"}], "id": "5454800004", "name": "USPS COLLECTION BOX - PO LOBBY", "address": {"city": "MINOCQUA", "state": "WI", "street": "126 W FRONT ST", "postcode": "54548"}}},
{"geometry": {"type": "Point", "coordinates": [-89.7126931754, 45.8712097916]}, "type": "Feature", "properties": {"collection_times": [{"days": "Mon-Fri", "time": "4:30pm"}, {"days": "Sat", "time": "12:00pm"}, {"days": "Sun", "time": "Closed"}], "id": "5454800006", "name": "USPS COLLECTION BOX - PO LOBBY", "address": {"city": "MINOCQUA", "state": "WI", "street": "126 W FRONT ST", "postcode": "54548"}}},
{"geometry": {"type": "Point", "coordinates": [-90.2312337564, 46.4310712477]}, "type": "Feature", "properties": {"collection_times": [{"days": "Mon-Fri", "time": "4:00pm"}, {"days": "Sat", "time": "10:00am"}, {"days": "Sun", "time": "Closed"}], "id": "5455000000", "name": "USPS COLLECTION BOX - BLUE BOX", "address": {"city": "MONTREAL", "state": "WI", "street": "138 WISCONSIN AVE", "postcode": "54550"}}},
{"geometry": {"type": "Point", "coordinates": [-90.2312337564, 46.4310712477]}, "type": "Feature", "properties": {"collection_times": [{"days": "Mon-Fri", "time": "11:45am"}, {"days": "Sat", "time": "10:00am"}, {"days": "Sun", "time": "Closed"}], "id": "5455000001", "name": "USPS COLLECTION BOX - PO LOBBY", "address": {"city": "MONTREAL", "state": "WI", "street": "138 WISCONSIN AVE", "postcode": "54550"}}},
{"geometry": {"type": "Point", "coordinates": [-90.262107381, 46.3685982578]}, "type": "Feature", "properties": {"collection_times": [{"days": "Mon-Fri", "time": "11:45am"}, {"days": "Sat-Sun", "time": "Closed"}], "id": "5455000002", "name": "USPS COLLECTION BOX - BLUE BOX", "address": {"city": "MONTREAL", "state": "WI", "street": "12 NIMIKON ST", "postcode": "54550"}}},
{"geometry": {"type": "Point", "coordinates": [-90.4477314467, 45.9359958406]}, "type": "Feature", "properties": {"collection_times": [{"days": "Mon-Fri", "time": "5:00pm"}, {"days": "Sat", "time": "12:00pm"}, {"days": "Sun", "time": "Closed"}], "id": "5455200000", "name": "USPS COLLECTION BOX - BLUE BOX", "address": {"city": "PARK FALLS", "state": "WI", "street": "109 1ST ST N", "postcode": "54552"}}},
{"geometry": {"type": "Point", "coordinates": [-90.4477314467, 45.9359958406]}, "type": "Feature", "properties": {"collection_times": [{"days": "Mon-Fri", "time": "5:00pm"}, {"days": "Sat", "time": "12:00pm"}, {"days": "Sun", "time": "Closed"}], "id": "5455200001", "name": "USPS COLLECTION BOX - BLUE BOX", "address": {"city": "PARK FALLS", "state": "WI", "street": "109 1ST ST N", "postcode": "54552"}}},
{"geometry": {"type": "Point", "coordinates": [-90.4500223592, 45.9145191105]}, "type": "Feature", "properties": {"collection_times": [{"days": "Mon-Fri", "time": "10:00am"}, {"days": "Sat-Sun", "time": "Closed"}], "id": "5455200003", "name": "USPS COLLECTION BOX - BLUE BOX", "address": {"city": "PARK FALLS", "state": "WI", "street": "1224 4TH AVE S", "postcode": "54552"}}},
{"geometry": {"type": "Point", "coordinates": [-90.4487694443, 45.9132437487]}, "type": "Feature", "properties": {"collection_times": [{"days": "Mon-Fri", "time": "10:00am"}, {"days": "Sat-Sun", "time": "Closed"}], "id": "5455200006", "name": "USPS COLLECTION BOX - BLUE BOX", "address": {"city": "PARK FALLS", "state": "WI", "street": "1347 4TH AVE S", "postcode": "54552"}}},
{"geometry": {"type": "Point", "coordinates": [-90.4477314467, 45.9359958406]}, "type": "Feature", "properties": {"collection_times": [{"days": "Mon-Fri", "time": "4:30pm"}, {"days": "Sat", "time": "12:00pm"}, {"days": "Sun", "time": "Closed"}], "id": "5455200007", "name": "USPS COLLECTION BOX - PO LOBBY", "address": {"city": "PARK FALLS", "state": "WI", "street": "109 1ST ST N", "postcode": "54552"}}},
{"geometry": {"type": "Point", "coordinates": [-90.4477314467, 45.9359958406]}, "type": "Feature", "properties": {"collection_times": [{"days": "Mon-Fri", "time": "4:30pm"}, {"days": "Sat", "time": "12:00pm"}, {"days": "Sun", "time": "Closed"}], "id": "5455200009", "name": "USPS COLLECTION BOX - PO LOBBY", "address": {"city": "PARK FALLS", "state": "WI", "street": "109 1ST ST N", "postcode": "54552"}}},
{"geometry": {"type": "Point", "coordinates": [-89.0862355225, 46.0685128359]}, "type": "Feature", "properties": {"collection_times": [{"days": "Mon-Fri", "time": "4:15pm"}, {"days": "Sat", "time": "11:00am"}, {"days": "Sun", "time": "Closed"}], "id": "5455400000", "name": "USPS COLLECTION BOX - BLUE BOX", "address": {"city": "PHELPS", "state": "WI", "street": "4530 COUNTY RD E", "postcode": "54554"}}},
{"geometry": {"type": "Point", "coordinates": [-89.0862355225, 46.0685128359]}, "type": "Feature", "properties": {"collection_times": [{"days": "Mon-Fri", "time": "4:15pm"}, {"days": "Sat", "time": "11:00am"}, {"days": "Sun", "time": "Closed"}], "id": "5455400001", "name": "USPS COLLECTION BOX - PO LOBBY", "address": {"city": "PHELPS", "state": "WI", "street": "4530 COUNTY RD E", "postcode": "54554"}}},
{"geometry": {"type": "Point", "coordinates": [-89.0862355225, 46.0685128359]}, "type": "Feature", "properties": {"collection_times": [{"days": "Mon-Fri", "time": "4:15pm"}, {"days": "Sat", "time": "11:00am"}, {"days": "Sun", "time": "Closed"}], "id": "5455400002", "name": "USPS COLLECTION BOX - PO LOBBY", "address": {"city": "PHELPS", "state": "WI", "street": "4530 COUNTY RD E", "postcode": "54554"}}},
{"geometry": {"type": "Point", "coordinates": [-90.3942015416, 45.687517885]}, "type": "Feature", "properties": {"collection_times": [{"days": "Mon-Sat", "time": "3:00pm"}, {"days": "Sun", "time": "Closed"}], "id": "5455500001", "name": "USPS COLLECTION BOX - BLUE BOX", "address": {"city": "PHILLIPS", "state": "WI", "street": "256 S LAKE AVE", "postcode": "54555"}}},
{"geometry": {"type": "Point", "coordinates": [-90.398832238, 45.6896953726]}, "type": "Feature", "properties": {"collection_times": [{"days": "Mon-Fri", "time": "5:00pm"}, {"days": "Sat", "time": "12:00pm"}, {"days": "Sun", "time": "Closed"}], "id": "5455500003", "name": "USPS COLLECTION BOX - BLUE BOX", "address": {"city": "PHILLIPS", "state": "WI", "street": "194 N AVON AVE", "postcode": "54555"}}},
{"geometry": {"type": "Point", "coordinates": [-90.398832238, 45.6896953726]}, "type": "Feature", "properties": {"collection_times": [{"days": "Mon-Fri", "time": "5:00pm"}, {"days": "Sat", "time": "12:00pm"}, {"days": "Sun", "time": "Closed"}], "id": "5455500004", "name": "USPS COLLECTION BOX - PO LOBBY", "address": {"city": "PHILLIPS", "state": "WI", "street": "194 N AVON AVE", "postcode": "54555"}}},
{"geometry": {"type": "Point", "coordinates": [-90.2828226267, 45.5457463649]}, "type": "Feature", "properties": {"collection_times": [{"days": "Mon-Fri", "time": "4:00pm"}, {"days": "Sat", "time": "10:00am"}, {"days": "Sun", "time": "Closed"}], "id": "5455600000", "name": "USPS COLLECTION BOX - BLUE BOX", "address": {"city": "PRENTICE", "state": "WI", "street": "428 CENTER ST", "postcode": "54556"}}},
{"geometry": {"type": "Point", "coordinates": [-90.2848905031, 45.5457864792]}, "type": "Feature", "properties": {"collection_times": [{"days": "Mon-Fri", "time": "3:00pm"}, {"days": "Sat", "time": "9:00am"}, {"days": "Sun", "time": "Closed"}], "id": "5455600001", "name": "USPS COLLECTION BOX - PO LOBBY", "address": {"city": "PRENTICE", "state": "WI", "street": "428 CENTER ST", "postcode": "54556"}}},
{"geometry": {"type": "Point", "coordinates": [-90.2848905031, 45.5457864792]}, "type": "Feature", "properties": {"collection_times": [{"days": "Mon-Fri", "time": "3:00pm"}, {"days": "Sat", "time": "9:00am"}, {"days": "Sun", "time": "Closed"}], "id": "5455600002", "name": "USPS COLLECTION BOX - PO LOBBY", "address": {"city": "PRENTICE", "state": "WI", "street": "428 CENTER ST", "postcode": "54556"}}},
{"geometry": {"type": "Point", "coordinates": [-89.7540957543, 46.221995977]}, "type": "Feature", "properties": {"collection_times": [{"days": "Mon-Fri", "time": "12:15pm"}, {"days": "Sat", "time": "9:45am"}, {"days": "Sun", "time": "Closed"}], "id": "5455700000", "name": "USPS COLLECTION BOX - BLUE BOX", "address": {"city": "PRESQUE ISLE", "state": "WI", "street": "8302 MAIN ST", "postcode": "54557"}}},
{"geometry": {"type": "Point", "coordinates": [-89.7540957543, 46.221995977]}, "type": "Feature", "properties": {"collection_times": [{"days": "Mon-Fri", "time": "12:15pm"}, {"days": "Sat", "time": "10:45am"}, {"days": "Sun", "time": "Closed"}], "id": "5455700001", "name": "USPS COLLECTION BOX - PO LOBBY", "address": {"city": "PRESQUE ISLE", "state": "WI", "street": "8302 MAIN ST", "postcode": "54557"}}},
{"geometry": {"type": "Point", "coordinates": [-89.4882737713, 45.9082824353]}, "type": "Feature", "properties": {"collection_times": [{"days": "Mon-Fri", "time": "4:30pm"}, {"days": "Sat", "time": "11:00am"}, {"days": "Sun", "time": "Closed"}], "id": "5455800000", "name": "USPS COLLECTION BOX - BLUE BOX", "address": {"city": "SAINT GERMAIN", "state": "WI", "street": "415 SUNRISE LN", "postcode": "54558"}}},
{"geometry": {"type": "Point", "coordinates": [-89.4882737713, 45.9082824353]}, "type": "Feature", "properties": {"collection_times": [{"days": "Mon-Fri", "time": "4:30pm"}, {"days": "Sat", "time": "11:00am"}, {"days": "Sun", "time": "Closed"}], "id": "5455800002", "name": "USPS COLLECTION BOX - PO LOBBY", "address": {"city": "SAINT GERMAIN", "state": "WI", "street": "415 SUNRISE LN", "postcode": "54558"}}},
{"geometry": {"type": "Point", "coordinates": [-89.4882737713, 45.9082824353]}, "type": "Feature", "properties": {"collection_times": [{"days": "Mon-Fri", "time": "4:30pm"}, {"days": "Sat", "time": "11:00am"}, {"days": "Sun", "time": "Closed"}], "id": "5455800003", "name": "USPS COLLECTION BOX - PO LOBBY", "address": {"city": "SAINT GERMAIN", "state": "WI", "street": "415 SUNRISE LN", "postcode": "54558"}}},
{"geometry": {"type": "Point", "coordinates": [-90.451948412, 46.4903495879]}, "type": "Feature", "properties": {"collection_times": [{"days": "Mon-Fri", "time": "3:45pm"}, {"days": "Sat", "time": "9:45am"}, {"days": "Sun", "time": "Closed"}], "id": "5455900000", "name": "USPS COLLECTION BOX - BLUE BOX", "address": {"city": "SAXON", "state": "WI", "street": "14277 N STATE HIGHWAY 122", "postcode": "54559"}}},
{"geometry": {"type": "Point", "coordinates": [-90.451948412, 46.4903495879]}, "type": "Feature", "properties": {"collection_times": [{"days": "Mon-Fri", "time": "11:30am"}, {"days": "Sat", "time": "9:30am"}, {"days": "Sun", "time": "Closed"}], "id": "5455900001", "name": "USPS COLLECTION BOX - PO LOBBY", "address": {"city": "SAXON", "state": "WI", "street": "14277 N STATE HIGHWAY 122", "postcode": "54559"}}},
{"geometry": {"type": "Point", "coordinates": [-89.5265372692, 45.9943479208]}, "type": "Feature", "properties": {"collection_times": [{"days": "Mon-Fri", "time": "4:00pm"}, {"days": "Sat", "time": "10:00am"}, {"days": "Sun", "time": "Closed"}], "id": "5456000000", "name": "USPS COLLECTION BOX - BLUE BOX", "address": {"city": "SAYNER", "state": "WI", "street": "8726 SAYNER ST", "postcode": "54560"}}},
{"geometry": {"type": "Point", "coordinates": [-89.5265372692, 45.9943479208]}, "type": "Feature", "properties": {"collection_times": [{"days": "Mon-Fri", "time": "4:00pm"}, {"days": "Sat", "time": "10:00am"}, {"days": "Sun", "time": "Closed"}], "id": "5456000001", "name": "USPS COLLECTION BOX - PO LOBBY", "address": {"city": "SAYNER", "state": "WI", "street": "8726 SAYNER ST", "postcode": "54560"}}},
{"geometry": {"type": "Point", "coordinates": [-89.5265372692, 45.9943479208]}, "type": "Feature", "properties": {"collection_times": [{"days": "Mon-Fri", "time": "4:00pm"}, {"days": "Sat", "time": "10:00am"}, {"days": "Sun", "time": "Closed"}], "id": "5456000002", "name": "USPS COLLECTION BOX - PO LOBBY", "address": {"city": "SAYNER", "state": "WI", "street": "8726 SAYNER ST", "postcode": "54560"}}},
{"geometry": {"type": "Point", "coordinates": [-89.4605336313, 46.0352471212]}, "type": "Feature", "properties": {"collection_times": [{"days": "Mon-Sat", "time": "11:00am"}, {"days": "Sun", "time": "Closed"}], "id": "5456100000", "name": "USPS COLLECTION BOX - BLUE BOX", "address": {"city": "STAR LAKE", "state": "WI", "street": "7697 COUNTY ROAD K", "postcode": "54561"}}},
{"geometry": {"type": "Point", "coordinates": [-89.1700017669, 45.7989489657]}, "type": "Feature", "properties": {"collection_times": [{"days": "Mon-Fri", "time": "4:30pm"}, {"days": "Sat", "time": "11:30am"}, {"days": "Sun", "time": "Closed"}], "id": "5456200000", "name": "USPS COLLECTION BOX - BLUE BOX", "address": {"city": "THREE LAKES", "state": "WI", "street": "6970 W SCHOOL ST", "postcode": "54562"}}},
{"geometry": {"type": "Point", "coordinates": [-89.1700017669, 45.7989489657]}, "type": "Feature", "properties": {"collection_times": [{"days": "Mon-Fri", "time": "4:30pm"}, {"days": "Sat", "time": "11:30am"}, {"days": "Sun", "time": "Closed"}], "id": "5456200001", "name": "USPS COLLECTION BOX - PO LOBBY", "address": {"city": "THREE LAKES", "state": "WI", "street": "6970 W SCHOOL ST", "postcode": "54562"}}},
{"geometry": {"type": "Point", "coordinates": [-89.1700017669, 45.7989489657]}, "type": "Feature", "properties": {"collection_times": [{"days": "Mon-Fri", "time": "4:30pm"}, {"days": "Sat", "time": "11:30am"}, {"days": "Sun", "time": "Closed"}], "id": "5456200002", "name": "USPS COLLECTION BOX - PO LOBBY", "address": {"city": "THREE LAKES", "state": "WI", "street": "6970 W SCHOOL ST", "postcode": "54562"}}},
{"geometry": {"type": "Point", "coordinates": [-90.9870918216, 45.4856618228]}, "type": "Feature", "properties": {"collection_times": [{"days": "Mon-Fri", "time": "3:45pm"}, {"days": "Sat", "time": "10:30am"}, {"days": "Sun", "time": "Closed"}], "id": "5456300000", "name": "USPS COLLECTION BOX - BLUE BOX", "address": {"city": "TONY", "state": "WI", "street": "N5331 COUNTY ROAD I", "postcode": "54563"}}},
{"geometry": {"type": "Point", "coordinates": [-90.9870918216, 45.4856618228]}, "type": "Feature", "properties": {"collection_times": [{"days": "Mon-Fri", "time": "3:45pm"}, {"days": "Sat", "time": "10:30am"}, {"days": "Sun", "time": "Closed"}], "id": "5456300001", "name": "USPS COLLECTION BOX - PO LOBBY", "address": {"city": "TONY", "state": "WI", "street": "N5331 COUNTY ROAD I", "postcode": "54563"}}},
{"geometry": {"type": "Point", "coordinates": [-90.0214254771, 45.5542164258]}, "type": "Feature", "properties": {"collection_times": [{"days": "Mon-Fri", "time": "3:45pm"}, {"days": "Sat", "time": "12:00pm"}, {"days": "Sun", "time": "Closed"}], "id": "5456400000", "name": "USPS COLLECTION BOX - BLUE BOX", "address": {"city": "TRIPOLI", "state": "WI", "street": "13758 US HIGHWAY 8", "postcode": "54564"}}},
{"geometry": {"type": "Point", "coordinates": [-90.0214254771, 45.5542164258]}, "type": "Feature", "properties": {"collection_times": [{"days": "Mon-Fri", "time": "3:45pm"}, {"days": "Sat", "time": "12:00pm"}, {"days": "Sun", "time": "Closed"}], "id": "5456400001", "name": "USPS COLLECTION BOX - PO LOBBY", "address": {"city": "TRIPOLI", "state": "WI", "street": "13758 US HIGHWAY 8", "postcode": "54564"}}},
{"geometry": {"type": "Point", "coordinates": [-88.6611897731, 45.4388525211]}, "type": "Feature", "properties": {"collection_times": [{"days": "Mon-Fri", "time": "3:30pm"}, {"days": "Sat", "time": "9:30am"}, {"days": "Sun", "time": "Closed"}], "id": "5456600000", "name": "USPS COLLECTION BOX - BLUE BOX", "address": {"city": "WABENO", "state": "WI", "street": "4553 N BRANCH ST", "postcode": "54566"}}},
{"geometry": {"type": "Point", "coordinates": [-88.6611897731, 45.4388525211]}, "type": "Feature", "properties": {"collection_times": [{"days": "Mon-Fri", "time": "3:30pm"}, {"days": "Sat", "time": "9:30am"}, {"days": "Sun", "time": "Closed"}], "id": "5456600001", "name": "USPS COLLECTION BOX - PO LOBBY", "address": {"city": "WABENO", "state": "WI", "street": "4553 N BRANCH ST", "postcode": "54566"}}},
{"geometry": {"type": "Point", "coordinates": [-88.6611897731, 45.4388525211]}, "type": "Feature", "properties": {"collection_times": [{"days": "Mon-Fri", "time": "3:30pm"}, {"days": "Sat", "time": "9:30am"}, {"days": "Sun", "time": "Closed"}], "id": "5456600002", "name": "USPS COLLECTION BOX - PO LOBBY", "address": {"city": "WABENO", "state": "WI", "street": "4553 N BRANCH ST", "postcode": "54566"}}},
{"geometry": {"type": "Point", "coordinates": [-89.6916255656, 45.894987378]}, "type": "Feature", "properties": {"collection_times": [{"days": "Mon-Fri", "time": "4:30pm"}, {"days": "Sat", "time": "12:00pm"}, {"days": "Sun", "time": "Closed"}], "id": "5456800004", "name": "USPS COLLECTION BOX - BLUE BOX", "address": {"city": "WOODRUFF", "state": "WI", "street": "1412 1ST AVE", "postcode": "54568"}}},
{"geometry": {"type": "Point", "coordinates": [-89.6916255656, 45.894987378]}, "type": "Feature", "properties": {"collection_times": [{"days": "Mon-Fri", "time": "4:30pm"}, {"days": "Sat", "time": "12:00pm"}, {"days": "Sun", "time": "Closed"}], "id": "5456800005", "name": "USPS COLLECTION BOX - BLUE BOX", "address": {"city": "WOODRUFF", "state": "WI", "street": "1412 1ST AVE", "postcode": "54568"}}},
{"geometry": {"type": "Point", "coordinates": [-89.6916255656, 45.894987378]}, "type": "Feature", "properties": {"collection_times": [{"days": "Mon-Fri", "time": "4:30pm"}, {"days": "Sat", "time": "12:00pm"}, {"days": "Sun", "time": "Closed"}], "id": "5456800007", "name": "USPS COLLECTION BOX - PO LOBBY", "address": {"city": "WOODRUFF", "state": "WI", "street": "1412 1ST AVE", "postcode": "54568"}}},
{"geometry": {"type": "Point", "coordinates": [-89.6916255656, 45.894987378]}, "type": "Feature", "properties": {"collection_times": [{"days": "Mon-Fri", "time": "4:30pm"}, {"days": "Sat", "time": "12:00pm"}, {"days": "Sun", "time": "Closed"}], "id": "5456800008", "name": "USPS COLLECTION BOX - PO LOBBY", "address": {"city": "WOODRUFF", "state": "WI", "street": "1412 1ST AVE", "postcode": "54568"}}}
]}
