{"type": "FeatureCollection", "features": [
{"geometry": {"type": "Point", "coordinates": [-91.2482902694, 43.8172171357]}, "type": "Feature", "properties": {"collection_times": [{"days": "Mon-Fri", "time": "2:00pm"}, {"days": "Sat-Sun", "time": "Closed"}], "id": "5460100015", "name": "USPS COLLECTION BOX - BLUE BOX", "address": {"city": "LA CROSSE", "state": "WI", "street": "400 LACROSSE ST", "postcode": "54601"}}},
{"geometry": {"type": "Point", "coordinates": [-91.2502117116, 43.8065641863]}, "type": "Feature", "properties": {"collection_times": [{"days": "Mon-Sat", "time": "12:15pm"}, {"days": "Sun", "time": "Closed"}], "id": "5460100023", "name": "USPS COLLECTION BOX - BLUE BOX", "address": {"city": "LA CROSSE", "state": "WI", "street": "601 5TH AVE S", "postcode": "54601"}}},
{"geometry": {"type": "Point", "coordinates": [-91.2372276136, 43.7942670594]}, "type": "Feature", "properties": {"collection_times": [{"days": "Mon-Fri", "time": "12:15pm"}, {"days": "Sat", "time": "10:00am"}, {"days": "Sun", "time": "Closed"}], "id": "5460100033", "name": "USPS COLLECTION BOX - BLUE BOX", "address": {"city": "LA CROSSE", "state": "WI", "street": "1329 GREEN BAY ST", "postcode": "54601"}}},
{"geometry": {"type": "Point", "coordinates": [-91.239626124, 43.8025343019]}, "type": "Feature", "properties": {"collection_times": [{"days": "Mon-Sat", "time": "2:00pm"}, {"days": "Sun", "time": "Closed"}], "id": "5460100036", "name": "USPS COLLECTION BOX - BLUE BOX", "address": {"city": "LA CROSSE", "state": "WI", "street": "900 WEST AVE S", "postcode": "54601"}}},
{"geometry": {"type": "Point", "coordinates": [-91.2294733195, 43.8013911296]}, "type": "Feature", "properties": {"collection_times": [{"days": "Mon-Sat", "time": "12:00pm"}, {"days": "Sun", "time": "Closed"}], "id": "5460100039", "name": "USPS COLLECTION BOX - BLUE BOX", "address": {"city": "LA CROSSE", "state": "WI", "street": "1820 JACKSON ST", "postcode": "54601"}}},
{"geometry": {"type": "Point", "coordinates": [-91.2197185466, 43.8013148944]}, "type": "Feature", "properties": {"collection_times": [{"days": "Mon-Fri", "time": "12:00pm"}, {"days": "Sat", "time": "10:00am"}, {"days": "Sun", "time": "Closed"}], "id": "5460100042", "name": "USPS COLLECTION BOX - BLUE BOX", "address": {"city": "LA CROSSE", "state": "WI", "street": "921 LOSEY BLVD S", "postcode": "54601"}}},
{"geometry": {"type": "Point", "coordinates": [-91.2501845035, 43.8098031279]}, "type": "Feature", "properties": {"collection_times": [{"days": "Mon-Sat", "time": "2:00pm"}, {"days": "Sun", "time": "Closed"}], "id": "5460100043", "name": "USPS COLLECTION BOX - BLUE BOX", "address": {"city": "LA CROSSE", "state": "WI", "street": "305 5TH AVE S", "postcode": "54601"}}},
{"geometry": {"type": "Point", "coordinates": [-91.2467834965, 43.8098752884]}, "type": "Feature", "properties": {"collection_times": [{"days": "Mon-Sat", "time": "12:00pm"}, {"days": "Sun", "time": "Closed"}], "id": "5460100045", "name": "USPS COLLECTION BOX - BLUE BOX", "address": {"city": "LA CROSSE", "state": "WI", "street": "201 7TH ST S", "postcode": "54601"}}},
{"geometry": {"type": "Point", "coordinates": [-91.2353477465, 43.8046964743]}, "type": "Feature", "properties": {"collection_times": [{"days": "Mon-Fri", "time": "12:00pm"}, {"days": "Sat", "time": "10:00am"}, {"days": "Sun", "time": "Closed"}], "id": "5460100062", "name": "USPS COLLECTION BOX - BLUE BOX", "address": {"city": "LA CROSSE", "state": "WI", "street": "1437 MARKET ST", "postcode": "54601"}}},
{"geometry": {"type": "Point", "coordinates": [-91.2358571116, 43.8149795408]}, "type": "Feature", "properties": {"collection_times": [{"days": "Mon-Fri", "time": "12:00pm"}, {"days": "Sat", "time": "10:00am"}, {"days": "Sun", "time": "Closed"}], "id": "5460100070", "name": "USPS COLLECTION BOX - BLUE BOX", "address": {"city": "LA CROSSE", "state": "WI", "street": "1400 PINE ST", "postcode": "54601"}}},
{"geometry": {"type": "Point", "coordinates": [-91.2302268028, 43.8117289851]}, "type": "Feature", "properties": {"collection_times": [{"days": "Mon-Fri", "time": "2:00pm"}, {"days": "Sat", "time": "10:00am"}, {"days": "Sun", "time": "Closed"}], "id": "5460100099", "name": "USPS COLLECTION BOX - BLUE BOX", "address": {"city": "LA CROSSE", "state": "WI", "street": "1707 MAIN ST", "postcode": "54601"}}},
{"geometry": {"type": "Point", "coordinates": [-91.2193365851, 43.7964884768]}, "type": "Feature", "properties": {"collection_times": [{"days": "Mon-Sat", "time": "2:00pm"}, {"days": "Sun", "time": "Closed"}], "id": "5460100112", "name": "USPS COLLECTION BOX - BLUE BOX", "address": {"city": "LA CROSSE", "state": "WI", "street": "2442 STATE RD", "postcode": "54601"}}},
{"geometry": {"type": "Point", "coordinates": [-91.2192074395, 43.7980110637]}, "type": "Feature", "properties": {"collection_times": [{"days": "Mon-Sat", "time": "2:00pm"}, {"days": "Sun", "time": "Closed"}], "id": "5460100113", "name": "USPS COLLECTION BOX - BLUE BOX", "address": {"city": "LA CROSSE", "state": "WI", "street": "4622 MORMON COULEE RD", "postcode": "54601"}}},
{"geometry": {"type": "Point", "coordinates": [-91.2502630781, 43.813236803]}, "type": "Feature", "properties": {"collection_times": [{"days": "Mon-Sat", "time": "3:45pm"}, {"days": "Sun", "time": "Closed"}], "id": "5460100118", "name": "USPS COLLECTION BOX - BLUE BOX", "address": {"city": "LA CROSSE", "state": "WI", "street": "425 STATE ST", "postcode": "54601"}}},
{"geometry": {"type": "Point", "coordinates": [-91.2505614307, 43.8144265895]}, "type": "Feature", "properties": {"collection_times": [{"days": "Mon-Sat", "time": "3:45pm"}, {"days": "Sun", "time": "Closed"}], "id": "5460100124", "name": "USPS COLLECTION BOX - BLUE BOX", "address": {"city": "LA CROSSE", "state": "WI", "street": "333 VINE ST", "postcode": "54601"}}},
{"geometry": {"type": "Point", "coordinates": [-91.2305056963, 43.8128731376]}, "type": "Feature", "properties": {"collection_times": [{"days": "Mon-Sat", "time": "12:00pm"}, {"days": "Sun", "time": "Closed"}], "id": "5460100127", "name": "USPS COLLECTION BOX - BLUE BOX", "address": {"city": "LA CROSSE", "state": "WI", "street": "1725 STATE ST", "postcode": "54601"}}},
{"geometry": {"type": "Point", "coordinates": [-91.2502630781, 43.813236803]}, "type": "Feature", "properties": {"collection_times": [{"days": "Mon-Sat", "time": "3:45pm"}, {"days": "Sun", "time": "Closed"}], "id": "5460100128", "name": "USPS COLLECTION BOX - PO LOBBY", "address": {"city": "LA CROSSE", "state": "WI", "street": "425 STATE ST", "postcode": "54601"}}},
{"geometry": {"type": "Point", "coordinates": [-91.1927931739, 43.8729438553]}, "type": "Feature", "properties": {"collection_times": [{"days": "Mon-Fri", "time": "10:00am"}, {"days": "Sat-Sun", "time": "Closed"}], "id": "5460100135", "name": "USPS COLLECTION BOX - BLUE BOX", "address": {"city": "LA CROSSE", "state": "WI", "street": "1290 COUNTY RD PH", "postcode": "54601"}}},
{"geometry": {"type": "Point", "coordinates": [-91.2502630781, 43.813236803]}, "type": "Feature", "properties": {"collection_times": [{"days": "Mon-Sat", "time": "3:45pm"}, {"days": "Sun", "time": "Closed"}], "id": "5460100136", "name": "USPS COLLECTION BOX - BLUE BOX", "address": {"city": "LA CROSSE", "state": "WI", "street": "425 STATE ST", "postcode": "54601"}}},
{"geometry": {"type": "Point", "coordinates": [-91.2502630781, 43.813236803]}, "type": "Feature", "properties": {"collection_times": [{"days": "Mon-Sat", "time": "3:45pm"}, {"days": "Sun", "time": "Closed"}], "id": "5460100140", "name": "USPS COLLECTION BOX - BLUE BOX", "address": {"city": "LA CROSSE", "state": "WI", "street": "425 STATE ST", "postcode": "54601"}}},
{"geometry": {"type": "Point", "coordinates": [-91.2500444016, 43.8100944653]}, "type": "Feature", "properties": {"collection_times": [{"days": "Mon-Fri", "time": "12:00pm"}, {"days": "Sat-Sun", "time": "Closed"}], "id": "5460100141", "name": "USPS COLLECTION BOX - BLUE BOX", "address": {"city": "LA CROSSE", "state": "WI", "street": "505 KING ST", "postcode": "54601"}}},
{"geometry": {"type": "Point", "coordinates": [-91.2535121671, 43.8131887565]}, "type": "Feature", "properties": {"collection_times": [{"days": "Mon-Sat", "time": "12:00pm"}, {"days": "Sun", "time": "Closed"}], "id": "5460100143", "name": "USPS COLLECTION BOX - BLUE BOX", "address": {"city": "LA CROSSE", "state": "WI", "street": "201 MAIN ST", "postcode": "54601"}}},
{"geometry": {"type": "Point", "coordinates": [-91.2448765666, 43.8116686542]}, "type": "Feature", "properties": {"collection_times": [{"days": "Mon-Fri", "time": "12:00pm"}, {"days": "Sat-Sun", "time": "Closed"}], "id": "5460100150", "name": "USPS COLLECTION BOX - BLUE BOX", "address": {"city": "LA CROSSE", "state": "WI", "street": "800 MAIN ST", "postcode": "54601"}}},
{"geometry": {"type": "Point", "coordinates": [-91.2497326132, 43.8087834173]}, "type": "Feature", "properties": {"collection_times": [{"days": "Mon-Fri", "time": "12:15pm"}, {"days": "Sat", "time": "12:00pm"}, {"days": "Sun", "time": "Closed"}], "id": "5460100151", "name": "USPS COLLECTION BOX - BLUE BOX", "address": {"city": "LA CROSSE", "state": "WI", "street": "506 CASS ST", "postcode": "54601"}}},
{"geometry": {"type": "Point", "coordinates": [-91.2142904543, 43.7699924367]}, "type": "Feature", "properties": {"collection_times": [{"days": "Mon-Fri", "time": "12:00pm"}, {"days": "Sat-Sun", "time": "Closed"}], "id": "5460100152", "name": "USPS COLLECTION BOX - BLUE BOX", "address": {"city": "LA CROSSE", "state": "WI", "street": "4415 MORMON COULEE RD", "postcode": "54601"}}},
{"geometry": {"type": "Point", "coordinates": [-91.2502630781, 43.813236803]}, "type": "Feature", "properties": {"collection_times": [{"days": "Mon-Sat", "time": "3:45pm"}, {"days": "Sun", "time": "Closed"}], "id": "5460100156", "name": "USPS COLLECTION BOX - APC", "address": {"city": "LA CROSSE", "state": "WI", "street": "425 STATE ST", "postcode": "54601"}}},
{"geometry": {"type": "Point", "coordinates": [-91.2667184428, 43.8745094971]}, "type": "Feature", "properties": {"collection_times": [{"days": "Mon-Fri", "time": "10:30am"}, {"days": "Sat-Sun", "time": "Closed"}], "id": "5460300001", "name": "USPS COLLECTION BOX - BLUE BOX", "address": {"city": "LA CROSSE", "state": "WI", "street": "2975 AIRPORT RD", "postcode": "54603"}}},
{"geometry": {"type": "Point", "coordinates": [-91.2468862225, 43.8406536361]}, "type": "Feature", "properties": {"collection_times": [{"days": "Mon-Sat", "time": "10:30am"}, {"days": "Sun", "time": "Closed"}], "id": "5460300007", "name": "USPS COLLECTION BOX - BLUE BOX", "address": {"city": "LA CROSSE", "state": "WI", "street": "1233 CALEDONIA ST", "postcode": "54603"}}},
{"geometry": {"type": "Point", "coordinates": [-91.239839498, 43.8465726469]}, "type": "Feature", "properties": {"collection_times": [{"days": "Mon-Fri", "time": "12:30pm"}, {"days": "Sat", "time": "12:00pm"}, {"days": "Sun", "time": "Closed"}], "id": "5460300012", "name": "USPS COLLECTION BOX - BLUE BOX", "address": {"city": "LA CROSSE", "state": "WI", "street": "1607 GEORGE ST", "postcode": "54603"}}},
{"geometry": {"type": "Point", "coordinates": [-91.2395863741, 43.8328684618]}, "type": "Feature", "properties": {"collection_times": [{"days": "Mon-Sat", "time": "10:00am"}, {"days": "Sun", "time": "Closed"}], "id": "5460300014", "name": "USPS COLLECTION BOX - BLUE BOX", "address": {"city": "LA CROSSE", "state": "WI", "street": "507 LANG DR", "postcode": "54603"}}},
{"geometry": {"type": "Point", "coordinates": [-91.262941533, 43.8592626423]}, "type": "Feature", "properties": {"collection_times": [{"days": "Mon-Sat", "time": "12:00pm"}, {"days": "Sun", "time": "Closed"}], "id": "5460300020", "name": "USPS COLLECTION BOX - BLUE BOX", "address": {"city": "LA CROSSE", "state": "WI", "street": "201 SKY HARBOUR DR", "postcode": "54603"}}},
{"geometry": {"type": "Point", "coordinates": [-91.2450234626, 43.8560709031]}, "type": "Feature", "properties": {"collection_times": [{"days": "Mon-Sat", "time": "10:00am"}, {"days": "Sun", "time": "Closed"}], "id": "5460300023", "name": "USPS COLLECTION BOX - BLUE BOX", "address": {"city": "LA CROSSE", "state": "WI", "street": "2330 ROSE ST", "postcode": "54603"}}},
{"geometry": {"type": "Point", "coordinates": [-91.2491791804, 43.8224101106]}, "type": "Feature", "properties": {"collection_times": [{"days": "Mon-Sat", "time": "2:00pm"}, {"days": "Sun", "time": "Closed"}], "id": "5460300025", "name": "USPS COLLECTION BOX - BLUE BOX", "address": {"city": "LA CROSSE", "state": "WI", "street": "30 COPELAND AVE", "postcode": "54603"}}},
{"geometry": {"type": "Point", "coordinates": [-91.9143785772, 44.3191021031]}, "type": "Feature", "properties": {"collection_times": [{"days": "Mon-Fri", "time": "12:00pm"}, {"days": "Sat", "time": "11:00am"}, {"days": "Sun", "time": "Closed"}], "id": "5461000001", "name": "USPS COLLECTION BOX - BLUE BOX", "address": {"city": "ALMA", "state": "WI", "street": "205 S MAIN ST", "postcode": "54610"}}},
{"geometry": {"type": "Point", "coordinates": [-91.9143785772, 44.3191021031]}, "type": "Feature", "properties": {"collection_times": [{"days": "Mon-Fri", "time": "12:00pm"}, {"days": "Sat", "time": "11:00am"}, {"days": "Sun", "time": "Closed"}], "id": "5461000002", "name": "USPS COLLECTION BOX - PO LOBBY", "address": {"city": "ALMA", "state": "WI", "street": "205 S MAIN ST", "postcode": "54610"}}},
{"geometry": {"type": "Point", "coordinates": [-90.9132920262, 44.4370324033]}, "type": "Feature", "properties": {"collection_times": [{"days": "Mon-Fri", "time": "12:15pm"}, {"days": "Sat", "time": "9:00am"}, {"days": "Sun", "time": "Closed"}], "id": "5461100001", "name": "USPS COLLECTION BOX - BLUE BOX", "address": {"city": "ALMA CENTER", "state": "WI", "street": "105 W MAIN ST", "postcode": "54611"}}},
{"geometry": {"type": "Point", "coordinates": [-90.9132920262, 44.4370324033]}, "type": "Feature", "properties": {"collection_times": [{"days": "Mon-Fri", "time": "12:15pm"}, {"days": "Sat", "time": "9:00am"}, {"days": "Sun", "time": "Closed"}], "id": "5461100002", "name": "USPS COLLECTION BOX - PO LOBBY", "address": {"city": "ALMA CENTER", "state": "WI", "street": "105 W MAIN ST", "postcode": "54611"}}},
{"geometry": {"type": "Point", "coordinates": [-91.4916828047, 44.2469161825]}, "type": "Feature", "properties": {"collection_times": [{"days": "Mon-Fri", "time": "12:30pm"}, {"days": "Sat", "time": "11:00am"}, {"days": "Sun", "time": "Closed"}], "id": "5461200009", "name": "USPS COLLECTION BOX - BLUE BOX", "address": {"city": "ARCADIA", "state": "WI", "street": "1495 E WILSON AVE", "postcode": "54612"}}},
{"geometry": {"type": "Point", "coordinates": [-91.4916828047, 44.2469161825]}, "type": "Feature", "properties": {"collection_times": [{"days": "Mon-Fri", "time": "12:30pm"}, {"days": "Sat", "time": "11:00am"}, {"days": "Sun", "time": "Closed"}], "id": "5461200011", "name": "USPS COLLECTION BOX - PO LOBBY", "address": {"city": "ARCADIA", "state": "WI", "street": "1495 E WILSON AVE", "postcode": "54612"}}},
{"geometry": {"type": "Point", "coordinates": [-89.8788839998, 44.0248180194]}, "type": "Feature", "properties": {"collection_times": [{"days": "Mon-Fri", "time": "12:15pm"}, {"days": "Sat", "time": "9:30am"}, {"days": "Sun", "time": "Closed"}], "id": "5461300001", "name": "USPS COLLECTION BOX - BLUE BOX", "address": {"city": "ARKDALE", "state": "WI", "street": "1568 STATE ROAD 21", "postcode": "54613"}}},
{"geometry": {"type": "Point", "coordinates": [-89.8788839998, 44.0248180194]}, "type": "Feature", "properties": {"collection_times": [{"days": "Mon-Fri", "time": "12:15pm"}, {"days": "Sat", "time": "9:30am"}, {"days": "Sun", "time": "Closed"}], "id": "5461300002", "name": "USPS COLLECTION BOX - PO LOBBY", "address": {"city": "ARKDALE", "state": "WI", "street": "1568 STATE ROAD 21", "postcode": "54613"}}},
{"geometry": {"type": "Point", "coordinates": [-90.9757785063, 43.8900730402]}, "type": "Feature", "properties": {"collection_times": [{"days": "Mon-Fri", "time": "2:00pm"}, {"days": "Sat", "time": "11:00am"}, {"days": "Sun", "time": "Closed"}], "id": "5461400000", "name": "USPS COLLECTION BOX - BLUE BOX", "address": {"city": "BANGOR", "state": "WI", "street": "1415 PEARL ST", "postcode": "54614"}}},
{"geometry": {"type": "Point", "coordinates": [-90.9757785063, 43.8900730402]}, "type": "Feature", "properties": {"collection_times": [{"days": "Mon-Fri", "time": "2:00pm"}, {"days": "Sat", "time": "11:00am"}, {"days": "Sun", "time": "Closed"}], "id": "5461400002", "name": "USPS COLLECTION BOX - PO LOBBY", "address": {"city": "BANGOR", "state": "WI", "street": "1415 PEARL ST", "postcode": "54614"}}},
{"geometry": {"type": "Point", "coordinates": [-90.8188991563, 44.2963442812]}, "type": "Feature", "properties": {"collection_times": [{"days": "Mon-Sat", "time": "8:30am"}, {"days": "Sun", "time": "Closed"}], "id": "5461500001", "name": "USPS COLLECTION BOX - BLUE BOX", "address": {"city": "BLK RIVER FLS", "state": "WI", "street": "400 OASIS RD", "postcode": "54615"}}},
{"geometry": {"type": "Point", "coordinates": [-90.8535021564, 44.2947745878]}, "type": "Feature", "properties": {"collection_times": [{"days": "Mon-Sat", "time": "12:00pm"}, {"days": "Sun", "time": "Closed"}], "id": "5461500004", "name": "USPS COLLECTION BOX - BLUE BOX", "address": {"city": "BLK RIVER FLS", "state": "WI", "street": "106 N 5TH ST", "postcode": "54615"}}},
{"geometry": {"type": "Point", "coordinates": [-90.8443421729, 44.3015566308]}, "type": "Feature", "properties": {"collection_times": [{"days": "Mon-Sat", "time": "12:00pm"}, {"days": "Sun", "time": "Closed"}], "id": "5461500008", "name": "USPS COLLECTION BOX - BLUE BOX", "address": {"city": "BLK RIVER FLS", "state": "WI", "street": "445 N WATER ST", "postcode": "54615"}}},
{"geometry": {"type": "Point", "coordinates": [-90.8421883462, 44.2851110694]}, "type": "Feature", "properties": {"collection_times": [{"days": "Mon-Sat", "time": "10:00am"}, {"days": "Sun", "time": "Closed"}], "id": "5461500011", "name": "USPS COLLECTION BOX - BLUE BOX", "address": {"city": "BLK RIVER FLS", "state": "WI", "street": "236 GEBHARDT RD", "postcode": "54615"}}},
{"geometry": {"type": "Point", "coordinates": [-90.8486619379, 44.2942294227]}, "type": "Feature", "properties": {"collection_times": [{"days": "Mon-Sat", "time": "12:45pm"}, {"days": "Sun", "time": "Closed"}], "id": "5461500013", "name": "USPS COLLECTION BOX - BLUE BOX", "address": {"city": "BLK RIVER FLS", "state": "WI", "street": "108 FILLMORE ST", "postcode": "54615"}}},
{"geometry": {"type": "Point", "coordinates": [-90.8675504069, 44.27829655]}, "type": "Feature", "properties": {"collection_times": [{"days": "Mon-Sat", "time": "9:30am"}, {"days": "Sun", "time": "Closed"}], "id": "5461500015", "name": "USPS COLLECTION BOX - BLUE BOX", "address": {"city": "BLK RIVER FLS", "state": "WI", "street": "N5885 HWY 54 W", "postcode": "54615"}}},
{"geometry": {"type": "Point", "coordinates": [-90.8486619379, 44.2942294227]}, "type": "Feature", "properties": {"collection_times": [{"days": "Mon-Sat", "time": "12:45pm"}, {"days": "Sun", "time": "Closed"}], "id": "5461500016", "name": "USPS COLLECTION BOX - PO LOBBY", "address": {"city": "BLK RIVER FLS", "state": "WI", "street": "108 FILLMORE ST", "postcode": "54615"}}},
{"geometry": {"type": "Point", "coordinates": [-91.2331373505, 44.2944701049]}, "type": "Feature", "properties": {"collection_times": [{"days": "Mon-Fri", "time": "1:00pm"}, {"days": "Sat", "time": "10:00am"}, {"days": "Sun", "time": "Closed"}], "id": "5461600001", "name": "USPS COLLECTION BOX - BLUE BOX", "address": {"city": "BLAIR", "state": "WI", "street": "118 URBERG ST", "postcode": "54616"}}},
{"geometry": {"type": "Point", "coordinates": [-91.2331373505, 44.2944701049]}, "type": "Feature", "properties": {"collection_times": [{"days": "Mon-Fri", "time": "1:00pm"}, {"days": "Sat", "time": "10:00am"}, {"days": "Sun", "time": "Closed"}], "id": "5461600002", "name": "USPS COLLECTION BOX - PO LOBBY", "address": {"city": "BLAIR", "state": "WI", "street": "118 URBERG ST", "postcode": "54616"}}},
{"geometry": {"type": "Point", "coordinates": [-90.2699221296, 43.9205587209]}, "type": "Feature", "properties": {"collection_times": [{"days": "Mon-Fri", "time": "1:00pm"}, {"days": "Sat", "time": "9:30am"}, {"days": "Sun", "time": "Closed"}], "id": "5461800000", "name": "USPS COLLECTION BOX - BLUE BOX", "address": {"city": "CAMP DOUGLAS", "state": "WI", "street": "119 MAIN ST", "postcode": "54618"}}},
{"geometry": {"type": "Point", "coordinates": [-90.271438765, 43.8796468929]}, "type": "Feature", "properties": {"collection_times": [{"days": "Mon-Sat", "time": "12:00pm"}, {"days": "Sun", "time": "Closed"}], "id": "5461800001", "name": "USPS COLLECTION BOX - BLUE BOX", "address": {"city": "CAMP DOUGLAS", "state": "WI", "street": "111 E MAIN ST", "postcode": "54618"}}},
{"geometry": {"type": "Point", "coordinates": [-90.2699221296, 43.9205587209]}, "type": "Feature", "properties": {"collection_times": [{"days": "Mon-Fri", "time": "1:00pm"}, {"days": "Sat", "time": "9:30am"}, {"days": "Sun", "time": "Closed"}], "id": "5461800002", "name": "USPS COLLECTION BOX - PO LOBBY", "address": {"city": "CAMP DOUGLAS", "state": "WI", "street": "119 MAIN ST", "postcode": "54618"}}},
{"geometry": {"type": "Point", "coordinates": [-90.7792133465, 43.7428707527]}, "type": "Feature", "properties": {"collection_times": [{"days": "Mon-Fri", "time": "1:30pm"}, {"days": "Sat", "time": "10:30am"}, {"days": "Sun", "time": "Closed"}], "id": "5461900001", "name": "USPS COLLECTION BOX - BLUE BOX", "address": {"city": "CASHTON", "state": "WI", "street": "911 FRONT ST", "postcode": "54619"}}},
{"geometry": {"type": "Point", "coordinates": [-90.7792133465, 43.7428707527]}, "type": "Feature", "properties": {"collection_times": [{"days": "Mon-Fri", "time": "1:30pm"}, {"days": "Sat", "time": "10:30am"}, {"days": "Sun", "time": "Closed"}], "id": "5461900002", "name": "USPS COLLECTION BOX - PO LOBBY", "address": {"city": "CASHTON", "state": "WI", "street": "911 FRONT ST", "postcode": "54619"}}},
{"geometry": {"type": "Point", "coordinates": [-91.0941494118, 43.6585926784]}, "type": "Feature", "properties": {"collection_times": [{"days": "Mon-Fri", "time": "12:00pm"}, {"days": "Sat", "time": "10:00am"}, {"days": "Sun", "time": "Closed"}], "id": "5462100000", "name": "USPS COLLECTION BOX - BLUE BOX", "address": {"city": "CHASEBURG", "state": "WI", "street": "303 DEPOT ST", "postcode": "54621"}}},
{"geometry": {"type": "Point", "coordinates": [-91.0941494118, 43.6585926784]}, "type": "Feature", "properties": {"collection_times": [{"days": "Mon-Fri", "time": "12:00pm"}, {"days": "Sat", "time": "10:00am"}, {"days": "Sun", "time": "Closed"}], "id": "5462100001", "name": "USPS COLLECTION BOX - PO LOBBY", "address": {"city": "CHASEBURG", "state": "WI", "street": "303 DEPOT ST", "postcode": "54621"}}},
{"geometry": {"type": "Point", "coordinates": [-91.8357423119, 44.2274237266]}, "type": "Feature", "properties": {"collection_times": [{"days": "Mon-Fri", "time": "12:30pm"}, {"days": "Sat", "time": "10:30am"}, {"days": "Sun", "time": "Closed"}], "id": "5462200001", "name": "USPS COLLECTION BOX - BLUE BOX", "address": {"city": "COCHRANE", "state": "WI", "street": "108 N MAIN ST", "postcode": "54622"}}},
{"geometry": {"type": "Point", "coordinates": [-91.8357423119, 44.2274237266]}, "type": "Feature", "properties": {"collection_times": [{"days": "Mon-Fri", "time": "12:30pm"}, {"days": "Sat", "time": "10:30am"}, {"days": "Sun", "time": "Closed"}], "id": "5462200003", "name": "USPS COLLECTION BOX - PO LOBBY", "address": {"city": "COCHRANE", "state": "WI", "street": "108 N MAIN ST", "postcode": "54622"}}},
{"geometry": {"type": "Point", "coordinates": [-91.0115244338, 43.7024740022]}, "type": "Feature", "properties": {"collection_times": [{"days": "Mon-Fri", "time": "2:00pm"}, {"days": "Sat", "time": "10:00am"}, {"days": "Sun", "time": "Closed"}], "id": "5462300001", "name": "USPS COLLECTION BOX - BLUE BOX", "address": {"city": "COON VALLEY", "state": "WI", "street": "507 CENTRAL AVE", "postcode": "54623"}}},
{"geometry": {"type": "Point", "coordinates": [-91.0115244338, 43.7024740022]}, "type": "Feature", "properties": {"collection_times": [{"days": "Mon-Fri", "time": "2:00pm"}, {"days": "Sat", "time": "10:00am"}, {"days": "Sun", "time": "Closed"}], "id": "5462300002", "name": "USPS COLLECTION BOX - PO LOBBY", "address": {"city": "COON VALLEY", "state": "WI", "street": "507 CENTRAL AVE", "postcode": "54623"}}},
{"geometry": {"type": "Point", "coordinates": [-91.1987006196, 43.4235628477]}, "type": "Feature", "properties": {"collection_times": [{"days": "Mon-Fri", "time": "1:00pm"}, {"days": "Sat", "time": "9:00am"}, {"days": "Sun", "time": "Closed"}], "id": "5462400000", "name": "USPS COLLECTION BOX - BLUE BOX", "address": {"city": "DE SOTO", "state": "WI", "street": "207 HOUGHTON ST", "postcode": "54624"}}},
{"geometry": {"type": "Point", "coordinates": [-91.1987006196, 43.4235628477]}, "type": "Feature", "properties": {"collection_times": [{"days": "Mon-Fri", "time": "1:00pm"}, {"days": "Sat", "time": "9:00am"}, {"days": "Sun", "time": "Closed"}], "id": "5462400001", "name": "USPS COLLECTION BOX - PO LOBBY", "address": {"city": "DE SOTO", "state": "WI", "street": "207 HOUGHTON ST", "postcode": "54624"}}},
{"geometry": {"type": "Point", "coordinates": [-91.5507925658, 44.1293552008]}, "type": "Feature", "properties": {"collection_times": [{"days": "Mon-Fri", "time": "1:30pm"}, {"days": "Sat", "time": "9:15am"}, {"days": "Sun", "time": "Closed"}], "id": "5462500001", "name": "USPS COLLECTION BOX - BLUE BOX", "address": {"city": "DODGE", "state": "WI", "street": "N20224 CO RD J", "postcode": "54625"}}},
{"geometry": {"type": "Point", "coordinates": [-91.5507925658, 44.1293552008]}, "type": "Feature", "properties": {"collection_times": [{"days": "Mon-Fri", "time": "1:30pm"}, {"days": "Sat", "time": "9:15am"}, {"days": "Sun", "time": "Closed"}], "id": "5462500002", "name": "USPS COLLECTION BOX - PO LOBBY", "address": {"city": "DODGE", "state": "WI", "street": "N20224 CO RD J", "postcode": "54625"}}},
{"geometry": {"type": "Point", "coordinates": [-91.0170886145, 43.1667212381]}, "type": "Feature", "properties": {"collection_times": [{"days": "Mon-Fri", "time": "12:00pm"}, {"days": "Sat", "time": "9:00am"}, {"days": "Sun", "time": "Closed"}], "id": "5462600001", "name": "USPS COLLECTION BOX - BLUE BOX", "address": {"city": "EASTMAN", "state": "WI", "street": "106 N MAIN ST STE C", "postcode": "54626"}}},
{"geometry": {"type": "Point", "coordinates": [-91.0170886145, 43.1667212381]}, "type": "Feature", "properties": {"collection_times": [{"days": "Mon-Fri", "time": "12:00pm"}, {"days": "Sat", "time": "9:00am"}, {"days": "Sun", "time": "Closed"}], "id": "5462600002", "name": "USPS COLLECTION BOX - PO LOBBY", "address": {"city": "EASTMAN", "state": "WI", "street": "106 N MAIN ST STE C", "postcode": "54626"}}},
{"geometry": {"type": "Point", "coordinates": [-91.2678331679, 44.1705278285]}, "type": "Feature", "properties": {"collection_times": [{"days": "Mon-Fri", "time": "1:30pm"}, {"days": "Sat", "time": "9:30am"}, {"days": "Sun", "time": "Closed"}], "id": "5462700003", "name": "USPS COLLECTION BOX - PO LOBBY", "address": {"city": "ETTRICK", "state": "WI", "street": "22900 N MAIN ST", "postcode": "54627"}}},
{"geometry": {"type": "Point", "coordinates": [-91.2678331679, 44.1705278285]}, "type": "Feature", "properties": {"collection_times": [{"days": "Mon-Fri", "time": "1:30pm"}, {"days": "Sat", "time": "9:30am"}, {"days": "Sun", "time": "Closed"}], "id": "5462700005", "name": "USPS COLLECTION BOX - BLUE BOX", "address": {"city": "ETTRICK", "state": "WI", "street": "22900 N MAIN ST", "postcode": "54627"}}},
{"geometry": {"type": "Point", "coordinates": [-91.0951884903, 43.3465749576]}, "type": "Feature", "properties": {"collection_times": [{"days": "Mon-Fri", "time": "12:30pm"}, {"days": "Sat", "time": "9:30am"}, {"days": "Sun", "time": "Closed"}], "id": "5462800001", "name": "USPS COLLECTION BOX - BLUE BOX", "address": {"city": "FERRYVILLE", "state": "WI", "street": "158 MAIN ST", "postcode": "54628"}}},
{"geometry": {"type": "Point", "coordinates": [-91.0951884903, 43.3465749576]}, "type": "Feature", "properties": {"collection_times": [{"days": "Mon-Fri", "time": "12:30pm"}, {"days": "Sat", "time": "9:30am"}, {"days": "Sun", "time": "Closed"}], "id": "5462800002", "name": "USPS COLLECTION BOX - PO LOBBY", "address": {"city": "FERRYVILLE", "state": "WI", "street": "158 MAIN ST", "postcode": "54628"}}},
{"geometry": {"type": "Point", "coordinates": [-91.7170768357, 44.1310376218]}, "type": "Feature", "properties": {"collection_times": [{"days": "Mon-Fri", "time": "12:45pm"}, {"days": "Sat", "time": "9:30am"}, {"days": "Sun", "time": "Closed"}], "id": "5462900001", "name": "USPS COLLECTION BOX - BLUE BOX", "address": {"city": "FOUNTAIN CITY", "state": "WI", "street": "1 S MAIN ST", "postcode": "54629"}}},
{"geometry": {"type": "Point", "coordinates": [-91.7170768357, 44.1310376218]}, "type": "Feature", "properties": {"collection_times": [{"days": "Mon-Fri", "time": "12:45pm"}, {"days": "Sat", "time": "9:30am"}, {"days": "Sun", "time": "Closed"}], "id": "5462900002", "name": "USPS COLLECTION BOX - PO LOBBY", "address": {"city": "FOUNTAIN CITY", "state": "WI", "street": "1 S MAIN ST", "postcode": "54629"}}},
{"geometry": {"type": "Point", "coordinates": [-91.3421990447, 44.092360029]}, "type": "Feature", "properties": {"collection_times": [{"days": "Mon-Sat", "time": "12:30pm"}, {"days": "Sun", "time": "Closed"}], "id": "5463000001", "name": "USPS COLLECTION BOX - BLUE BOX", "address": {"city": "GALESVILLE", "state": "WI", "street": "17512 N MAIN ST", "postcode": "54630"}}},
{"geometry": {"type": "Point", "coordinates": [-91.3491051051, 44.0820085765]}, "type": "Feature", "properties": {"collection_times": [{"days": "Mon-Fri", "time": "2:00pm"}, {"days": "Sat", "time": "10:00am"}, {"days": "Sun", "time": "Closed"}], "id": "5463000002", "name": "USPS COLLECTION BOX - BLUE BOX", "address": {"city": "GALESVILLE", "state": "WI", "street": "16771 S MAIN ST", "postcode": "54630"}}},
{"geometry": {"type": "Point", "coordinates": [-91.3491051051, 44.0820085765]}, "type": "Feature", "properties": {"collection_times": [{"days": "Mon-Fri", "time": "2:00pm"}, {"days": "Sat", "time": "10:00am"}, {"days": "Sun", "time": "Closed"}], "id": "5463000003", "name": "USPS COLLECTION BOX - PO LOBBY", "address": {"city": "GALESVILLE", "state": "WI", "street": "16771 S MAIN ST", "postcode": "54630"}}},
{"geometry": {"type": "Point", "coordinates": [-90.8455656065, 43.3164953207]}, "type": "Feature", "properties": {"collection_times": [{"days": "Mon-Fri", "time": "12:00pm"}, {"days": "Sat", "time": "10:00am"}, {"days": "Sun", "time": "Closed"}], "id": "5463100002", "name": "USPS COLLECTION BOX - BLUE BOX", "address": {"city": "GAYS MILLS", "state": "WI", "street": "225 ORIN ST", "postcode": "54631"}}},
{"geometry": {"type": "Point", "coordinates": [-90.8455656065, 43.3164953207]}, "type": "Feature", "properties": {"collection_times": [{"days": "Mon-Fri", "time": "12:00pm"}, {"days": "Sat", "time": "10:00am"}, {"days": "Sun", "time": "Closed"}], "id": "5463100003", "name": "USPS COLLECTION BOX - PO LOBBY", "address": {"city": "GAYS MILLS", "state": "WI", "street": "225 ORIN ST", "postcode": "54631"}}},
{"geometry": {"type": "Point", "coordinates": [-91.2244704318, 43.5779966201]}, "type": "Feature", "properties": {"collection_times": [{"days": "Mon-Fri", "time": "1:15pm"}, {"days": "Sat", "time": "10:00am"}, {"days": "Sun", "time": "Closed"}], "id": "5463200000", "name": "USPS COLLECTION BOX - BLUE BOX", "address": {"city": "GENOA", "state": "WI", "street": "501 MAIN ST", "postcode": "54632"}}},
{"geometry": {"type": "Point", "coordinates": [-91.2244704318, 43.5779966201]}, "type": "Feature", "properties": {"collection_times": [{"days": "Mon-Fri", "time": "1:15pm"}, {"days": "Sat", "time": "10:00am"}, {"days": "Sun", "time": "Closed"}], "id": "5463200001", "name": "USPS COLLECTION BOX - PO LOBBY", "address": {"city": "GENOA", "state": "WI", "street": "501 MAIN ST", "postcode": "54632"}}},
{"geometry": {"type": "Point", "coordinates": [-90.3407043343, 43.6500749672]}, "type": "Feature", "properties": {"collection_times": [{"days": "Mon-Fri", "time": "12:30pm"}, {"days": "Sat", "time": "10:30am"}, {"days": "Sun", "time": "Closed"}], "id": "5463400002", "name": "USPS COLLECTION BOX - BLUE BOX", "address": {"city": "HILLSBORO", "state": "WI", "street": "713 WATER AVE", "postcode": "54634"}}},
{"geometry": {"type": "Point", "coordinates": [-90.3407043343, 43.6500749672]}, "type": "Feature", "properties": {"collection_times": [{"days": "Mon-Fri", "time": "12:30pm"}, {"days": "Sat", "time": "10:30am"}, {"days": "Sun", "time": "Closed"}], "id": "5463400005", "name": "USPS COLLECTION BOX - BLUE BOX", "address": {"city": "HILLSBORO", "state": "WI", "street": "713 WATER AVE", "postcode": "54634"}}},
{"geometry": {"type": "Point", "coordinates": [-90.3407043343, 43.6500749672]}, "type": "Feature", "properties": {"collection_times": [{"days": "Mon-Fri", "time": "12:30pm"}, {"days": "Sat", "time": "10:30am"}, {"days": "Sun", "time": "Closed"}], "id": "5463400006", "name": "USPS COLLECTION BOX - PO LOBBY", "address": {"city": "HILLSBORO", "state": "WI", "street": "713 WATER AVE", "postcode": "54634"}}},
{"geometry": {"type": "Point", "coordinates": [-91.0216309781, 44.3834178905]}, "type": "Feature", "properties": {"collection_times": [{"days": "Mon-Fri", "time": "12:00pm"}, {"days": "Sat", "time": "9:45am"}, {"days": "Sun", "time": "Closed"}], "id": "5463500002", "name": "USPS COLLECTION BOX - BLUE BOX", "address": {"city": "HIXTON", "state": "WI", "street": "127 W MAIN ST", "postcode": "54635"}}},
{"geometry": {"type": "Point", "coordinates": [-91.0216309781, 44.3834178905]}, "type": "Feature", "properties": {"collection_times": [{"days": "Mon-Fri", "time": "12:00pm"}, {"days": "Sat", "time": "9:45am"}, {"days": "Sun", "time": "Closed"}], "id": "5463500003", "name": "USPS COLLECTION BOX - PO LOBBY", "address": {"city": "HIXTON", "state": "WI", "street": "127 W MAIN ST", "postcode": "54635"}}},
{"geometry": {"type": "Point", "coordinates": [-91.2640913691, 43.9693547183]}, "type": "Feature", "properties": {"collection_times": [{"days": "Mon-Sat", "time": "11:30am"}, {"days": "Sun", "time": "Closed"}], "id": "5463600001", "name": "USPS COLLECTION BOX - BLUE BOX", "address": {"city": "HOLMEN", "state": "WI", "street": "600 N HOLMEN DR", "postcode": "54636"}}},
{"geometry": {"type": "Point", "coordinates": [-91.2596588218, 43.9562664603]}, "type": "Feature", "properties": {"collection_times": [{"days": "Mon-Fri", "time": "1:45pm"}, {"days": "Sat", "time": "11:30am"}, {"days": "Sun", "time": "Closed"}], "id": "5463600003", "name": "USPS COLLECTION BOX - BLUE BOX", "address": {"city": "HOLMEN", "state": "WI", "street": "1111 LINDEN DR", "postcode": "54636"}}},
{"geometry": {"type": "Point", "coordinates": [-91.2596588218, 43.9562664603]}, "type": "Feature", "properties": {"collection_times": [{"days": "Mon-Fri", "time": "1:45pm"}, {"days": "Sat", "time": "11:30am"}, {"days": "Sun", "time": "Closed"}], "id": "5463600005", "name": "USPS COLLECTION BOX - PO LOBBY", "address": {"city": "HOLMEN", "state": "WI", "street": "1111 LINDEN DR", "postcode": "54636"}}},
{"geometry": {"type": "Point", "coordinates": [-90.3684446585, 43.7924514135]}, "type": "Feature", "properties": {"collection_times": [{"days": "Mon-Fri", "time": "12:15pm"}, {"days": "Sat", "time": "8:30am"}, {"days": "Sun", "time": "Closed"}], "id": "5463800001", "name": "USPS COLLECTION BOX - BLUE BOX", "address": {"city": "KENDALL", "state": "WI", "street": "109 S RAILROAD ST", "postcode": "54638"}}},
{"geometry": {"type": "Point", "coordinates": [-90.3684446585, 43.7924514135]}, "type": "Feature", "properties": {"collection_times": [{"days": "Mon-Fri", "time": "12:15pm"}, {"days": "Sat", "time": "8:30am"}, {"days": "Sun", "time": "Closed"}], "id": "5463800002", "name": "USPS COLLECTION BOX - PO LOBBY", "address": {"city": "KENDALL", "state": "WI", "street": "109 S RAILROAD ST", "postcode": "54638"}}},
{"geometry": {"type": "Point", "coordinates": [-90.6376734526, 43.5743258422]}, "type": "Feature", "properties": {"collection_times": [{"days": "Mon-Fri", "time": "12:45pm"}, {"days": "Sat", "time": "10:00am"}, {"days": "Sun", "time": "Closed"}], "id": "5463900000", "name": "USPS COLLECTION BOX - BLUE BOX", "address": {"city": "LA FARGE", "state": "WI", "street": "205 W MAIN ST", "postcode": "54639"}}},
{"geometry": {"type": "Point", "coordinates": [-90.6376734526, 43.5743258422]}, "type": "Feature", "properties": {"collection_times": [{"days": "Mon-Fri", "time": "12:45pm"}, {"days": "Sat", "time": "10:00am"}, {"days": "Sun", "time": "Closed"}], "id": "5463900001", "name": "USPS COLLECTION BOX - PO LOBBY", "address": {"city": "LA FARGE", "state": "WI", "street": "205 W MAIN ST", "postcode": "54639"}}},
{"geometry": {"type": "Point", "coordinates": [-90.2474917656, 44.1860025294]}, "type": "Feature", "properties": {"collection_times": [{"days": "Mon-Sat", "time": "9:00am"}, {"days": "Sun", "time": "Closed"}], "id": "5464100000", "name": "USPS COLLECTION BOX - BLUE BOX", "address": {"city": "MATHER", "state": "WI", "street": "W10786 MAIN ST", "postcode": "54641"}}},
{"geometry": {"type": "Point", "coordinates": [-90.2474917656, 44.1860025294]}, "type": "Feature", "properties": {"collection_times": [{"days": "Mon-Sat", "time": "9:00am"}, {"days": "Sun", "time": "Closed"}], "id": "5464100001", "name": "USPS COLLECTION BOX - PO LOBBY", "address": {"city": "MATHER", "state": "WI", "street": "W10786 MAIN ST", "postcode": "54641"}}},
{"geometry": {"type": "Point", "coordinates": [-90.9961473896, 44.1325372959]}, "type": "Feature", "properties": {"collection_times": [{"days": "Mon-Fri", "time": "1:15pm"}, {"days": "Sat", "time": "9:30am"}, {"days": "Sun", "time": "Closed"}], "id": "5464200001", "name": "USPS COLLECTION BOX - BLUE BOX", "address": {"city": "MELROSE", "state": "WI", "street": "407 N WASHINGTON ST", "postcode": "54642"}}},
{"geometry": {"type": "Point", "coordinates": [-90.9961473896, 44.1325372959]}, "type": "Feature", "properties": {"collection_times": [{"days": "Mon-Fri", "time": "1:15pm"}, {"days": "Sat", "time": "9:30am"}, {"days": "Sun", "time": "Closed"}], "id": "5464200002", "name": "USPS COLLECTION BOX - PO LOBBY", "address": {"city": "MELROSE", "state": "WI", "street": "407 N WASHINGTON ST", "postcode": "54642"}}},
{"geometry": {"type": "Point", "coordinates": [-90.8486131173, 44.294189625]}, "type": "Feature", "properties": {"collection_times": [{"days": "Mon-Fri", "time": "12:15pm"}, {"days": "Sat", "time": "9:30am"}, {"days": "Sun", "time": "Closed"}], "id": "5464300001", "name": "USPS COLLECTION BOX - BLUE BOX", "address": {"city": "MILLSTON", "state": "WI", "street": "W6593 RAILROAD ST", "postcode": "54643"}}},
{"geometry": {"type": "Point", "coordinates": [-90.8486131173, 44.294189625]}, "type": "Feature", "properties": {"collection_times": [{"days": "Mon-Fri", "time": "12:15pm"}, {"days": "Sat", "time": "9:30am"}, {"days": "Sun", "time": "Closed"}], "id": "5464300002", "name": "USPS COLLECTION BOX - PO LOBBY", "address": {"city": "MILLSTON", "state": "WI", "street": "W6593 RAILROAD ST", "postcode": "54643"}}},
{"geometry": {"type": "Point", "coordinates": [-91.0915403595, 44.0273576749]}, "type": "Feature", "properties": {"collection_times": [{"days": "Mon-Fri", "time": "1:45pm"}, {"days": "Sat", "time": "8:30am"}, {"days": "Sun", "time": "Closed"}], "id": "5464400000", "name": "USPS COLLECTION BOX - BLUE BOX", "address": {"city": "MINDORO", "state": "WI", "street": "N8299 STATE ROAD #108", "postcode": "54644"}}},
{"geometry": {"type": "Point", "coordinates": [-91.0915403595, 44.0273576749]}, "type": "Feature", "properties": {"collection_times": [{"days": "Mon-Fri", "time": "1:45pm"}, {"days": "Sat", "time": "8:30am"}, {"days": "Sun", "time": "Closed"}], "id": "5464400001", "name": "USPS COLLECTION BOX - PO LOBBY", "address": {"city": "MINDORO", "state": "WI", "street": "N8299 STATE ROAD #108", "postcode": "54644"}}},
{"geometry": {"type": "Point", "coordinates": [-90.928613259, 43.3155713786]}, "type": "Feature", "properties": {"collection_times": [{"days": "Mon-Fri", "time": "11:00am"}, {"days": "Sat", "time": "9:30am"}, {"days": "Sun", "time": "Closed"}], "id": "5464500000", "name": "USPS COLLECTION BOX - BLUE BOX", "address": {"city": "MT STERLING", "state": "WI", "street": "305 DIAGONAL ST", "postcode": "54645"}}},
{"geometry": {"type": "Point", "coordinates": [-90.928613259, 43.3155713786]}, "type": "Feature", "properties": {"collection_times": [{"days": "Mon-Fri", "time": "11:00am"}, {"days": "Sat", "time": "9:30am"}, {"days": "Sun", "time": "Closed"}], "id": "5464500001", "name": "USPS COLLECTION BOX - PO LOBBY", "address": {"city": "MT STERLING", "state": "WI", "street": "305 DIAGONAL ST", "postcode": "54645"}}},
{"geometry": {"type": "Point", "coordinates": [-90.0794384166, 44.0242883632]}, "type": "Feature", "properties": {"collection_times": [{"days": "Mon-Fri", "time": "12:45pm"}, {"days": "Sat", "time": "10:00am"}, {"days": "Sun", "time": "Closed"}], "id": "5464600000", "name": "USPS COLLECTION BOX - BLUE BOX", "address": {"city": "NECEDAH", "state": "WI", "street": "603 W 3RD ST", "postcode": "54646"}}},
{"geometry": {"type": "Point", "coordinates": [-90.0794384166, 44.0242883632]}, "type": "Feature", "properties": {"collection_times": [{"days": "Mon-Fri", "time": "12:45pm"}, {"days": "Sat", "time": "10:00am"}, {"days": "Sun", "time": "Closed"}], "id": "5464600001", "name": "USPS COLLECTION BOX - PO LOBBY", "address": {"city": "NECEDAH", "state": "WI", "street": "603 W 3RD ST", "postcode": "54646"}}},
{"geometry": {"type": "Point", "coordinates": [-90.0794384166, 44.0242883632]}, "type": "Feature", "properties": {"collection_times": [{"days": "Mon-Fri", "time": "12:45pm"}, {"days": "Sat", "time": "10:00am"}, {"days": "Sun", "time": "Closed"}], "id": "5464600002", "name": "USPS COLLECTION BOX - PO LOBBY", "address": {"city": "NECEDAH", "state": "WI", "street": "603 W 3RD ST", "postcode": "54646"}}},
{"geometry": {"type": "Point", "coordinates": [-90.6219050785, 43.8328171981]}, "type": "Feature", "properties": {"collection_times": [{"days": "Mon-Fri", "time": "11:30am"}, {"days": "Sat", "time": "9:30am"}, {"days": "Sun", "time": "Closed"}], "id": "5464800000", "name": "USPS COLLECTION BOX - BLUE BOX", "address": {"city": "NORWALK", "state": "WI", "street": "202 MAIN ST", "postcode": "54648"}}},
{"geometry": {"type": "Point", "coordinates": [-90.6219050785, 43.8328171981]}, "type": "Feature", "properties": {"collection_times": [{"days": "Mon-Fri", "time": "11:30am"}, {"days": "Sat", "time": "9:30am"}, {"days": "Sun", "time": "Closed"}], "id": "5464800001", "name": "USPS COLLECTION BOX - PO LOBBY", "address": {"city": "NORWALK", "state": "WI", "street": "202 MAIN ST", "postcode": "54648"}}},
{"geometry": {"type": "Point", "coordinates": [-90.5047263129, 43.9783022308]}, "type": "Feature", "properties": {"collection_times": [{"days": "Mon-Fri", "time": "1:00pm"}, {"days": "Sat", "time": "9:30am"}, {"days": "Sun", "time": "Closed"}], "id": "5464900001", "name": "USPS COLLECTION BOX - BLUE BOX", "address": {"city": "OAKDALE", "state": "WI", "street": "136 E BADGER DR", "postcode": "54649"}}},
{"geometry": {"type": "Point", "coordinates": [-90.5047263129, 43.9783022308]}, "type": "Feature", "properties": {"collection_times": [{"days": "Mon-Fri", "time": "1:00pm"}, {"days": "Sat", "time": "9:30am"}, {"days": "Sun", "time": "Closed"}], "id": "5464900002", "name": "USPS COLLECTION BOX - PO LOBBY", "address": {"city": "OAKDALE", "state": "WI", "street": "134 E BADGER DR", "postcode": "54649"}}},
{"geometry": {"type": "Point", "coordinates": [-91.225186167, 43.8959822477]}, "type": "Feature", "properties": {"collection_times": [{"days": "Mon-Fri", "time": "2:00pm"}, {"days": "Sat", "time": "12:00pm"}, {"days": "Sun", "time": "Closed"}], "id": "5465000001", "name": "USPS COLLECTION BOX - BLUE BOX", "address": {"city": "LACROSSE", "state": "WI", "street": "304 11TH AVE N", "postcode": "54650"}}},
{"geometry": {"type": "Point", "coordinates": [-91.225186167, 43.8959822477]}, "type": "Feature", "properties": {"collection_times": [{"days": "Mon-Fri", "time": "2:00pm"}, {"days": "Sat", "time": "12:00pm"}, {"days": "Sun", "time": "Closed"}], "id": "5465000002", "name": "USPS COLLECTION BOX - BLUE BOX", "address": {"city": "LACROSSE", "state": "WI", "street": "304 11TH AVE N", "postcode": "54650"}}},
{"geometry": {"type": "Point", "coordinates": [-91.225186167, 43.8959822477]}, "type": "Feature", "properties": {"collection_times": [{"days": "Mon-Sat", "time": "12:00pm"}, {"days": "Sun", "time": "Closed"}], "id": "5465000006", "name": "USPS COLLECTION BOX - BLUE BOX", "address": {"city": "LACROSSE", "state": "WI", "street": "229 OAK FOREST DR", "postcode": "54650"}}},
{"geometry": {"type": "Point", "coordinates": [-91.225186167, 43.8959822477]}, "type": "Feature", "properties": {"collection_times": [{"days": "Mon-Sat", "time": "11:30am"}, {"days": "Sun", "time": "Closed"}], "id": "5465000009", "name": "USPS COLLECTION BOX - BLUE BOX", "address": {"city": "LACROSSE", "state": "WI", "street": "408 SAND LAKE RD", "postcode": "54650"}}},
{"geometry": {"type": "Point", "coordinates": [-91.225186167, 43.8959822477]}, "type": "Feature", "properties": {"collection_times": [{"days": "Mon-Sat", "time": "9:30am"}, {"days": "Sun", "time": "Closed"}], "id": "5465000013", "name": "USPS COLLECTION BOX - BLUE BOX", "address": {"city": "LACROSSE", "state": "WI", "street": "950 2ND AVE N", "postcode": "54650"}}},
{"geometry": {"type": "Point", "coordinates": [-91.225186167, 43.8959822477]}, "type": "Feature", "properties": {"collection_times": [{"days": "Mon-Sat", "time": "10:00am"}, {"days": "Sun", "time": "Closed"}], "id": "5465000014", "name": "USPS COLLECTION BOX - BLUE BOX", "address": {"city": "LACROSSE", "state": "WI", "street": "1220 CROSSING MEADOWS DR", "postcode": "54650"}}},
{"geometry": {"type": "Point", "coordinates": [-91.225186167, 43.8959822477]}, "type": "Feature", "properties": {"collection_times": [{"days": "Mon-Sat", "time": "11:00am"}, {"days": "Sun", "time": "Closed"}], "id": "5465000015", "name": "USPS COLLECTION BOX - BLUE BOX", "address": {"city": "LACROSSE", "state": "WI", "street": "9515 STATE ROAD 16", "postcode": "54650"}}},
{"geometry": {"type": "Point", "coordinates": [-91.225186167, 43.8959822477]}, "type": "Feature", "properties": {"collection_times": [{"days": "Mon-Fri", "time": "2:00pm"}, {"days": "Sat", "time": "12:00pm"}, {"days": "Sun", "time": "Closed"}], "id": "5465000019", "name": "USPS COLLECTION BOX - PO LOBBY", "address": {"city": "LACROSSE", "state": "WI", "street": "304 11TH AVE N", "postcode": "54650"}}},
{"geometry": {"type": "Point", "coordinates": [-91.225186167, 43.8959822477]}, "type": "Feature", "properties": {"collection_times": [{"days": "Mon-Sat", "time": "11:00am"}, {"days": "Sun", "time": "Closed"}], "id": "5465000020", "name": "USPS COLLECTION BOX - BLUE BOX", "address": {"city": "LACROSSE", "state": "WI", "street": "3107 MARKET PL", "postcode": "54650"}}},
{"geometry": {"type": "Point", "coordinates": [-91.225186167, 43.8959822477]}, "type": "Feature", "properties": {"collection_times": [{"days": "Mon-Sat", "time": "10:30am"}, {"days": "Sun", "time": "Closed"}], "id": "5465000022", "name": "USPS COLLECTION BOX - BLUE BOX", "address": {"city": "LACROSSE", "state": "WI", "street": "W6782 ABBEY RD", "postcode": "54650"}}},
{"geometry": {"type": "Point", "coordinates": [-90.5912807415, 43.7240207501]}, "type": "Feature", "properties": {"collection_times": [{"days": "Mon-Fri", "time": "1:00pm"}, {"days": "Sat", "time": "9:15am"}, {"days": "Sun", "time": "Closed"}], "id": "5465100001", "name": "USPS COLLECTION BOX - PO LOBBY", "address": {"city": "ONTARIO", "state": "WI", "street": "321 MAIN ST", "postcode": "54651"}}},
{"geometry": {"type": "Point", "coordinates": [-90.5912807415, 43.7240207501]}, "type": "Feature", "properties": {"collection_times": [{"days": "Mon-Fri", "time": "1:00pm"}, {"days": "Sat", "time": "9:15am"}, {"days": "Sun", "time": "Closed"}], "id": "5465100002", "name": "USPS COLLECTION BOX - BLUE BOX", "address": {"city": "ONTARIO", "state": "WI", "street": "321 MAIN ST", "postcode": "54651"}}},
{"geometry": {"type": "Point", "coordinates": [-90.7595481363, 43.4496911558]}, "type": "Feature", "properties": {"collection_times": [{"days": "Mon-Fri", "time": "12:30pm"}, {"days": "Sat", "time": "9:00am"}, {"days": "Sun", "time": "Closed"}], "id": "5465200002", "name": "USPS COLLECTION BOX - BLUE BOX", "address": {"city": "READSTOWN", "state": "WI", "street": "120 N 4TH ST", "postcode": "54652"}}},
{"geometry": {"type": "Point", "coordinates": [-90.7595481363, 43.4496911558]}, "type": "Feature", "properties": {"collection_times": [{"days": "Mon-Fri", "time": "12:30pm"}, {"days": "Sat", "time": "9:00am"}, {"days": "Sun", "time": "Closed"}], "id": "5465200003", "name": "USPS COLLECTION BOX - PO LOBBY", "address": {"city": "READSTOWN", "state": "WI", "street": "120 N 4TH ST", "postcode": "54652"}}},
{"geometry": {"type": "Point", "coordinates": [-90.9200598158, 43.9045257604]}, "type": "Feature", "properties": {"collection_times": [{"days": "Mon-Fri", "time": "1:30pm"}, {"days": "Sat", "time": "10:00am"}, {"days": "Sun", "time": "Closed"}], "id": "5465300002", "name": "USPS COLLECTION BOX - BLUE BOX", "address": {"city": "ROCKLAND", "state": "WI", "street": "102 S COMMERCIAL ST", "postcode": "54653"}}},
{"geometry": {"type": "Point", "coordinates": [-90.9200598158, 43.9045257604]}, "type": "Feature", "properties": {"collection_times": [{"days": "Mon-Fri", "time": "1:30pm"}, {"days": "Sat", "time": "10:00am"}, {"days": "Sun", "time": "Closed"}], "id": "5465300003", "name": "USPS COLLECTION BOX - PO LOBBY", "address": {"city": "ROCKLAND", "state": "WI", "street": "102 S COMMERCIAL ST", "postcode": "54653"}}},
{"geometry": {"type": "Point", "coordinates": [-90.9587410052, 43.2650397388]}, "type": "Feature", "properties": {"collection_times": [{"days": "Mon-Fri", "time": "11:30am"}, {"days": "Sat", "time": "9:00am"}, {"days": "Sun", "time": "Closed"}], "id": "5465400001", "name": "USPS COLLECTION BOX - BLUE BOX", "address": {"city": "SENECA", "state": "WI", "street": "201 MAIN ST", "postcode": "54654"}}},
{"geometry": {"type": "Point", "coordinates": [-90.9587410052, 43.2650397388]}, "type": "Feature", "properties": {"collection_times": [{"days": "Mon-Fri", "time": "11:30am"}, {"days": "Sat", "time": "9:00am"}, {"days": "Sun", "time": "Closed"}], "id": "5465400002", "name": "USPS COLLECTION BOX - PO LOBBY", "address": {"city": "SENECA", "state": "WI", "street": "201 MAIN ST", "postcode": "54654"}}},
{"geometry": {"type": "Point", "coordinates": [-90.7674759891, 43.3886154604]}, "type": "Feature", "properties": {"collection_times": [{"days": "Mon-Fri", "time": "12:30pm"}, {"days": "Sat", "time": "11:30am"}, {"days": "Sun", "time": "Closed"}], "id": "5465500000", "name": "USPS COLLECTION BOX - BLUE BOX", "address": {"city": "SOLDIERS GROVE", "state": "WI", "street": "101 SUNSET AVE", "postcode": "54655"}}},
{"geometry": {"type": "Point", "coordinates": [-90.7674759891, 43.3886154604]}, "type": "Feature", "properties": {"collection_times": [{"days": "Mon-Fri", "time": "12:30pm"}, {"days": "Sat", "time": "11:30am"}, {"days": "Sun", "time": "Closed"}], "id": "5465500001", "name": "USPS COLLECTION BOX - PO LOBBY", "address": {"city": "SOLDIERS GROVE", "state": "WI", "street": "101 SUNSET AVE", "postcode": "54655"}}},
{"geometry": {"type": "Point", "coordinates": [-90.8206930324, 43.9463557077]}, "type": "Feature", "properties": {"collection_times": [{"days": "Mon-Sat", "time": "10:15am"}, {"days": "Sun", "time": "Closed"}], "id": "5465600004", "name": "USPS COLLECTION BOX - BLUE BOX", "address": {"city": "SPARTA", "state": "WI", "street": "229 N BLACK RIVER ST", "postcode": "54656"}}},
{"geometry": {"type": "Point", "coordinates": [-90.8123747987, 43.9433610386]}, "type": "Feature", "properties": {"collection_times": [{"days": "Mon-Sat", "time": "12:00pm"}, {"days": "Sun", "time": "Closed"}], "id": "5465600012", "name": "USPS COLLECTION BOX - BLUE BOX", "address": {"city": "SPARTA", "state": "WI", "street": "201 W OAK ST", "postcode": "54656"}}},
{"geometry": {"type": "Point", "coordinates": [-90.8124545099, 43.9392207972]}, "type": "Feature", "properties": {"collection_times": [{"days": "Mon-Sat", "time": "10:30am"}, {"days": "Sun", "time": "Closed"}], "id": "5465600015", "name": "USPS COLLECTION BOX - BLUE BOX", "address": {"city": "SPARTA", "state": "WI", "street": "218 W WISCONSIN ST", "postcode": "54656"}}},
{"geometry": {"type": "Point", "coordinates": [-90.811255349, 43.9443639516]}, "type": "Feature", "properties": {"collection_times": [{"days": "Mon-Sat", "time": "1:30pm"}, {"days": "Sun", "time": "Closed"}], "id": "5465600017", "name": "USPS COLLECTION BOX - BLUE BOX", "address": {"city": "SPARTA", "state": "WI", "street": "123 W MAIN ST", "postcode": "54656"}}},
{"geometry": {"type": "Point", "coordinates": [-90.8206583791, 43.9350465102]}, "type": "Feature", "properties": {"collection_times": [{"days": "Mon-Sat", "time": "12:00pm"}, {"days": "Sun", "time": "Closed"}], "id": "5465600018", "name": "USPS COLLECTION BOX - BLUE BOX", "address": {"city": "SPARTA", "state": "WI", "street": "918 S BLACK RIVER ST", "postcode": "54656"}}},
{"geometry": {"type": "Point", "coordinates": [-90.8213213444, 43.9392953968]}, "type": "Feature", "properties": {"collection_times": [{"days": "Mon-Sat", "time": "12:00pm"}, {"days": "Sun", "time": "Closed"}], "id": "5465600019", "name": "USPS COLLECTION BOX - BLUE BOX", "address": {"city": "SPARTA", "state": "WI", "street": "834 W WISCONSIN ST", "postcode": "54656"}}},
{"geometry": {"type": "Point", "coordinates": [-90.811255349, 43.9443639516]}, "type": "Feature", "properties": {"collection_times": [{"days": "Mon-Sat", "time": "1:30pm"}, {"days": "Sun", "time": "Closed"}], "id": "5465600023", "name": "USPS COLLECTION BOX - PO LOBBY", "address": {"city": "SPARTA", "state": "WI", "street": "123 W MAIN ST", "postcode": "54656"}}},
{"geometry": {"type": "Point", "coordinates": [-90.8346391792, 43.9384578777]}, "type": "Feature", "properties": {"collection_times": [{"days": "Mon-Sat", "time": "10:00am"}, {"days": "Sun", "time": "Closed"}], "id": "5465600024", "name": "USPS COLLECTION BOX - BLUE BOX", "address": {"city": "SPARTA", "state": "WI", "street": "1600 W WISCONSIN ST", "postcode": "54656"}}},
{"geometry": {"type": "Point", "coordinates": [-90.840959802, 44.0871376482]}, "type": "Feature", "properties": {"collection_times": [{"days": "Mon-Sat", "time": "10:15am"}, {"days": "Sun", "time": "Closed"}], "id": "5465600025", "name": "USPS COLLECTION BOX - BLUE BOX", "address": {"city": "SPARTA", "state": "WI", "street": "5897 STATE HIGHWAY 27", "postcode": "54656"}}},
{"geometry": {"type": "Point", "coordinates": [-90.811255349, 43.9443639516]}, "type": "Feature", "properties": {"collection_times": [{"days": "Mon-Sat", "time": "1:30pm"}, {"days": "Sun", "time": "Closed"}], "id": "5465600027", "name": "USPS COLLECTION BOX - BLUE BOX", "address": {"city": "SPARTA", "state": "WI", "street": "123 W MAIN ST", "postcode": "54656"}}},
{"geometry": {"type": "Point", "coordinates": [-91.2191098619, 43.6623196599]}, "type": "Feature", "properties": {"collection_times": [{"days": "Mon-Fri", "time": "1:45pm"}, {"days": "Sat", "time": "9:00am"}, {"days": "Sun", "time": "Closed"}], "id": "5465800000", "name": "USPS COLLECTION BOX - BLUE BOX", "address": {"city": "STODDARD", "state": "WI", "street": "115 N MAIN ST", "postcode": "54658"}}},
{"geometry": {"type": "Point", "coordinates": [-91.2191098619, 43.6623196599]}, "type": "Feature", "properties": {"collection_times": [{"days": "Mon-Fri", "time": "1:45pm"}, {"days": "Sat", "time": "9:00am"}, {"days": "Sun", "time": "Closed"}], "id": "5465800001", "name": "USPS COLLECTION BOX - PO LOBBY", "address": {"city": "STODDARD", "state": "WI", "street": "115 N MAIN ST", "postcode": "54658"}}},
{"geometry": {"type": "Point", "coordinates": [-91.1253416519, 44.3218265675]}, "type": "Feature", "properties": {"collection_times": [{"days": "Mon-Fri", "time": "11:45am"}, {"days": "Sat", "time": "9:30am"}, {"days": "Sun", "time": "Closed"}], "id": "5465900001", "name": "USPS COLLECTION BOX - BLUE BOX", "address": {"city": "TAYLOR", "state": "WI", "street": "110 2ND ST", "postcode": "54659"}}},
{"geometry": {"type": "Point", "coordinates": [-91.1253416519, 44.3218265675]}, "type": "Feature", "properties": {"collection_times": [{"days": "Mon-Fri", "time": "11:45am"}, {"days": "Sat", "time": "9:30am"}, {"days": "Sun", "time": "Closed"}], "id": "5465900002", "name": "USPS COLLECTION BOX - PO LOBBY", "address": {"city": "TAYLOR", "state": "WI", "street": "110 2ND ST", "postcode": "54659"}}},
{"geometry": {"type": "Point", "coordinates": [-90.5050589565, 44.0002175905]}, "type": "Feature", "properties": {"collection_times": [{"days": "Mon-Sat", "time": "1:30pm"}, {"days": "Sun", "time": "Closed"}], "id": "5466000001", "name": "USPS COLLECTION BOX - BLUE BOX", "address": {"city": "TOMAH", "state": "WI", "street": "1000 N SUPERIOR AVE", "postcode": "54660"}}},
{"geometry": {"type": "Point", "coordinates": [-90.5047927149, 43.9777670089]}, "type": "Feature", "properties": {"collection_times": [{"days": "Mon-Sat", "time": "1:00pm"}, {"days": "Sun", "time": "Closed"}], "id": "5466000002", "name": "USPS COLLECTION BOX - BLUE BOX", "address": {"city": "TOMAH", "state": "WI", "street": "104 W MILWAUKEE ST", "postcode": "54660"}}},
{"geometry": {"type": "Point", "coordinates": [-90.4973556859, 43.9721189277]}, "type": "Feature", "properties": {"collection_times": [{"days": "Mon-Sat", "time": "9:30am"}, {"days": "Sun", "time": "Closed"}], "id": "5466000004", "name": "USPS COLLECTION BOX - BLUE BOX", "address": {"city": "TOMAH", "state": "WI", "street": "701 E CLIFTON ST", "postcode": "54660"}}},
{"geometry": {"type": "Point", "coordinates": [-90.5033153405, 43.9718902302]}, "type": "Feature", "properties": {"collection_times": [{"days": "Mon-Sat", "time": "10:30am"}, {"days": "Sun", "time": "Closed"}], "id": "5466000005", "name": "USPS COLLECTION BOX - BLUE BOX", "address": {"city": "TOMAH", "state": "WI", "street": "1515 KILBOURN AVE", "postcode": "54660"}}},
{"geometry": {"type": "Point", "coordinates": [-90.504513165, 43.9877938125]}, "type": "Feature", "properties": {"collection_times": [{"days": "Mon-Sat", "time": "10:45am"}, {"days": "Sun", "time": "Closed"}], "id": "5466000010", "name": "USPS COLLECTION BOX - BLUE BOX", "address": {"city": "TOMAH", "state": "WI", "street": "229 N SUPERIOR AVE", "postcode": "54660"}}},
{"geometry": {"type": "Point", "coordinates": [-90.489487091, 43.9830239395]}, "type": "Feature", "properties": {"collection_times": [{"days": "Mon-Sat", "time": "1:00pm"}, {"days": "Sun", "time": "Closed"}], "id": "5466000019", "name": "USPS COLLECTION BOX - BLUE BOX", "address": {"city": "TOMAH", "state": "WI", "street": "213 SIME AVE", "postcode": "54660"}}},
{"geometry": {"type": "Point", "coordinates": [-90.5050589565, 44.0002175905]}, "type": "Feature", "properties": {"collection_times": [{"days": "Mon-Sat", "time": "1:30pm"}, {"days": "Sun", "time": "Closed"}], "id": "5466000021", "name": "USPS COLLECTION BOX - PO LOBBY", "address": {"city": "TOMAH", "state": "WI", "street": "1000 N SUPERIOR AVE", "postcode": "54660"}}},
{"geometry": {"type": "Point", "coordinates": [-90.5050589565, 44.0002175905]}, "type": "Feature", "properties": {"collection_times": [{"days": "Mon-Sat", "time": "1:30pm"}, {"days": "Sun", "time": "Closed"}], "id": "5466000022", "name": "USPS COLLECTION BOX - BLUE BOX", "address": {"city": "TOMAH", "state": "WI", "street": "1000 N SUPERIOR AVE", "postcode": "54660"}}},
{"geometry": {"type": "Point", "coordinates": [-90.5050589565, 44.0002175905]}, "type": "Feature", "properties": {"collection_times": [{"days": "Mon-Sat", "time": "1:30pm"}, {"days": "Sun", "time": "Closed"}], "id": "5466000023", "name": "USPS COLLECTION BOX - BLUE BOX", "address": {"city": "TOMAH", "state": "WI", "street": "1000 N SUPERIOR AVE", "postcode": "54660"}}},
{"geometry": {"type": "Point", "coordinates": [-90.5047927149, 43.9777670089]}, "type": "Feature", "properties": {"collection_times": [{"days": "Mon-Sat", "time": "1:00pm"}, {"days": "Sun", "time": "Closed"}], "id": "5466000024", "name": "USPS COLLECTION BOX - BLUE BOX", "address": {"city": "TOMAH", "state": "WI", "street": "104 W MILWAUKEE ST", "postcode": "54660"}}},
{"geometry": {"type": "Point", "coordinates": [-90.5102907629, 44.0177340775]}, "type": "Feature", "properties": {"collection_times": [{"days": "Mon-Sat", "time": "10:15am"}, {"days": "Sun", "time": "Closed"}], "id": "5466000025", "name": "USPS COLLECTION BOX - BLUE BOX", "address": {"city": "TOMAH", "state": "WI", "street": "222 W MC COY BLVD", "postcode": "54660"}}},
{"geometry": {"type": "Point", "coordinates": [-90.5047927149, 43.9777670089]}, "type": "Feature", "properties": {"collection_times": [{"days": "Mon-Sat", "time": "1:00pm"}, {"days": "Sun", "time": "Closed"}], "id": "5466000027", "name": "USPS COLLECTION BOX - BLUE BOX", "address": {"city": "TOMAH", "state": "WI", "street": "104 W MILWAUKEE ST", "postcode": "54660"}}},
{"geometry": {"type": "Point", "coordinates": [-90.5050589565, 44.0002175905]}, "type": "Feature", "properties": {"collection_times": [{"days": "Mon-Sat", "time": "1:30pm"}, {"days": "Sun", "time": "Closed"}], "id": "5466000028", "name": "USPS COLLECTION BOX - BLUE BOX", "address": {"city": "TOMAH", "state": "WI", "street": "1000 N SUPERIOR AVE", "postcode": "54660"}}},
{"geometry": {"type": "Point", "coordinates": [-91.4421223241, 44.0057373595]}, "type": "Feature", "properties": {"collection_times": [{"days": "Mon-Fri", "time": "2:00pm"}, {"days": "Sat", "time": "10:30am"}, {"days": "Sun", "time": "Closed"}], "id": "5466100001", "name": "USPS COLLECTION BOX - BLUE BOX", "address": {"city": "TREMPEALEAU", "state": "WI", "street": "11421 MAIN ST", "postcode": "54661"}}},
{"geometry": {"type": "Point", "coordinates": [-91.4421223241, 44.0057373595]}, "type": "Feature", "properties": {"collection_times": [{"days": "Mon-Fri", "time": "2:00pm"}, {"days": "Sat", "time": "10:30am"}, {"days": "Sun", "time": "Closed"}], "id": "5466100002", "name": "USPS COLLECTION BOX - PO LOBBY", "address": {"city": "TREMPEALEAU", "state": "WI", "street": "11421 MAIN ST", "postcode": "54661"}}},
{"geometry": {"type": "Point", "coordinates": [-90.5047263129, 43.9783022308]}, "type": "Feature", "properties": {"collection_times": [{"days": "Mon-Sat", "time": "10:00am"}, {"days": "Sun", "time": "Closed"}], "id": "5466200000", "name": "USPS COLLECTION BOX - BLUE BOX", "address": {"city": "TUNNEL CITY", "state": "WI", "street": "21447 FLAGSHIP AVE", "postcode": "54662"}}},
{"geometry": {"type": "Point", "coordinates": [-90.5047263129, 43.9783022308]}, "type": "Feature", "properties": {"collection_times": [{"days": "Mon-Sat", "time": "10:00am"}, {"days": "Sun", "time": "Closed"}], "id": "5466200001", "name": "USPS COLLECTION BOX - PO LOBBY", "address": {"city": "TUNNEL CITY", "state": "WI", "street": "21447 FLAGSHIP AVE", "postcode": "54662"}}},
{"geometry": {"type": "Point", "coordinates": [-90.6686282304, 43.5060874448]}, "type": "Feature", "properties": {"collection_times": [{"days": "Mon-Fri", "time": "12:30pm"}, {"days": "Sat", "time": "10:00am"}, {"days": "Sun", "time": "Closed"}], "id": "5466400000", "name": "USPS COLLECTION BOX - BLUE BOX", "address": {"city": "VIOLA", "state": "WI", "street": "117 W COMMERCIAL ST", "postcode": "54664"}}},
{"geometry": {"type": "Point", "coordinates": [-90.6686282304, 43.5060874448]}, "type": "Feature", "properties": {"collection_times": [{"days": "Mon-Fri", "time": "12:30pm"}, {"days": "Sat", "time": "10:00am"}, {"days": "Sun", "time": "Closed"}], "id": "5466400001", "name": "USPS COLLECTION BOX - PO LOBBY", "address": {"city": "VIOLA", "state": "WI", "street": "117 W COMMERCIAL ST", "postcode": "54664"}}},
{"geometry": {"type": "Point", "coordinates": [-90.8890834457, 43.5552890178]}, "type": "Feature", "properties": {"collection_times": [{"days": "Mon-Fri", "time": "1:00pm"}, {"days": "Sat", "time": "11:45am"}, {"days": "Sun", "time": "Closed"}], "id": "5466500001", "name": "USPS COLLECTION BOX - BLUE BOX", "address": {"city": "VIROQUA", "state": "WI", "street": "119 E JEFFERSON ST", "postcode": "54665"}}},
{"geometry": {"type": "Point", "coordinates": [-90.8888188858, 43.5511969002]}, "type": "Feature", "properties": {"collection_times": [{"days": "Mon-Sat", "time": "12:00pm"}, {"days": "Sun", "time": "Closed"}], "id": "5466500004", "name": "USPS COLLECTION BOX - BLUE BOX", "address": {"city": "VIROQUA", "state": "WI", "street": "507 S MAIN ST", "postcode": "54665"}}},
{"geometry": {"type": "Point", "coordinates": [-90.8894324314, 43.5571763924]}, "type": "Feature", "properties": {"collection_times": [{"days": "Mon-Sat", "time": "12:00pm"}, {"days": "Sun", "time": "Closed"}], "id": "5466500006", "name": "USPS COLLECTION BOX - BLUE BOX", "address": {"city": "VIROQUA", "state": "WI", "street": "202 N MAIN ST", "postcode": "54665"}}},
{"geometry": {"type": "Point", "coordinates": [-90.8930868759, 43.5571503094]}, "type": "Feature", "properties": {"collection_times": [{"days": "Mon-Fri", "time": "12:00pm"}, {"days": "Sat-Sun", "time": "Closed"}], "id": "5466500007", "name": "USPS COLLECTION BOX - BLUE BOX", "address": {"city": "VIROQUA", "state": "WI", "street": "400 W DECKER ST", "postcode": "54665"}}},
{"geometry": {"type": "Point", "coordinates": [-90.8889961029, 43.566507788]}, "type": "Feature", "properties": {"collection_times": [{"days": "Mon-Sat", "time": "12:00pm"}, {"days": "Sun", "time": "Closed"}], "id": "5466500011", "name": "USPS COLLECTION BOX - BLUE BOX", "address": {"city": "VIROQUA", "state": "WI", "street": "1230 N MAIN ST", "postcode": "54665"}}},
{"geometry": {"type": "Point", "coordinates": [-90.8890834457, 43.5552890178]}, "type": "Feature", "properties": {"collection_times": [{"days": "Mon-Fri", "time": "1:00pm"}, {"days": "Sat", "time": "11:45am"}, {"days": "Sun", "time": "Closed"}], "id": "5466500014", "name": "USPS COLLECTION BOX - PO LOBBY", "address": {"city": "VIROQUA", "state": "WI", "street": "119 E JEFFERSON ST", "postcode": "54665"}}},
{"geometry": {"type": "Point", "coordinates": [-90.8894277762, 43.5600843827]}, "type": "Feature", "properties": {"collection_times": [{"days": "Mon-Sat", "time": "12:00pm"}, {"days": "Sun", "time": "Closed"}], "id": "5466500015", "name": "USPS COLLECTION BOX - BLUE BOX", "address": {"city": "VIROQUA", "state": "WI", "street": "520 N MAIN ST", "postcode": "54665"}}},
{"geometry": {"type": "Point", "coordinates": [-90.4998820924, 44.1299201982]}, "type": "Feature", "properties": {"collection_times": [{"days": "Mon-Fri", "time": "12:45pm"}, {"days": "Sat", "time": "9:00am"}, {"days": "Sun", "time": "Closed"}], "id": "5466600001", "name": "USPS COLLECTION BOX - BLUE BOX", "address": {"city": "WARRENS", "state": "WI", "street": "302 MAIN ST", "postcode": "54666"}}},
{"geometry": {"type": "Point", "coordinates": [-90.4998649319, 44.1300721374]}, "type": "Feature", "properties": {"collection_times": [{"days": "Mon-Fri", "time": "12:45pm"}, {"days": "Sat", "time": "9:00am"}, {"days": "Sun", "time": "Closed"}], "id": "5466600002", "name": "USPS COLLECTION BOX - PO LOBBY", "address": {"city": "WARRENS", "state": "WI", "street": "302 MAIN ST", "postcode": "54666"}}},
{"geometry": {"type": "Point", "coordinates": [-90.8568096948, 43.654406845]}, "type": "Feature", "properties": {"collection_times": [{"days": "Mon-Fri", "time": "1:45pm"}, {"days": "Sat", "time": "11:45am"}, {"days": "Sun", "time": "Closed"}], "id": "5466700002", "name": "USPS COLLECTION BOX - BLUE BOX", "address": {"city": "WESTBY", "state": "WI", "street": "102 MELBY ST", "postcode": "54667"}}},
{"geometry": {"type": "Point", "coordinates": [-90.8568096948, 43.654406845]}, "type": "Feature", "properties": {"collection_times": [{"days": "Mon-Fri", "time": "1:45pm"}, {"days": "Sat", "time": "11:45am"}, {"days": "Sun", "time": "Closed"}], "id": "5466700004", "name": "USPS COLLECTION BOX - PO LOBBY", "address": {"city": "WESTBY", "state": "WI", "street": "102 MELBY ST", "postcode": "54667"}}},
{"geometry": {"type": "Point", "coordinates": [-91.0813922005, 43.8971217765]}, "type": "Feature", "properties": {"collection_times": [{"days": "Mon-Fri", "time": "2:15pm"}, {"days": "Sat", "time": "10:00am"}, {"days": "Sun", "time": "Closed"}], "id": "5466900001", "name": "USPS COLLECTION BOX - BLUE BOX", "address": {"city": "WEST SALEM", "state": "WI", "street": "111 LEONARD ST N", "postcode": "54669"}}},
{"geometry": {"type": "Point", "coordinates": [-91.0813922005, 43.8971217765]}, "type": "Feature", "properties": {"collection_times": [{"days": "Mon-Fri", "time": "2:15pm"}, {"days": "Sat", "time": "10:00am"}, {"days": "Sun", "time": "Closed"}], "id": "5466900002", "name": "USPS COLLECTION BOX - BLUE BOX", "address": {"city": "WEST SALEM", "state": "WI", "street": "111 LEONARD ST N", "postcode": "54669"}}},
{"geometry": {"type": "Point", "coordinates": [-91.0999605445, 43.8990372715]}, "type": "Feature", "properties": {"collection_times": [{"days": "Mon-Sat", "time": "10:30am"}, {"days": "Sun", "time": "Closed"}], "id": "5466900004", "name": "USPS COLLECTION BOX - BLUE BOX", "address": {"city": "WEST SALEM", "state": "WI", "street": "985 W CITY HIGHWAY 16", "postcode": "54669"}}},
{"geometry": {"type": "Point", "coordinates": [-91.090492141, 43.9001161301]}, "type": "Feature", "properties": {"collection_times": [{"days": "Mon-Sat", "time": "10:30am"}, {"days": "Sun", "time": "Closed"}], "id": "5466900005", "name": "USPS COLLECTION BOX - BLUE BOX", "address": {"city": "WEST SALEM", "state": "WI", "street": "420 COMMERCE ST", "postcode": "54669"}}},
{"geometry": {"type": "Point", "coordinates": [-91.0813922005, 43.8971217765]}, "type": "Feature", "properties": {"collection_times": [{"days": "Mon-Fri", "time": "2:15pm"}, {"days": "Sat", "time": "10:00am"}, {"days": "Sun", "time": "Closed"}], "id": "5466900006", "name": "USPS COLLECTION BOX - PO LOBBY", "address": {"city": "WEST SALEM", "state": "WI", "street": "111 LEONARD ST N", "postcode": "54669"}}},
{"geometry": {"type": "Point", "coordinates": [-90.5281204693, 43.814692096]}, "type": "Feature", "properties": {"collection_times": [{"days": "Mon-Fri", "time": "12:00pm"}, {"days": "Sat", "time": "10:00am"}, {"days": "Sun", "time": "Closed"}], "id": "5467000001", "name": "USPS COLLECTION BOX - BLUE BOX", "address": {"city": "WILTON", "state": "WI", "street": "418 MAIN ST", "postcode": "54670"}}},
{"geometry": {"type": "Point", "coordinates": [-90.5281204693, 43.814692096]}, "type": "Feature", "properties": {"collection_times": [{"days": "Mon-Fri", "time": "12:00pm"}, {"days": "Sat", "time": "10:00am"}, {"days": "Sun", "time": "Closed"}], "id": "5467000002", "name": "USPS COLLECTION BOX - PO LOBBY", "address": {"city": "WILTON", "state": "WI", "street": "418 MAIN ST", "postcode": "54670"}}}
]}
