{"type": "FeatureCollection", "features": [
{"geometry": {"type": "Point", "coordinates": [-91.4651802281, 44.7711960324]}, "type": "Feature", "properties": {"collection_times": [{"days": "Mon-Fri", "time": "1:45pm"}, {"days": "Sat-Sun", "time": "Closed"}], "id": "5470100027", "name": "USPS COLLECTION BOX - BLUE BOX", "address": {"city": "EAU CLAIRE", "state": "WI", "street": "2520 GOLF RD", "postcode": "54701"}}},
{"geometry": {"type": "Point", "coordinates": [-91.456111323, 44.7857509903]}, "type": "Feature", "properties": {"collection_times": [{"days": "Mon-Sat", "time": "1:30pm"}, {"days": "Sun", "time": "Closed"}], "id": "5470100029", "name": "USPS COLLECTION BOX - BLUE BOX", "address": {"city": "EAU CLAIRE", "state": "WI", "street": "3310 E HAMILTON AVE", "postcode": "54701"}}},
{"geometry": {"type": "Point", "coordinates": [-91.5013155526, 44.8102317536]}, "type": "Feature", "properties": {"collection_times": [{"days": "Mon-Fri", "time": "1:45pm"}, {"days": "Sat-Sun", "time": "Closed"}], "id": "5470100049", "name": "USPS COLLECTION BOX - BLUE BOX", "address": {"city": "EAU CLAIRE", "state": "WI", "street": "118 E GRAND AVE", "postcode": "54701"}}},
{"geometry": {"type": "Point", "coordinates": [-91.4964841093, 44.8078090572]}, "type": "Feature", "properties": {"collection_times": [{"days": "Mon-Fri", "time": "2:15pm"}, {"days": "Sat-Sun", "time": "Closed"}], "id": "5470100052", "name": "USPS COLLECTION BOX - BLUE BOX", "address": {"city": "EAU CLAIRE", "state": "WI", "street": "715 S BARSTOW ST", "postcode": "54701"}}},
{"geometry": {"type": "Point", "coordinates": [-91.5004445994, 44.8120763689]}, "type": "Feature", "properties": {"collection_times": [{"days": "Mon-Fri", "time": "2:15pm"}, {"days": "Sat-Sun", "time": "Closed"}], "id": "5470100056", "name": "USPS COLLECTION BOX - BLUE BOX", "address": {"city": "EAU CLAIRE", "state": "WI", "street": "131 S BARSTOW ST", "postcode": "54701"}}},
{"geometry": {"type": "Point", "coordinates": [-91.5015385235, 44.799076829]}, "type": "Feature", "properties": {"collection_times": [{"days": "Mon-Fri", "time": "2:30pm"}, {"days": "Sat-Sun", "time": "Closed"}], "id": "5470100058", "name": "USPS COLLECTION BOX - BLUE BOX", "address": {"city": "EAU CLAIRE", "state": "WI", "street": "105 GARFIELD AVE", "postcode": "54701"}}},
{"geometry": {"type": "Point", "coordinates": [-91.50762785, 44.7932840918]}, "type": "Feature", "properties": {"collection_times": [{"days": "Mon-Fri", "time": "2:30pm"}, {"days": "Sat-Sun", "time": "Closed"}], "id": "5470100060", "name": "USPS COLLECTION BOX - BLUE BOX", "address": {"city": "EAU CLAIRE", "state": "WI", "street": "718 W CLAIREMONT AVE", "postcode": "54701"}}},
{"geometry": {"type": "Point", "coordinates": [-91.5156272462, 44.7955804099]}, "type": "Feature", "properties": {"collection_times": [{"days": "Mon-Fri", "time": "1:45pm"}, {"days": "Sat-Sun", "time": "Closed"}], "id": "5470100062", "name": "USPS COLLECTION BOX - BLUE BOX", "address": {"city": "EAU CLAIRE", "state": "WI", "street": "2125 HEIGHTS DR", "postcode": "54701"}}},
{"geometry": {"type": "Point", "coordinates": [-91.5209454326, 44.7937631414]}, "type": "Feature", "properties": {"collection_times": [{"days": "Mon-Fri", "time": "1:30pm"}, {"days": "Sat-Sun", "time": "Closed"}], "id": "5470100063", "name": "USPS COLLECTION BOX - BLUE BOX", "address": {"city": "EAU CLAIRE", "state": "WI", "street": "1250 W CLAIREMONT AVE", "postcode": "54701"}}},
{"geometry": {"type": "Point", "coordinates": [-91.471427235, 44.7939310868]}, "type": "Feature", "properties": {"collection_times": [{"days": "Mon-Fri", "time": "10:00am"}, {"days": "Sat-Sun", "time": "Closed"}], "id": "5470100073", "name": "USPS COLLECTION BOX - BLUE BOX", "address": {"city": "EAU CLAIRE", "state": "WI", "street": "2115 E CLAIREMONT AVE", "postcode": "54701"}}},
{"geometry": {"type": "Point", "coordinates": [-91.4705191597, 44.8000481022]}, "type": "Feature", "properties": {"collection_times": [{"days": "Mon-Fri", "time": "1:30pm"}, {"days": "Sat-Sun", "time": "Closed"}], "id": "5470100075", "name": "USPS COLLECTION BOX - BLUE BOX", "address": {"city": "EAU CLAIRE", "state": "WI", "street": "2159 BRACKETT AVE", "postcode": "54701"}}},
{"geometry": {"type": "Point", "coordinates": [-91.4757672026, 44.8001198492]}, "type": "Feature", "properties": {"collection_times": [{"days": "Mon-Fri", "time": "1:30pm"}, {"days": "Sat-Sun", "time": "Closed"}], "id": "5470100076", "name": "USPS COLLECTION BOX - BLUE BOX", "address": {"city": "EAU CLAIRE", "state": "WI", "street": "1812 BRACKETT AVE", "postcode": "54701"}}},
{"geometry": {"type": "Point", "coordinates": [-91.433621919, 44.7835021327]}, "type": "Feature", "properties": {"collection_times": [{"days": "Mon-Fri", "time": "1:30pm"}, {"days": "Sat-Sun", "time": "Closed"}], "id": "5470100090", "name": "USPS COLLECTION BOX - BLUE BOX", "address": {"city": "EAU CLAIRE", "state": "WI", "street": "3625 GATEWAY DR", "postcode": "54701"}}},
{"geometry": {"type": "Point", "coordinates": [-91.513603753, 44.7929003685]}, "type": "Feature", "properties": {"collection_times": [{"days": "Mon-Sat", "time": "2:30pm"}, {"days": "Sun", "time": "Closed"}], "id": "5470100094", "name": "USPS COLLECTION BOX - BLUE BOX", "address": {"city": "EAU CLAIRE", "state": "WI", "street": "1031 W CLAIREMONT AVE", "postcode": "54701"}}},
{"geometry": {"type": "Point", "coordinates": [-91.4315030588, 44.7782218873]}, "type": "Feature", "properties": {"collection_times": [{"days": "Mon-Fri", "time": "1:30pm"}, {"days": "Sat", "time": "10:00am"}, {"days": "Sun", "time": "Closed"}], "id": "5470100096", "name": "USPS COLLECTION BOX - BLUE BOX", "address": {"city": "EAU CLAIRE", "state": "WI", "street": "3915 GATEWAY DR", "postcode": "54701"}}},
{"geometry": {"type": "Point", "coordinates": [-91.4706562787, 44.8054021149]}, "type": "Feature", "properties": {"collection_times": [{"days": "Mon-Sat", "time": "2:00pm"}, {"days": "Sun", "time": "Closed"}], "id": "5470100110", "name": "USPS COLLECTION BOX - BLUE BOX", "address": {"city": "EAU CLAIRE", "state": "WI", "street": "1201 S HASTINGS WAY", "postcode": "54701"}}},
{"geometry": {"type": "Point", "coordinates": [-91.4943376412, 44.7925997106]}, "type": "Feature", "properties": {"collection_times": [{"days": "Mon-Sat", "time": "1:45pm"}, {"days": "Sun", "time": "Closed"}], "id": "5470100115", "name": "USPS COLLECTION BOX - BLUE BOX", "address": {"city": "EAU CLAIRE", "state": "WI", "street": "2515 PATTON ST", "postcode": "54701"}}},
{"geometry": {"type": "Point", "coordinates": [-91.4577594436, 44.7718661353]}, "type": "Feature", "properties": {"collection_times": [{"days": "Mon-Fri", "time": "2:15pm"}, {"days": "Sat-Sun", "time": "Closed"}], "id": "5470100125", "name": "USPS COLLECTION BOX - BLUE BOX", "address": {"city": "EAU CLAIRE", "state": "WI", "street": "4330 GOLF TER", "postcode": "54701"}}},
{"geometry": {"type": "Point", "coordinates": [-91.4553390455, 44.7692788977]}, "type": "Feature", "properties": {"collection_times": [{"days": "Mon-Fri", "time": "2:30pm"}, {"days": "Sat-Sun", "time": "Closed"}], "id": "5470100127", "name": "USPS COLLECTION BOX - BLUE BOX", "address": {"city": "EAU CLAIRE", "state": "WI", "street": "3300 GOLF RD", "postcode": "54701"}}},
{"geometry": {"type": "Point", "coordinates": [-91.513603753, 44.7929003685]}, "type": "Feature", "properties": {"collection_times": [{"days": "Mon-Sat", "time": "2:30pm"}, {"days": "Sun", "time": "Closed"}], "id": "5470100128", "name": "USPS COLLECTION BOX - BLUE BOX", "address": {"city": "EAU CLAIRE", "state": "WI", "street": "1031 W CLAIREMONT AVE", "postcode": "54701"}}},
{"geometry": {"type": "Point", "coordinates": [-91.4727416665, 44.8072673129]}, "type": "Feature", "properties": {"collection_times": [{"days": "Mon-Sat", "time": "2:30pm"}, {"days": "Sun", "time": "Closed"}], "id": "5470100129", "name": "USPS COLLECTION BOX - BLUE BOX", "address": {"city": "EAU CLAIRE", "state": "WI", "street": "2005 HIGHLAND AVE", "postcode": "54701"}}},
{"geometry": {"type": "Point", "coordinates": [-91.4986902105, 44.8101543054]}, "type": "Feature", "properties": {"collection_times": [{"days": "Mon-Fri", "time": "2:15pm"}, {"days": "Sat-Sun", "time": "Closed"}], "id": "5470100134", "name": "USPS COLLECTION BOX - BLUE BOX", "address": {"city": "EAU CLAIRE", "state": "WI", "street": "301 MAIN ST", "postcode": "54701"}}},
{"geometry": {"type": "Point", "coordinates": [-91.4706562787, 44.8054021149]}, "type": "Feature", "properties": {"collection_times": [{"days": "Mon-Sat", "time": "2:00pm"}, {"days": "Sun", "time": "Closed"}], "id": "5470100137", "name": "USPS COLLECTION BOX - BLUE BOX", "address": {"city": "EAU CLAIRE", "state": "WI", "street": "1201 S HASTINGS WAY", "postcode": "54701"}}},
{"geometry": {"type": "Point", "coordinates": [-91.4630344835, 44.7920237819]}, "type": "Feature", "properties": {"collection_times": [{"days": "Mon-Fri", "time": "3:15pm"}, {"days": "Sat-Sun", "time": "Closed"}], "id": "5470100138", "name": "USPS COLLECTION BOX - BLUE BOX", "address": {"city": "EAU CLAIRE", "state": "WI", "street": "2615 LONDON RD", "postcode": "54701"}}},
{"geometry": {"type": "Point", "coordinates": [-91.4467638322, 44.782362628]}, "type": "Feature", "properties": {"collection_times": [{"days": "Mon-Fri", "time": "2:00pm"}, {"days": "Sat-Sun", "time": "Closed"}], "id": "5470100139", "name": "USPS COLLECTION BOX - BLUE BOX", "address": {"city": "EAU CLAIRE", "state": "WI", "street": "3400 OAKWOOD HILLS PKWY", "postcode": "54701"}}},
{"geometry": {"type": "Point", "coordinates": [-91.4995191083, 44.8097838894]}, "type": "Feature", "properties": {"collection_times": [{"days": "Mon-Fri", "time": "2:45pm"}, {"days": "Sat-Sun", "time": "Closed"}], "id": "5470100141", "name": "USPS COLLECTION BOX - BLUE BOX", "address": {"city": "EAU CLAIRE", "state": "WI", "street": "402 GRAHAM AVE", "postcode": "54701"}}},
{"geometry": {"type": "Point", "coordinates": [-91.4941903309, 44.7925298016]}, "type": "Feature", "properties": {"collection_times": [{"days": "Mon-Sat", "time": "2:00pm"}, {"days": "Sun", "time": "Closed"}], "id": "5470100142", "name": "USPS COLLECTION BOX - BLUE BOX", "address": {"city": "EAU CLAIRE", "state": "WI", "street": "319 E CLAIREMONT AVE", "postcode": "54701"}}},
{"geometry": {"type": "Point", "coordinates": [-91.4612810219, 44.7882648559]}, "type": "Feature", "properties": {"collection_times": [{"days": "Mon-Sat", "time": "3:15pm"}, {"days": "Sun", "time": "Closed"}], "id": "5470100143", "name": "USPS COLLECTION BOX - BLUE BOX", "address": {"city": "EAU CLAIRE", "state": "WI", "street": "3007 MALL DR", "postcode": "54701"}}},
{"geometry": {"type": "Point", "coordinates": [-91.436737433, 44.7765478287]}, "type": "Feature", "properties": {"collection_times": [{"days": "Mon-Sat", "time": "2:00pm"}, {"days": "Sun", "time": "Closed"}], "id": "5470100144", "name": "USPS COLLECTION BOX - BLUE BOX", "address": {"city": "EAU CLAIRE", "state": "WI", "street": "4800 GOLF RD", "postcode": "54701"}}},
{"geometry": {"type": "Point", "coordinates": [-91.4334307658, 44.7747299643]}, "type": "Feature", "properties": {"collection_times": [{"days": "Mon-Fri", "time": "2:00pm"}, {"days": "Sat-Sun", "time": "Closed"}], "id": "5470100145", "name": "USPS COLLECTION BOX - BLUE BOX", "address": {"city": "EAU CLAIRE", "state": "WI", "street": "4070 COMMONWEALTH AVE", "postcode": "54701"}}},
{"geometry": {"type": "Point", "coordinates": [-91.4630344835, 44.7920237819]}, "type": "Feature", "properties": {"collection_times": [{"days": "Mon-Fri", "time": "3:15pm"}, {"days": "Sat-Sun", "time": "Closed"}], "id": "5470100146", "name": "USPS COLLECTION BOX - BLUE BOX", "address": {"city": "EAU CLAIRE", "state": "WI", "street": "2615 LONDON RD", "postcode": "54701"}}},
{"geometry": {"type": "Point", "coordinates": [-91.4577594436, 44.7718661353]}, "type": "Feature", "properties": {"collection_times": [{"days": "Mon-Fri", "time": "2:15pm"}, {"days": "Sat-Sun", "time": "Closed"}], "id": "5470100148", "name": "USPS COLLECTION BOX - BLUE BOX", "address": {"city": "EAU CLAIRE", "state": "WI", "street": "4330 GOLF TER", "postcode": "54701"}}},
{"geometry": {"type": "Point", "coordinates": [-91.4612810219, 44.7882648559]}, "type": "Feature", "properties": {"collection_times": [{"days": "Mon-Sat", "time": "3:15pm"}, {"days": "Sun", "time": "Closed"}], "id": "5470100149", "name": "USPS COLLECTION BOX - BLUE BOX", "address": {"city": "EAU CLAIRE", "state": "WI", "street": "3007 MALL DR", "postcode": "54701"}}},
{"geometry": {"type": "Point", "coordinates": [-91.5037265932, 44.8081465389]}, "type": "Feature", "properties": {"collection_times": [{"days": "Mon-Fri", "time": "2:00pm"}, {"days": "Sat-Sun", "time": "Closed"}], "id": "5470300002", "name": "USPS COLLECTION BOX - BLUE BOX", "address": {"city": "EAU CLAIRE", "state": "WI", "street": "740 2ND AVE", "postcode": "54703"}}},
{"geometry": {"type": "Point", "coordinates": [-91.5057598732, 44.8021613211]}, "type": "Feature", "properties": {"collection_times": [{"days": "Mon-Fri", "time": "2:00pm"}, {"days": "Sat-Sun", "time": "Closed"}], "id": "5470300004", "name": "USPS COLLECTION BOX - BLUE BOX", "address": {"city": "EAU CLAIRE", "state": "WI", "street": "301 WATER ST", "postcode": "54703"}}},
{"geometry": {"type": "Point", "coordinates": [-91.4720094219, 44.8211011944]}, "type": "Feature", "properties": {"collection_times": [{"days": "Mon-Sat", "time": "3:00pm"}, {"days": "Sun", "time": "Closed"}], "id": "5470300009", "name": "USPS COLLECTION BOX - BLUE BOX", "address": {"city": "EAU CLAIRE", "state": "WI", "street": "2717 BIRCH ST", "postcode": "54703"}}},
{"geometry": {"type": "Point", "coordinates": [-91.5345595798, 44.7990305138]}, "type": "Feature", "properties": {"collection_times": [{"days": "Mon-Fri", "time": "3:00pm"}, {"days": "Sat", "time": "10:00am"}, {"days": "Sun", "time": "Closed"}], "id": "5470300012", "name": "USPS COLLECTION BOX - BLUE BOX", "address": {"city": "EAU CLAIRE", "state": "WI", "street": "101 FERRY ST", "postcode": "54703"}}},
{"geometry": {"type": "Point", "coordinates": [-91.5274848301, 44.8000795822]}, "type": "Feature", "properties": {"collection_times": [{"days": "Mon-Fri", "time": "3:30pm"}, {"days": "Sat-Sun", "time": "Closed"}], "id": "5470300013", "name": "USPS COLLECTION BOX - BLUE BOX", "address": {"city": "EAU CLAIRE", "state": "WI", "street": "1223 MENOMONIE ST", "postcode": "54703"}}},
{"geometry": {"type": "Point", "coordinates": [-91.5189252784, 44.8354859822]}, "type": "Feature", "properties": {"collection_times": [{"days": "Mon-Sat", "time": "9:30am"}, {"days": "Sun", "time": "Closed"}], "id": "5470300018", "name": "USPS COLLECTION BOX - BLUE BOX", "address": {"city": "EAU CLAIRE", "state": "WI", "street": "6124 N CROSSING HWY 12", "postcode": "54703"}}},
{"geometry": {"type": "Point", "coordinates": [-91.4452355128, 44.8397675485]}, "type": "Feature", "properties": {"collection_times": [{"days": "Mon-Sat", "time": "9:30am"}, {"days": "Sun", "time": "Closed"}], "id": "5470300019", "name": "USPS COLLECTION BOX - BLUE BOX", "address": {"city": "EAU CLAIRE", "state": "WI", "street": "4400 LA SALLE ST", "postcode": "54703"}}},
{"geometry": {"type": "Point", "coordinates": [-91.477910289, 44.8506814027]}, "type": "Feature", "properties": {"collection_times": [{"days": "Mon-Fri", "time": "3:00pm"}, {"days": "Sat", "time": "10:00am"}, {"days": "Sun", "time": "Closed"}], "id": "5470300029", "name": "USPS COLLECTION BOX - BLUE BOX", "address": {"city": "EAU CLAIRE", "state": "WI", "street": "2225 EDDY LN", "postcode": "54703"}}},
{"geometry": {"type": "Point", "coordinates": [-91.5440206198, 44.8258917428]}, "type": "Feature", "properties": {"collection_times": [{"days": "Mon-Sat", "time": "3:30pm"}, {"days": "Sun", "time": "Closed"}], "id": "5470300033", "name": "USPS COLLECTION BOX - BLUE BOX", "address": {"city": "EAU CLAIRE", "state": "WI", "street": "2615 N CLAIREMONT AVE", "postcode": "54703"}}},
{"geometry": {"type": "Point", "coordinates": [-91.5041094229, 44.8161171376]}, "type": "Feature", "properties": {"collection_times": [{"days": "Mon-Sat", "time": "5:00pm"}, {"days": "Sun", "time": "Closed"}], "id": "5470300034", "name": "USPS COLLECTION BOX - BLUE BOX", "address": {"city": "EAU CLAIRE", "state": "WI", "street": "225 E MADISON ST", "postcode": "54703"}}},
{"geometry": {"type": "Point", "coordinates": [-91.5041094229, 44.8161171376]}, "type": "Feature", "properties": {"collection_times": [{"days": "Mon-Sat", "time": "5:00pm"}, {"days": "Sun", "time": "Closed"}], "id": "5470300035", "name": "USPS COLLECTION BOX - BLUE BOX", "address": {"city": "EAU CLAIRE", "state": "WI", "street": "225 E MADISON ST", "postcode": "54703"}}},
{"geometry": {"type": "Point", "coordinates": [-91.5374524172, 44.8142298961]}, "type": "Feature", "properties": {"collection_times": [{"days": "Mon-Fri", "time": "3:30pm"}, {"days": "Sat-Sun", "time": "Closed"}], "id": "5470300037", "name": "USPS COLLECTION BOX - BLUE BOX", "address": {"city": "EAU CLAIRE", "state": "WI", "street": "2119 CAMERON ST", "postcode": "54703"}}},
{"geometry": {"type": "Point", "coordinates": [-91.4711207602, 44.8512279439]}, "type": "Feature", "properties": {"collection_times": [{"days": "Mon-Sat", "time": "3:00pm"}, {"days": "Sun", "time": "Closed"}], "id": "5470300038", "name": "USPS COLLECTION BOX - BLUE BOX", "address": {"city": "EAU CLAIRE", "state": "WI", "street": "3019 N HASTINGS WAY", "postcode": "54703"}}},
{"geometry": {"type": "Point", "coordinates": [-91.5041094229, 44.8161171376]}, "type": "Feature", "properties": {"collection_times": [{"days": "Mon-Sat", "time": "5:00pm"}, {"days": "Sun", "time": "Closed"}], "id": "5470300039", "name": "USPS COLLECTION BOX - PO LOBBY", "address": {"city": "EAU CLAIRE", "state": "WI", "street": "225 E MADISON ST", "postcode": "54703"}}},
{"geometry": {"type": "Point", "coordinates": [-91.4608644811, 44.8685904474]}, "type": "Feature", "properties": {"collection_times": [{"days": "Mon-Sat", "time": "5:00pm"}, {"days": "Sun", "time": "Closed"}], "id": "5470300040", "name": "USPS COLLECTION BOX - BLUE BOX", "address": {"city": "EAU CLAIRE", "state": "WI", "street": "3510 HOGARTH ST", "postcode": "54703"}}},
{"geometry": {"type": "Point", "coordinates": [-91.5440206198, 44.8258917428]}, "type": "Feature", "properties": {"collection_times": [{"days": "Mon-Sat", "time": "3:30pm"}, {"days": "Sun", "time": "Closed"}], "id": "5470300047", "name": "USPS COLLECTION BOX - BLUE BOX", "address": {"city": "EAU CLAIRE", "state": "WI", "street": "2615 N CLAIREMONT AVE", "postcode": "54703"}}},
{"geometry": {"type": "Point", "coordinates": [-91.4954319596, 44.8159422419]}, "type": "Feature", "properties": {"collection_times": [{"days": "Mon-Fri", "time": "4:15pm"}, {"days": "Sat-Sun", "time": "Closed"}], "id": "5470300050", "name": "USPS COLLECTION BOX - BLUE BOX", "address": {"city": "EAU CLAIRE", "state": "WI", "street": "800 WISCONSIN ST", "postcode": "54703"}}},
{"geometry": {"type": "Point", "coordinates": [-91.4243451918, 44.7934104244]}, "type": "Feature", "properties": {"collection_times": [{"days": "Mon-Sat", "time": "10:00am"}, {"days": "Sun", "time": "Closed"}], "id": "5472000002", "name": "USPS COLLECTION BOX - BLUE BOX", "address": {"city": "ALTOONA", "state": "WI", "street": "1027 N HILLCREST PKWY", "postcode": "54720"}}},
{"geometry": {"type": "Point", "coordinates": [-91.4619576179, 44.8001227342]}, "type": "Feature", "properties": {"collection_times": [{"days": "Mon-Fri", "time": "10:00am"}, {"days": "Sat-Sun", "time": "Closed"}], "id": "5472000003", "name": "USPS COLLECTION BOX - BLUE BOX", "address": {"city": "ALTOONA", "state": "WI", "street": "3404 PLEASANT ST", "postcode": "54720"}}},
{"geometry": {"type": "Point", "coordinates": [-91.4206954997, 44.7935635357]}, "type": "Feature", "properties": {"collection_times": [{"days": "Mon-Sat", "time": "10:00am"}, {"days": "Sun", "time": "Closed"}], "id": "5472000004", "name": "USPS COLLECTION BOX - BLUE BOX", "address": {"city": "ALTOONA", "state": "WI", "street": "1000 OAK DR", "postcode": "54720"}}},
{"geometry": {"type": "Point", "coordinates": [-91.4329567711, 44.8065103938]}, "type": "Feature", "properties": {"collection_times": [{"days": "Mon-Fri", "time": "3:00pm"}, {"days": "Sat", "time": "10:00am"}, {"days": "Sun", "time": "Closed"}], "id": "5472000006", "name": "USPS COLLECTION BOX - BLUE BOX", "address": {"city": "ALTOONA", "state": "WI", "street": "1328 LYNN AVE", "postcode": "54720"}}},
{"geometry": {"type": "Point", "coordinates": [-91.4329567711, 44.8065103938]}, "type": "Feature", "properties": {"collection_times": [{"days": "Mon-Fri", "time": "3:00pm"}, {"days": "Sat", "time": "10:00am"}, {"days": "Sun", "time": "Closed"}], "id": "5472000009", "name": "USPS COLLECTION BOX - PO LOBBY", "address": {"city": "ALTOONA", "state": "WI", "street": "1328 LYNN AVE", "postcode": "54720"}}},
{"geometry": {"type": "Point", "coordinates": [-91.4486971922, 44.7967183838]}, "type": "Feature", "properties": {"collection_times": [{"days": "Mon-Fri", "time": "10:00am"}, {"days": "Sat-Sun", "time": "Closed"}], "id": "5472000011", "name": "USPS COLLECTION BOX - BLUE BOX", "address": {"city": "ALTOONA", "state": "WI", "street": "2403 N HILLCREST PKWY", "postcode": "54720"}}},
{"geometry": {"type": "Point", "coordinates": [-92.0322841405, 44.633434496]}, "type": "Feature", "properties": {"collection_times": [{"days": "Mon-Sat", "time": "2:30pm"}, {"days": "Sun", "time": "Closed"}], "id": "5472100001", "name": "USPS COLLECTION BOX - BLUE BOX", "address": {"city": "ARKANSAW", "state": "WI", "street": "N6220 COUNTY RD N", "postcode": "54721"}}},
{"geometry": {"type": "Point", "coordinates": [-92.0322841405, 44.633434496]}, "type": "Feature", "properties": {"collection_times": [{"days": "Mon-Fri", "time": "2:30pm"}, {"days": "Sat", "time": "10:30am"}, {"days": "Sun", "time": "Closed"}], "id": "5472100002", "name": "USPS COLLECTION BOX - PO LOBBY", "address": {"city": "ARKANSAW", "state": "WI", "street": "N6220 COUNTY RD N", "postcode": "54721"}}},
{"geometry": {"type": "Point", "coordinates": [-91.1208898891, 44.6791328271]}, "type": "Feature", "properties": {"collection_times": [{"days": "Mon-Sat", "time": "2:30pm"}, {"days": "Sun", "time": "Closed"}], "id": "5472200001", "name": "USPS COLLECTION BOX - BLUE BOX", "address": {"city": "AUGUSTA", "state": "WI", "street": "130 W BROWN ST", "postcode": "54722"}}},
{"geometry": {"type": "Point", "coordinates": [-91.1208898891, 44.6791328271]}, "type": "Feature", "properties": {"collection_times": [{"days": "Mon-Fri", "time": "2:30pm"}, {"days": "Sat", "time": "10:45am"}, {"days": "Sun", "time": "Closed"}], "id": "5472200003", "name": "USPS COLLECTION BOX - PO LOBBY", "address": {"city": "AUGUSTA", "state": "WI", "street": "130 W BROWN ST", "postcode": "54722"}}},
{"geometry": {"type": "Point", "coordinates": [-92.449456254, 44.5845036722]}, "type": "Feature", "properties": {"collection_times": [{"days": "Mon-Fri", "time": "11:15am"}, {"days": "Sat", "time": "10:15am"}, {"days": "Sun", "time": "Closed"}], "id": "5472300002", "name": "USPS COLLECTION BOX - PO LOBBY", "address": {"city": "BAY CITY", "state": "WI", "street": "W6372 MAIN ST", "postcode": "54723"}}},
{"geometry": {"type": "Point", "coordinates": [-92.449456254, 44.5845036722]}, "type": "Feature", "properties": {"collection_times": [{"days": "Mon-Sat", "time": "1:15pm"}, {"days": "Sun", "time": "Closed"}], "id": "5472300003", "name": "USPS COLLECTION BOX - BLUE BOX", "address": {"city": "BAY CITY", "state": "WI", "street": "W6372 MAIN ST", "postcode": "54723"}}},
{"geometry": {"type": "Point", "coordinates": [-91.4878792562, 45.0971222913]}, "type": "Feature", "properties": {"collection_times": [{"days": "Mon-Sat", "time": "2:30pm"}, {"days": "Sun", "time": "Closed"}], "id": "5472400001", "name": "USPS COLLECTION BOX - BLUE BOX", "address": {"city": "BLOOMER", "state": "WI", "street": "1622 MAIN ST", "postcode": "54724"}}},
{"geometry": {"type": "Point", "coordinates": [-91.4878792562, 45.0971222913]}, "type": "Feature", "properties": {"collection_times": [{"days": "Mon-Fri", "time": "2:30pm"}, {"days": "Sat", "time": "10:30am"}, {"days": "Sun", "time": "Closed"}], "id": "5472400003", "name": "USPS COLLECTION BOX - PO LOBBY", "address": {"city": "BLOOMER", "state": "WI", "street": "1622 MAIN ST", "postcode": "54724"}}},
{"geometry": {"type": "Point", "coordinates": [-91.488471163, 45.099708407]}, "type": "Feature", "properties": {"collection_times": [{"days": "Mon-Fri", "time": "10:00am"}, {"days": "Sat-Sun", "time": "Closed"}], "id": "5472400005", "name": "USPS COLLECTION BOX - BLUE BOX", "address": {"city": "BLOOMER", "state": "WI", "street": "1400 MAIN ST", "postcode": "54724"}}},
{"geometry": {"type": "Point", "coordinates": [-92.0318223871, 45.0385863268]}, "type": "Feature", "properties": {"collection_times": [{"days": "Mon-Sat", "time": "2:30pm"}, {"days": "Sun", "time": "Closed"}], "id": "5472500001", "name": "USPS COLLECTION BOX - BLUE BOX", "address": {"city": "BOYCEVILLE", "state": "WI", "street": "1246 NELSON DR", "postcode": "54725"}}},
{"geometry": {"type": "Point", "coordinates": [-92.0318223871, 45.0385863268]}, "type": "Feature", "properties": {"collection_times": [{"days": "Mon-Fri", "time": "2:30pm"}, {"days": "Sat", "time": "9:30am"}, {"days": "Sun", "time": "Closed"}], "id": "5472500002", "name": "USPS COLLECTION BOX - PO LOBBY", "address": {"city": "BOYCEVILLE", "state": "WI", "street": "1246 NELSON DR", "postcode": "54725"}}},
{"geometry": {"type": "Point", "coordinates": [-91.0382604542, 44.9515518014]}, "type": "Feature", "properties": {"collection_times": [{"days": "Mon-Fri", "time": "2:15pm"}, {"days": "Sat", "time": "2:30pm"}, {"days": "Sun", "time": "Closed"}], "id": "5472600001", "name": "USPS COLLECTION BOX - BLUE BOX", "address": {"city": "BOYD", "state": "WI", "street": "609 E MURRAY ST", "postcode": "54726"}}},
{"geometry": {"type": "Point", "coordinates": [-91.0382604542, 44.9515518014]}, "type": "Feature", "properties": {"collection_times": [{"days": "Mon-Fri", "time": "11:00am"}, {"days": "Sat", "time": "8:45am"}, {"days": "Sun", "time": "Closed"}], "id": "5472600002", "name": "USPS COLLECTION BOX - PO LOBBY", "address": {"city": "BOYD", "state": "WI", "street": "609 E MURRAY ST", "postcode": "54726"}}},
{"geometry": {"type": "Point", "coordinates": [-91.1505567816, 44.9474055753]}, "type": "Feature", "properties": {"collection_times": [{"days": "Mon-Sat", "time": "2:45pm"}, {"days": "Sun", "time": "Closed"}], "id": "5472700001", "name": "USPS COLLECTION BOX - BLUE BOX", "address": {"city": "CADOTT", "state": "WI", "street": "321 N MAIN ST", "postcode": "54727"}}},
{"geometry": {"type": "Point", "coordinates": [-91.1505567816, 44.9474055753]}, "type": "Feature", "properties": {"collection_times": [{"days": "Mon-Fri", "time": "2:45pm"}, {"days": "Sat", "time": "8:30am"}, {"days": "Sun", "time": "Closed"}], "id": "5472700003", "name": "USPS COLLECTION BOX - PO LOBBY", "address": {"city": "CADOTT", "state": "WI", "street": "321 N MAIN ST", "postcode": "54727"}}},
{"geometry": {"type": "Point", "coordinates": [-91.6501229075, 45.3137451698]}, "type": "Feature", "properties": {"collection_times": [{"days": "Mon-Sat", "time": "1:45pm"}, {"days": "Sun", "time": "Closed"}], "id": "5472800001", "name": "USPS COLLECTION BOX - BLUE BOX", "address": {"city": "CHETEK", "state": "WI", "street": "535 1ST ST", "postcode": "54728"}}},
{"geometry": {"type": "Point", "coordinates": [-91.6501229075, 45.3137451698]}, "type": "Feature", "properties": {"collection_times": [{"days": "Mon-Fri", "time": "1:45pm"}, {"days": "Sat", "time": "10:00am"}, {"days": "Sun", "time": "Closed"}], "id": "5472800004", "name": "USPS COLLECTION BOX - PO LOBBY", "address": {"city": "CHETEK", "state": "WI", "street": "535 1ST ST", "postcode": "54728"}}},
{"geometry": {"type": "Point", "coordinates": [-91.6501229075, 45.3137451698]}, "type": "Feature", "properties": {"collection_times": [{"days": "Mon-Fri", "time": "1:45pm"}, {"days": "Sat", "time": "10:00am"}, {"days": "Sun", "time": "Closed"}], "id": "5472800005", "name": "USPS COLLECTION BOX - PO LOBBY", "address": {"city": "CHETEK", "state": "WI", "street": "535 1ST ST", "postcode": "54728"}}},
{"geometry": {"type": "Point", "coordinates": [-91.3945420626, 44.9363318468]}, "type": "Feature", "properties": {"collection_times": [{"days": "Mon-Sat", "time": "1:30pm"}, {"days": "Sun", "time": "Closed"}], "id": "5472900007", "name": "USPS COLLECTION BOX - BLUE BOX", "address": {"city": "CHIPPEWA FALLS", "state": "WI", "street": "301 BAY ST", "postcode": "54729"}}},
{"geometry": {"type": "Point", "coordinates": [-91.3231519685, 44.9247877631]}, "type": "Feature", "properties": {"collection_times": [{"days": "Mon-Fri", "time": "1:15pm"}, {"days": "Sat", "time": "10:00am"}, {"days": "Sun", "time": "Closed"}], "id": "5472900010", "name": "USPS COLLECTION BOX - BLUE BOX", "address": {"city": "CHIPPEWA FALLS", "state": "WI", "street": "17158 COUNTY HIGHWAY J", "postcode": "54729"}}},
{"geometry": {"type": "Point", "coordinates": [-91.3915265533, 44.9358099476]}, "type": "Feature", "properties": {"collection_times": [{"days": "Mon-Sat", "time": "1:30pm"}, {"days": "Sun", "time": "Closed"}], "id": "5472900017", "name": "USPS COLLECTION BOX - BLUE BOX", "address": {"city": "CHIPPEWA FALLS", "state": "WI", "street": "103 N BRIDGE ST", "postcode": "54729"}}},
{"geometry": {"type": "Point", "coordinates": [-91.3873473917, 44.9149366821]}, "type": "Feature", "properties": {"collection_times": [{"days": "Mon-Sat", "time": "1:00pm"}, {"days": "Sun", "time": "Closed"}], "id": "5472900023", "name": "USPS COLLECTION BOX - BLUE BOX", "address": {"city": "CHIPPEWA FALLS", "state": "WI", "street": "303 E PRAIRIE VIEW RD", "postcode": "54729"}}},
{"geometry": {"type": "Point", "coordinates": [-91.3860587936, 44.9270651418]}, "type": "Feature", "properties": {"collection_times": [{"days": "Mon-Sat", "time": "1:15pm"}, {"days": "Sun", "time": "Closed"}], "id": "5472900029", "name": "USPS COLLECTION BOX - BLUE BOX", "address": {"city": "CHIPPEWA FALLS", "state": "WI", "street": "337 E PARK AVE", "postcode": "54729"}}},
{"geometry": {"type": "Point", "coordinates": [-91.3933409841, 44.937226323]}, "type": "Feature", "properties": {"collection_times": [{"days": "Mon-Sat", "time": "3:00pm"}, {"days": "Sun", "time": "Closed"}], "id": "5472900030", "name": "USPS COLLECTION BOX - BLUE BOX", "address": {"city": "CHIPPEWA FALLS", "state": "WI", "street": "315 N BRIDGE ST", "postcode": "54729"}}},
{"geometry": {"type": "Point", "coordinates": [-91.3933070655, 44.9372487066]}, "type": "Feature", "properties": {"collection_times": [{"days": "Mon-Sat", "time": "3:00pm"}, {"days": "Sun", "time": "Closed"}], "id": "5472900032", "name": "USPS COLLECTION BOX - PO LOBBY", "address": {"city": "CHIPPEWA FALLS", "state": "WI", "street": "315 N BRIDGE ST", "postcode": "54729"}}},
{"geometry": {"type": "Point", "coordinates": [-91.3939200909, 44.935641112]}, "type": "Feature", "properties": {"collection_times": [{"days": "Mon-Sat", "time": "1:30pm"}, {"days": "Sun", "time": "Closed"}], "id": "5472900036", "name": "USPS COLLECTION BOX - BLUE BOX", "address": {"city": "CHIPPEWA FALLS", "state": "WI", "street": "212 BAY ST", "postcode": "54729"}}},
{"geometry": {"type": "Point", "coordinates": [-91.3933070655, 44.9372487066]}, "type": "Feature", "properties": {"collection_times": [{"days": "Mon-Sat", "time": "3:00pm"}, {"days": "Sun", "time": "Closed"}], "id": "5472900038", "name": "USPS COLLECTION BOX - BLUE BOX", "address": {"city": "CHIPPEWA FALLS", "state": "WI", "street": "315 N BRIDGE ST", "postcode": "54729"}}},
{"geometry": {"type": "Point", "coordinates": [-91.7271622401, 44.9995528437]}, "type": "Feature", "properties": {"collection_times": [{"days": "Mon-Sat", "time": "3:00pm"}, {"days": "Sun", "time": "Closed"}], "id": "5473000000", "name": "USPS COLLECTION BOX - BLUE BOX", "address": {"city": "COLFAX", "state": "WI", "street": "602 MAIN ST", "postcode": "54730"}}},
{"geometry": {"type": "Point", "coordinates": [-91.7275465185, 44.9905384879]}, "type": "Feature", "properties": {"collection_times": [{"days": "Mon-Sat", "time": "12:00pm"}, {"days": "Sun", "time": "Closed"}], "id": "5473000001", "name": "USPS COLLECTION BOX - BLUE BOX", "address": {"city": "COLFAX", "state": "WI", "street": "115 MAIN ST", "postcode": "54730"}}},
{"geometry": {"type": "Point", "coordinates": [-91.7271622401, 44.9995528437]}, "type": "Feature", "properties": {"collection_times": [{"days": "Mon-Fri", "time": "3:00pm"}, {"days": "Sat", "time": "10:00am"}, {"days": "Sun", "time": "Closed"}], "id": "5473000002", "name": "USPS COLLECTION BOX - PO LOBBY", "address": {"city": "COLFAX", "state": "WI", "street": "602 MAIN ST", "postcode": "54730"}}},
{"geometry": {"type": "Point", "coordinates": [-91.0801414014, 45.3354247085]}, "type": "Feature", "properties": {"collection_times": [{"days": "Mon-Sat", "time": "1:15pm"}, {"days": "Sun", "time": "Closed"}], "id": "5473100001", "name": "USPS COLLECTION BOX - BLUE BOX", "address": {"city": "CONRATH", "state": "WI", "street": "W7101 MAIN ST", "postcode": "54731"}}},
{"geometry": {"type": "Point", "coordinates": [-91.0801414014, 45.3354247085]}, "type": "Feature", "properties": {"collection_times": [{"days": "Mon-Sat", "time": "12:00pm"}, {"days": "Sun", "time": "Closed"}], "id": "5473100003", "name": "USPS COLLECTION BOX - PO LOBBY", "address": {"city": "CONRATH", "state": "WI", "street": "W7101 MAIN ST", "postcode": "54731"}}},
{"geometry": {"type": "Point", "coordinates": [-91.150022432, 45.1672456463]}, "type": "Feature", "properties": {"collection_times": [{"days": "Mon-Sat", "time": "2:00pm"}, {"days": "Sun", "time": "Closed"}], "id": "5473200001", "name": "USPS COLLECTION BOX - BLUE BOX", "address": {"city": "CORNELL", "state": "WI", "street": "301 MAIN ST", "postcode": "54732"}}},
{"geometry": {"type": "Point", "coordinates": [-91.150022432, 45.1672456463]}, "type": "Feature", "properties": {"collection_times": [{"days": "Mon-Fri", "time": "2:00pm"}, {"days": "Sat", "time": "11:00am"}, {"days": "Sun", "time": "Closed"}], "id": "5473200002", "name": "USPS COLLECTION BOX - PO LOBBY", "address": {"city": "CORNELL", "state": "WI", "street": "301 MAIN ST", "postcode": "54732"}}},
{"geometry": {"type": "Point", "coordinates": [-91.8078009103, 45.2592885732]}, "type": "Feature", "properties": {"collection_times": [{"days": "Mon-Sat", "time": "1:30pm"}, {"days": "Sun", "time": "Closed"}], "id": "5473300001", "name": "USPS COLLECTION BOX - BLUE BOX", "address": {"city": "DALLAS", "state": "WI", "street": "120 E DALLAS ST", "postcode": "54733"}}},
{"geometry": {"type": "Point", "coordinates": [-91.8078009103, 45.2592885732]}, "type": "Feature", "properties": {"collection_times": [{"days": "Mon-Fri", "time": "11:15am"}, {"days": "Sat", "time": "9:45am"}, {"days": "Sun", "time": "Closed"}], "id": "5473300002", "name": "USPS COLLECTION BOX - PO LOBBY", "address": {"city": "DALLAS", "state": "WI", "street": "120 E DALLAS ST", "postcode": "54733"}}},
{"geometry": {"type": "Point", "coordinates": [-92.1325430196, 45.0462495648]}, "type": "Feature", "properties": {"collection_times": [{"days": "Mon-Sat", "time": "12:00pm"}, {"days": "Sun", "time": "Closed"}], "id": "5473400001", "name": "USPS COLLECTION BOX - BLUE BOX", "address": {"city": "DOWNING", "state": "WI", "street": "404 MAIN ST", "postcode": "54734"}}},
{"geometry": {"type": "Point", "coordinates": [-91.9317613587, 44.7746422848]}, "type": "Feature", "properties": {"collection_times": [{"days": "Mon-Sat", "time": "1:15pm"}, {"days": "Sun", "time": "Closed"}], "id": "5473500001", "name": "USPS COLLECTION BOX - BLUE BOX", "address": {"city": "DOWNSVILLE", "state": "WI", "street": "E4491 COUNTY ROAD C", "postcode": "54735"}}},
{"geometry": {"type": "Point", "coordinates": [-91.9317613587, 44.7746422848]}, "type": "Feature", "properties": {"collection_times": [{"days": "Mon-Fri", "time": "1:15pm"}, {"days": "Sat", "time": "10:45am"}, {"days": "Sun", "time": "Closed"}], "id": "5473500002", "name": "USPS COLLECTION BOX - PO LOBBY", "address": {"city": "DOWNSVILLE", "state": "WI", "street": "E4491 COUNTY ROAD C", "postcode": "54735"}}},
{"geometry": {"type": "Point", "coordinates": [-91.9683162431, 44.6267458672]}, "type": "Feature", "properties": {"collection_times": [{"days": "Mon-Fri", "time": "2:45pm"}, {"days": "Sat", "time": "9:30am"}, {"days": "Sun", "time": "Closed"}], "id": "5473600001", "name": "USPS COLLECTION BOX - BLUE BOX", "address": {"city": "DURAND", "state": "WI", "street": "315 4TH AVE W", "postcode": "54736"}}},
{"geometry": {"type": "Point", "coordinates": [-91.9683162431, 44.6267458672]}, "type": "Feature", "properties": {"collection_times": [{"days": "Mon-Fri", "time": "2:45pm"}, {"days": "Sat", "time": "9:30am"}, {"days": "Sun", "time": "Closed"}], "id": "5473600006", "name": "USPS COLLECTION BOX - PO LOBBY", "address": {"city": "DURAND", "state": "WI", "street": "315 4TH AVE W", "postcode": "54736"}}},
{"geometry": {"type": "Point", "coordinates": [-91.9525779598, 44.6320410238]}, "type": "Feature", "properties": {"collection_times": [{"days": "Mon-Sat", "time": "1:30pm"}, {"days": "Sun", "time": "Closed"}], "id": "5473600007", "name": "USPS COLLECTION BOX - BLUE BOX", "address": {"city": "DURAND", "state": "WI", "street": "610 HIGHWAY 10 E", "postcode": "54736"}}},
{"geometry": {"type": "Point", "coordinates": [-92.0131966338, 44.6944571721]}, "type": "Feature", "properties": {"collection_times": [{"days": "Mon-Fri", "time": "12:15pm"}, {"days": "Sat", "time": "9:30am"}, {"days": "Sun", "time": "Closed"}], "id": "5473700001", "name": "USPS COLLECTION BOX - BLUE BOX", "address": {"city": "EAU GALLE", "state": "WI", "street": "N409 293RD ST", "postcode": "54737"}}},
{"geometry": {"type": "Point", "coordinates": [-92.0131966338, 44.6944571721]}, "type": "Feature", "properties": {"collection_times": [{"days": "Mon-Fri", "time": "12:15pm"}, {"days": "Sat", "time": "9:30am"}, {"days": "Sun", "time": "Closed"}], "id": "5473700002", "name": "USPS COLLECTION BOX - PO LOBBY", "address": {"city": "EAU GALLE", "state": "WI", "street": "N409 293RD ST", "postcode": "54737"}}},
{"geometry": {"type": "Point", "coordinates": [-91.4700120332, 44.5766102123]}, "type": "Feature", "properties": {"collection_times": [{"days": "Mon-Sat", "time": "2:00pm"}, {"days": "Sun", "time": "Closed"}], "id": "5473800000", "name": "USPS COLLECTION BOX - BLUE BOX", "address": {"city": "ELEVA", "state": "WI", "street": "50625 N MAIN ST", "postcode": "54738"}}},
{"geometry": {"type": "Point", "coordinates": [-91.4700120332, 44.5766102123]}, "type": "Feature", "properties": {"collection_times": [{"days": "Mon-Fri", "time": "2:00pm"}, {"days": "Sat", "time": "10:00am"}, {"days": "Sun", "time": "Closed"}], "id": "5473800001", "name": "USPS COLLECTION BOX - PO LOBBY", "address": {"city": "ELEVA", "state": "WI", "street": "50625 N MAIN ST", "postcode": "54738"}}},
{"geometry": {"type": "Point", "coordinates": [-91.6905000556, 44.8728475423]}, "type": "Feature", "properties": {"collection_times": [{"days": "Mon-Sat", "time": "3:30pm"}, {"days": "Sun", "time": "Closed"}], "id": "5473900000", "name": "USPS COLLECTION BOX - BLUE BOX", "address": {"city": "ELK MOUND", "state": "WI", "street": "200 E MENOMONIE ST", "postcode": "54739"}}},
{"geometry": {"type": "Point", "coordinates": [-91.6905000556, 44.8728475423]}, "type": "Feature", "properties": {"collection_times": [{"days": "Mon-Fri", "time": "3:30pm"}, {"days": "Sat", "time": "9:45am"}, {"days": "Sun", "time": "Closed"}], "id": "5473900001", "name": "USPS COLLECTION BOX - PO LOBBY", "address": {"city": "ELK MOUND", "state": "WI", "street": "200 E MENOMONIE ST", "postcode": "54739"}}},
{"geometry": {"type": "Point", "coordinates": [-91.6905000556, 44.8728475423]}, "type": "Feature", "properties": {"collection_times": [{"days": "Mon-Fri", "time": "3:30pm"}, {"days": "Sat", "time": "9:45am"}, {"days": "Sun", "time": "Closed"}], "id": "5473900002", "name": "USPS COLLECTION BOX - PO LOBBY", "address": {"city": "ELK MOUND", "state": "WI", "street": "200 E MENOMONIE ST", "postcode": "54739"}}},
{"geometry": {"type": "Point", "coordinates": [-92.1491560835, 44.7806228807]}, "type": "Feature", "properties": {"collection_times": [{"days": "Mon-Sat", "time": "1:30pm"}, {"days": "Sun", "time": "Closed"}], "id": "5474000002", "name": "USPS COLLECTION BOX - BLUE BOX", "address": {"city": "ELMWOOD", "state": "WI", "street": "228 W RACE AVE", "postcode": "54740"}}},
{"geometry": {"type": "Point", "coordinates": [-92.1491560835, 44.7806228807]}, "type": "Feature", "properties": {"collection_times": [{"days": "Mon-Fri", "time": "1:30pm"}, {"days": "Sat", "time": "10:00am"}, {"days": "Sun", "time": "Closed"}], "id": "5474000003", "name": "USPS COLLECTION BOX - PO LOBBY", "address": {"city": "ELMWOOD", "state": "WI", "street": "228 W RACE AVE", "postcode": "54740"}}},
{"geometry": {"type": "Point", "coordinates": [-90.9642367088, 44.6003134959]}, "type": "Feature", "properties": {"collection_times": [{"days": "Mon-Fri", "time": "2:00pm"}, {"days": "Sat", "time": "11:30am"}, {"days": "Sun", "time": "Closed"}], "id": "5474100002", "name": "USPS COLLECTION BOX - BLUE BOX", "address": {"city": "FAIRCHILD", "state": "WI", "street": "121 N FRONT ST", "postcode": "54741"}}},
{"geometry": {"type": "Point", "coordinates": [-90.9642367088, 44.6003134959]}, "type": "Feature", "properties": {"collection_times": [{"days": "Mon-Fri", "time": "11:00am"}, {"days": "Sat", "time": "8:45am"}, {"days": "Sun", "time": "Closed"}], "id": "5474100003", "name": "USPS COLLECTION BOX - PO LOBBY", "address": {"city": "FAIRCHILD", "state": "WI", "street": "121 N FRONT ST", "postcode": "54741"}}},
{"geometry": {"type": "Point", "coordinates": [-91.2772394659, 44.7632970049]}, "type": "Feature", "properties": {"collection_times": [{"days": "Mon-Sat", "time": "3:00pm"}, {"days": "Sun", "time": "Closed"}], "id": "5474200002", "name": "USPS COLLECTION BOX - BLUE BOX", "address": {"city": "FALL CREEK", "state": "WI", "street": "111 S STATE ST", "postcode": "54742"}}},
{"geometry": {"type": "Point", "coordinates": [-91.2772394659, 44.7632970049]}, "type": "Feature", "properties": {"collection_times": [{"days": "Mon-Fri", "time": "3:00pm"}, {"days": "Sat", "time": "9:45am"}, {"days": "Sun", "time": "Closed"}], "id": "5474200003", "name": "USPS COLLECTION BOX - PO LOBBY", "address": {"city": "FALL CREEK", "state": "WI", "street": "111 S STATE ST", "postcode": "54742"}}},
{"geometry": {"type": "Point", "coordinates": [-91.6710188932, 44.5687705365]}, "type": "Feature", "properties": {"collection_times": [{"days": "Mon-Sat", "time": "9:00am"}, {"days": "Sun", "time": "Closed"}], "id": "5474300000", "name": "USPS COLLECTION BOX - BLUE BOX", "address": {"city": "GILMANTON", "state": "WI", "street": "S869A HIGHWAY 88", "postcode": "54743"}}},
{"geometry": {"type": "Point", "coordinates": [-91.6710188932, 44.5687705365]}, "type": "Feature", "properties": {"collection_times": [{"days": "Mon-Sat", "time": "9:00am"}, {"days": "Sun", "time": "Closed"}], "id": "5474300001", "name": "USPS COLLECTION BOX - PO LOBBY", "address": {"city": "GILMANTON", "state": "WI", "street": "S869A HIGHWAY 88", "postcode": "54743"}}},
{"geometry": {"type": "Point", "coordinates": [-91.1272096844, 45.222251085]}, "type": "Feature", "properties": {"collection_times": [{"days": "Mon-Sat", "time": "1:45pm"}, {"days": "Sun", "time": "Closed"}], "id": "5474500000", "name": "USPS COLLECTION BOX - BLUE BOX", "address": {"city": "HOLCOMBE", "state": "WI", "street": "27490 263RD AVE", "postcode": "54745"}}},
{"geometry": {"type": "Point", "coordinates": [-91.1272096844, 45.222251085]}, "type": "Feature", "properties": {"collection_times": [{"days": "Mon-Fri", "time": "1:45pm"}, {"days": "Sat", "time": "9:30am"}, {"days": "Sun", "time": "Closed"}], "id": "5474500001", "name": "USPS COLLECTION BOX - PO LOBBY", "address": {"city": "HOLCOMBE", "state": "WI", "street": "27490 263RD AVE", "postcode": "54745"}}},
{"geometry": {"type": "Point", "coordinates": [-90.8900492544, 44.5303520195]}, "type": "Feature", "properties": {"collection_times": [{"days": "Mon-Sat", "time": "2:15pm"}, {"days": "Sun", "time": "Closed"}], "id": "5474600000", "name": "USPS COLLECTION BOX - BLUE BOX", "address": {"city": "HUMBIRD", "state": "WI", "street": "N3062 KING ST", "postcode": "54746"}}},
{"geometry": {"type": "Point", "coordinates": [-90.8900492544, 44.5303520195]}, "type": "Feature", "properties": {"collection_times": [{"days": "Mon-Fri", "time": "2:15pm"}, {"days": "Sat", "time": "12:15pm"}, {"days": "Sun", "time": "Closed"}], "id": "5474600001", "name": "USPS COLLECTION BOX - PO LOBBY", "address": {"city": "HUMBIRD", "state": "WI", "street": "N3062 KING ST", "postcode": "54746"}}},
{"geometry": {"type": "Point", "coordinates": [-91.4193880696, 44.359182589]}, "type": "Feature", "properties": {"collection_times": [{"days": "Mon-Sat", "time": "1:45pm"}, {"days": "Sun", "time": "Closed"}], "id": "5474700001", "name": "USPS COLLECTION BOX - BLUE BOX", "address": {"city": "INDEPENDENCE", "state": "WI", "street": "23569 CEDAR ST", "postcode": "54747"}}},
{"geometry": {"type": "Point", "coordinates": [-91.4193880696, 44.359182589]}, "type": "Feature", "properties": {"collection_times": [{"days": "Mon-Fri", "time": "1:45pm"}, {"days": "Sat", "time": "10:00am"}, {"days": "Sun", "time": "Closed"}], "id": "5474700002", "name": "USPS COLLECTION BOX - PO LOBBY", "address": {"city": "INDEPENDENCE", "state": "WI", "street": "23569 CEDAR ST", "postcode": "54747"}}},
{"geometry": {"type": "Point", "coordinates": [-91.4193880696, 44.359182589]}, "type": "Feature", "properties": {"collection_times": [{"days": "Mon-Fri", "time": "1:45pm"}, {"days": "Sat", "time": "10:00am"}, {"days": "Sun", "time": "Closed"}], "id": "5474700003", "name": "USPS COLLECTION BOX - PO LOBBY", "address": {"city": "INDEPENDENCE", "state": "WI", "street": "23569 CEDAR ST", "postcode": "54747"}}},
{"geometry": {"type": "Point", "coordinates": [-91.2738258034, 45.0455586235]}, "type": "Feature", "properties": {"collection_times": [{"days": "Mon-Sat", "time": "2:30pm"}, {"days": "Sun", "time": "Closed"}], "id": "5474800001", "name": "USPS COLLECTION BOX - BLUE BOX", "address": {"city": "JIM FALLS", "state": "WI", "street": "14046 COUNTY HIGHWAY S S", "postcode": "54748"}}},
{"geometry": {"type": "Point", "coordinates": [-91.2738258034, 45.0455586235]}, "type": "Feature", "properties": {"collection_times": [{"days": "Mon-Fri", "time": "11:30am"}, {"days": "Sat", "time": "9:30am"}, {"days": "Sun", "time": "Closed"}], "id": "5474800002", "name": "USPS COLLECTION BOX - PO LOBBY", "address": {"city": "JIM FALLS", "state": "WI", "street": "14046 COUNTY HIGHWAY S S", "postcode": "54748"}}},
{"geometry": {"type": "Point", "coordinates": [-92.0822937629, 44.9534969906]}, "type": "Feature", "properties": {"collection_times": [{"days": "Mon-Sat", "time": "1:00pm"}, {"days": "Sun", "time": "Closed"}], "id": "5474900001", "name": "USPS COLLECTION BOX - BLUE BOX", "address": {"city": "KNAPP", "state": "WI", "street": "315 MAIN ST", "postcode": "54749"}}},
{"geometry": {"type": "Point", "coordinates": [-92.0822937629, 44.9534969906]}, "type": "Feature", "properties": {"collection_times": [{"days": "Mon-Sat", "time": "1:00pm"}, {"days": "Sun", "time": "Closed"}], "id": "5474900002", "name": "USPS COLLECTION BOX - PO LOBBY", "address": {"city": "KNAPP", "state": "WI", "street": "315 MAIN ST", "postcode": "54749"}}},
{"geometry": {"type": "Point", "coordinates": [-92.29240206, 44.618279211]}, "type": "Feature", "properties": {"collection_times": [{"days": "Mon-Sat", "time": "1:30pm"}, {"days": "Sun", "time": "Closed"}], "id": "5475000001", "name": "USPS COLLECTION BOX - BLUE BOX", "address": {"city": "MAIDEN ROCK", "state": "WI", "street": "N517 COUNTY ROAD S", "postcode": "54750"}}},
{"geometry": {"type": "Point", "coordinates": [-92.29240206, 44.618279211]}, "type": "Feature", "properties": {"collection_times": [{"days": "Mon-Fri", "time": "11:00am"}, {"days": "Sat", "time": "9:00am"}, {"days": "Sun", "time": "Closed"}], "id": "5475000002", "name": "USPS COLLECTION BOX - PO LOBBY", "address": {"city": "MAIDEN ROCK", "state": "WI", "street": "N517 COUNTY ROAD S", "postcode": "54750"}}},
{"geometry": {"type": "Point", "coordinates": [-91.9280842043, 44.8764017976]}, "type": "Feature", "properties": {"collection_times": [{"days": "Mon-Sat", "time": "2:30pm"}, {"days": "Sun", "time": "Closed"}], "id": "5475100001", "name": "USPS COLLECTION BOX - BLUE BOX", "address": {"city": "MENOMONIE", "state": "WI", "street": "235 MAIN ST E", "postcode": "54751"}}},
{"geometry": {"type": "Point", "coordinates": [-91.9195701773, 44.8699880802]}, "type": "Feature", "properties": {"collection_times": [{"days": "Mon-Sat", "time": "12:15pm"}, {"days": "Sun", "time": "Closed"}], "id": "5475100008", "name": "USPS COLLECTION BOX - BLUE BOX", "address": {"city": "MENOMONIE", "state": "WI", "street": "1408 9TH ST E", "postcode": "54751"}}},
{"geometry": {"type": "Point", "coordinates": [-91.9208846214, 44.8754671464]}, "type": "Feature", "properties": {"collection_times": [{"days": "Mon-Fri", "time": "12:30pm"}, {"days": "Sat", "time": "10:00am"}, {"days": "Sun", "time": "Closed"}], "id": "5475100009", "name": "USPS COLLECTION BOX - BLUE BOX", "address": {"city": "MENOMONIE", "state": "WI", "street": "800 WILSON AVE", "postcode": "54751"}}},
{"geometry": {"type": "Point", "coordinates": [-91.9241556444, 44.9116873117]}, "type": "Feature", "properties": {"collection_times": [{"days": "Mon-Sat", "time": "11:00am"}, {"days": "Sun", "time": "Closed"}], "id": "5475100014", "name": "USPS COLLECTION BOX - BLUE BOX", "address": {"city": "MENOMONIE", "state": "WI", "street": "180 CEDARFALLS RD", "postcode": "54751"}}},
{"geometry": {"type": "Point", "coordinates": [-91.8581090988, 44.901030171]}, "type": "Feature", "properties": {"collection_times": [{"days": "Mon-Sat", "time": "9:00am"}, {"days": "Sun", "time": "Closed"}], "id": "5475100016", "name": "USPS COLLECTION BOX - BLUE BOX", "address": {"city": "MENOMONIE", "state": "WI", "street": "6107 3M DR", "postcode": "54751"}}},
{"geometry": {"type": "Point", "coordinates": [-91.9331750097, 44.9008796415]}, "type": "Feature", "properties": {"collection_times": [{"days": "Mon-Sat", "time": "1:00pm"}, {"days": "Sun", "time": "Closed"}], "id": "5475100018", "name": "USPS COLLECTION BOX - BLUE BOX", "address": {"city": "MENOMONIE", "state": "WI", "street": "207 PINE AVE W", "postcode": "54751"}}},
{"geometry": {"type": "Point", "coordinates": [-91.9276880503, 44.8917441428]}, "type": "Feature", "properties": {"collection_times": [{"days": "Mon-Fri", "time": "12:45pm"}, {"days": "Sat-Sun", "time": "Closed"}], "id": "5475100019", "name": "USPS COLLECTION BOX - BLUE BOX", "address": {"city": "MENOMONIE", "state": "WI", "street": "700 WOLSKE BAY RD", "postcode": "54751"}}},
{"geometry": {"type": "Point", "coordinates": [-91.9304897561, 44.8477601439]}, "type": "Feature", "properties": {"collection_times": [{"days": "Mon-Sat", "time": "10:00am"}, {"days": "Sun", "time": "Closed"}], "id": "5475100020", "name": "USPS COLLECTION BOX - BLUE BOX", "address": {"city": "MENOMONIE", "state": "WI", "street": "4791 STATE ROAD 25", "postcode": "54751"}}},
{"geometry": {"type": "Point", "coordinates": [-91.925089696, 44.913952419]}, "type": "Feature", "properties": {"collection_times": [{"days": "Mon-Sat", "time": "11:00am"}, {"days": "Sun", "time": "Closed"}], "id": "5475100023", "name": "USPS COLLECTION BOX - BLUE BOX", "address": {"city": "MENOMONIE", "state": "WI", "street": "3003 WILSON ST", "postcode": "54751"}}},
{"geometry": {"type": "Point", "coordinates": [-91.9280842043, 44.8764017976]}, "type": "Feature", "properties": {"collection_times": [{"days": "Mon-Sat", "time": "2:30pm"}, {"days": "Sun", "time": "Closed"}], "id": "5475100025", "name": "USPS COLLECTION BOX - PO LOBBY", "address": {"city": "MENOMONIE", "state": "WI", "street": "235 MAIN ST E", "postcode": "54751"}}},
{"geometry": {"type": "Point", "coordinates": [-91.9280842043, 44.8764017976]}, "type": "Feature", "properties": {"collection_times": [{"days": "Mon-Sat", "time": "2:30pm"}, {"days": "Sun", "time": "Closed"}], "id": "5475100028", "name": "USPS COLLECTION BOX - BLUE BOX", "address": {"city": "MENOMONIE", "state": "WI", "street": "235 MAIN ST E", "postcode": "54751"}}},
{"geometry": {"type": "Point", "coordinates": [-91.9292148583, 44.9029175278]}, "type": "Feature", "properties": {"collection_times": [{"days": "Mon-Sat", "time": "11:00am"}, {"days": "Sun", "time": "Closed"}], "id": "5475100029", "name": "USPS COLLECTION BOX - BLUE BOX", "address": {"city": "MENOMONIE", "state": "WI", "street": "300 OAK AVE", "postcode": "54751"}}},
{"geometry": {"type": "Point", "coordinates": [-91.9029652529, 44.8814462222]}, "type": "Feature", "properties": {"collection_times": [{"days": "Mon-Sat", "time": "10:00am"}, {"days": "Sun", "time": "Closed"}], "id": "5475100032", "name": "USPS COLLECTION BOX - BLUE BOX", "address": {"city": "MENOMONIE", "state": "WI", "street": "2211 STOUT RD", "postcode": "54751"}}},
{"geometry": {"type": "Point", "coordinates": [-91.9280842043, 44.8764017976]}, "type": "Feature", "properties": {"collection_times": [{"days": "Mon-Sat", "time": "2:30pm"}, {"days": "Sun", "time": "Closed"}], "id": "5475100033", "name": "USPS COLLECTION BOX - BLUE BOX", "address": {"city": "MENOMONIE", "state": "WI", "street": "235 MAIN ST E", "postcode": "54751"}}},
{"geometry": {"type": "Point", "coordinates": [-91.9241556444, 44.9116873117]}, "type": "Feature", "properties": {"collection_times": [{"days": "Mon-Sat", "time": "11:00am"}, {"days": "Sun", "time": "Closed"}], "id": "5475100034", "name": "USPS COLLECTION BOX - BLUE BOX", "address": {"city": "MENOMONIE", "state": "WI", "street": "180 CEDARFALLS RD", "postcode": "54751"}}},
{"geometry": {"type": "Point", "coordinates": [-90.8412178902, 44.4512807981]}, "type": "Feature", "properties": {"collection_times": [{"days": "Mon-Sat", "time": "1:30pm"}, {"days": "Sun", "time": "Closed"}], "id": "5475400001", "name": "USPS COLLECTION BOX - BLUE BOX", "address": {"city": "MERRILLAN", "state": "WI", "street": "109 S MAIN ST", "postcode": "54754"}}},
{"geometry": {"type": "Point", "coordinates": [-90.8412178902, 44.4512807981]}, "type": "Feature", "properties": {"collection_times": [{"days": "Mon-Fri", "time": "1:30pm"}, {"days": "Sat", "time": "10:00am"}, {"days": "Sun", "time": "Closed"}], "id": "5475400005", "name": "USPS COLLECTION BOX - PO LOBBY", "address": {"city": "MERRILLAN", "state": "WI", "street": "109 S MAIN ST", "postcode": "54754"}}},
{"geometry": {"type": "Point", "coordinates": [-91.6858589926, 44.5823262463]}, "type": "Feature", "properties": {"collection_times": [{"days": "Mon-Fri", "time": "2:30pm"}, {"days": "Sat", "time": "10:00am"}, {"days": "Sun", "time": "Closed"}], "id": "5475500003", "name": "USPS COLLECTION BOX - BLUE BOX", "address": {"city": "MONDOVI", "state": "WI", "street": "199 COMMERCE CT", "postcode": "54755"}}},
{"geometry": {"type": "Point", "coordinates": [-91.6858589926, 44.5823262463]}, "type": "Feature", "properties": {"collection_times": [{"days": "Mon-Fri", "time": "2:30pm"}, {"days": "Sat", "time": "10:00am"}, {"days": "Sun", "time": "Closed"}], "id": "5475500004", "name": "USPS COLLECTION BOX - BLUE BOX", "address": {"city": "MONDOVI", "state": "WI", "street": "199 COMMERCE CT", "postcode": "54755"}}},
{"geometry": {"type": "Point", "coordinates": [-91.6596114372, 44.5687646398]}, "type": "Feature", "properties": {"collection_times": [{"days": "Mon-Sat", "time": "11:00am"}, {"days": "Sun", "time": "Closed"}], "id": "5475500005", "name": "USPS COLLECTION BOX - BLUE BOX", "address": {"city": "MONDOVI", "state": "WI", "street": "754 E MAIN ST", "postcode": "54755"}}},
{"geometry": {"type": "Point", "coordinates": [-91.6710982538, 44.5687305749]}, "type": "Feature", "properties": {"collection_times": [{"days": "Mon-Fri", "time": "2:30pm"}, {"days": "Sat", "time": "10:00am"}, {"days": "Sun", "time": "Closed"}], "id": "5475500006", "name": "USPS COLLECTION BOX - PO LOBBY", "address": {"city": "MONDOVI", "state": "WI", "street": "131 W VINE ST", "postcode": "54755"}}},
{"geometry": {"type": "Point", "coordinates": [-92.0089623465, 44.4207923552]}, "type": "Feature", "properties": {"collection_times": [{"days": "Mon-Fri", "time": "1:00pm"}, {"days": "Sat", "time": "11:15am"}, {"days": "Sun", "time": "Closed"}], "id": "5475600001", "name": "USPS COLLECTION BOX - BLUE BOX", "address": {"city": "NELSON", "state": "WI", "street": "E200 CLEVELAND ST", "postcode": "54756"}}},
{"geometry": {"type": "Point", "coordinates": [-92.0089623465, 44.4207923552]}, "type": "Feature", "properties": {"collection_times": [{"days": "Mon-Fri", "time": "11:15am"}, {"days": "Sat", "time": "8:45am"}, {"days": "Sun", "time": "Closed"}], "id": "5475600002", "name": "USPS COLLECTION BOX - PO LOBBY", "address": {"city": "NELSON", "state": "WI", "street": "E200 CLEVELAND ST", "postcode": "54756"}}},
{"geometry": {"type": "Point", "coordinates": [-91.5608459088, 45.2049057565]}, "type": "Feature", "properties": {"collection_times": [{"days": "Mon-Sat", "time": "2:00pm"}, {"days": "Sun", "time": "Closed"}], "id": "5475700000", "name": "USPS COLLECTION BOX - BLUE BOX", "address": {"city": "NEW AUBURN", "state": "WI", "street": "120 E ELM ST", "postcode": "54757"}}},
{"geometry": {"type": "Point", "coordinates": [-91.5608459088, 45.2049057565]}, "type": "Feature", "properties": {"collection_times": [{"days": "Mon-Fri", "time": "2:00pm"}, {"days": "Sat", "time": "10:00am"}, {"days": "Sun", "time": "Closed"}], "id": "5475700003", "name": "USPS COLLECTION BOX - PO LOBBY", "address": {"city": "NEW AUBURN", "state": "WI", "street": "120 E ELM ST", "postcode": "54757"}}},
{"geometry": {"type": "Point", "coordinates": [-91.2239007575, 44.5801858689]}, "type": "Feature", "properties": {"collection_times": [{"days": "Mon-Sat", "time": "2:30pm"}, {"days": "Sun", "time": "Closed"}], "id": "5475800000", "name": "USPS COLLECTION BOX - BLUE BOX", "address": {"city": "OSSEO", "state": "WI", "street": "50669 HARMONY ST", "postcode": "54758"}}},
{"geometry": {"type": "Point", "coordinates": [-91.2239007575, 44.5801858689]}, "type": "Feature", "properties": {"collection_times": [{"days": "Mon-Fri", "time": "2:30pm"}, {"days": "Sat", "time": "10:30am"}, {"days": "Sun", "time": "Closed"}], "id": "5475800002", "name": "USPS COLLECTION BOX - PO LOBBY", "address": {"city": "OSSEO", "state": "WI", "street": "50669 HARMONY ST", "postcode": "54758"}}},
{"geometry": {"type": "Point", "coordinates": [-92.1469289174, 44.4398116263]}, "type": "Feature", "properties": {"collection_times": [{"days": "Mon-Sat", "time": "2:00pm"}, {"days": "Sun", "time": "Closed"}], "id": "5475900001", "name": "USPS COLLECTION BOX - BLUE BOX", "address": {"city": "PEPIN", "state": "WI", "street": "420 2ND ST", "postcode": "54759"}}},
{"geometry": {"type": "Point", "coordinates": [-92.1469289174, 44.4398116263]}, "type": "Feature", "properties": {"collection_times": [{"days": "Mon-Fri", "time": "2:00pm"}, {"days": "Sat", "time": "9:00am"}, {"days": "Sun", "time": "Closed"}], "id": "5475900002", "name": "USPS COLLECTION BOX - PO LOBBY", "address": {"city": "PEPIN", "state": "WI", "street": "420 2ND ST", "postcode": "54759"}}},
{"geometry": {"type": "Point", "coordinates": [-91.2073569894, 44.4257925614]}, "type": "Feature", "properties": {"collection_times": [{"days": "Mon-Sat", "time": "2:30pm"}, {"days": "Sun", "time": "Closed"}], "id": "5476000001", "name": "USPS COLLECTION BOX - BLUE BOX", "address": {"city": "PIGEON FALLS", "state": "WI", "street": "40195 WINSAND DR STE 5", "postcode": "54760"}}},
{"geometry": {"type": "Point", "coordinates": [-91.2073569894, 44.4257925614]}, "type": "Feature", "properties": {"collection_times": [{"days": "Mon-Fri", "time": "2:30pm"}, {"days": "Sat", "time": "9:30am"}, {"days": "Sun", "time": "Closed"}], "id": "5476000002", "name": "USPS COLLECTION BOX - PO LOBBY", "address": {"city": "PIGEON FALLS", "state": "WI", "street": "40195 WINSAND DR STE 5", "postcode": "54760"}}},
{"geometry": {"type": "Point", "coordinates": [-92.191345123, 44.6311463848]}, "type": "Feature", "properties": {"collection_times": [{"days": "Mon-Sat", "time": "1:15pm"}, {"days": "Sun", "time": "Closed"}], "id": "5476100001", "name": "USPS COLLECTION BOX - BLUE BOX", "address": {"city": "PLUM CITY", "state": "WI", "street": "610 1ST ST", "postcode": "54761"}}},
{"geometry": {"type": "Point", "coordinates": [-92.191345123, 44.6311463848]}, "type": "Feature", "properties": {"collection_times": [{"days": "Mon-Fri", "time": "11:15am"}, {"days": "Sat", "time": "9:30am"}, {"days": "Sun", "time": "Closed"}], "id": "5476100003", "name": "USPS COLLECTION BOX - PO LOBBY", "address": {"city": "PLUM CITY", "state": "WI", "street": "610 1ST ST", "postcode": "54761"}}},
{"geometry": {"type": "Point", "coordinates": [-91.9836285995, 45.2378000352]}, "type": "Feature", "properties": {"collection_times": [{"days": "Mon-Sat", "time": "1:00pm"}, {"days": "Sun", "time": "Closed"}], "id": "5476200001", "name": "USPS COLLECTION BOX - BLUE BOX", "address": {"city": "PRAIRIE FARM", "state": "WI", "street": "125 W HEPBURN ST", "postcode": "54762"}}},
{"geometry": {"type": "Point", "coordinates": [-91.9836285995, 45.2378000352]}, "type": "Feature", "properties": {"collection_times": [{"days": "Mon-Fri", "time": "1:00pm"}, {"days": "Sat", "time": "10:15am"}, {"days": "Sun", "time": "Closed"}], "id": "5476200002", "name": "USPS COLLECTION BOX - PO LOBBY", "address": {"city": "PRAIRIE FARM", "state": "WI", "street": "125 W HEPBURN ST", "postcode": "54762"}}},
{"geometry": {"type": "Point", "coordinates": [-91.8972978113, 45.203675854]}, "type": "Feature", "properties": {"collection_times": [{"days": "Mon-Sat", "time": "1:15pm"}, {"days": "Sun", "time": "Closed"}], "id": "5476300000", "name": "USPS COLLECTION BOX - BLUE BOX", "address": {"city": "RIDGELAND", "state": "WI", "street": "105 N DIAMOND ST", "postcode": "54763"}}},
{"geometry": {"type": "Point", "coordinates": [-91.8972978113, 45.203675854]}, "type": "Feature", "properties": {"collection_times": [{"days": "Mon-Fri", "time": "12:30pm"}, {"days": "Sat", "time": "10:00am"}, {"days": "Sun", "time": "Closed"}], "id": "5476300001", "name": "USPS COLLECTION BOX - PO LOBBY", "address": {"city": "RIDGELAND", "state": "WI", "street": "105 N DIAMOND ST", "postcode": "54763"}}},
{"geometry": {"type": "Point", "coordinates": [-91.6762189663, 45.1776706862]}, "type": "Feature", "properties": {"collection_times": [{"days": "Mon-Sat", "time": "12:00pm"}, {"days": "Sun", "time": "Closed"}], "id": "5476500000", "name": "USPS COLLECTION BOX - BLUE BOX", "address": {"city": "SAND CREEK", "state": "WI", "street": "9311 COUNTY ROAD I", "postcode": "54765"}}},
{"geometry": {"type": "Point", "coordinates": [-91.6762189663, 45.1776706862]}, "type": "Feature", "properties": {"collection_times": [{"days": "Mon-Sat", "time": "12:00pm"}, {"days": "Sun", "time": "Closed"}], "id": "5476500001", "name": "USPS COLLECTION BOX - PO LOBBY", "address": {"city": "SAND CREEK", "state": "WI", "street": "9311 COUNTY ROAD I", "postcode": "54765"}}},
{"geometry": {"type": "Point", "coordinates": [-90.9577139249, 45.3107179757]}, "type": "Feature", "properties": {"collection_times": [{"days": "Mon-Sat", "time": "1:15pm"}, {"days": "Sun", "time": "Closed"}], "id": "5476600000", "name": "USPS COLLECTION BOX - BLUE BOX", "address": {"city": "SHELDON", "state": "WI", "street": "W5530 MAIN ST", "postcode": "54766"}}},
{"geometry": {"type": "Point", "coordinates": [-90.9577139249, 45.3107179757]}, "type": "Feature", "properties": {"collection_times": [{"days": "Mon-Fri", "time": "1:15pm"}, {"days": "Sat", "time": "9:45am"}, {"days": "Sun", "time": "Closed"}], "id": "5476600001", "name": "USPS COLLECTION BOX - PO LOBBY", "address": {"city": "SHELDON", "state": "WI", "street": "W5530 MAIN ST", "postcode": "54766"}}},
{"geometry": {"type": "Point", "coordinates": [-92.2379983828, 44.8434506262]}, "type": "Feature", "properties": {"collection_times": [{"days": "Mon-Sat", "time": "2:00pm"}, {"days": "Sun", "time": "Closed"}], "id": "5476700001", "name": "USPS COLLECTION BOX - BLUE BOX", "address": {"city": "SPRING VALLEY", "state": "WI", "street": "E124 AKERS ST", "postcode": "54767"}}},
{"geometry": {"type": "Point", "coordinates": [-92.2379983828, 44.8434506262]}, "type": "Feature", "properties": {"collection_times": [{"days": "Mon-Fri", "time": "2:00pm"}, {"days": "Sat", "time": "10:15am"}, {"days": "Sun", "time": "Closed"}], "id": "5476700002", "name": "USPS COLLECTION BOX - PO LOBBY", "address": {"city": "SPRING VALLEY", "state": "WI", "street": "E124 AKERS ST", "postcode": "54767"}}},
{"geometry": {"type": "Point", "coordinates": [-92.2604286107, 44.8321535058]}, "type": "Feature", "properties": {"collection_times": [{"days": "Mon-Sat", "time": "10:00am"}, {"days": "Sun", "time": "Closed"}], "id": "5476700003", "name": "USPS COLLECTION BOX - BLUE BOX", "address": {"city": "SPRING VALLEY", "state": "WI", "street": "W2555 STATE ROAD 29", "postcode": "54767"}}},
{"geometry": {"type": "Point", "coordinates": [-90.932325729, 44.9596221127]}, "type": "Feature", "properties": {"collection_times": [{"days": "Mon-Sat", "time": "2:00pm"}, {"days": "Sun", "time": "Closed"}], "id": "5476800005", "name": "USPS COLLECTION BOX - BLUE BOX", "address": {"city": "STANLEY", "state": "WI", "street": "111 E 1ST AVE", "postcode": "54768"}}},
{"geometry": {"type": "Point", "coordinates": [-90.9364806434, 44.9585027773]}, "type": "Feature", "properties": {"collection_times": [{"days": "Mon-Fri", "time": "9:00am"}, {"days": "Sat-Sun", "time": "Closed"}], "id": "5476800007", "name": "USPS COLLECTION BOX - BLUE BOX", "address": {"city": "STANLEY", "state": "WI", "street": "218 WASHINGTON ST", "postcode": "54768"}}},
{"geometry": {"type": "Point", "coordinates": [-90.932325729, 44.9596221127]}, "type": "Feature", "properties": {"collection_times": [{"days": "Mon-Fri", "time": "2:00pm"}, {"days": "Sat-Sun", "time": "Closed"}], "id": "5476800008", "name": "USPS COLLECTION BOX - PO LOBBY", "address": {"city": "STANLEY", "state": "WI", "street": "111 E 1ST AVE", "postcode": "54768"}}},
{"geometry": {"type": "Point", "coordinates": [-92.2953306729, 44.5289382187]}, "type": "Feature", "properties": {"collection_times": [{"days": "Mon-Sat", "time": "1:30pm"}, {"days": "Sun", "time": "Closed"}], "id": "5476900001", "name": "USPS COLLECTION BOX - BLUE BOX", "address": {"city": "STOCKHOLM", "state": "WI", "street": "W12117 HIGHWAY 35", "postcode": "54769"}}},
{"geometry": {"type": "Point", "coordinates": [-92.2953306729, 44.5289382187]}, "type": "Feature", "properties": {"collection_times": [{"days": "Mon-Fri", "time": "1:30pm"}, {"days": "Sat-Sun", "time": "Closed"}], "id": "5476900002", "name": "USPS COLLECTION BOX - PO LOBBY", "address": {"city": "STOCKHOLM", "state": "WI", "street": "W12117 HIGHWAY 35", "postcode": "54769"}}},
{"geometry": {"type": "Point", "coordinates": [-91.3925105238, 44.5501389503]}, "type": "Feature", "properties": {"collection_times": [{"days": "Mon-Sat", "time": "2:00pm"}, {"days": "Sun", "time": "Closed"}], "id": "5477000000", "name": "USPS COLLECTION BOX - BLUE BOX", "address": {"city": "STRUM", "state": "WI", "street": "116 5TH AVE N", "postcode": "54770"}}},
{"geometry": {"type": "Point", "coordinates": [-91.3925105238, 44.5501389503]}, "type": "Feature", "properties": {"collection_times": [{"days": "Mon-Fri", "time": "2:00pm"}, {"days": "Sat", "time": "10:00am"}, {"days": "Sun", "time": "Closed"}], "id": "5477000001", "name": "USPS COLLECTION BOX - PO LOBBY", "address": {"city": "STRUM", "state": "WI", "street": "116 5TH AVE N", "postcode": "54770"}}},
{"geometry": {"type": "Point", "coordinates": [-90.800242381, 44.9601962043]}, "type": "Feature", "properties": {"collection_times": [{"days": "Mon-Sat", "time": "1:45pm"}, {"days": "Sun", "time": "Closed"}], "id": "5477100001", "name": "USPS COLLECTION BOX - BLUE BOX", "address": {"city": "THORP", "state": "WI", "street": "102 E SCHOOL ST", "postcode": "54771"}}},
{"geometry": {"type": "Point", "coordinates": [-90.800242381, 44.9601962043]}, "type": "Feature", "properties": {"collection_times": [{"days": "Mon-Fri", "time": "1:45pm"}, {"days": "Sat", "time": "10:30am"}, {"days": "Sun", "time": "Closed"}], "id": "5477100002", "name": "USPS COLLECTION BOX - PO LOBBY", "address": {"city": "THORP", "state": "WI", "street": "102 E SCHOOL ST", "postcode": "54771"}}},
{"geometry": {"type": "Point", "coordinates": [-91.9087792854, 45.0444128092]}, "type": "Feature", "properties": {"collection_times": [{"days": "Mon-Sat", "time": "2:30pm"}, {"days": "Sun", "time": "Closed"}], "id": "5477200001", "name": "USPS COLLECTION BOX - BLUE BOX", "address": {"city": "WHEELER", "state": "WI", "street": "404 W MAIN ST", "postcode": "54772"}}},
{"geometry": {"type": "Point", "coordinates": [-91.9087792854, 45.0444128092]}, "type": "Feature", "properties": {"collection_times": [{"days": "Mon-Fri", "time": "2:30pm"}, {"days": "Sat", "time": "8:00am"}, {"days": "Sun", "time": "Closed"}], "id": "5477200002", "name": "USPS COLLECTION BOX - PO LOBBY", "address": {"city": "WHEELER", "state": "WI", "street": "404 W MAIN ST", "postcode": "54772"}}},
{"geometry": {"type": "Point", "coordinates": [-91.3179879531, 44.3707829707]}, "type": "Feature", "properties": {"collection_times": [{"days": "Mon-Sat", "time": "2:00pm"}, {"days": "Sun", "time": "Closed"}], "id": "5477300002", "name": "USPS COLLECTION BOX - BLUE BOX", "address": {"city": "WHITEHALL", "state": "WI", "street": "36451 ELLIS ST", "postcode": "54773"}}},
{"geometry": {"type": "Point", "coordinates": [-91.3179879531, 44.3707829707]}, "type": "Feature", "properties": {"collection_times": [{"days": "Mon-Fri", "time": "2:00pm"}, {"days": "Sat", "time": "11:00am"}, {"days": "Sun", "time": "Closed"}], "id": "5477300003", "name": "USPS COLLECTION BOX - PO LOBBY", "address": {"city": "WHITEHALL", "state": "WI", "street": "36451 ELLIS ST", "postcode": "54773"}}}
]}
