{"type": "FeatureCollection", "features": [
{"geometry": {"type": "Point", "coordinates": [-91.887513723, 45.8256014764]}, "type": "Feature", "properties": {"collection_times": [{"days": "Mon-Sat", "time": "4:15pm"}, {"days": "Sun", "time": "Closed"}], "id": "5480100001", "name": "USPS COLLECTION BOX - BLUE BOX", "address": {"city": "SPOONER", "state": "WI", "street": "422 N FRONT ST", "postcode": "54801"}}},
{"geometry": {"type": "Point", "coordinates": [-91.8875400463, 45.82654865]}, "type": "Feature", "properties": {"collection_times": [{"days": "Mon-Sat", "time": "4:15pm"}, {"days": "Sun", "time": "Closed"}], "id": "5480100006", "name": "USPS COLLECTION BOX - BLUE BOX", "address": {"city": "SPOONER", "state": "WI", "street": "146 WALNUT ST", "postcode": "54801"}}},
{"geometry": {"type": "Point", "coordinates": [-91.8948147139, 45.8175859892]}, "type": "Feature", "properties": {"collection_times": [{"days": "Mon-Fri", "time": "2:45pm"}, {"days": "Sat", "time": "2:00pm"}, {"days": "Sun", "time": "Closed"}], "id": "5480100009", "name": "USPS COLLECTION BOX - BLUE BOX", "address": {"city": "SPOONER", "state": "WI", "street": "700 S RIVER ST", "postcode": "54801"}}},
{"geometry": {"type": "Point", "coordinates": [-91.8856573253, 45.8282695301]}, "type": "Feature", "properties": {"collection_times": [{"days": "Mon-Fri", "time": "3:45pm"}, {"days": "Sat", "time": "3:15pm"}, {"days": "Sun", "time": "Closed"}], "id": "5480100012", "name": "USPS COLLECTION BOX - BLUE BOX", "address": {"city": "SPOONER", "state": "WI", "street": "704 N FRONT ST", "postcode": "54801"}}},
{"geometry": {"type": "Point", "coordinates": [-91.8856573253, 45.8282695301]}, "type": "Feature", "properties": {"collection_times": [{"days": "Mon-Fri", "time": "3:45pm"}, {"days": "Sat", "time": "3:00pm"}, {"days": "Sun", "time": "Closed"}], "id": "5480100013", "name": "USPS COLLECTION BOX - PO LOBBY", "address": {"city": "SPOONER", "state": "WI", "street": "704 N FRONT ST", "postcode": "54801"}}},
{"geometry": {"type": "Point", "coordinates": [-91.8856573253, 45.8282695301]}, "type": "Feature", "properties": {"collection_times": [{"days": "Mon-Fri", "time": "3:45pm"}, {"days": "Sat", "time": "3:15pm"}, {"days": "Sun", "time": "Closed"}], "id": "5480100017", "name": "USPS COLLECTION BOX - BLUE BOX", "address": {"city": "SPOONER", "state": "WI", "street": "704 N FRONT ST", "postcode": "54801"}}},
{"geometry": {"type": "Point", "coordinates": [-92.0371495466, 45.4180544455]}, "type": "Feature", "properties": {"collection_times": [{"days": "Mon-Sat", "time": "2:00pm"}, {"days": "Sun", "time": "Closed"}], "id": "5480500002", "name": "USPS COLLECTION BOX - BLUE BOX", "address": {"city": "ALMENA", "state": "WI", "street": "135 SOO AVE E", "postcode": "54805"}}},
{"geometry": {"type": "Point", "coordinates": [-92.0371495466, 45.4180544455]}, "type": "Feature", "properties": {"collection_times": [{"days": "Mon-Fri", "time": "2:00pm"}, {"days": "Sat", "time": "11:45am"}, {"days": "Sun", "time": "Closed"}], "id": "5480500003", "name": "USPS COLLECTION BOX - PO LOBBY", "address": {"city": "ALMENA", "state": "WI", "street": "135 SOO AVE E", "postcode": "54805"}}},
{"geometry": {"type": "Point", "coordinates": [-90.8846473604, 46.5909503278]}, "type": "Feature", "properties": {"collection_times": [{"days": "Mon-Sat", "time": "1:00pm"}, {"days": "Sun", "time": "Closed"}], "id": "5480600007", "name": "USPS COLLECTION BOX - BLUE BOX", "address": {"city": "ASHLAND", "state": "WI", "street": "201 MAIN ST W", "postcode": "54806"}}},
{"geometry": {"type": "Point", "coordinates": [-89.7391818064, 44.6448297939]}, "type": "Feature", "properties": {"collection_times": [{"days": "Mon-Sat", "time": "12:30pm"}, {"days": "Sun", "time": "Closed"}], "id": "5480600015", "name": "USPS COLLECTION BOX - BLUE BOX", "address": {"city": "ASHLAND", "state": "WI", "street": "2500 LAKE SHORE DR E", "postcode": "54806"}}},
{"geometry": {"type": "Point", "coordinates": [-90.8897697349, 46.5886836847]}, "type": "Feature", "properties": {"collection_times": [{"days": "Mon-Sat", "time": "1:45pm"}, {"days": "Sun", "time": "Closed"}], "id": "5480600018", "name": "USPS COLLECTION BOX - BLUE BOX", "address": {"city": "ASHLAND", "state": "WI", "street": "615 MAIN ST W", "postcode": "54806"}}},
{"geometry": {"type": "Point", "coordinates": [-90.8897697349, 46.5886836847]}, "type": "Feature", "properties": {"collection_times": [{"days": "Mon-Sat", "time": "1:45pm"}, {"days": "Sun", "time": "Closed"}], "id": "5480600021", "name": "USPS COLLECTION BOX - PO LOBBY", "address": {"city": "ASHLAND", "state": "WI", "street": "615 MAIN ST W", "postcode": "54806"}}},
{"geometry": {"type": "Point", "coordinates": [-90.8817783648, 46.5898307153]}, "type": "Feature", "properties": {"collection_times": [{"days": "Mon-Sat", "time": "10:15am"}, {"days": "Sun", "time": "Closed"}], "id": "5480600023", "name": "USPS COLLECTION BOX - BLUE BOX", "address": {"city": "ASHLAND", "state": "WI", "street": "401 ELLIS AVE", "postcode": "54806"}}},
{"geometry": {"type": "Point", "coordinates": [-90.8644579483, 46.5995991291]}, "type": "Feature", "properties": {"collection_times": [{"days": "Mon-Sat", "time": "12:30pm"}, {"days": "Sun", "time": "Closed"}], "id": "5480600025", "name": "USPS COLLECTION BOX - BLUE BOX", "address": {"city": "ASHLAND", "state": "WI", "street": "204 16TH AVE E", "postcode": "54806"}}},
{"geometry": {"type": "Point", "coordinates": [-90.896431823, 46.5809259345]}, "type": "Feature", "properties": {"collection_times": [{"days": "Mon-Sat", "time": "12:00pm"}, {"days": "Sun", "time": "Closed"}], "id": "5480600026", "name": "USPS COLLECTION BOX - BLUE BOX", "address": {"city": "ASHLAND", "state": "WI", "street": "1413 6TH ST W", "postcode": "54806"}}},
{"geometry": {"type": "Point", "coordinates": [-92.4544931871, 45.4501199086]}, "type": "Feature", "properties": {"collection_times": [{"days": "Mon-Sat", "time": "1:30pm"}, {"days": "Sun", "time": "Closed"}], "id": "5481000001", "name": "USPS COLLECTION BOX - BLUE BOX", "address": {"city": "BALSAM LAKE", "state": "WI", "street": "308 PEARL ST", "postcode": "54810"}}},
{"geometry": {"type": "Point", "coordinates": [-92.4544931871, 45.4501199086]}, "type": "Feature", "properties": {"collection_times": [{"days": "Mon-Fri", "time": "1:30pm"}, {"days": "Sat", "time": "11:30am"}, {"days": "Sun", "time": "Closed"}], "id": "5481000003", "name": "USPS COLLECTION BOX - PO LOBBY", "address": {"city": "BALSAM LAKE", "state": "WI", "street": "308 PEARL ST", "postcode": "54810"}}},
{"geometry": {"type": "Point", "coordinates": [-91.8520628842, 45.3999246336]}, "type": "Feature", "properties": {"collection_times": [{"days": "Mon-Sat", "time": "1:30pm"}, {"days": "Sun", "time": "Closed"}], "id": "5481200009", "name": "USPS COLLECTION BOX - BLUE BOX", "address": {"city": "BARRON", "state": "WI", "street": "437 E LA SALLE AVE", "postcode": "54812"}}},
{"geometry": {"type": "Point", "coordinates": [-91.8520628842, 45.3999246336]}, "type": "Feature", "properties": {"collection_times": [{"days": "Mon-Fri", "time": "1:30pm"}, {"days": "Sat", "time": "11:30am"}, {"days": "Sun", "time": "Closed"}], "id": "5481200011", "name": "USPS COLLECTION BOX - PO LOBBY", "address": {"city": "BARRON", "state": "WI", "street": "437 E LA SALLE AVE", "postcode": "54812"}}},
{"geometry": {"type": "Point", "coordinates": [-91.8498196512, 45.3998024675]}, "type": "Feature", "properties": {"collection_times": [{"days": "Mon-Fri", "time": "12:00pm"}, {"days": "Sat", "time": "9:00am"}, {"days": "Sun", "time": "Closed"}], "id": "5481200012", "name": "USPS COLLECTION BOX - BLUE BOX", "address": {"city": "BARRON", "state": "WI", "street": "622 E LA SALLE AVE", "postcode": "54812"}}},
{"geometry": {"type": "Point", "coordinates": [-91.992564281, 45.636820187]}, "type": "Feature", "properties": {"collection_times": [{"days": "Mon-Sat", "time": "3:00pm"}, {"days": "Sun", "time": "Closed"}], "id": "5481300002", "name": "USPS COLLECTION BOX - BLUE BOX", "address": {"city": "BARRONETT", "state": "WI", "street": "2964 US HIGHWAY 63", "postcode": "54813"}}},
{"geometry": {"type": "Point", "coordinates": [-91.992564281, 45.636820187]}, "type": "Feature", "properties": {"collection_times": [{"days": "Mon-Sat", "time": "11:45am"}, {"days": "Sun", "time": "Closed"}], "id": "5481300003", "name": "USPS COLLECTION BOX - PO LOBBY", "address": {"city": "BARRONETT", "state": "WI", "street": "2964 US HIGHWAY 63", "postcode": "54813"}}},
{"geometry": {"type": "Point", "coordinates": [-90.8169611321, 46.8093728366]}, "type": "Feature", "properties": {"collection_times": [{"days": "Mon-Sat", "time": "12:00pm"}, {"days": "Sun", "time": "Closed"}], "id": "5481400000", "name": "USPS COLLECTION BOX - BLUE BOX", "address": {"city": "BAYFIELD", "state": "WI", "street": "22 S BROAD ST", "postcode": "54814"}}},
{"geometry": {"type": "Point", "coordinates": [-90.8169611321, 46.8093728366]}, "type": "Feature", "properties": {"collection_times": [{"days": "Mon-Fri", "time": "12:00pm"}, {"days": "Sat", "time": "11:00am"}, {"days": "Sun", "time": "Closed"}], "id": "5481400001", "name": "USPS COLLECTION BOX - PO LOBBY", "address": {"city": "BAYFIELD", "state": "WI", "street": "22 S BROAD ST", "postcode": "54814"}}},
{"geometry": {"type": "Point", "coordinates": [-91.5557544966, 45.6553983074]}, "type": "Feature", "properties": {"collection_times": [{"days": "Mon-Sat", "time": "1:15pm"}, {"days": "Sun", "time": "Closed"}], "id": "5481700000", "name": "USPS COLLECTION BOX - BLUE BOX", "address": {"city": "BIRCHWOOD", "state": "WI", "street": "106 S MAIN ST", "postcode": "54817"}}},
{"geometry": {"type": "Point", "coordinates": [-91.5557544966, 45.6553983074]}, "type": "Feature", "properties": {"collection_times": [{"days": "Mon-Fri", "time": "1:15pm"}, {"days": "Sat", "time": "11:00am"}, {"days": "Sun", "time": "Closed"}], "id": "5481700001", "name": "USPS COLLECTION BOX - PO LOBBY", "address": {"city": "BIRCHWOOD", "state": "WI", "street": "106 S MAIN ST", "postcode": "54817"}}},
{"geometry": {"type": "Point", "coordinates": [-91.473669573, 45.742801547]}, "type": "Feature", "properties": {"collection_times": [{"days": "Mon-Sat", "time": "12:00pm"}, {"days": "Sun", "time": "Closed"}], "id": "5481700006", "name": "USPS COLLECTION BOX - BLUE BOX", "address": {"city": "BIRCHWOOD", "state": "WI", "street": "120 LAKE ST N", "postcode": "54817"}}},
{"geometry": {"type": "Point", "coordinates": [-91.2724039472, 45.4584203803]}, "type": "Feature", "properties": {"collection_times": [{"days": "Mon-Fri", "time": "11:15am"}, {"days": "Sat", "time": "1:30pm"}, {"days": "Sun", "time": "Closed"}], "id": "5481900000", "name": "USPS COLLECTION BOX - BLUE BOX", "address": {"city": "BRUCE", "state": "WI", "street": "719 N 1ST ST", "postcode": "54819"}}},
{"geometry": {"type": "Point", "coordinates": [-91.2724039472, 45.4584203803]}, "type": "Feature", "properties": {"collection_times": [{"days": "Mon-Fri", "time": "11:15am"}, {"days": "Sat", "time": "9:15am"}, {"days": "Sun", "time": "Closed"}], "id": "5481900001", "name": "USPS COLLECTION BOX - PO LOBBY", "address": {"city": "BRUCE", "state": "WI", "street": "719 N 1ST ST", "postcode": "54819"}}},
{"geometry": {"type": "Point", "coordinates": [-91.431256757, 46.5666776147]}, "type": "Feature", "properties": {"collection_times": [{"days": "Mon-Sat", "time": "1:30pm"}, {"days": "Sun", "time": "Closed"}], "id": "5482000000", "name": "USPS COLLECTION BOX - BLUE BOX", "address": {"city": "BRULE", "state": "WI", "street": "13974 E US HIGHWAY 2", "postcode": "54820"}}},
{"geometry": {"type": "Point", "coordinates": [-91.431256757, 46.5666776147]}, "type": "Feature", "properties": {"collection_times": [{"days": "Mon-Sat", "time": "1:30pm"}, {"days": "Sun", "time": "Closed"}], "id": "5482000001", "name": "USPS COLLECTION BOX - PO LOBBY", "address": {"city": "BRULE", "state": "WI", "street": "13974 E US HIGHWAY 2", "postcode": "54820"}}},
{"geometry": {"type": "Point", "coordinates": [-91.2937309111, 46.2071314995]}, "type": "Feature", "properties": {"collection_times": [{"days": "Mon-Sat", "time": "1:30pm"}, {"days": "Sun", "time": "Closed"}], "id": "5482100000", "name": "USPS COLLECTION BOX - BLUE BOX", "address": {"city": "CABLE", "state": "WI", "street": "43435 KAVANAUGH RD", "postcode": "54821"}}},
{"geometry": {"type": "Point", "coordinates": [-91.2937309111, 46.2071314995]}, "type": "Feature", "properties": {"collection_times": [{"days": "Mon-Fri", "time": "1:30pm"}, {"days": "Sat", "time": "11:45am"}, {"days": "Sun", "time": "Closed"}], "id": "5482100001", "name": "USPS COLLECTION BOX - PO LOBBY", "address": {"city": "CABLE", "state": "WI", "street": "43435 KAVANAUGH RD", "postcode": "54821"}}},
{"geometry": {"type": "Point", "coordinates": [-91.7458065962, 45.4085809626]}, "type": "Feature", "properties": {"collection_times": [{"days": "Mon-Sat", "time": "2:00pm"}, {"days": "Sun", "time": "Closed"}], "id": "5482200000", "name": "USPS COLLECTION BOX - BLUE BOX", "address": {"city": "CAMERON", "state": "WI", "street": "1000 W MAIN ST", "postcode": "54822"}}},
{"geometry": {"type": "Point", "coordinates": [-91.7458065962, 45.4085809626]}, "type": "Feature", "properties": {"collection_times": [{"days": "Mon-Fri", "time": "2:00pm"}, {"days": "Sat", "time": "10:00am"}, {"days": "Sun", "time": "Closed"}], "id": "5482200003", "name": "USPS COLLECTION BOX - PO LOBBY", "address": {"city": "CAMERON", "state": "WI", "street": "1000 W MAIN ST", "postcode": "54822"}}},
{"geometry": {"type": "Point", "coordinates": [-92.5527955226, 45.4510688209]}, "type": "Feature", "properties": {"collection_times": [{"days": "Mon-Fri", "time": "1:00pm"}, {"days": "Sat", "time": "11:30am"}, {"days": "Sun", "time": "Closed"}], "id": "5482400000", "name": "USPS COLLECTION BOX - BLUE BOX", "address": {"city": "CENTURIA", "state": "WI", "street": "316 4TH ST", "postcode": "54824"}}},
{"geometry": {"type": "Point", "coordinates": [-92.5527955226, 45.4510688209]}, "type": "Feature", "properties": {"collection_times": [{"days": "Mon-Fri", "time": "1:00pm"}, {"days": "Sat", "time": "12:00pm"}, {"days": "Sun", "time": "Closed"}], "id": "5482400002", "name": "USPS COLLECTION BOX - PO LOBBY", "address": {"city": "CENTURIA", "state": "WI", "street": "316 4TH ST", "postcode": "54824"}}},
{"geometry": {"type": "Point", "coordinates": [-92.0761012478, 45.476909195]}, "type": "Feature", "properties": {"collection_times": [{"days": "Mon-Sat", "time": "2:30pm"}, {"days": "Sun", "time": "Closed"}], "id": "5482600001", "name": "USPS COLLECTION BOX - BLUE BOX", "address": {"city": "COMSTOCK", "state": "WI", "street": "1866 US HIGHWAY 63", "postcode": "54826"}}},
{"geometry": {"type": "Point", "coordinates": [-92.0761012478, 45.476909195]}, "type": "Feature", "properties": {"collection_times": [{"days": "Mon-Sat", "time": "2:30pm"}, {"days": "Sun", "time": "Closed"}], "id": "5482600002", "name": "USPS COLLECTION BOX - PO LOBBY", "address": {"city": "COMSTOCK", "state": "WI", "street": "1866 US HIGHWAY 63", "postcode": "54826"}}},
{"geometry": {"type": "Point", "coordinates": [-91.1052708259, 46.7923431254]}, "type": "Feature", "properties": {"collection_times": [{"days": "Mon-Sat", "time": "12:15pm"}, {"days": "Sun", "time": "Closed"}], "id": "5482700001", "name": "USPS COLLECTION BOX - BLUE BOX", "address": {"city": "CORNUCOPIA", "state": "WI", "street": "88530 SUPERIOR AVE", "postcode": "54827"}}},
{"geometry": {"type": "Point", "coordinates": [-91.1052708259, 46.7923431254]}, "type": "Feature", "properties": {"collection_times": [{"days": "Mon-Sat", "time": "12:15pm"}, {"days": "Sun", "time": "Closed"}], "id": "5482700002", "name": "USPS COLLECTION BOX - PO LOBBY", "address": {"city": "CORNUCOPIA", "state": "WI", "street": "88530 SUPERIOR AVE", "postcode": "54827"}}},
{"geometry": {"type": "Point", "coordinates": [-91.3110473816, 45.8313582418]}, "type": "Feature", "properties": {"collection_times": [{"days": "Mon-Sat", "time": "2:30pm"}, {"days": "Sun", "time": "Closed"}], "id": "5482800000", "name": "USPS COLLECTION BOX - BLUE BOX", "address": {"city": "COUDERAY", "state": "WI", "street": "12296W HIGHWAY 27", "postcode": "54828"}}},
{"geometry": {"type": "Point", "coordinates": [-91.3110473816, 45.8313582418]}, "type": "Feature", "properties": {"collection_times": [{"days": "Mon-Fri", "time": "2:30pm"}, {"days": "Sat", "time": "2:15pm"}, {"days": "Sun", "time": "Closed"}], "id": "5482800001", "name": "USPS COLLECTION BOX - PO LOBBY", "address": {"city": "COUDERAY", "state": "WI", "street": "12296W HIGHWAY 27", "postcode": "54828"}}},
{"geometry": {"type": "Point", "coordinates": [-92.0228536443, 45.5354768775]}, "type": "Feature", "properties": {"collection_times": [{"days": "Mon-Sat", "time": "2:30pm"}, {"days": "Sun", "time": "Closed"}], "id": "5482900001", "name": "USPS COLLECTION BOX - BLUE BOX", "address": {"city": "CUMBERLAND", "state": "WI", "street": "1400 3RD AVE", "postcode": "54829"}}},
{"geometry": {"type": "Point", "coordinates": [-92.0228536443, 45.5354768775]}, "type": "Feature", "properties": {"collection_times": [{"days": "Mon-Sat", "time": "2:30pm"}, {"days": "Sun", "time": "Closed"}], "id": "5482900002", "name": "USPS COLLECTION BOX - BLUE BOX", "address": {"city": "CUMBERLAND", "state": "WI", "street": "1400 3RD AVE", "postcode": "54829"}}},
{"geometry": {"type": "Point", "coordinates": [-92.0228536443, 45.5354768775]}, "type": "Feature", "properties": {"collection_times": [{"days": "Mon-Fri", "time": "2:30pm"}, {"days": "Sat", "time": "11:00am"}, {"days": "Sun", "time": "Closed"}], "id": "5482900003", "name": "USPS COLLECTION BOX - PO LOBBY", "address": {"city": "CUMBERLAND", "state": "WI", "street": "1400 3RD AVE", "postcode": "54829"}}},
{"geometry": {"type": "Point", "coordinates": [-92.3701424418, 46.0069988501]}, "type": "Feature", "properties": {"collection_times": [{"days": "Mon-Sat", "time": "1:30pm"}, {"days": "Sun", "time": "Closed"}], "id": "5483000001", "name": "USPS COLLECTION BOX - BLUE BOX", "address": {"city": "DANBURY", "state": "WI", "street": "7506 MAIN ST", "postcode": "54830"}}},
{"geometry": {"type": "Point", "coordinates": [-92.3701424418, 46.0069988501]}, "type": "Feature", "properties": {"collection_times": [{"days": "Mon-Fri", "time": "1:30pm"}, {"days": "Sat", "time": "11:00am"}, {"days": "Sun", "time": "Closed"}], "id": "5483000004", "name": "USPS COLLECTION BOX - PO LOBBY", "address": {"city": "DANBURY", "state": "WI", "street": "7506 MAIN ST", "postcode": "54830"}}},
{"geometry": {"type": "Point", "coordinates": [-91.2571656602, 46.3324100889]}, "type": "Feature", "properties": {"collection_times": [{"days": "Mon-Sat", "time": "1:30pm"}, {"days": "Sun", "time": "Closed"}], "id": "5483200000", "name": "USPS COLLECTION BOX - BLUE BOX", "address": {"city": "DRUMMOND", "state": "WI", "street": "52445 WISCONSIN AVE", "postcode": "54832"}}},
{"geometry": {"type": "Point", "coordinates": [-91.2571656602, 46.3324100889]}, "type": "Feature", "properties": {"collection_times": [{"days": "Mon-Fri", "time": "11:30am"}, {"days": "Sat", "time": "9:30am"}, {"days": "Sun", "time": "Closed"}], "id": "5483200001", "name": "USPS COLLECTION BOX - PO LOBBY", "address": {"city": "DRUMMOND", "state": "WI", "street": "52445 WISCONSIN AVE", "postcode": "54832"}}},
{"geometry": {"type": "Point", "coordinates": [-91.242821947, 45.6682286362]}, "type": "Feature", "properties": {"collection_times": [{"days": "Mon-Fri", "time": "12:45pm"}, {"days": "Sat", "time": "12:00pm"}, {"days": "Sun", "time": "Closed"}], "id": "5483500000", "name": "USPS COLLECTION BOX - BLUE BOX", "address": {"city": "EXELAND", "state": "WI", "street": "11050 W STATE ROAD 48", "postcode": "54835"}}},
{"geometry": {"type": "Point", "coordinates": [-91.242821947, 45.6682286362]}, "type": "Feature", "properties": {"collection_times": [{"days": "Mon-Fri", "time": "12:45pm"}, {"days": "Sat", "time": "12:00pm"}, {"days": "Sun", "time": "Closed"}], "id": "5483500001", "name": "USPS COLLECTION BOX - PO LOBBY", "address": {"city": "EXELAND", "state": "WI", "street": "11050 W STATE ROAD 48", "postcode": "54835"}}},
{"geometry": {"type": "Point", "coordinates": [-92.4679715298, 45.6592659133]}, "type": "Feature", "properties": {"collection_times": [{"days": "Mon-Sat", "time": "2:15pm"}, {"days": "Sun", "time": "Closed"}], "id": "5483700002", "name": "USPS COLLECTION BOX - BLUE BOX", "address": {"city": "FREDERIC", "state": "WI", "street": "311 OAK ST W", "postcode": "54837"}}},
{"geometry": {"type": "Point", "coordinates": [-92.4679715298, 45.6592659133]}, "type": "Feature", "properties": {"collection_times": [{"days": "Mon-Fri", "time": "2:15pm"}, {"days": "Sat", "time": "11:00am"}, {"days": "Sun", "time": "Closed"}], "id": "5483700004", "name": "USPS COLLECTION BOX - PO LOBBY", "address": {"city": "FREDERIC", "state": "WI", "street": "311 OAK ST W", "postcode": "54837"}}},
{"geometry": {"type": "Point", "coordinates": [-91.7697794152, 46.2583284205]}, "type": "Feature", "properties": {"collection_times": [{"days": "Mon-Sat", "time": "2:15pm"}, {"days": "Sun", "time": "Closed"}], "id": "5483800001", "name": "USPS COLLECTION BOX - BLUE BOX", "address": {"city": "GORDON", "state": "WI", "street": "9725 E COUNTY ROAD Y", "postcode": "54838"}}},
{"geometry": {"type": "Point", "coordinates": [-91.7697794152, 46.2583284205]}, "type": "Feature", "properties": {"collection_times": [{"days": "Mon-Fri", "time": "2:15pm"}, {"days": "Sat", "time": "11:00am"}, {"days": "Sun", "time": "Closed"}], "id": "5483800002", "name": "USPS COLLECTION BOX - PO LOBBY", "address": {"city": "GORDON", "state": "WI", "street": "9725 E COUNTY ROAD Y", "postcode": "54838"}}},
{"geometry": {"type": "Point", "coordinates": [-91.9445616474, 46.1725742873]}, "type": "Feature", "properties": {"collection_times": [{"days": "Mon-Sat", "time": "9:45am"}, {"days": "Sun", "time": "Closed"}], "id": "5483800003", "name": "USPS COLLECTION BOX - BLUE BOX", "address": {"city": "GORDON", "state": "WI", "street": "16389 S CRYSTAL LAKE RD", "postcode": "54838"}}},
{"geometry": {"type": "Point", "coordinates": [-91.1067129227, 46.3391865872]}, "type": "Feature", "properties": {"collection_times": [{"days": "Mon-Sat", "time": "2:30pm"}, {"days": "Sun", "time": "Closed"}], "id": "5483900000", "name": "USPS COLLECTION BOX - BLUE BOX", "address": {"city": "GRANDVIEW", "state": "WI", "street": "54595 CUDWORTH AVE", "postcode": "54839"}}},
{"geometry": {"type": "Point", "coordinates": [-91.1067129227, 46.3391865872]}, "type": "Feature", "properties": {"collection_times": [{"days": "Mon-Fri", "time": "1:00pm"}, {"days": "Sat", "time": "12:30pm"}, {"days": "Sun", "time": "Closed"}], "id": "5483900001", "name": "USPS COLLECTION BOX - PO LOBBY", "address": {"city": "GRANDVIEW", "state": "WI", "street": "54595 CUDWORTH AVE", "postcode": "54839"}}},
{"geometry": {"type": "Point", "coordinates": [-92.682272605, 45.7795121524]}, "type": "Feature", "properties": {"collection_times": [{"days": "Mon-Sat", "time": "1:30pm"}, {"days": "Sun", "time": "Closed"}], "id": "5484000000", "name": "USPS COLLECTION BOX - BLUE BOX", "address": {"city": "GRANTSBURG", "state": "WI", "street": "201 N PINE ST", "postcode": "54840"}}},
{"geometry": {"type": "Point", "coordinates": [-92.682272605, 45.7795121524]}, "type": "Feature", "properties": {"collection_times": [{"days": "Mon-Fri", "time": "1:30pm"}, {"days": "Sat", "time": "11:30am"}, {"days": "Sun", "time": "Closed"}], "id": "5484000002", "name": "USPS COLLECTION BOX - PO LOBBY", "address": {"city": "GRANTSBURG", "state": "WI", "street": "201 N PINE ST", "postcode": "54840"}}},
{"geometry": {"type": "Point", "coordinates": [-91.7755240332, 45.6083126304]}, "type": "Feature", "properties": {"collection_times": [{"days": "Mon-Sat", "time": "2:15pm"}, {"days": "Sun", "time": "Closed"}], "id": "5484100000", "name": "USPS COLLECTION BOX - BLUE BOX", "address": {"city": "HAUGEN", "state": "WI", "street": "105 3RD ST W", "postcode": "54841"}}},
{"geometry": {"type": "Point", "coordinates": [-91.7755240332, 45.6083126304]}, "type": "Feature", "properties": {"collection_times": [{"days": "Mon-Fri", "time": "2:15pm"}, {"days": "Sat", "time": "1:45pm"}, {"days": "Sun", "time": "Closed"}], "id": "5484100001", "name": "USPS COLLECTION BOX - PO LOBBY", "address": {"city": "HAUGEN", "state": "WI", "street": "105 3RD ST W", "postcode": "54841"}}},
{"geometry": {"type": "Point", "coordinates": [-91.6983860541, 46.5145867594]}, "type": "Feature", "properties": {"collection_times": [{"days": "Mon-Sat", "time": "1:30pm"}, {"days": "Sun", "time": "Closed"}], "id": "5484200000", "name": "USPS COLLECTION BOX - BLUE BOX", "address": {"city": "HAWTHORNE", "state": "WI", "street": "7204 S WISCONSIN AVE", "postcode": "54842"}}},
{"geometry": {"type": "Point", "coordinates": [-91.6983860541, 46.5145867594]}, "type": "Feature", "properties": {"collection_times": [{"days": "Mon-Fri", "time": "1:30pm"}, {"days": "Sat", "time": "1:15pm"}, {"days": "Sun", "time": "Closed"}], "id": "5484200001", "name": "USPS COLLECTION BOX - PO LOBBY", "address": {"city": "HAWTHORNE", "state": "WI", "street": "7204 S WISCONSIN AVE", "postcode": "54842"}}},
{"geometry": {"type": "Point", "coordinates": [-91.4865140347, 46.0158036524]}, "type": "Feature", "properties": {"collection_times": [{"days": "Mon-Sat", "time": "2:00pm"}, {"days": "Sun", "time": "Closed"}], "id": "5484300002", "name": "USPS COLLECTION BOX - BLUE BOX", "address": {"city": "HAYWARD", "state": "WI", "street": "10597 S MAIN ST REAR", "postcode": "54843"}}},
{"geometry": {"type": "Point", "coordinates": [-91.4847927802, 46.0147376469]}, "type": "Feature", "properties": {"collection_times": [{"days": "Mon-Sat", "time": "12:30pm"}, {"days": "Sun", "time": "Closed"}], "id": "5484300004", "name": "USPS COLLECTION BOX - BLUE BOX", "address": {"city": "HAYWARD", "state": "WI", "street": "10514 S MAIN ST", "postcode": "54843"}}},
{"geometry": {"type": "Point", "coordinates": [-91.5036913841, 46.0002912936]}, "type": "Feature", "properties": {"collection_times": [{"days": "Mon-Sat", "time": "12:30pm"}, {"days": "Sun", "time": "Closed"}], "id": "5484300005", "name": "USPS COLLECTION BOX - BLUE BOX", "address": {"city": "HAYWARD", "state": "WI", "street": "15877 US HIGHWAY 63", "postcode": "54843"}}},
{"geometry": {"type": "Point", "coordinates": [-91.382870863, 45.99717237]}, "type": "Feature", "properties": {"collection_times": [{"days": "Mon-Sat", "time": "12:30pm"}, {"days": "Sun", "time": "Closed"}], "id": "5484300006", "name": "USPS COLLECTION BOX - BLUE BOX", "address": {"city": "HAYWARD", "state": "WI", "street": "13803 W COUNTY ROAD B", "postcode": "54843"}}},
{"geometry": {"type": "Point", "coordinates": [-91.4865140347, 46.0158036524]}, "type": "Feature", "properties": {"collection_times": [{"days": "Mon-Sat", "time": "2:00pm"}, {"days": "Sun", "time": "Closed"}], "id": "5484300007", "name": "USPS COLLECTION BOX - PO LOBBY", "address": {"city": "HAYWARD", "state": "WI", "street": "10597 S MAIN ST", "postcode": "54843"}}},
{"geometry": {"type": "Point", "coordinates": [-91.4865140347, 46.0158036524]}, "type": "Feature", "properties": {"collection_times": [{"days": "Mon-Sat", "time": "2:00pm"}, {"days": "Sun", "time": "Closed"}], "id": "5484300009", "name": "USPS COLLECTION BOX - BLUE BOX", "address": {"city": "HAYWARD", "state": "WI", "street": "10597 S MAIN ST REAR", "postcode": "54843"}}},
{"geometry": {"type": "Point", "coordinates": [-91.472986096, 46.0169405897]}, "type": "Feature", "properties": {"collection_times": [{"days": "Mon-Sat", "time": "12:30pm"}, {"days": "Sun", "time": "Closed"}], "id": "5484300010", "name": "USPS COLLECTION BOX - BLUE BOX", "address": {"city": "HAYWARD", "state": "WI", "street": "15594 STATE ROAD 77", "postcode": "54843"}}},
{"geometry": {"type": "Point", "coordinates": [-91.2584259789, 46.832582751]}, "type": "Feature", "properties": {"collection_times": [{"days": "Mon-Sat", "time": "11:15am"}, {"days": "Sun", "time": "Closed"}], "id": "5484400001", "name": "USPS COLLECTION BOX - BLUE BOX", "address": {"city": "HERBSTER", "state": "WI", "street": "14840 STATE HIGHWAY 13", "postcode": "54844"}}},
{"geometry": {"type": "Point", "coordinates": [-91.2584259789, 46.832582751]}, "type": "Feature", "properties": {"collection_times": [{"days": "Mon-Sat", "time": "11:15am"}, {"days": "Sun", "time": "Closed"}], "id": "5484400002", "name": "USPS COLLECTION BOX - PO LOBBY", "address": {"city": "HERBSTER", "state": "WI", "street": "14840 STATE HIGHWAY 13", "postcode": "54844"}}},
{"geometry": {"type": "Point", "coordinates": [-90.7365700112, 46.3833928921]}, "type": "Feature", "properties": {"collection_times": [{"days": "Mon-Sat", "time": "12:30pm"}, {"days": "Sun", "time": "Closed"}], "id": "5484600000", "name": "USPS COLLECTION BOX - BLUE BOX", "address": {"city": "HIGH BRIDGE", "state": "WI", "street": "39255 HIGHWAY 13", "postcode": "54846"}}},
{"geometry": {"type": "Point", "coordinates": [-90.7365700112, 46.3833928921]}, "type": "Feature", "properties": {"collection_times": [{"days": "Mon-Fri", "time": "11:45am"}, {"days": "Sat", "time": "9:45am"}, {"days": "Sun", "time": "Closed"}], "id": "5484600001", "name": "USPS COLLECTION BOX - PO LOBBY", "address": {"city": "HIGH BRIDGE", "state": "WI", "street": "39255 HWY 13", "postcode": "54846"}}},
{"geometry": {"type": "Point", "coordinates": [-91.389747505, 46.5617284061]}, "type": "Feature", "properties": {"collection_times": [{"days": "Mon-Sat", "time": "1:00pm"}, {"days": "Sun", "time": "Closed"}], "id": "5484700001", "name": "USPS COLLECTION BOX - BLUE BOX", "address": {"city": "IRON RIVER", "state": "WI", "street": "7830 W MILL ST", "postcode": "54847"}}},
{"geometry": {"type": "Point", "coordinates": [-91.389747505, 46.5617284061]}, "type": "Feature", "properties": {"collection_times": [{"days": "Mon-Fri", "time": "1:00pm"}, {"days": "Sat", "time": "11:30am"}, {"days": "Sun", "time": "Closed"}], "id": "5484700002", "name": "USPS COLLECTION BOX - PO LOBBY", "address": {"city": "IRON RIVER", "state": "WI", "street": "7830 W MILL ST", "postcode": "54847"}}},
{"geometry": {"type": "Point", "coordinates": [-91.1094376051, 45.4555480913]}, "type": "Feature", "properties": {"collection_times": [{"days": "Mon-Sat", "time": "11:30am"}, {"days": "Sun", "time": "Closed"}], "id": "5484800001", "name": "USPS COLLECTION BOX - BLUE BOX", "address": {"city": "LADYSMITH", "state": "WI", "street": "900 COLLEGE AVE W", "postcode": "54848"}}},
{"geometry": {"type": "Point", "coordinates": [-91.1023384651, 45.4642950191]}, "type": "Feature", "properties": {"collection_times": [{"days": "Mon-Sat", "time": "1:00pm"}, {"days": "Sun", "time": "Closed"}], "id": "5484800004", "name": "USPS COLLECTION BOX - BLUE BOX", "address": {"city": "LADYSMITH", "state": "WI", "street": "212 MINER AVE W", "postcode": "54848"}}},
{"geometry": {"type": "Point", "coordinates": [-91.1023384651, 45.4642950191]}, "type": "Feature", "properties": {"collection_times": [{"days": "Mon-Fri", "time": "1:00pm"}, {"days": "Sat", "time": "10:00am"}, {"days": "Sun", "time": "Closed"}], "id": "5484800005", "name": "USPS COLLECTION BOX - PO LOBBY", "address": {"city": "LADYSMITH", "state": "WI", "street": "212 MINER AVE W", "postcode": "54848"}}},
{"geometry": {"type": "Point", "coordinates": [-91.700753569, 46.5159881563]}, "type": "Feature", "properties": {"collection_times": [{"days": "Mon-Sat", "time": "1:30pm"}, {"days": "Sun", "time": "Closed"}], "id": "5484900001", "name": "USPS COLLECTION BOX - BLUE BOX", "address": {"city": "LAKE NEBAGAMON", "state": "WI", "street": "6870 S LAKE AVE", "postcode": "54849"}}},
{"geometry": {"type": "Point", "coordinates": [-91.700753569, 46.5159881563]}, "type": "Feature", "properties": {"collection_times": [{"days": "Mon-Fri", "time": "1:30pm"}, {"days": "Sat", "time": "10:00am"}, {"days": "Sun", "time": "Closed"}], "id": "5484900002", "name": "USPS COLLECTION BOX - PO LOBBY", "address": {"city": "LAKE NEBAGAMON", "state": "WI", "street": "6870 S LAKE AVE", "postcode": "54849"}}},
{"geometry": {"type": "Point", "coordinates": [-90.6871480046, 46.8122383779]}, "type": "Feature", "properties": {"collection_times": [{"days": "Mon-Fri", "time": "11:15am"}, {"days": "Sat", "time": "11:00am"}, {"days": "Sun", "time": "Closed"}], "id": "5485000000", "name": "USPS COLLECTION BOX - BLUE BOX", "address": {"city": "LA POINTE", "state": "WI", "street": "189 COLONEL WOODS AVE", "postcode": "54850"}}},
{"geometry": {"type": "Point", "coordinates": [-90.6871480046, 46.8122383779]}, "type": "Feature", "properties": {"collection_times": [{"days": "Mon-Sat", "time": "11:15am"}, {"days": "Sun", "time": "Closed"}], "id": "5485000001", "name": "USPS COLLECTION BOX - PO LOBBY", "address": {"city": "LA POINTE", "state": "WI", "street": "189 COLONEL WOODS AVE", "postcode": "54850"}}},
{"geometry": {"type": "Point", "coordinates": [-92.4825695769, 45.5754047064]}, "type": "Feature", "properties": {"collection_times": [{"days": "Mon-Sat", "time": "2:00pm"}, {"days": "Sun", "time": "Closed"}], "id": "5485300001", "name": "USPS COLLECTION BOX - BLUE BOX", "address": {"city": "LUCK", "state": "WI", "street": "128 MAIN ST S", "postcode": "54853"}}},
{"geometry": {"type": "Point", "coordinates": [-92.4825695769, 45.5754047064]}, "type": "Feature", "properties": {"collection_times": [{"days": "Mon-Fri", "time": "2:00pm"}, {"days": "Sat", "time": "11:30am"}, {"days": "Sun", "time": "Closed"}], "id": "5485300002", "name": "USPS COLLECTION BOX - PO LOBBY", "address": {"city": "LUCK", "state": "WI", "street": "128 MAIN ST S", "postcode": "54853"}}},
{"geometry": {"type": "Point", "coordinates": [-91.7086200404, 46.5606117369]}, "type": "Feature", "properties": {"collection_times": [{"days": "Mon-Sat", "time": "11:15am"}, {"days": "Sun", "time": "Closed"}], "id": "5485400000", "name": "USPS COLLECTION BOX - BLUE BOX", "address": {"city": "MAPLE", "state": "WI", "street": "4774 S COUNTY RD F", "postcode": "54854"}}},
{"geometry": {"type": "Point", "coordinates": [-91.7086200404, 46.5606117369]}, "type": "Feature", "properties": {"collection_times": [{"days": "Mon-Sat", "time": "11:15am"}, {"days": "Sun", "time": "Closed"}], "id": "5485400001", "name": "USPS COLLECTION BOX - PO LOBBY", "address": {"city": "MAPLE", "state": "WI", "street": "4774 S COUNTY RD F", "postcode": "54854"}}},
{"geometry": {"type": "Point", "coordinates": [-90.8468854427, 46.354182973]}, "type": "Feature", "properties": {"collection_times": [{"days": "Mon-Sat", "time": "12:45pm"}, {"days": "Sun", "time": "Closed"}], "id": "5485500000", "name": "USPS COLLECTION BOX - BLUE BOX", "address": {"city": "MARENGO", "state": "WI", "street": "41661 STATE HIGHWAY 13", "postcode": "54855"}}},
{"geometry": {"type": "Point", "coordinates": [-91.0567064471, 46.4359537714]}, "type": "Feature", "properties": {"collection_times": [{"days": "Mon-Sat", "time": "12:00pm"}, {"days": "Sun", "time": "Closed"}], "id": "5485600000", "name": "USPS COLLECTION BOX - BLUE BOX", "address": {"city": "MASON", "state": "WI", "street": "24675 COUNTY HWY E", "postcode": "54856"}}},
{"geometry": {"type": "Point", "coordinates": [-91.0567064471, 46.4359537714]}, "type": "Feature", "properties": {"collection_times": [{"days": "Mon-Fri", "time": "12:00pm"}, {"days": "Sat", "time": "11:45am"}, {"days": "Sun", "time": "Closed"}], "id": "5485600001", "name": "USPS COLLECTION BOX - PO LOBBY", "address": {"city": "MASON", "state": "WI", "street": "24675 COUNTY HWY E", "postcode": "54856"}}},
{"geometry": {"type": "Point", "coordinates": [-91.0769972271, 46.5022312266]}, "type": "Feature", "properties": {"collection_times": [{"days": "Mon-Sat", "time": "1:00pm"}, {"days": "Sun", "time": "Closed"}], "id": "5485600002", "name": "USPS COLLECTION BOX - BLUE BOX", "address": {"city": "MASON", "state": "WI", "street": "23835 COUNTY HIGHWAY F", "postcode": "54856"}}},
{"geometry": {"type": "Point", "coordinates": [-92.5034366616, 45.5267168941]}, "type": "Feature", "properties": {"collection_times": [{"days": "Mon-Sat", "time": "1:45pm"}, {"days": "Sun", "time": "Closed"}], "id": "5485800001", "name": "USPS COLLECTION BOX - BLUE BOX", "address": {"city": "MILLTOWN", "state": "WI", "street": "71 MAIN ST E", "postcode": "54858"}}},
{"geometry": {"type": "Point", "coordinates": [-92.5034366616, 45.5267168941]}, "type": "Feature", "properties": {"collection_times": [{"days": "Mon-Sat", "time": "1:45pm"}, {"days": "Sun", "time": "Closed"}], "id": "5485800002", "name": "USPS COLLECTION BOX - PO LOBBY", "address": {"city": "MILLTOWN", "state": "WI", "street": "71 MAIN ST E", "postcode": "54858"}}},
{"geometry": {"type": "Point", "coordinates": [-91.8184343792, 46.0997888336]}, "type": "Feature", "properties": {"collection_times": [{"days": "Mon-Sat", "time": "2:30pm"}, {"days": "Sun", "time": "Closed"}], "id": "5485900000", "name": "USPS COLLECTION BOX - BLUE BOX", "address": {"city": "MINONG", "state": "WI", "street": "321 5TH AVE E", "postcode": "54859"}}},
{"geometry": {"type": "Point", "coordinates": [-91.8184343792, 46.0997888336]}, "type": "Feature", "properties": {"collection_times": [{"days": "Mon-Fri", "time": "2:30pm"}, {"days": "Sat", "time": "11:30am"}, {"days": "Sun", "time": "Closed"}], "id": "5485900001", "name": "USPS COLLECTION BOX - PO LOBBY", "address": {"city": "MINONG", "state": "WI", "street": "321 5TH AVE E", "postcode": "54859"}}},
{"geometry": {"type": "Point", "coordinates": [-90.6971531726, 46.6103277782]}, "type": "Feature", "properties": {"collection_times": [{"days": "Mon-Sat", "time": "12:45pm"}, {"days": "Sun", "time": "Closed"}], "id": "5486100000", "name": "USPS COLLECTION BOX - PO LOBBY", "address": {"city": "ODANAH", "state": "WI", "street": "73430 US HIGHWAY 2", "postcode": "54861"}}},
{"geometry": {"type": "Point", "coordinates": [-91.8004262895, 46.5845051275]}, "type": "Feature", "properties": {"collection_times": [{"days": "Mon-Fri", "time": "2:15pm"}, {"days": "Sat", "time": "10:45am"}, {"days": "Sun", "time": "Closed"}], "id": "5486400000", "name": "USPS COLLECTION BOX - BLUE BOX", "address": {"city": "POPLAR", "state": "WI", "street": "9683 E MAIN ST", "postcode": "54864"}}},
{"geometry": {"type": "Point", "coordinates": [-91.8004262895, 46.5845051275]}, "type": "Feature", "properties": {"collection_times": [{"days": "Mon-Fri", "time": "2:15pm"}, {"days": "Sat", "time": "10:45am"}, {"days": "Sun", "time": "Closed"}], "id": "5486400001", "name": "USPS COLLECTION BOX - PO LOBBY", "address": {"city": "POPLAR", "state": "WI", "street": "9683 E MAIN ST", "postcode": "54864"}}},
{"geometry": {"type": "Point", "coordinates": [-91.384189051, 46.7792552563]}, "type": "Feature", "properties": {"collection_times": [{"days": "Mon-Fri", "time": "12:15pm"}, {"days": "Sat", "time": "12:00pm"}, {"days": "Sun", "time": "Closed"}], "id": "5486500000", "name": "USPS COLLECTION BOX - BLUE BOX", "address": {"city": "PORT WING", "state": "WI", "street": "83320 WASHINGTON AVE", "postcode": "54865"}}},
{"geometry": {"type": "Point", "coordinates": [-91.384189051, 46.7792552563]}, "type": "Feature", "properties": {"collection_times": [{"days": "Mon-Fri", "time": "12:15pm"}, {"days": "Sat", "time": "10:00am"}, {"days": "Sun", "time": "Closed"}], "id": "5486500001", "name": "USPS COLLECTION BOX - PO LOBBY", "address": {"city": "PORT WING", "state": "WI", "street": "83320 WASHINGTON AVE", "postcode": "54865"}}},
{"geometry": {"type": "Point", "coordinates": [-91.2212376772, 45.7703881624]}, "type": "Feature", "properties": {"collection_times": [{"days": "Mon-Sat", "time": "2:15pm"}, {"days": "Sun", "time": "Closed"}], "id": "5486700001", "name": "USPS COLLECTION BOX - BLUE BOX", "address": {"city": "RADISSON", "state": "WI", "street": "3711 N CLARK ST", "postcode": "54867"}}},
{"geometry": {"type": "Point", "coordinates": [-91.2212376772, 45.7703881624]}, "type": "Feature", "properties": {"collection_times": [{"days": "Mon-Fri", "time": "2:15pm"}, {"days": "Sat", "time": "9:30am"}, {"days": "Sun", "time": "Closed"}], "id": "5486700002", "name": "USPS COLLECTION BOX - PO LOBBY", "address": {"city": "RADISSON", "state": "WI", "street": "3711 N CLARK ST", "postcode": "54867"}}},
{"geometry": {"type": "Point", "coordinates": [-91.7368580313, 45.5087181736]}, "type": "Feature", "properties": {"collection_times": [{"days": "Mon-Sat", "time": "12:00pm"}, {"days": "Sun", "time": "Closed"}], "id": "5486800001", "name": "USPS COLLECTION BOX - BLUE BOX", "address": {"city": "RICE LAKE", "state": "WI", "street": "220 W KNAPP ST", "postcode": "54868"}}},
{"geometry": {"type": "Point", "coordinates": [-91.7330969349, 45.5033593894]}, "type": "Feature", "properties": {"collection_times": [{"days": "Mon-Sat", "time": "2:00pm"}, {"days": "Sun", "time": "Closed"}], "id": "5486800006", "name": "USPS COLLECTION BOX - BLUE BOX", "address": {"city": "RICE LAKE", "state": "WI", "street": "14 E EAU CLAIRE ST", "postcode": "54868"}}},
{"geometry": {"type": "Point", "coordinates": [-91.7334652528, 45.4973709811]}, "type": "Feature", "properties": {"collection_times": [{"days": "Mon-Fri", "time": "1:30pm"}, {"days": "Sat", "time": "12:00pm"}, {"days": "Sun", "time": "Closed"}], "id": "5486800007", "name": "USPS COLLECTION BOX - BLUE BOX", "address": {"city": "RICE LAKE", "state": "WI", "street": "330 S MAIN ST", "postcode": "54868"}}},
{"geometry": {"type": "Point", "coordinates": [-91.7355280912, 45.4752809969]}, "type": "Feature", "properties": {"collection_times": [{"days": "Mon-Sat", "time": "10:30am"}, {"days": "Sun", "time": "Closed"}], "id": "5486800009", "name": "USPS COLLECTION BOX - BLUE BOX", "address": {"city": "RICE LAKE", "state": "WI", "street": "2900 S MAIN ST", "postcode": "54868"}}},
{"geometry": {"type": "Point", "coordinates": [-91.7130357683, 45.5281655617]}, "type": "Feature", "properties": {"collection_times": [{"days": "Mon-Sat", "time": "10:00am"}, {"days": "Sun", "time": "Closed"}], "id": "5486800014", "name": "USPS COLLECTION BOX - BLUE BOX", "address": {"city": "RICE LAKE", "state": "WI", "street": "2501 WEST AVE", "postcode": "54868"}}},
{"geometry": {"type": "Point", "coordinates": [-91.7339445608, 45.4696148587]}, "type": "Feature", "properties": {"collection_times": [{"days": "Mon-Sat", "time": "9:00am"}, {"days": "Sun", "time": "Closed"}], "id": "5486800016", "name": "USPS COLLECTION BOX - BLUE BOX", "address": {"city": "RICE LAKE", "state": "WI", "street": "32 CAMELOT LN", "postcode": "54868"}}},
{"geometry": {"type": "Point", "coordinates": [-91.7330969349, 45.5033593894]}, "type": "Feature", "properties": {"collection_times": [{"days": "Mon-Sat", "time": "2:00pm"}, {"days": "Sun", "time": "Closed"}], "id": "5486800017", "name": "USPS COLLECTION BOX - PO LOBBY", "address": {"city": "RICE LAKE", "state": "WI", "street": "14 E EAU CLAIRE ST", "postcode": "54868"}}},
{"geometry": {"type": "Point", "coordinates": [-91.7130357683, 45.5281655617]}, "type": "Feature", "properties": {"collection_times": [{"days": "Mon-Sat", "time": "12:00pm"}, {"days": "Sun", "time": "Closed"}], "id": "5486800018", "name": "USPS COLLECTION BOX - BLUE BOX", "address": {"city": "RICE LAKE", "state": "WI", "street": "2022 CENEX DR", "postcode": "54868"}}},
{"geometry": {"type": "Point", "coordinates": [-91.7749209346, 45.607036073]}, "type": "Feature", "properties": {"collection_times": [{"days": "Mon-Sat", "time": "1:45pm"}, {"days": "Sun", "time": "Closed"}], "id": "5486800019", "name": "USPS COLLECTION BOX - BLUE BOX", "address": {"city": "RICE LAKE", "state": "WI", "street": "138 N MAIN ST", "postcode": "54868"}}},
{"geometry": {"type": "Point", "coordinates": [-91.8076094688, 45.7111553078]}, "type": "Feature", "properties": {"collection_times": [{"days": "Mon-Fri", "time": "2:30pm"}, {"days": "Sat", "time": "12:30pm"}, {"days": "Sun", "time": "Closed"}], "id": "5487000001", "name": "USPS COLLECTION BOX - BLUE BOX", "address": {"city": "SARONA", "state": "WI", "street": "W5340 RIPLEY RD", "postcode": "54870"}}},
{"geometry": {"type": "Point", "coordinates": [-91.8076094688, 45.7111553078]}, "type": "Feature", "properties": {"collection_times": [{"days": "Mon-Sat", "time": "11:30am"}, {"days": "Sun", "time": "Closed"}], "id": "5487000002", "name": "USPS COLLECTION BOX - PO LOBBY", "address": {"city": "SARONA", "state": "WI", "street": "W5340 RIPLEY RD", "postcode": "54870"}}},
{"geometry": {"type": "Point", "coordinates": [-91.9245780706, 45.7430954115]}, "type": "Feature", "properties": {"collection_times": [{"days": "Mon-Sat", "time": "2:45pm"}, {"days": "Sun", "time": "Closed"}], "id": "5487100001", "name": "USPS COLLECTION BOX - BLUE BOX", "address": {"city": "SHELL LAKE", "state": "WI", "street": "110 W 5TH AVE", "postcode": "54871"}}},
{"geometry": {"type": "Point", "coordinates": [-91.9245780706, 45.7430954115]}, "type": "Feature", "properties": {"collection_times": [{"days": "Mon-Fri", "time": "2:45pm"}, {"days": "Sat", "time": "10:30am"}, {"days": "Sun", "time": "Closed"}], "id": "5487100002", "name": "USPS COLLECTION BOX - PO LOBBY", "address": {"city": "SHELL LAKE", "state": "WI", "street": "110 W 5TH AVE", "postcode": "54871"}}},
{"geometry": {"type": "Point", "coordinates": [-92.3835936973, 45.7874533291]}, "type": "Feature", "properties": {"collection_times": [{"days": "Mon-Sat", "time": "2:00pm"}, {"days": "Sun", "time": "Closed"}], "id": "5487200001", "name": "USPS COLLECTION BOX - BLUE BOX", "address": {"city": "SIREN", "state": "WI", "street": "7729 W MAIN ST", "postcode": "54872"}}},
{"geometry": {"type": "Point", "coordinates": [-92.3835936973, 45.7874533291]}, "type": "Feature", "properties": {"collection_times": [{"days": "Mon-Fri", "time": "2:00pm"}, {"days": "Sat", "time": "11:00am"}, {"days": "Sun", "time": "Closed"}], "id": "5487200003", "name": "USPS COLLECTION BOX - PO LOBBY", "address": {"city": "SIREN", "state": "WI", "street": "7729 W MAIN ST", "postcode": "54872"}}},
{"geometry": {"type": "Point", "coordinates": [-91.8154368817, 46.3527921413]}, "type": "Feature", "properties": {"collection_times": [{"days": "Mon-Sat", "time": "2:00pm"}, {"days": "Sun", "time": "Closed"}], "id": "5487300001", "name": "USPS COLLECTION BOX - BLUE BOX", "address": {"city": "SOLON SPRINGS", "state": "WI", "street": "9226 E MAIN ST", "postcode": "54873"}}},
{"geometry": {"type": "Point", "coordinates": [-91.7374960031, 46.384880454]}, "type": "Feature", "properties": {"collection_times": [{"days": "Mon-Fri", "time": "12:15pm"}, {"days": "Sat", "time": "10:15am"}, {"days": "Sun", "time": "Closed"}], "id": "5487300002", "name": "USPS COLLECTION BOX - BLUE BOX", "address": {"city": "SOLON SPRINGS", "state": "WI", "street": "50490 STATE HIGHWAY 27", "postcode": "54873"}}},
{"geometry": {"type": "Point", "coordinates": [-91.8154368817, 46.3527921413]}, "type": "Feature", "properties": {"collection_times": [{"days": "Mon-Fri", "time": "2:00pm"}, {"days": "Sat", "time": "8:30am"}, {"days": "Sun", "time": "Closed"}], "id": "5487300003", "name": "USPS COLLECTION BOX - PO LOBBY", "address": {"city": "SOLON SPRINGS", "state": "WI", "street": "9226 E MAIN ST", "postcode": "54873"}}},
{"geometry": {"type": "Point", "coordinates": [-91.9836190066, 46.6106313533]}, "type": "Feature", "properties": {"collection_times": [{"days": "Mon-Fri", "time": "1:00pm"}, {"days": "Sat", "time": "9:30am"}, {"days": "Sun", "time": "Closed"}], "id": "5487400000", "name": "USPS COLLECTION BOX - PO LOBBY", "address": {"city": "SOUTH RANGE", "state": "WI", "street": "6205 E WICKSTROM ST", "postcode": "54874"}}},
{"geometry": {"type": "Point", "coordinates": [-91.9836190066, 46.6106313533]}, "type": "Feature", "properties": {"collection_times": [{"days": "Mon-Sat", "time": "1:00pm"}, {"days": "Sun", "time": "Closed"}], "id": "5487400001", "name": "USPS COLLECTION BOX - BLUE BOX", "address": {"city": "SOUTH RANGE", "state": "WI", "street": "6205 E WICKSTROM ST", "postcode": "54874"}}},
{"geometry": {"type": "Point", "coordinates": [-91.6897205061, 45.9471234117]}, "type": "Feature", "properties": {"collection_times": [{"days": "Mon-Sat", "time": "2:45pm"}, {"days": "Sun", "time": "Closed"}], "id": "5487500000", "name": "USPS COLLECTION BOX - BLUE BOX", "address": {"city": "SPRINGBROOK", "state": "WI", "street": "W3060 HIGHWAY 63", "postcode": "54875"}}},
{"geometry": {"type": "Point", "coordinates": [-91.6897205061, 45.9471234117]}, "type": "Feature", "properties": {"collection_times": [{"days": "Mon-Fri", "time": "2:45pm"}, {"days": "Sat", "time": "11:15am"}, {"days": "Sun", "time": "Closed"}], "id": "5487500001", "name": "USPS COLLECTION BOX - PO LOBBY", "address": {"city": "SPRINGBROOK", "state": "WI", "street": "W3060 HIGHWAY 63", "postcode": "54875"}}},
{"geometry": {"type": "Point", "coordinates": [-91.5391362921, 45.846660539]}, "type": "Feature", "properties": {"collection_times": [{"days": "Mon-Sat", "time": "3:00pm"}, {"days": "Sun", "time": "Closed"}], "id": "5487600000", "name": "USPS COLLECTION BOX - BLUE BOX", "address": {"city": "STONE LAKE", "state": "WI", "street": "16865 W 1ST ST", "postcode": "54876"}}},
{"geometry": {"type": "Point", "coordinates": [-91.5391362921, 45.846660539]}, "type": "Feature", "properties": {"collection_times": [{"days": "Mon-Fri", "time": "3:15pm"}, {"days": "Sat", "time": "9:15am"}, {"days": "Sun", "time": "Closed"}], "id": "5487600002", "name": "USPS COLLECTION BOX - PO LOBBY", "address": {"city": "STONE LAKE", "state": "WI", "street": "16865 W 1ST ST", "postcode": "54876"}}},
{"geometry": {"type": "Point", "coordinates": [-92.1040313684, 46.7205120291]}, "type": "Feature", "properties": {"collection_times": [{"days": "Mon-Sat", "time": "1:00pm"}, {"days": "Sun", "time": "Closed"}], "id": "5488000004", "name": "USPS COLLECTION BOX - BLUE BOX", "address": {"city": "SUPERIOR", "state": "WI", "street": "1507 TOWER AVE", "postcode": "54880"}}},
{"geometry": {"type": "Point", "coordinates": [-92.096611032, 46.720682897]}, "type": "Feature", "properties": {"collection_times": [{"days": "Mon-Fri", "time": "1:00pm"}, {"days": "Sat-Sun", "time": "Closed"}], "id": "5488000008", "name": "USPS COLLECTION BOX - BLUE BOX", "address": {"city": "SUPERIOR", "state": "WI", "street": "1313 BELKNAP ST", "postcode": "54880"}}},
{"geometry": {"type": "Point", "coordinates": [-92.073733124, 46.7062175311]}, "type": "Feature", "properties": {"collection_times": [{"days": "Mon-Sat", "time": "11:00am"}, {"days": "Sun", "time": "Closed"}], "id": "5488000013", "name": "USPS COLLECTION BOX - BLUE BOX", "address": {"city": "SUPERIOR", "state": "WI", "street": "69 N 28TH ST E", "postcode": "54880"}}},
{"geometry": {"type": "Point", "coordinates": [-92.1070616108, 46.7202210526]}, "type": "Feature", "properties": {"collection_times": [{"days": "Mon-Sat", "time": "1:00pm"}, {"days": "Sun", "time": "Closed"}], "id": "5488000025", "name": "USPS COLLECTION BOX - BLUE BOX", "address": {"city": "SUPERIOR", "state": "WI", "street": "1515 OAKES AVE", "postcode": "54880"}}},
{"geometry": {"type": "Point", "coordinates": [-92.1040114109, 46.7254488419]}, "type": "Feature", "properties": {"collection_times": [{"days": "Mon-Sat", "time": "1:00pm"}, {"days": "Sun", "time": "Closed"}], "id": "5488000029", "name": "USPS COLLECTION BOX - BLUE BOX", "address": {"city": "SUPERIOR", "state": "WI", "street": "1101 TOWER AVE", "postcode": "54880"}}},
{"geometry": {"type": "Point", "coordinates": [-92.1219223358, 46.713411613]}, "type": "Feature", "properties": {"collection_times": [{"days": "Mon-Sat", "time": "12:00pm"}, {"days": "Sun", "time": "Closed"}], "id": "5488000040", "name": "USPS COLLECTION BOX - BLUE BOX", "address": {"city": "SUPERIOR", "state": "WI", "street": "3004 N 21ST ST", "postcode": "54880"}}},
{"geometry": {"type": "Point", "coordinates": [-92.1040243738, 46.7145006048]}, "type": "Feature", "properties": {"collection_times": [{"days": "Mon-Sat", "time": "12:00pm"}, {"days": "Sun", "time": "Closed"}], "id": "5488000041", "name": "USPS COLLECTION BOX - BLUE BOX", "address": {"city": "SUPERIOR", "state": "WI", "street": "2015 TOWER AVE", "postcode": "54880"}}},
{"geometry": {"type": "Point", "coordinates": [-92.0500273426, 46.7046306834]}, "type": "Feature", "properties": {"collection_times": [{"days": "Mon-Sat", "time": "11:00am"}, {"days": "Sun", "time": "Closed"}], "id": "5488000043", "name": "USPS COLLECTION BOX - BLUE BOX", "address": {"city": "SUPERIOR", "state": "WI", "street": "2221 E 5TH ST", "postcode": "54880"}}},
{"geometry": {"type": "Point", "coordinates": [-92.1042018876, 46.7060240696]}, "type": "Feature", "properties": {"collection_times": [{"days": "Mon-Sat", "time": "12:00pm"}, {"days": "Sun", "time": "Closed"}], "id": "5488000045", "name": "USPS COLLECTION BOX - BLUE BOX", "address": {"city": "SUPERIOR", "state": "WI", "street": "2817 TOWER AVE", "postcode": "54880"}}},
{"geometry": {"type": "Point", "coordinates": [-92.0259940868, 46.6897945435]}, "type": "Feature", "properties": {"collection_times": [{"days": "Mon-Sat", "time": "11:00am"}, {"days": "Sun", "time": "Closed"}], "id": "5488000046", "name": "USPS COLLECTION BOX - BLUE BOX", "address": {"city": "SUPERIOR", "state": "WI", "street": "3824 E 2ND ST", "postcode": "54880"}}},
{"geometry": {"type": "Point", "coordinates": [-92.0127404458, 46.6795853946]}, "type": "Feature", "properties": {"collection_times": [{"days": "Mon-Sat", "time": "11:00am"}, {"days": "Sun", "time": "Closed"}], "id": "5488000048", "name": "USPS COLLECTION BOX - BLUE BOX", "address": {"city": "SUPERIOR", "state": "WI", "street": "4827 E 2ND ST", "postcode": "54880"}}},
{"geometry": {"type": "Point", "coordinates": [-92.1042987216, 46.6977959652]}, "type": "Feature", "properties": {"collection_times": [{"days": "Mon-Sat", "time": "9:30am"}, {"days": "Sun", "time": "Closed"}], "id": "5488000050", "name": "USPS COLLECTION BOX - BLUE BOX", "address": {"city": "SUPERIOR", "state": "WI", "street": "3535 TOWER AVE", "postcode": "54880"}}},
{"geometry": {"type": "Point", "coordinates": [-92.1043519353, 46.6952755139]}, "type": "Feature", "properties": {"collection_times": [{"days": "Mon-Sat", "time": "9:00am"}, {"days": "Sun", "time": "Closed"}], "id": "5488000051", "name": "USPS COLLECTION BOX - BLUE BOX", "address": {"city": "SUPERIOR", "state": "WI", "street": "3705 TOWER AVE", "postcode": "54880"}}},
{"geometry": {"type": "Point", "coordinates": [-92.0391709528, 46.7001508682]}, "type": "Feature", "properties": {"collection_times": [{"days": "Mon-Sat", "time": "11:00am"}, {"days": "Sun", "time": "Closed"}], "id": "5488000052", "name": "USPS COLLECTION BOX - BLUE BOX", "address": {"city": "SUPERIOR", "state": "WI", "street": "2820 E 2ND ST", "postcode": "54880"}}},
{"geometry": {"type": "Point", "coordinates": [-92.0889421165, 46.7206414716]}, "type": "Feature", "properties": {"collection_times": [{"days": "Mon-Sat", "time": "2:15pm"}, {"days": "Sun", "time": "Closed"}], "id": "5488000053", "name": "USPS COLLECTION BOX - PO LOBBY", "address": {"city": "SUPERIOR", "state": "WI", "street": "805 BELKNAP ST", "postcode": "54880"}}},
{"geometry": {"type": "Point", "coordinates": [-92.0889421165, 46.7206414716]}, "type": "Feature", "properties": {"collection_times": [{"days": "Mon-Sat", "time": "2:15pm"}, {"days": "Sun", "time": "Closed"}], "id": "5488000054", "name": "USPS COLLECTION BOX - BLUE BOX", "address": {"city": "SUPERIOR", "state": "WI", "street": "805 BELKNAP ST", "postcode": "54880"}}},
{"geometry": {"type": "Point", "coordinates": [-92.1039488427, 46.7219453579]}, "type": "Feature", "properties": {"collection_times": [{"days": "Mon-Sat", "time": "1:00pm"}, {"days": "Sun", "time": "Closed"}], "id": "5488000057", "name": "USPS COLLECTION BOX - BLUE BOX", "address": {"city": "SUPERIOR", "state": "WI", "street": "1301 TOWER AVE", "postcode": "54880"}}},
{"geometry": {"type": "Point", "coordinates": [-92.1044347504, 46.6634486634]}, "type": "Feature", "properties": {"collection_times": [{"days": "Mon-Sat", "time": "11:30am"}, {"days": "Sun", "time": "Closed"}], "id": "5488000063", "name": "USPS COLLECTION BOX - BLUE BOX", "address": {"city": "SUPERIOR", "state": "WI", "street": "6301 TOWER AVE", "postcode": "54880"}}},
{"geometry": {"type": "Point", "coordinates": [-92.0889421165, 46.7206414716]}, "type": "Feature", "properties": {"collection_times": [{"days": "Mon-Sat", "time": "2:15pm"}, {"days": "Sun", "time": "Closed"}], "id": "5488000064", "name": "USPS COLLECTION BOX - PO LOBBY", "address": {"city": "SUPERIOR", "state": "WI", "street": "805 BELKNAP ST", "postcode": "54880"}}},
{"geometry": {"type": "Point", "coordinates": [-92.0889421165, 46.7206414716]}, "type": "Feature", "properties": {"collection_times": [{"days": "Mon-Sat", "time": "2:15pm"}, {"days": "Sun", "time": "Closed"}], "id": "5488000065", "name": "USPS COLLECTION BOX - PO LOBBY", "address": {"city": "SUPERIOR", "state": "WI", "street": "805 BELKNAP ST", "postcode": "54880"}}},
{"geometry": {"type": "Point", "coordinates": [-92.1039657475, 46.6981964104]}, "type": "Feature", "properties": {"collection_times": [{"days": "Mon-Fri", "time": "11:30am"}, {"days": "Sat", "time": "9:30am"}, {"days": "Sun", "time": "Closed"}], "id": "5488000066", "name": "USPS COLLECTION BOX - BLUE BOX", "address": {"city": "SUPERIOR", "state": "WI", "street": "3500 TOWER AVE", "postcode": "54880"}}},
{"geometry": {"type": "Point", "coordinates": [-92.0501212078, 46.7045381774]}, "type": "Feature", "properties": {"collection_times": [{"days": "Mon-Sat", "time": "9:30am"}, {"days": "Sun", "time": "Closed"}], "id": "5488000067", "name": "USPS COLLECTION BOX - BLUE BOX", "address": {"city": "SUPERIOR", "state": "WI", "street": "2202 E 2ND ST", "postcode": "54880"}}},
{"geometry": {"type": "Point", "coordinates": [-92.0814049274, 46.7205095297]}, "type": "Feature", "properties": {"collection_times": [{"days": "Mon-Sat", "time": "9:30am"}, {"days": "Sun", "time": "Closed"}], "id": "5488000068", "name": "USPS COLLECTION BOX - BLUE BOX", "address": {"city": "SUPERIOR", "state": "WI", "street": "202 BELKNAP ST", "postcode": "54880"}}},
{"geometry": {"type": "Point", "coordinates": [-91.827434673, 45.8994442844]}, "type": "Feature", "properties": {"collection_times": [{"days": "Mon-Sat", "time": "3:00pm"}, {"days": "Sun", "time": "Closed"}], "id": "5488800001", "name": "USPS COLLECTION BOX - BLUE BOX", "address": {"city": "TREGO", "state": "WI", "street": "N7288 SERVICE RD", "postcode": "54888"}}},
{"geometry": {"type": "Point", "coordinates": [-91.827434673, 45.8994442844]}, "type": "Feature", "properties": {"collection_times": [{"days": "Mon-Fri", "time": "12:15pm"}, {"days": "Sat", "time": "1:30pm"}, {"days": "Sun", "time": "Closed"}], "id": "5488800002", "name": "USPS COLLECTION BOX - PO LOBBY", "address": {"city": "TREGO", "state": "WI", "street": "N7288 SERVICE RD", "postcode": "54888"}}},
{"geometry": {"type": "Point", "coordinates": [-92.142345328, 45.3931968277]}, "type": "Feature", "properties": {"collection_times": [{"days": "Mon-Sat", "time": "2:00pm"}, {"days": "Sun", "time": "Closed"}], "id": "5488900000", "name": "USPS COLLECTION BOX - BLUE BOX", "address": {"city": "TURTLE LAKE", "state": "WI", "street": "300 MAPLE ST S", "postcode": "54889"}}},
{"geometry": {"type": "Point", "coordinates": [-92.142345328, 45.3931968277]}, "type": "Feature", "properties": {"collection_times": [{"days": "Mon-Fri", "time": "2:00pm"}, {"days": "Sat", "time": "10:15am"}, {"days": "Sun", "time": "Closed"}], "id": "5488900004", "name": "USPS COLLECTION BOX - PO LOBBY", "address": {"city": "TURTLE LAKE", "state": "WI", "street": "300 MAPLE ST S", "postcode": "54889"}}},
{"geometry": {"type": "Point", "coordinates": [-90.9060199662, 46.6705454495]}, "type": "Feature", "properties": {"collection_times": [{"days": "Mon-Sat", "time": "12:15pm"}, {"days": "Sun", "time": "Closed"}], "id": "5489100001", "name": "USPS COLLECTION BOX - BLUE BOX", "address": {"city": "WASHBURN", "state": "WI", "street": "428 W BAYFIELD ST", "postcode": "54891"}}},
{"geometry": {"type": "Point", "coordinates": [-90.9060199662, 46.6705454495]}, "type": "Feature", "properties": {"collection_times": [{"days": "Mon-Sat", "time": "12:15pm"}, {"days": "Sun", "time": "Closed"}], "id": "5489100002", "name": "USPS COLLECTION BOX - BLUE BOX", "address": {"city": "WASHBURN", "state": "WI", "street": "428 W BAYFIELD ST", "postcode": "54891"}}},
{"geometry": {"type": "Point", "coordinates": [-90.9060199662, 46.6705454495]}, "type": "Feature", "properties": {"collection_times": [{"days": "Mon-Fri", "time": "12:15pm"}, {"days": "Sat", "time": "10:30am"}, {"days": "Sun", "time": "Closed"}], "id": "5489100004", "name": "USPS COLLECTION BOX - PO LOBBY", "address": {"city": "WASHBURN", "state": "WI", "street": "428 W BAYFIELD ST", "postcode": "54891"}}},
{"geometry": {"type": "Point", "coordinates": [-92.3654006278, 45.8775112214]}, "type": "Feature", "properties": {"collection_times": [{"days": "Mon-Sat", "time": "1:45pm"}, {"days": "Sun", "time": "Closed"}], "id": "5489300001", "name": "USPS COLLECTION BOX - BLUE BOX", "address": {"city": "WEBSTER", "state": "WI", "street": "7426 MAIN ST W", "postcode": "54893"}}},
{"geometry": {"type": "Point", "coordinates": [-92.3654006278, 45.8775112214]}, "type": "Feature", "properties": {"collection_times": [{"days": "Mon-Fri", "time": "1:45pm"}, {"days": "Sat", "time": "10:00am"}, {"days": "Sun", "time": "Closed"}], "id": "5489300003", "name": "USPS COLLECTION BOX - PO LOBBY", "address": {"city": "WEBSTER", "state": "WI", "street": "7426 MAIN ST W", "postcode": "54893"}}},
{"geometry": {"type": "Point", "coordinates": [-91.4102656898, 45.4248456362]}, "type": "Feature", "properties": {"collection_times": [{"days": "Mon-Sat", "time": "1:30pm"}, {"days": "Sun", "time": "Closed"}], "id": "5489500001", "name": "USPS COLLECTION BOX - BLUE BOX", "address": {"city": "WEYERHAEUSER", "state": "WI", "street": "W14392 RAILWAY AVE", "postcode": "54895"}}},
{"geometry": {"type": "Point", "coordinates": [-91.4102656898, 45.4248456362]}, "type": "Feature", "properties": {"collection_times": [{"days": "Mon-Fri", "time": "10:45am"}, {"days": "Sat", "time": "9:30am"}, {"days": "Sun", "time": "Closed"}], "id": "5489500002", "name": "USPS COLLECTION BOX - PO LOBBY", "address": {"city": "WEYERHAEUSER", "state": "WI", "street": "W14392 RAILWAY AVE", "postcode": "54895"}}},
{"geometry": {"type": "Point", "coordinates": [-91.0112752905, 45.8232641426]}, "type": "Feature", "properties": {"collection_times": [{"days": "Mon-Sat", "time": "9:00am"}, {"days": "Sun", "time": "Closed"}], "id": "5489600000", "name": "USPS COLLECTION BOX - BLUE BOX", "address": {"city": "WINTER", "state": "WI", "street": "5150N MAIN ST", "postcode": "54896"}}},
{"geometry": {"type": "Point", "coordinates": [-90.8414747974, 45.8862980661]}, "type": "Feature", "properties": {"collection_times": [{"days": "Mon-Fri", "time": "1:30pm"}, {"days": "Sat", "time": "11:00am"}, {"days": "Sun", "time": "Closed"}], "id": "5489600001", "name": "USPS COLLECTION BOX - PO LOBBY", "address": {"city": "WINTER", "state": "WI", "street": "5263 N CEMETERY RD", "postcode": "54896"}}},
{"geometry": {"type": "Point", "coordinates": [-90.8414747974, 45.8862980661]}, "type": "Feature", "properties": {"collection_times": [{"days": "Mon-Sat", "time": "1:30pm"}, {"days": "Sun", "time": "Closed"}], "id": "5489600003", "name": "USPS COLLECTION BOX - BLUE BOX", "address": {"city": "WINTER", "state": "WI", "street": "5263 N CEMETERY RD", "postcode": "54896"}}}
]}
