{"type": "FeatureCollection", "features": [
{"geometry": {"type": "Point", "coordinates": [-88.5362817699, 44.0158663247]}, "type": "Feature", "properties": {"collection_times": [{"days": "Mon-Fri", "time": "5:30pm"}, {"days": "Sat", "time": "2:00pm"}, {"days": "Sun", "time": "Closed"}], "id": "5490100067", "name": "USPS COLLECTION BOX - BLUE BOX", "address": {"city": "OSHKOSH", "state": "WI", "street": "113 OTTER AVE", "postcode": "54901"}}},
{"geometry": {"type": "Point", "coordinates": [-88.540290526, 44.0208543208]}, "type": "Feature", "properties": {"collection_times": [{"days": "Mon-Fri", "time": "3:00pm"}, {"days": "Sat-Sun", "time": "Closed"}], "id": "5490100075", "name": "USPS COLLECTION BOX - BLUE BOX", "address": {"city": "OSHKOSH", "state": "WI", "street": "215 CHURCH AVE", "postcode": "54901"}}},
{"geometry": {"type": "Point", "coordinates": [-88.542458781, 44.0406312776]}, "type": "Feature", "properties": {"collection_times": [{"days": "Mon-Fri", "time": "3:00pm"}, {"days": "Sat", "time": "12:00pm"}, {"days": "Sun", "time": "Closed"}], "id": "5490100079", "name": "USPS COLLECTION BOX - BLUE BOX", "address": {"city": "OSHKOSH", "state": "WI", "street": "1900 JACKSON ST", "postcode": "54901"}}},
{"geometry": {"type": "Point", "coordinates": [-88.5486687256, 44.0239472349]}, "type": "Feature", "properties": {"collection_times": [{"days": "Mon-Fri", "time": "2:00pm"}, {"days": "Sat", "time": "12:00pm"}, {"days": "Sun", "time": "Closed"}], "id": "5490100085", "name": "USPS COLLECTION BOX - BLUE BOX", "address": {"city": "OSHKOSH", "state": "WI", "street": "748 ALGOMA BLVD", "postcode": "54901"}}},
{"geometry": {"type": "Point", "coordinates": [-88.5374968699, 44.0267733858]}, "type": "Feature", "properties": {"collection_times": [{"days": "Mon-Sat", "time": "12:00pm"}, {"days": "Sun", "time": "Closed"}], "id": "5490100088", "name": "USPS COLLECTION BOX - BLUE BOX", "address": {"city": "OSHKOSH", "state": "WI", "street": "800 N MAIN ST", "postcode": "54901"}}},
{"geometry": {"type": "Point", "coordinates": [-88.540290526, 44.0208543208]}, "type": "Feature", "properties": {"collection_times": [{"days": "Mon-Fri", "time": "3:00pm"}, {"days": "Sat-Sun", "time": "Closed"}], "id": "5490100094", "name": "USPS COLLECTION BOX - BLUE BOX", "address": {"city": "OSHKOSH", "state": "WI", "street": "215 CHURCH AVE", "postcode": "54901"}}},
{"geometry": {"type": "Point", "coordinates": [-88.5280386834, 44.043557829]}, "type": "Feature", "properties": {"collection_times": [{"days": "Mon-Sat", "time": "2:00pm"}, {"days": "Sun", "time": "Closed"}], "id": "5490100095", "name": "USPS COLLECTION BOX - BLUE BOX", "address": {"city": "OSHKOSH", "state": "WI", "street": "2101 BOWEN ST", "postcode": "54901"}}},
{"geometry": {"type": "Point", "coordinates": [-88.5280386834, 44.043557829]}, "type": "Feature", "properties": {"collection_times": [{"days": "Mon-Sat", "time": "2:00pm"}, {"days": "Sun", "time": "Closed"}], "id": "5490100096", "name": "USPS COLLECTION BOX - BLUE BOX", "address": {"city": "OSHKOSH", "state": "WI", "street": "2101 BOWEN ST", "postcode": "54901"}}},
{"geometry": {"type": "Point", "coordinates": [-88.542458781, 44.0406312776]}, "type": "Feature", "properties": {"collection_times": [{"days": "Mon-Fri", "time": "3:00pm"}, {"days": "Sat", "time": "12:00pm"}, {"days": "Sun", "time": "Closed"}], "id": "5490100100", "name": "USPS COLLECTION BOX - BLUE BOX", "address": {"city": "OSHKOSH", "state": "WI", "street": "1900 JACKSON ST", "postcode": "54901"}}},
{"geometry": {"type": "Point", "coordinates": [-88.542458781, 44.0406312776]}, "type": "Feature", "properties": {"collection_times": [{"days": "Mon-Fri", "time": "3:00pm"}, {"days": "Sat", "time": "12:00pm"}, {"days": "Sun", "time": "Closed"}], "id": "5490100101", "name": "USPS COLLECTION BOX - BLUE BOX", "address": {"city": "OSHKOSH", "state": "WI", "street": "1900 JACKSON ST", "postcode": "54901"}}},
{"geometry": {"type": "Point", "coordinates": [-88.542458781, 44.0406312776]}, "type": "Feature", "properties": {"collection_times": [{"days": "Mon-Fri", "time": "3:00pm"}, {"days": "Sat", "time": "12:00pm"}, {"days": "Sun", "time": "Closed"}], "id": "5490100102", "name": "USPS COLLECTION BOX - BLUE BOX", "address": {"city": "OSHKOSH", "state": "WI", "street": "1900 JACKSON ST", "postcode": "54901"}}},
{"geometry": {"type": "Point", "coordinates": [-88.5362817699, 44.0158663247]}, "type": "Feature", "properties": {"collection_times": [{"days": "Mon-Fri", "time": "5:30pm"}, {"days": "Sat", "time": "2:00pm"}, {"days": "Sun", "time": "Closed"}], "id": "5490100105", "name": "USPS COLLECTION BOX - BLUE BOX", "address": {"city": "OSHKOSH", "state": "WI", "street": "113 OTTER AVE", "postcode": "54901"}}},
{"geometry": {"type": "Point", "coordinates": [-88.5362817699, 44.0158663247]}, "type": "Feature", "properties": {"collection_times": [{"days": "Mon-Fri", "time": "5:30pm"}, {"days": "Sat", "time": "2:00pm"}, {"days": "Sun", "time": "Closed"}], "id": "5490100106", "name": "USPS COLLECTION BOX - BLUE BOX", "address": {"city": "OSHKOSH", "state": "WI", "street": "113 OTTER AVE", "postcode": "54901"}}},
{"geometry": {"type": "Point", "coordinates": [-88.5355794175, 44.0168398675]}, "type": "Feature", "properties": {"collection_times": [{"days": "Mon-Sat", "time": "2:00pm"}, {"days": "Sun", "time": "Closed"}], "id": "5490100109", "name": "USPS COLLECTION BOX - BLUE BOX", "address": {"city": "OSHKOSH", "state": "WI", "street": "150 WAUGOO AVE", "postcode": "54901"}}},
{"geometry": {"type": "Point", "coordinates": [-88.5401544703, 44.0162754717]}, "type": "Feature", "properties": {"collection_times": [{"days": "Mon-Fri", "time": "2:30pm"}, {"days": "Sat-Sun", "time": "Closed"}], "id": "5490100121", "name": "USPS COLLECTION BOX - BLUE BOX", "address": {"city": "OSHKOSH", "state": "WI", "street": "100 CITY CTR", "postcode": "54901"}}},
{"geometry": {"type": "Point", "coordinates": [-88.5362817699, 44.0158663247]}, "type": "Feature", "properties": {"collection_times": [{"days": "Mon-Fri", "time": "5:30pm"}, {"days": "Sat", "time": "2:00pm"}, {"days": "Sun", "time": "Closed"}], "id": "5490100122", "name": "USPS COLLECTION BOX - BLUE BOX", "address": {"city": "OSHKOSH", "state": "WI", "street": "113 OTTER AVE", "postcode": "54901"}}},
{"geometry": {"type": "Point", "coordinates": [-88.5365761904, 44.0152762884]}, "type": "Feature", "properties": {"collection_times": [{"days": "Mon-Fri", "time": "5:30pm"}, {"days": "Sat", "time": "2:00pm"}, {"days": "Sun", "time": "Closed"}], "id": "5490100123", "name": "USPS COLLECTION BOX - PO LOBBY", "address": {"city": "OSHKOSH", "state": "WI", "street": "130 STATE ST", "postcode": "54901"}}},
{"geometry": {"type": "Point", "coordinates": [-88.5365761904, 44.0152762884]}, "type": "Feature", "properties": {"collection_times": [{"days": "Mon-Fri", "time": "5:30pm"}, {"days": "Sat", "time": "2:00pm"}, {"days": "Sun", "time": "Closed"}], "id": "5490100124", "name": "USPS COLLECTION BOX - PO LOBBY", "address": {"city": "OSHKOSH", "state": "WI", "street": "130 STATE ST", "postcode": "54901"}}},
{"geometry": {"type": "Point", "coordinates": [-88.5637813137, 43.9959121283]}, "type": "Feature", "properties": {"collection_times": [{"days": "Mon-Sat", "time": "6:30pm"}, {"days": "Sun", "time": "Closed"}], "id": "5490200004", "name": "USPS COLLECTION BOX - BLUE BOX", "address": {"city": "OSHKOSH", "state": "WI", "street": "1025 W 20TH AVE", "postcode": "54902"}}},
{"geometry": {"type": "Point", "coordinates": [-88.5637813137, 43.9959121283]}, "type": "Feature", "properties": {"collection_times": [{"days": "Mon-Sat", "time": "6:30pm"}, {"days": "Sun", "time": "Closed"}], "id": "5490200005", "name": "USPS COLLECTION BOX - BLUE BOX", "address": {"city": "OSHKOSH", "state": "WI", "street": "1025 W 20TH AVE", "postcode": "54902"}}},
{"geometry": {"type": "Point", "coordinates": [-88.5637813137, 43.9959121283]}, "type": "Feature", "properties": {"collection_times": [{"days": "Mon-Sat", "time": "6:30pm"}, {"days": "Sun", "time": "Closed"}], "id": "5490200007", "name": "USPS COLLECTION BOX - PO LOBBY", "address": {"city": "OSHKOSH", "state": "WI", "street": "1025 W 20TH AVE", "postcode": "54902"}}},
{"geometry": {"type": "Point", "coordinates": [-88.5637813137, 43.9959121283]}, "type": "Feature", "properties": {"collection_times": [{"days": "Mon-Sat", "time": "6:30pm"}, {"days": "Sun", "time": "Closed"}], "id": "5490200008", "name": "USPS COLLECTION BOX - PO LOBBY", "address": {"city": "OSHKOSH", "state": "WI", "street": "1025 W 20TH AVE", "postcode": "54902"}}},
{"geometry": {"type": "Point", "coordinates": [-88.5804389942, 44.0102521963]}, "type": "Feature", "properties": {"collection_times": [{"days": "Mon-Fri", "time": "3:00pm"}, {"days": "Sat", "time": "11:00am"}, {"days": "Sun", "time": "Closed"}], "id": "5490200017", "name": "USPS COLLECTION BOX - BLUE BOX", "address": {"city": "OSHKOSH", "state": "WI", "street": "950 S KOELLER ST", "postcode": "54902"}}},
{"geometry": {"type": "Point", "coordinates": [-88.5804389942, 44.0102521963]}, "type": "Feature", "properties": {"collection_times": [{"days": "Mon-Fri", "time": "3:00pm"}, {"days": "Sat", "time": "11:00am"}, {"days": "Sun", "time": "Closed"}], "id": "5490200018", "name": "USPS COLLECTION BOX - BLUE BOX", "address": {"city": "OSHKOSH", "state": "WI", "street": "950 S KOELLER ST", "postcode": "54902"}}},
{"geometry": {"type": "Point", "coordinates": [-88.5425856131, 44.010141929]}, "type": "Feature", "properties": {"collection_times": [{"days": "Mon-Fri", "time": "3:00pm"}, {"days": "Sat", "time": "11:00am"}, {"days": "Sun", "time": "Closed"}], "id": "5490200021", "name": "USPS COLLECTION BOX - BLUE BOX", "address": {"city": "OSHKOSH", "state": "WI", "street": "927 OREGON ST", "postcode": "54902"}}},
{"geometry": {"type": "Point", "coordinates": [-88.5432106446, 43.9957444332]}, "type": "Feature", "properties": {"collection_times": [{"days": "Mon-Sat", "time": "1:00pm"}, {"days": "Sun", "time": "Closed"}], "id": "5490200023", "name": "USPS COLLECTION BOX - BLUE BOX", "address": {"city": "OSHKOSH", "state": "WI", "street": "215 W 20TH AVE", "postcode": "54902"}}},
{"geometry": {"type": "Point", "coordinates": [-88.5673953764, 44.0222742238]}, "type": "Feature", "properties": {"collection_times": [{"days": "Mon-Fri", "time": "3:00pm"}, {"days": "Sat", "time": "1:30pm"}, {"days": "Sun", "time": "Closed"}], "id": "5490200027", "name": "USPS COLLECTION BOX - BLUE BOX", "address": {"city": "OSHKOSH", "state": "WI", "street": "347 N SAWYER ST", "postcode": "54902"}}},
{"geometry": {"type": "Point", "coordinates": [-88.5673953764, 44.0222742238]}, "type": "Feature", "properties": {"collection_times": [{"days": "Mon-Fri", "time": "3:00pm"}, {"days": "Sat", "time": "1:30pm"}, {"days": "Sun", "time": "Closed"}], "id": "5490200028", "name": "USPS COLLECTION BOX - BLUE BOX", "address": {"city": "OSHKOSH", "state": "WI", "street": "347 N SAWYER ST", "postcode": "54902"}}},
{"geometry": {"type": "Point", "coordinates": [-88.5673953764, 44.0222742238]}, "type": "Feature", "properties": {"collection_times": [{"days": "Mon-Fri", "time": "3:00pm"}, {"days": "Sat", "time": "1:30pm"}, {"days": "Sun", "time": "Closed"}], "id": "5490200029", "name": "USPS COLLECTION BOX - BLUE BOX", "address": {"city": "OSHKOSH", "state": "WI", "street": "347 N SAWYER ST", "postcode": "54902"}}},
{"geometry": {"type": "Point", "coordinates": [-88.578535419, 44.0179948224]}, "type": "Feature", "properties": {"collection_times": [{"days": "Mon-Fri", "time": "3:00pm"}, {"days": "Sat", "time": "1:00pm"}, {"days": "Sun", "time": "Closed"}], "id": "5490200033", "name": "USPS COLLECTION BOX - BLUE BOX", "address": {"city": "OSHKOSH", "state": "WI", "street": "1801 WITZEL AVE", "postcode": "54902"}}},
{"geometry": {"type": "Point", "coordinates": [-88.5624869396, 44.0149133917]}, "type": "Feature", "properties": {"collection_times": [{"days": "Mon-Sat", "time": "12:00pm"}, {"days": "Sun", "time": "Closed"}], "id": "5490200038", "name": "USPS COLLECTION BOX - BLUE BOX", "address": {"city": "OSHKOSH", "state": "WI", "street": "505 KNAPP ST", "postcode": "54902"}}},
{"geometry": {"type": "Point", "coordinates": [-88.578535419, 44.0179948224]}, "type": "Feature", "properties": {"collection_times": [{"days": "Mon-Fri", "time": "3:00pm"}, {"days": "Sat", "time": "1:00pm"}, {"days": "Sun", "time": "Closed"}], "id": "5490200040", "name": "USPS COLLECTION BOX - BLUE BOX", "address": {"city": "OSHKOSH", "state": "WI", "street": "1801 WITZEL AVE", "postcode": "54902"}}},
{"geometry": {"type": "Point", "coordinates": [-88.578535419, 44.0179948224]}, "type": "Feature", "properties": {"collection_times": [{"days": "Mon-Fri", "time": "3:00pm"}, {"days": "Sat", "time": "1:00pm"}, {"days": "Sun", "time": "Closed"}], "id": "5490200041", "name": "USPS COLLECTION BOX - BLUE BOX", "address": {"city": "OSHKOSH", "state": "WI", "street": "1801 WITZEL AVE", "postcode": "54902"}}},
{"geometry": {"type": "Point", "coordinates": [-88.5637813137, 43.9959121283]}, "type": "Feature", "properties": {"collection_times": [{"days": "Mon-Sat", "time": "6:30pm"}, {"days": "Sun", "time": "Closed"}], "id": "5490200043", "name": "USPS COLLECTION BOX - APC", "address": {"city": "OSHKOSH", "state": "WI", "street": "1025 W 20TH AVE", "postcode": "54902"}}},
{"geometry": {"type": "Point", "coordinates": [-88.578535419, 44.0179948224]}, "type": "Feature", "properties": {"collection_times": [{"days": "Mon-Fri", "time": "3:00pm"}, {"days": "Sat", "time": "1:00pm"}, {"days": "Sun", "time": "Closed"}], "id": "5490200044", "name": "USPS COLLECTION BOX - BLUE BOX", "address": {"city": "OSHKOSH", "state": "WI", "street": "1801 WITZEL AVE", "postcode": "54902"}}},
{"geometry": {"type": "Point", "coordinates": [-88.5835975974, 43.9450608642]}, "type": "Feature", "properties": {"collection_times": [{"days": "Mon-Sat", "time": "9:00am"}, {"days": "Sun", "time": "Closed"}], "id": "5490400000", "name": "USPS COLLECTION BOX - BLUE BOX", "address": {"city": "OSHKOSH", "state": "WI", "street": "1500 PLANEVIEW DR", "postcode": "54904"}}},
{"geometry": {"type": "Point", "coordinates": [-88.5945099154, 44.0161572492]}, "type": "Feature", "properties": {"collection_times": [{"days": "Mon-Sat", "time": "9:00am"}, {"days": "Sun", "time": "Closed"}], "id": "5490400003", "name": "USPS COLLECTION BOX - BLUE BOX", "address": {"city": "OSHKOSH", "state": "WI", "street": "301 S WESTHAVEN DR", "postcode": "54904"}}},
{"geometry": {"type": "Point", "coordinates": [-88.5857257574, 44.0108172769]}, "type": "Feature", "properties": {"collection_times": [{"days": "Mon-Fri", "time": "3:00pm"}, {"days": "Sat", "time": "11:00am"}, {"days": "Sun", "time": "Closed"}], "id": "5490400005", "name": "USPS COLLECTION BOX - BLUE BOX", "address": {"city": "OSHKOSH", "state": "WI", "street": "2101 W 9TH AVE", "postcode": "54904"}}},
{"geometry": {"type": "Point", "coordinates": [-88.5857257574, 44.0108172769]}, "type": "Feature", "properties": {"collection_times": [{"days": "Mon-Fri", "time": "3:00pm"}, {"days": "Sat", "time": "11:00am"}, {"days": "Sun", "time": "Closed"}], "id": "5490400006", "name": "USPS COLLECTION BOX - BLUE BOX", "address": {"city": "OSHKOSH", "state": "WI", "street": "2101 W 9TH AVE", "postcode": "54904"}}},
{"geometry": {"type": "Point", "coordinates": [-88.592039873, 44.0294631179]}, "type": "Feature", "properties": {"collection_times": [{"days": "Mon-Fri", "time": "4:15pm"}, {"days": "Sat", "time": "11:00am"}, {"days": "Sun", "time": "Closed"}], "id": "5490400007", "name": "USPS COLLECTION BOX - BLUE BOX", "address": {"city": "OSHKOSH", "state": "WI", "street": "2415 WESTOWNE AVE", "postcode": "54904"}}},
{"geometry": {"type": "Point", "coordinates": [-88.6029781947, 44.0129004578]}, "type": "Feature", "properties": {"collection_times": [{"days": "Mon-Sat", "time": "9:00am"}, {"days": "Sun", "time": "Closed"}], "id": "5490400008", "name": "USPS COLLECTION BOX - BLUE BOX", "address": {"city": "OSHKOSH", "state": "WI", "street": "500 S OAKWOOD RD", "postcode": "54904"}}},
{"geometry": {"type": "Point", "coordinates": [-89.4085523101, 44.2624749792]}, "type": "Feature", "properties": {"collection_times": [{"days": "Mon-Fri", "time": "4:30pm"}, {"days": "Sat", "time": "11:00am"}, {"days": "Sun", "time": "Closed"}], "id": "5490900000", "name": "USPS COLLECTION BOX - BLUE BOX", "address": {"city": "ALMOND", "state": "WI", "street": "127 MAIN ST", "postcode": "54909"}}},
{"geometry": {"type": "Point", "coordinates": [-89.4085523101, 44.2624749792]}, "type": "Feature", "properties": {"collection_times": [{"days": "Mon-Fri", "time": "2:45pm"}, {"days": "Sat", "time": "9:45am"}, {"days": "Sun", "time": "Closed"}], "id": "5490900001", "name": "USPS COLLECTION BOX - PO LOBBY", "address": {"city": "ALMOND", "state": "WI", "street": "127 MAIN ST", "postcode": "54909"}}},
{"geometry": {"type": "Point", "coordinates": [-89.4085523101, 44.2624749792]}, "type": "Feature", "properties": {"collection_times": [{"days": "Mon-Fri", "time": "2:45pm"}, {"days": "Sat", "time": "9:45am"}, {"days": "Sun", "time": "Closed"}], "id": "5490900002", "name": "USPS COLLECTION BOX - PO LOBBY", "address": {"city": "ALMOND", "state": "WI", "street": "127 MAIN ST", "postcode": "54909"}}},
{"geometry": {"type": "Point", "coordinates": [-88.4062150153, 44.2607646752]}, "type": "Feature", "properties": {"collection_times": [{"days": "Mon-Fri", "time": "2:30pm"}, {"days": "Sat", "time": "12:00pm"}, {"days": "Sun", "time": "Closed"}], "id": "5491100004", "name": "USPS COLLECTION BOX - BLUE BOX", "address": {"city": "APPLETON", "state": "WI", "street": "200 E COLLEGE AVE", "postcode": "54911"}}},
{"geometry": {"type": "Point", "coordinates": [-88.4062150153, 44.2607646752]}, "type": "Feature", "properties": {"collection_times": [{"days": "Mon-Fri", "time": "2:30pm"}, {"days": "Sat", "time": "12:00pm"}, {"days": "Sun", "time": "Closed"}], "id": "5491100005", "name": "USPS COLLECTION BOX - BLUE BOX", "address": {"city": "APPLETON", "state": "WI", "street": "200 E COLLEGE AVE", "postcode": "54911"}}},
{"geometry": {"type": "Point", "coordinates": [-88.3958606016, 44.2866866415]}, "type": "Feature", "properties": {"collection_times": [{"days": "Mon-Sat", "time": "2:30pm"}, {"days": "Sun", "time": "Closed"}], "id": "5491100075", "name": "USPS COLLECTION BOX - BLUE BOX", "address": {"city": "APPLETON", "state": "WI", "street": "2725 N MEADE ST", "postcode": "54911"}}},
{"geometry": {"type": "Point", "coordinates": [-88.3958606016, 44.2866866415]}, "type": "Feature", "properties": {"collection_times": [{"days": "Mon-Sat", "time": "2:30pm"}, {"days": "Sun", "time": "Closed"}], "id": "5491100076", "name": "USPS COLLECTION BOX - BLUE BOX", "address": {"city": "APPLETON", "state": "WI", "street": "2725 N MEADE ST", "postcode": "54911"}}},
{"geometry": {"type": "Point", "coordinates": [-88.410876455, 44.2640591429]}, "type": "Feature", "properties": {"collection_times": [{"days": "Mon-Fri", "time": "5:00pm"}, {"days": "Sat", "time": "4:00pm"}, {"days": "Sun", "time": "Closed"}], "id": "5491100117", "name": "USPS COLLECTION BOX - BLUE BOX", "address": {"city": "APPLETON", "state": "WI", "street": "410 W FRANKLIN ST", "postcode": "54911"}}},
{"geometry": {"type": "Point", "coordinates": [-88.410876455, 44.2640591429]}, "type": "Feature", "properties": {"collection_times": [{"days": "Mon-Fri", "time": "5:00pm"}, {"days": "Sat", "time": "4:00pm"}, {"days": "Sun", "time": "Closed"}], "id": "5491100118", "name": "USPS COLLECTION BOX - BLUE BOX", "address": {"city": "APPLETON", "state": "WI", "street": "410 W FRANKLIN ST", "postcode": "54911"}}},
{"geometry": {"type": "Point", "coordinates": [-88.410876455, 44.2640591429]}, "type": "Feature", "properties": {"collection_times": [{"days": "Mon-Fri", "time": "5:00pm"}, {"days": "Sat", "time": "4:00pm"}, {"days": "Sun", "time": "Closed"}], "id": "5491100119", "name": "USPS COLLECTION BOX - BLUE BOX", "address": {"city": "APPLETON", "state": "WI", "street": "410 W FRANKLIN ST", "postcode": "54911"}}},
{"geometry": {"type": "Point", "coordinates": [-88.4156565119, 44.2640142656]}, "type": "Feature", "properties": {"collection_times": [{"days": "Mon-Fri", "time": "5:00pm"}, {"days": "Sat", "time": "4:00pm"}, {"days": "Sun", "time": "Closed"}], "id": "5491100120", "name": "USPS COLLECTION BOX - BLUE BOX", "address": {"city": "APPLETON", "state": "WI", "street": "410 W FRANKLIN ST", "postcode": "54911"}}},
{"geometry": {"type": "Point", "coordinates": [-88.4156565119, 44.2640142656]}, "type": "Feature", "properties": {"collection_times": [{"days": "Mon-Fri", "time": "5:00pm"}, {"days": "Sat", "time": "4:00pm"}, {"days": "Sun", "time": "Closed"}], "id": "5491100121", "name": "USPS COLLECTION BOX - BLUE BOX", "address": {"city": "APPLETON", "state": "WI", "street": "410 W FRANKLIN ST", "postcode": "54911"}}},
{"geometry": {"type": "Point", "coordinates": [-88.4058210217, 44.2618617962]}, "type": "Feature", "properties": {"collection_times": [{"days": "Mon-Sat", "time": "10:00am"}, {"days": "Sun", "time": "Closed"}], "id": "5491100186", "name": "USPS COLLECTION BOX - BLUE BOX", "address": {"city": "APPLETON", "state": "WI", "street": "10 E COLLEGE AVE", "postcode": "54911"}}},
{"geometry": {"type": "Point", "coordinates": [-88.4058210217, 44.2618617962]}, "type": "Feature", "properties": {"collection_times": [{"days": "Mon-Sat", "time": "10:00am"}, {"days": "Sun", "time": "Closed"}], "id": "5491100205", "name": "USPS COLLECTION BOX - BLUE BOX", "address": {"city": "APPLETON", "state": "WI", "street": "10 E COLLEGE AVE", "postcode": "54911"}}},
{"geometry": {"type": "Point", "coordinates": [-88.410876455, 44.2640591429]}, "type": "Feature", "properties": {"collection_times": [{"days": "Mon-Fri", "time": "5:00pm"}, {"days": "Sat", "time": "4:00pm"}, {"days": "Sun", "time": "Closed"}], "id": "5491100217", "name": "USPS COLLECTION BOX - PO LOBBY", "address": {"city": "APPLETON", "state": "WI", "street": "410 W FRANKLIN ST", "postcode": "54911"}}},
{"geometry": {"type": "Point", "coordinates": [-88.410876455, 44.2640591429]}, "type": "Feature", "properties": {"collection_times": [{"days": "Mon-Fri", "time": "5:00pm"}, {"days": "Sat", "time": "4:00pm"}, {"days": "Sun", "time": "Closed"}], "id": "5491100218", "name": "USPS COLLECTION BOX - PO LOBBY", "address": {"city": "APPLETON", "state": "WI", "street": "410 W FRANKLIN ST", "postcode": "54911"}}},
{"geometry": {"type": "Point", "coordinates": [-88.3749713467, 44.2884297851]}, "type": "Feature", "properties": {"collection_times": [{"days": "Mon-Sat", "time": "2:30pm"}, {"days": "Sun", "time": "Closed"}], "id": "5491100246", "name": "USPS COLLECTION BOX - BLUE BOX", "address": {"city": "APPLETON", "state": "WI", "street": "2701 N BALLARD RD", "postcode": "54911"}}},
{"geometry": {"type": "Point", "coordinates": [-88.3749713467, 44.2884297851]}, "type": "Feature", "properties": {"collection_times": [{"days": "Mon-Fri", "time": "2:30pm"}, {"days": "Sat", "time": "12:00pm"}, {"days": "Sun", "time": "Closed"}], "id": "5491100247", "name": "USPS COLLECTION BOX - BLUE BOX", "address": {"city": "APPLETON", "state": "WI", "street": "2701 N BALLARD RD", "postcode": "54911"}}},
{"geometry": {"type": "Point", "coordinates": [-88.3749713467, 44.2884297851]}, "type": "Feature", "properties": {"collection_times": [{"days": "Mon-Sat", "time": "2:30pm"}, {"days": "Sun", "time": "Closed"}], "id": "5491100248", "name": "USPS COLLECTION BOX - BLUE BOX", "address": {"city": "APPLETON", "state": "WI", "street": "2701 N BALLARD RD", "postcode": "54911"}}},
{"geometry": {"type": "Point", "coordinates": [-88.3751381769, 44.2954481304]}, "type": "Feature", "properties": {"collection_times": [{"days": "Mon-Fri", "time": "2:30pm"}, {"days": "Sat", "time": "10:00am"}, {"days": "Sun", "time": "Closed"}], "id": "5491100251", "name": "USPS COLLECTION BOX - BLUE BOX", "address": {"city": "APPLETON", "state": "WI", "street": "3305 N BALLARD RD", "postcode": "54911"}}},
{"geometry": {"type": "Point", "coordinates": [-88.3751381769, 44.2954481304]}, "type": "Feature", "properties": {"collection_times": [{"days": "Mon-Fri", "time": "2:30pm"}, {"days": "Sat", "time": "10:00am"}, {"days": "Sun", "time": "Closed"}], "id": "5491100252", "name": "USPS COLLECTION BOX - BLUE BOX", "address": {"city": "APPLETON", "state": "WI", "street": "3305 N BALLARD RD", "postcode": "54911"}}},
{"geometry": {"type": "Point", "coordinates": [-88.3751381769, 44.2954481304]}, "type": "Feature", "properties": {"collection_times": [{"days": "Mon-Fri", "time": "2:30pm"}, {"days": "Sat", "time": "10:00am"}, {"days": "Sun", "time": "Closed"}], "id": "5491100253", "name": "USPS COLLECTION BOX - BLUE BOX", "address": {"city": "APPLETON", "state": "WI", "street": "3305 N BALLARD RD", "postcode": "54911"}}},
{"geometry": {"type": "Point", "coordinates": [-88.3751381769, 44.2954481304]}, "type": "Feature", "properties": {"collection_times": [{"days": "Mon-Fri", "time": "2:30pm"}, {"days": "Sat", "time": "10:00am"}, {"days": "Sun", "time": "Closed"}], "id": "5491100254", "name": "USPS COLLECTION BOX - BLUE BOX", "address": {"city": "APPLETON", "state": "WI", "street": "3305 N BALLARD RD", "postcode": "54911"}}},
{"geometry": {"type": "Point", "coordinates": [-88.4139423528, 44.2872261704]}, "type": "Feature", "properties": {"collection_times": [{"days": "Mon-Sat", "time": "10:00am"}, {"days": "Sun", "time": "Closed"}], "id": "5491100261", "name": "USPS COLLECTION BOX - BLUE BOX", "address": {"city": "APPLETON", "state": "WI", "street": "607 W NORTHLAND AVE", "postcode": "54911"}}},
{"geometry": {"type": "Point", "coordinates": [-88.410876455, 44.2640591429]}, "type": "Feature", "properties": {"collection_times": [{"days": "Mon-Fri", "time": "5:00pm"}, {"days": "Sat", "time": "4:00pm"}, {"days": "Sun", "time": "Closed"}], "id": "5491100263", "name": "USPS COLLECTION BOX - APC", "address": {"city": "APPLETON", "state": "WI", "street": "410 W FRANKLIN ST", "postcode": "54911"}}},
{"geometry": {"type": "Point", "coordinates": [-88.4008527918, 44.2729691136]}, "type": "Feature", "properties": {"collection_times": [{"days": "Mon-Sat", "time": "2:30pm"}, {"days": "Sun", "time": "Closed"}], "id": "5491100264", "name": "USPS COLLECTION BOX - BLUE BOX", "address": {"city": "APPLETON", "state": "WI", "street": "402 E WISCONSIN AVE", "postcode": "54911"}}},
{"geometry": {"type": "Point", "coordinates": [-88.4008527918, 44.2729691136]}, "type": "Feature", "properties": {"collection_times": [{"days": "Mon-Sat", "time": "2:30pm"}, {"days": "Sun", "time": "Closed"}], "id": "5491100265", "name": "USPS COLLECTION BOX - BLUE BOX", "address": {"city": "APPLETON", "state": "WI", "street": "402 E WISCONSIN AVE", "postcode": "54911"}}},
{"geometry": {"type": "Point", "coordinates": [-88.4137681798, 44.2431237038]}, "type": "Feature", "properties": {"collection_times": [{"days": "Mon-Sat", "time": "2:30pm"}, {"days": "Sun", "time": "Closed"}], "id": "5491100266", "name": "USPS COLLECTION BOX - BLUE BOX", "address": {"city": "APPLETON", "state": "WI", "street": "511 W CALUMET ST", "postcode": "54911"}}},
{"geometry": {"type": "Point", "coordinates": [-88.4137681798, 44.2431237038]}, "type": "Feature", "properties": {"collection_times": [{"days": "Mon-Sat", "time": "2:30pm"}, {"days": "Sun", "time": "Closed"}], "id": "5491100267", "name": "USPS COLLECTION BOX - BLUE BOX", "address": {"city": "APPLETON", "state": "WI", "street": "511 W CALUMET ST", "postcode": "54911"}}},
{"geometry": {"type": "Point", "coordinates": [-88.4763453017, 44.2676088983]}, "type": "Feature", "properties": {"collection_times": [{"days": "Mon-Fri", "time": "5:00pm"}, {"days": "Sat", "time": "2:00pm"}, {"days": "Sun", "time": "Closed"}], "id": "5491300012", "name": "USPS COLLECTION BOX - BLUE BOX", "address": {"city": "APPLETON", "state": "WI", "street": "311 N CASALOMA DR", "postcode": "54913"}}},
{"geometry": {"type": "Point", "coordinates": [-88.4559641081, 44.2597344144]}, "type": "Feature", "properties": {"collection_times": [{"days": "Mon-Sat", "time": "2:30pm"}, {"days": "Sun", "time": "Closed"}], "id": "5491400011", "name": "USPS COLLECTION BOX - BLUE BOX", "address": {"city": "APPLETON", "state": "WI", "street": "275 S BLUEMOUND DR", "postcode": "54914"}}},
{"geometry": {"type": "Point", "coordinates": [-88.4559641081, 44.2597344144]}, "type": "Feature", "properties": {"collection_times": [{"days": "Mon-Sat", "time": "2:30pm"}, {"days": "Sun", "time": "Closed"}], "id": "5491400012", "name": "USPS COLLECTION BOX - BLUE BOX", "address": {"city": "APPLETON", "state": "WI", "street": "275 S BLUEMOUND DR", "postcode": "54914"}}},
{"geometry": {"type": "Point", "coordinates": [-88.5105201522, 44.2594387328]}, "type": "Feature", "properties": {"collection_times": [{"days": "Mon-Sat", "time": "10:00am"}, {"days": "Sun", "time": "Closed"}], "id": "5491400014", "name": "USPS COLLECTION BOX - BLUE BOX", "address": {"city": "APPLETON", "state": "WI", "street": "6390 W CHALLENGER DR", "postcode": "54914"}}},
{"geometry": {"type": "Point", "coordinates": [-88.4500722901, 44.2614830588]}, "type": "Feature", "properties": {"collection_times": [{"days": "Mon-Sat", "time": "2:30pm"}, {"days": "Sun", "time": "Closed"}], "id": "5491400019", "name": "USPS COLLECTION BOX - BLUE BOX", "address": {"city": "APPLETON", "state": "WI", "street": "2915 W COLLEGE AVE", "postcode": "54914"}}},
{"geometry": {"type": "Point", "coordinates": [-88.4500722901, 44.2614830588]}, "type": "Feature", "properties": {"collection_times": [{"days": "Mon-Sat", "time": "2:30pm"}, {"days": "Sun", "time": "Closed"}], "id": "5491400020", "name": "USPS COLLECTION BOX - BLUE BOX", "address": {"city": "APPLETON", "state": "WI", "street": "2915 W COLLEGE AVE", "postcode": "54914"}}},
{"geometry": {"type": "Point", "coordinates": [-88.4500722901, 44.2614830588]}, "type": "Feature", "properties": {"collection_times": [{"days": "Mon-Sat", "time": "2:30pm"}, {"days": "Sun", "time": "Closed"}], "id": "5491400021", "name": "USPS COLLECTION BOX - BLUE BOX", "address": {"city": "APPLETON", "state": "WI", "street": "2915 W COLLEGE AVE", "postcode": "54914"}}},
{"geometry": {"type": "Point", "coordinates": [-88.4460218776, 44.2670218863]}, "type": "Feature", "properties": {"collection_times": [{"days": "Mon-Sat", "time": "2:30pm"}, {"days": "Sun", "time": "Closed"}], "id": "5491400037", "name": "USPS COLLECTION BOX - BLUE BOX", "address": {"city": "APPLETON", "state": "WI", "street": "611 N LYNNDALE DR", "postcode": "54914"}}},
{"geometry": {"type": "Point", "coordinates": [-88.4460218776, 44.2670218863]}, "type": "Feature", "properties": {"collection_times": [{"days": "Mon-Sat", "time": "2:30pm"}, {"days": "Sun", "time": "Closed"}], "id": "5491400038", "name": "USPS COLLECTION BOX - BLUE BOX", "address": {"city": "APPLETON", "state": "WI", "street": "611 N LYNNDALE DR", "postcode": "54914"}}},
{"geometry": {"type": "Point", "coordinates": [-88.4460218776, 44.2670218863]}, "type": "Feature", "properties": {"collection_times": [{"days": "Mon-Sat", "time": "2:30pm"}, {"days": "Sun", "time": "Closed"}], "id": "5491400039", "name": "USPS COLLECTION BOX - BLUE BOX", "address": {"city": "APPLETON", "state": "WI", "street": "611 N LYNNDALE DR", "postcode": "54914"}}},
{"geometry": {"type": "Point", "coordinates": [-88.4460218776, 44.2670218863]}, "type": "Feature", "properties": {"collection_times": [{"days": "Mon-Sat", "time": "2:30pm"}, {"days": "Sun", "time": "Closed"}], "id": "5491400040", "name": "USPS COLLECTION BOX - BLUE BOX", "address": {"city": "APPLETON", "state": "WI", "street": "611 N LYNNDALE DR", "postcode": "54914"}}},
{"geometry": {"type": "Point", "coordinates": [-88.4460218776, 44.2670218863]}, "type": "Feature", "properties": {"collection_times": [{"days": "Mon-Sat", "time": "2:30pm"}, {"days": "Sun", "time": "Closed"}], "id": "5491400041", "name": "USPS COLLECTION BOX - BLUE BOX", "address": {"city": "APPLETON", "state": "WI", "street": "611 N LYNNDALE DR", "postcode": "54914"}}},
{"geometry": {"type": "Point", "coordinates": [-88.4178166381, 44.2874751691]}, "type": "Feature", "properties": {"collection_times": [{"days": "Mon-Sat", "time": "2:30pm"}, {"days": "Sun", "time": "Closed"}], "id": "5491400046", "name": "USPS COLLECTION BOX - BLUE BOX", "address": {"city": "APPLETON", "state": "WI", "street": "800 W NORTHLAND AVE", "postcode": "54914"}}},
{"geometry": {"type": "Point", "coordinates": [-88.4178166381, 44.2874751691]}, "type": "Feature", "properties": {"collection_times": [{"days": "Mon-Sat", "time": "2:30pm"}, {"days": "Sun", "time": "Closed"}], "id": "5491400047", "name": "USPS COLLECTION BOX - BLUE BOX", "address": {"city": "APPLETON", "state": "WI", "street": "800 W NORTHLAND AVE", "postcode": "54914"}}},
{"geometry": {"type": "Point", "coordinates": [-88.4690360732, 44.256738103]}, "type": "Feature", "properties": {"collection_times": [{"days": "Mon-Fri", "time": "2:30pm"}, {"days": "Sat", "time": "10:00am"}, {"days": "Sun", "time": "Closed"}], "id": "5491400052", "name": "USPS COLLECTION BOX - BLUE BOX", "address": {"city": "APPLETON", "state": "WI", "street": "47 PARK PL", "postcode": "54914"}}},
{"geometry": {"type": "Point", "coordinates": [-88.4690360732, 44.256738103]}, "type": "Feature", "properties": {"collection_times": [{"days": "Mon-Fri", "time": "2:30pm"}, {"days": "Sat", "time": "10:00am"}, {"days": "Sun", "time": "Closed"}], "id": "5491400053", "name": "USPS COLLECTION BOX - BLUE BOX", "address": {"city": "APPLETON", "state": "WI", "street": "47 PARK PL", "postcode": "54914"}}},
{"geometry": {"type": "Point", "coordinates": [-88.4690360732, 44.256738103]}, "type": "Feature", "properties": {"collection_times": [{"days": "Mon-Fri", "time": "2:30pm"}, {"days": "Sat", "time": "10:00am"}, {"days": "Sun", "time": "Closed"}], "id": "5491400054", "name": "USPS COLLECTION BOX - BLUE BOX", "address": {"city": "APPLETON", "state": "WI", "street": "47 PARK PL", "postcode": "54914"}}},
{"geometry": {"type": "Point", "coordinates": [-88.4690360732, 44.256738103]}, "type": "Feature", "properties": {"collection_times": [{"days": "Mon-Fri", "time": "2:30pm"}, {"days": "Sat", "time": "10:00am"}, {"days": "Sun", "time": "Closed"}], "id": "5491400055", "name": "USPS COLLECTION BOX - BLUE BOX", "address": {"city": "APPLETON", "state": "WI", "street": "47 PARK PL", "postcode": "54914"}}},
{"geometry": {"type": "Point", "coordinates": [-88.4690360732, 44.256738103]}, "type": "Feature", "properties": {"collection_times": [{"days": "Mon-Fri", "time": "2:30pm"}, {"days": "Sat", "time": "10:00am"}, {"days": "Sun", "time": "Closed"}], "id": "5491400056", "name": "USPS COLLECTION BOX - BLUE BOX", "address": {"city": "APPLETON", "state": "WI", "street": "47 PARK PL", "postcode": "54914"}}},
{"geometry": {"type": "Point", "coordinates": [-88.4690360732, 44.256738103]}, "type": "Feature", "properties": {"collection_times": [{"days": "Mon-Fri", "time": "2:30pm"}, {"days": "Sat", "time": "10:00am"}, {"days": "Sun", "time": "Closed"}], "id": "5491400057", "name": "USPS COLLECTION BOX - BLUE BOX", "address": {"city": "APPLETON", "state": "WI", "street": "47 PARK PL", "postcode": "54914"}}},
{"geometry": {"type": "Point", "coordinates": [-88.4260215739, 44.2545512346]}, "type": "Feature", "properties": {"collection_times": [{"days": "Mon-Sat", "time": "10:00am"}, {"days": "Sun", "time": "Closed"}], "id": "5491400064", "name": "USPS COLLECTION BOX - BLUE BOX", "address": {"city": "APPLETON", "state": "WI", "street": "1342 W PROSPECT AVE", "postcode": "54914"}}},
{"geometry": {"type": "Point", "coordinates": [-88.440511836, 44.2585949924]}, "type": "Feature", "properties": {"collection_times": [{"days": "Mon-Sat", "time": "10:00am"}, {"days": "Sun", "time": "Closed"}], "id": "5491400068", "name": "USPS COLLECTION BOX - BLUE BOX", "address": {"city": "APPLETON", "state": "WI", "street": "2197 W SPENCER ST", "postcode": "54914"}}},
{"geometry": {"type": "Point", "coordinates": [-88.376418071, 44.2466632966]}, "type": "Feature", "properties": {"collection_times": [{"days": "Mon-Sat", "time": "2:30pm"}, {"days": "Sun", "time": "Closed"}], "id": "5491500002", "name": "USPS COLLECTION BOX - BLUE BOX", "address": {"city": "APPLETON", "state": "WI", "street": "511 W CALUMET ST", "postcode": "54915"}}},
{"geometry": {"type": "Point", "coordinates": [-88.376418071, 44.2466632966]}, "type": "Feature", "properties": {"collection_times": [{"days": "Mon-Sat", "time": "2:30pm"}, {"days": "Sun", "time": "Closed"}], "id": "5491500003", "name": "USPS COLLECTION BOX - BLUE BOX", "address": {"city": "APPLETON", "state": "WI", "street": "511 W CALUMET ST", "postcode": "54915"}}},
{"geometry": {"type": "Point", "coordinates": [-88.3636849494, 44.2585697612]}, "type": "Feature", "properties": {"collection_times": [{"days": "Mon-Sat", "time": "10:00am"}, {"days": "Sun", "time": "Closed"}], "id": "5491500006", "name": "USPS COLLECTION BOX - BLUE BOX", "address": {"city": "APPLETON", "state": "WI", "street": "3020 E COLLEGE AVE", "postcode": "54915"}}},
{"geometry": {"type": "Point", "coordinates": [-88.3708677728, 44.2451114483]}, "type": "Feature", "properties": {"collection_times": [{"days": "Mon-Sat", "time": "10:00am"}, {"days": "Sun", "time": "Closed"}], "id": "5491500007", "name": "USPS COLLECTION BOX - BLUE BOX", "address": {"city": "APPLETON", "state": "WI", "street": "9690 N COUNTY TRUNK N", "postcode": "54915"}}},
{"geometry": {"type": "Point", "coordinates": [-88.3478573797, 44.2572821986]}, "type": "Feature", "properties": {"collection_times": [{"days": "Mon-Sat", "time": "10:00am"}, {"days": "Sun", "time": "Closed"}], "id": "5491500026", "name": "USPS COLLECTION BOX - BLUE BOX", "address": {"city": "APPLETON", "state": "WI", "street": "W3165 VAN ROY RD", "postcode": "54915"}}},
{"geometry": {"type": "Point", "coordinates": [-88.3466685059, 44.2459376221]}, "type": "Feature", "properties": {"collection_times": [{"days": "Mon-Fri", "time": "2:30pm"}, {"days": "Sat", "time": "10:00am"}, {"days": "Sun", "time": "Closed"}], "id": "5491500030", "name": "USPS COLLECTION BOX - BLUE BOX", "address": {"city": "APPLETON", "state": "WI", "street": "N162 EISENHOWER DR", "postcode": "54915"}}},
{"geometry": {"type": "Point", "coordinates": [-88.3466685059, 44.2459376221]}, "type": "Feature", "properties": {"collection_times": [{"days": "Mon-Fri", "time": "2:30pm"}, {"days": "Sat", "time": "10:00am"}, {"days": "Sun", "time": "Closed"}], "id": "5491500031", "name": "USPS COLLECTION BOX - BLUE BOX", "address": {"city": "APPLETON", "state": "WI", "street": "N162 EISENHOWER DR", "postcode": "54915"}}},
{"geometry": {"type": "Point", "coordinates": [-89.5136210409, 44.3095563244]}, "type": "Feature", "properties": {"collection_times": [{"days": "Mon-Fri", "time": "4:00pm"}, {"days": "Sat", "time": "10:15am"}, {"days": "Sun", "time": "Closed"}], "id": "5492100000", "name": "USPS COLLECTION BOX - BLUE BOX", "address": {"city": "BANCROFT", "state": "WI", "street": "5506 COUNTY RD W", "postcode": "54921"}}},
{"geometry": {"type": "Point", "coordinates": [-89.5136210409, 44.3095563244]}, "type": "Feature", "properties": {"collection_times": [{"days": "Mon-Fri", "time": "11:45am"}, {"days": "Sat", "time": "9:45am"}, {"days": "Sun", "time": "Closed"}], "id": "5492100002", "name": "USPS COLLECTION BOX - PO LOBBY", "address": {"city": "BANCROFT", "state": "WI", "street": "5506 COUNTY RD W", "postcode": "54921"}}},
{"geometry": {"type": "Point", "coordinates": [-88.7269278513, 44.5290559917]}, "type": "Feature", "properties": {"collection_times": [{"days": "Mon-Fri", "time": "4:15pm"}, {"days": "Sat", "time": "10:00am"}, {"days": "Sun", "time": "Closed"}], "id": "5492200000", "name": "USPS COLLECTION BOX - BLUE BOX", "address": {"city": "BEAR CREEK", "state": "WI", "street": "107 ROLLO ST", "postcode": "54922"}}},
{"geometry": {"type": "Point", "coordinates": [-88.7269278513, 44.5290559917]}, "type": "Feature", "properties": {"collection_times": [{"days": "Mon-Fri", "time": "11:15am"}, {"days": "Sat", "time": "9:15am"}, {"days": "Sun", "time": "Closed"}], "id": "5492200001", "name": "USPS COLLECTION BOX - PO LOBBY", "address": {"city": "BEAR CREEK", "state": "WI", "street": "107 ROLLO ST", "postcode": "54922"}}},
{"geometry": {"type": "Point", "coordinates": [-88.9479991375, 43.967513126]}, "type": "Feature", "properties": {"collection_times": [{"days": "Mon-Fri", "time": "5:00pm"}, {"days": "Sat", "time": "11:15am"}, {"days": "Sun", "time": "Closed"}], "id": "5492300004", "name": "USPS COLLECTION BOX - BLUE BOX", "address": {"city": "BERLIN", "state": "WI", "street": "122 S PEARL ST", "postcode": "54923"}}},
{"geometry": {"type": "Point", "coordinates": [-88.9479991375, 43.967513126]}, "type": "Feature", "properties": {"collection_times": [{"days": "Mon-Fri", "time": "5:00pm"}, {"days": "Sat", "time": "11:15am"}, {"days": "Sun", "time": "Closed"}], "id": "5492300005", "name": "USPS COLLECTION BOX - BLUE BOX", "address": {"city": "BERLIN", "state": "WI", "street": "122 S PEARL ST", "postcode": "54923"}}},
{"geometry": {"type": "Point", "coordinates": [-88.9726649422, 43.9682925086]}, "type": "Feature", "properties": {"collection_times": [{"days": "Mon-Sat", "time": "9:00am"}, {"days": "Sun", "time": "Closed"}], "id": "5492300009", "name": "USPS COLLECTION BOX - BLUE BOX", "address": {"city": "BERLIN", "state": "WI", "street": "780 BROADWAY ST", "postcode": "54923"}}},
{"geometry": {"type": "Point", "coordinates": [-88.9447909381, 43.9776265598]}, "type": "Feature", "properties": {"collection_times": [{"days": "Mon-Sat", "time": "10:30am"}, {"days": "Sun", "time": "Closed"}], "id": "5492300014", "name": "USPS COLLECTION BOX - BLUE BOX", "address": {"city": "BERLIN", "state": "WI", "street": "225 MEMORIAL DR", "postcode": "54923"}}},
{"geometry": {"type": "Point", "coordinates": [-88.9485185387, 43.9692646279]}, "type": "Feature", "properties": {"collection_times": [{"days": "Mon-Sat", "time": "12:00pm"}, {"days": "Sun", "time": "Closed"}], "id": "5492300015", "name": "USPS COLLECTION BOX - BLUE BOX", "address": {"city": "BERLIN", "state": "WI", "street": "167 W PARK AVE", "postcode": "54923"}}},
{"geometry": {"type": "Point", "coordinates": [-88.9479991375, 43.967513126]}, "type": "Feature", "properties": {"collection_times": [{"days": "Mon-Fri", "time": "5:00pm"}, {"days": "Sat", "time": "11:15am"}, {"days": "Sun", "time": "Closed"}], "id": "5492300017", "name": "USPS COLLECTION BOX - PO LOBBY", "address": {"city": "BERLIN", "state": "WI", "street": "122 S PEARL ST", "postcode": "54923"}}},
{"geometry": {"type": "Point", "coordinates": [-88.9478111464, 43.9674327673]}, "type": "Feature", "properties": {"collection_times": [{"days": "Mon-Fri", "time": "5:00pm"}, {"days": "Sat", "time": "11:15am"}, {"days": "Sun", "time": "Closed"}], "id": "5492300019", "name": "USPS COLLECTION BOX - BLUE BOX", "address": {"city": "BERLIN", "state": "WI", "street": "119 W FRANKLIN ST", "postcode": "54923"}}},
{"geometry": {"type": "Point", "coordinates": [-89.0165719375, 44.6142768597]}, "type": "Feature", "properties": {"collection_times": [{"days": "Mon-Fri", "time": "4:15pm"}, {"days": "Sat", "time": "11:15am"}, {"days": "Sun", "time": "Closed"}], "id": "5492600000", "name": "USPS COLLECTION BOX - BLUE BOX", "address": {"city": "BIG FALLS", "state": "WI", "street": "216 S MAIN ST", "postcode": "54926"}}},
{"geometry": {"type": "Point", "coordinates": [-89.01619, 44.61496]}, "type": "Feature", "properties": {"collection_times": [{"days": "Mon-Fri", "time": "3:45pm"}, {"days": "Sat", "time": "11:15am"}, {"days": "Sun", "time": "Closed"}], "id": "5492600001", "name": "USPS COLLECTION BOX - PO LOBBY", "address": {"city": "BIG FALLS", "state": "WI", "street": "216 S MAIN ST", "postcode": "54926"}}},
{"geometry": {"type": "Point", "coordinates": [-88.7445200233, 44.0378217565]}, "type": "Feature", "properties": {"collection_times": [{"days": "Mon-Fri", "time": "4:15pm"}, {"days": "Sat", "time": "11:30am"}, {"days": "Sun", "time": "Closed"}], "id": "5492700000", "name": "USPS COLLECTION BOX - BLUE BOX", "address": {"city": "BUTTE DES MORTS", "state": "WI", "street": "5757 MAIN ST", "postcode": "54927"}}},
{"geometry": {"type": "Point", "coordinates": [-88.7445200233, 44.0378217565]}, "type": "Feature", "properties": {"collection_times": [{"days": "Mon-Sat", "time": "11:30am"}, {"days": "Sun", "time": "Closed"}], "id": "5492700001", "name": "USPS COLLECTION BOX - PO LOBBY", "address": {"city": "BUTTE DES MORTS", "state": "WI", "street": "5757 MAIN ST", "postcode": "54927"}}},
{"geometry": {"type": "Point", "coordinates": [-88.8899004554, 44.7200385596]}, "type": "Feature", "properties": {"collection_times": [{"days": "Mon-Fri", "time": "4:30pm"}, {"days": "Sat", "time": "10:00am"}, {"days": "Sun", "time": "Closed"}], "id": "5492800000", "name": "USPS COLLECTION BOX - BLUE BOX", "address": {"city": "CAROLINE", "state": "WI", "street": "W12742 COUNTY ROAD M", "postcode": "54928"}}},
{"geometry": {"type": "Point", "coordinates": [-88.8899004554, 44.7200385596]}, "type": "Feature", "properties": {"collection_times": [{"days": "Mon-Fri", "time": "11:45am"}, {"days": "Sat", "time": "8:45am"}, {"days": "Sun", "time": "Closed"}], "id": "5492800001", "name": "USPS COLLECTION BOX - PO LOBBY", "address": {"city": "CAROLINE", "state": "WI", "street": "W12742 COUNTY ROAD M", "postcode": "54928"}}},
{"geometry": {"type": "Point", "coordinates": [-88.762214031, 44.6226528296]}, "type": "Feature", "properties": {"collection_times": [{"days": "Mon-Sat", "time": "3:00pm"}, {"days": "Sun", "time": "Closed"}], "id": "5492900006", "name": "USPS COLLECTION BOX - BLUE BOX", "address": {"city": "CLINTONVILLE", "state": "WI", "street": "50 10TH ST", "postcode": "54929"}}},
{"geometry": {"type": "Point", "coordinates": [-88.7608013169, 44.622333006]}, "type": "Feature", "properties": {"collection_times": [{"days": "Mon-Sat", "time": "3:00pm"}, {"days": "Sun", "time": "Closed"}], "id": "5492900009", "name": "USPS COLLECTION BOX - BLUE BOX", "address": {"city": "CLINTONVILLE", "state": "WI", "street": "60 S MAIN ST", "postcode": "54929"}}},
{"geometry": {"type": "Point", "coordinates": [-88.7620250142, 44.6182513882]}, "type": "Feature", "properties": {"collection_times": [{"days": "Mon-Sat", "time": "3:00pm"}, {"days": "Sun", "time": "Closed"}], "id": "5492900011", "name": "USPS COLLECTION BOX - BLUE BOX", "address": {"city": "CLINTONVILLE", "state": "WI", "street": "135 S MAIN ST", "postcode": "54929"}}},
{"geometry": {"type": "Point", "coordinates": [-88.7594620291, 44.6236697008]}, "type": "Feature", "properties": {"collection_times": [{"days": "Mon-Fri", "time": "5:00pm"}, {"days": "Sat", "time": "4:00pm"}, {"days": "Sun", "time": "Closed"}], "id": "5492900015", "name": "USPS COLLECTION BOX - BLUE BOX", "address": {"city": "CLINTONVILLE", "state": "WI", "street": "16 N MAIN ST", "postcode": "54929"}}},
{"geometry": {"type": "Point", "coordinates": [-88.7631294504, 44.6131565191]}, "type": "Feature", "properties": {"collection_times": [{"days": "Mon-Sat", "time": "3:00pm"}, {"days": "Sun", "time": "Closed"}], "id": "5492900021", "name": "USPS COLLECTION BOX - BLUE BOX", "address": {"city": "CLINTONVILLE", "state": "WI", "street": "278 S MAIN ST", "postcode": "54929"}}},
{"geometry": {"type": "Point", "coordinates": [-88.7629811808, 44.6129745527]}, "type": "Feature", "properties": {"collection_times": [{"days": "Mon-Sat", "time": "3:00pm"}, {"days": "Sun", "time": "Closed"}], "id": "5492900023", "name": "USPS COLLECTION BOX - BLUE BOX", "address": {"city": "CLINTONVILLE", "state": "WI", "street": "291 S MAIN ST", "postcode": "54929"}}},
{"geometry": {"type": "Point", "coordinates": [-88.7598874874, 44.6231871887]}, "type": "Feature", "properties": {"collection_times": [{"days": "Mon-Fri", "time": "5:00pm"}, {"days": "Sat", "time": "4:00pm"}, {"days": "Sun", "time": "Closed"}], "id": "5492900024", "name": "USPS COLLECTION BOX - PO LOBBY", "address": {"city": "CLINTONVILLE", "state": "WI", "street": "2 N MAIN ST", "postcode": "54929"}}},
{"geometry": {"type": "Point", "coordinates": [-88.7598874874, 44.6231871887]}, "type": "Feature", "properties": {"collection_times": [{"days": "Mon-Fri", "time": "5:00pm"}, {"days": "Sat", "time": "4:00pm"}, {"days": "Sun", "time": "Closed"}], "id": "5492900025", "name": "USPS COLLECTION BOX - PO LOBBY", "address": {"city": "CLINTONVILLE", "state": "WI", "street": "2 N MAIN ST", "postcode": "54929"}}},
{"geometry": {"type": "Point", "coordinates": [-88.7594620291, 44.6236697008]}, "type": "Feature", "properties": {"collection_times": [{"days": "Mon-Fri", "time": "5:00pm"}, {"days": "Sat", "time": "4:00pm"}, {"days": "Sun", "time": "Closed"}], "id": "5492900026", "name": "USPS COLLECTION BOX - BLUE BOX", "address": {"city": "CLINTONVILLE", "state": "WI", "street": "16 N MAIN ST", "postcode": "54929"}}},
{"geometry": {"type": "Point", "coordinates": [-89.522481973, 44.0334691182]}, "type": "Feature", "properties": {"collection_times": [{"days": "Mon-Fri", "time": "3:30pm"}, {"days": "Sat", "time": "10:30am"}, {"days": "Sun", "time": "Closed"}], "id": "5493000000", "name": "USPS COLLECTION BOX - BLUE BOX", "address": {"city": "COLOMA", "state": "WI", "street": "145 N FRONT ST", "postcode": "54930"}}},
{"geometry": {"type": "Point", "coordinates": [-89.522481973, 44.0334691182]}, "type": "Feature", "properties": {"collection_times": [{"days": "Mon-Fri", "time": "3:30pm"}, {"days": "Sat", "time": "10:30am"}, {"days": "Sun", "time": "Closed"}], "id": "5493000001", "name": "USPS COLLECTION BOX - PO LOBBY", "address": {"city": "COLOMA", "state": "WI", "street": "145 N FRONT ST", "postcode": "54930"}}},
{"geometry": {"type": "Point", "coordinates": [-89.522481973, 44.0334691182]}, "type": "Feature", "properties": {"collection_times": [{"days": "Mon-Fri", "time": "3:30pm"}, {"days": "Sat", "time": "10:30am"}, {"days": "Sun", "time": "Closed"}], "id": "5493000002", "name": "USPS COLLECTION BOX - PO LOBBY", "address": {"city": "COLOMA", "state": "WI", "street": "145 N FRONT ST", "postcode": "54930"}}},
{"geometry": {"type": "Point", "coordinates": [-88.67838, 44.27307]}, "type": "Feature", "properties": {"collection_times": [{"days": "Mon-Fri", "time": "4:15pm"}, {"days": "Sat", "time": "12:15pm"}, {"days": "Sun", "time": "Closed"}], "id": "5493100000", "name": "USPS COLLECTION BOX - BLUE BOX", "address": {"city": "DALE", "state": "WI", "street": "W9728 STATE ROAD 96", "postcode": "54931"}}},
{"geometry": {"type": "Point", "coordinates": [-88.6783696939, 44.2736024502]}, "type": "Feature", "properties": {"collection_times": [{"days": "Mon-Fri", "time": "3:15pm"}, {"days": "Sat", "time": "12:15pm"}, {"days": "Sun", "time": "Closed"}], "id": "5493100001", "name": "USPS COLLECTION BOX - PO LOBBY", "address": {"city": "DALE", "state": "WI", "street": "W9728 STATE ROAD 96", "postcode": "54931"}}},
{"geometry": {"type": "Point", "coordinates": [-88.6243184387, 43.8209170274]}, "type": "Feature", "properties": {"collection_times": [{"days": "Mon-Fri", "time": "4:30pm"}, {"days": "Sat", "time": "10:30am"}, {"days": "Sun", "time": "Closed"}], "id": "5493200000", "name": "USPS COLLECTION BOX - BLUE BOX", "address": {"city": "ELDORADO", "state": "WI", "street": "N7666 COUNTY ROAD C", "postcode": "54932"}}},
{"geometry": {"type": "Point", "coordinates": [-88.6243184387, 43.8209170274]}, "type": "Feature", "properties": {"collection_times": [{"days": "Mon-Fri", "time": "11:45am"}, {"days": "Sat", "time": "9:45am"}, {"days": "Sun", "time": "Closed"}], "id": "5493200001", "name": "USPS COLLECTION BOX - PO LOBBY", "address": {"city": "ELDORADO", "state": "WI", "street": "N7666 COUNTY ROAD C", "postcode": "54932"}}},
{"geometry": {"type": "Point", "coordinates": [-88.6243184387, 43.8209170274]}, "type": "Feature", "properties": {"collection_times": [{"days": "Mon-Fri", "time": "11:45am"}, {"days": "Sat", "time": "9:45am"}, {"days": "Sun", "time": "Closed"}], "id": "5493200003", "name": "USPS COLLECTION BOX - PO LOBBY", "address": {"city": "ELDORADO", "state": "WI", "street": "N7666 HIGHWAY C", "postcode": "54932"}}},
{"geometry": {"type": "Point", "coordinates": [-88.7170457828, 44.6637934916]}, "type": "Feature", "properties": {"collection_times": [{"days": "Mon-Fri", "time": "4:30pm"}, {"days": "Sat", "time": "9:30am"}, {"days": "Sun", "time": "Closed"}], "id": "5493300000", "name": "USPS COLLECTION BOX - BLUE BOX", "address": {"city": "EMBARRASS", "state": "WI", "street": "115 E MAIN ST", "postcode": "54933"}}},
{"geometry": {"type": "Point", "coordinates": [-88.70715974, 44.6657715725]}, "type": "Feature", "properties": {"collection_times": [{"days": "Mon-Fri", "time": "4:30pm"}, {"days": "Sat", "time": "11:30am"}, {"days": "Sun", "time": "Closed"}], "id": "5493300001", "name": "USPS COLLECTION BOX - PO LOBBY", "address": {"city": "EMBARRASS", "state": "WI", "street": "115 E MAIN ST", "postcode": "54933"}}},
{"geometry": {"type": "Point", "coordinates": [-88.70715974, 44.6657715725]}, "type": "Feature", "properties": {"collection_times": [{"days": "Mon-Fri", "time": "4:30pm"}, {"days": "Sat", "time": "11:30am"}, {"days": "Sun", "time": "Closed"}], "id": "5493300002", "name": "USPS COLLECTION BOX - PO LOBBY", "address": {"city": "EMBARRASS", "state": "WI", "street": "115 E MAIN ST", "postcode": "54933"}}},
{"geometry": {"type": "Point", "coordinates": [-88.444522568, 43.7760809323]}, "type": "Feature", "properties": {"collection_times": [{"days": "Mon-Fri", "time": "3:00pm"}, {"days": "Sat", "time": "1:00pm"}, {"days": "Sun", "time": "Closed"}], "id": "5493500005", "name": "USPS COLLECTION BOX - BLUE BOX", "address": {"city": "FOND DU LAC", "state": "WI", "street": "82 S MARR ST", "postcode": "54935"}}},
{"geometry": {"type": "Point", "coordinates": [-88.4377031131, 43.792504719]}, "type": "Feature", "properties": {"collection_times": [{"days": "Mon-Fri", "time": "3:00pm"}, {"days": "Sat", "time": "1:00pm"}, {"days": "Sun", "time": "Closed"}], "id": "5493500018", "name": "USPS COLLECTION BOX - BLUE BOX", "address": {"city": "FOND DU LAC", "state": "WI", "street": "254 WINNEBAGO DR", "postcode": "54935"}}},
{"geometry": {"type": "Point", "coordinates": [-88.427183059, 43.7786416229]}, "type": "Feature", "properties": {"collection_times": [{"days": "Mon-Sat", "time": "1:00pm"}, {"days": "Sun", "time": "Closed"}], "id": "5493500030", "name": "USPS COLLECTION BOX - BLUE BOX", "address": {"city": "FOND DU LAC", "state": "WI", "street": "525 E DIVISION ST", "postcode": "54935"}}},
{"geometry": {"type": "Point", "coordinates": [-88.4149347019, 43.7822804047]}, "type": "Feature", "properties": {"collection_times": [{"days": "Mon-Sat", "time": "1:00pm"}, {"days": "Sun", "time": "Closed"}], "id": "5493500043", "name": "USPS COLLECTION BOX - BLUE BOX", "address": {"city": "FOND DU LAC", "state": "WI", "street": "131 UNIVERSITY DR", "postcode": "54935"}}},
{"geometry": {"type": "Point", "coordinates": [-88.4752892683, 43.7843150941]}, "type": "Feature", "properties": {"collection_times": [{"days": "Mon-Fri", "time": "3:00pm"}, {"days": "Sat", "time": "1:00pm"}, {"days": "Sun", "time": "Closed"}], "id": "5493500049", "name": "USPS COLLECTION BOX - BLUE BOX", "address": {"city": "FOND DU LAC", "state": "WI", "street": "760 W JOHNSON ST", "postcode": "54935"}}},
{"geometry": {"type": "Point", "coordinates": [-88.44692901, 43.7893544993]}, "type": "Feature", "properties": {"collection_times": [{"days": "Mon-Fri", "time": "3:00pm"}, {"days": "Sat", "time": "1:00pm"}, {"days": "Sun", "time": "Closed"}], "id": "5493500056", "name": "USPS COLLECTION BOX - BLUE BOX", "address": {"city": "FOND DU LAC", "state": "WI", "street": "376 N MAIN ST", "postcode": "54935"}}},
{"geometry": {"type": "Point", "coordinates": [-88.4500281081, 43.7761309321]}, "type": "Feature", "properties": {"collection_times": [{"days": "Mon-Sat", "time": "5:30pm"}, {"days": "Sun", "time": "Closed"}], "id": "5493500058", "name": "USPS COLLECTION BOX - BLUE BOX", "address": {"city": "FOND DU LAC", "state": "WI", "street": "98 W 1ST ST", "postcode": "54935"}}},
{"geometry": {"type": "Point", "coordinates": [-88.4500281081, 43.7761309321]}, "type": "Feature", "properties": {"collection_times": [{"days": "Mon-Sat", "time": "5:30pm"}, {"days": "Sun", "time": "Closed"}], "id": "5493500059", "name": "USPS COLLECTION BOX - BLUE BOX", "address": {"city": "FOND DU LAC", "state": "WI", "street": "98 W 1ST ST", "postcode": "54935"}}},
{"geometry": {"type": "Point", "coordinates": [-88.4745311392, 43.789195021]}, "type": "Feature", "properties": {"collection_times": [{"days": "Mon-Fri", "time": "3:00pm"}, {"days": "Sat", "time": "1:00pm"}, {"days": "Sun", "time": "Closed"}], "id": "5493500062", "name": "USPS COLLECTION BOX - BLUE BOX", "address": {"city": "FOND DU LAC", "state": "WI", "street": "750 SECURITY DR", "postcode": "54935"}}},
{"geometry": {"type": "Point", "coordinates": [-88.4312122172, 43.7694618613]}, "type": "Feature", "properties": {"collection_times": [{"days": "Mon-Sat", "time": "1:00pm"}, {"days": "Sun", "time": "Closed"}], "id": "5493500063", "name": "USPS COLLECTION BOX - BLUE BOX", "address": {"city": "FOND DU LAC", "state": "WI", "street": "365 FOND DU LAC AVE", "postcode": "54935"}}},
{"geometry": {"type": "Point", "coordinates": [-88.4490197418, 43.7546241797]}, "type": "Feature", "properties": {"collection_times": [{"days": "Mon-Fri", "time": "3:00pm"}, {"days": "Sat", "time": "1:00pm"}, {"days": "Sun", "time": "Closed"}], "id": "5493500088", "name": "USPS COLLECTION BOX - BLUE BOX", "address": {"city": "FOND DU LAC", "state": "WI", "street": "794 S MAIN ST", "postcode": "54935"}}},
{"geometry": {"type": "Point", "coordinates": [-88.446959767, 43.7758865114]}, "type": "Feature", "properties": {"collection_times": [{"days": "Mon-Fri", "time": "3:00pm"}, {"days": "Sat", "time": "1:00pm"}, {"days": "Sun", "time": "Closed"}], "id": "5493500089", "name": "USPS COLLECTION BOX - BLUE BOX", "address": {"city": "FOND DU LAC", "state": "WI", "street": "104 S MAIN ST", "postcode": "54935"}}},
{"geometry": {"type": "Point", "coordinates": [-88.4809651054, 43.7734673604]}, "type": "Feature", "properties": {"collection_times": [{"days": "Mon-Fri", "time": "3:00pm"}, {"days": "Sat", "time": "1:00pm"}, {"days": "Sun", "time": "Closed"}], "id": "5493500090", "name": "USPS COLLECTION BOX - BLUE BOX", "address": {"city": "FOND DU LAC", "state": "WI", "street": "885 WESTERN AVE", "postcode": "54935"}}},
{"geometry": {"type": "Point", "coordinates": [-88.4506399523, 43.7533499602]}, "type": "Feature", "properties": {"collection_times": [{"days": "Mon-Fri", "time": "3:00pm"}, {"days": "Sat", "time": "1:00pm"}, {"days": "Sun", "time": "Closed"}], "id": "5493500095", "name": "USPS COLLECTION BOX - BLUE BOX", "address": {"city": "FOND DU LAC", "state": "WI", "street": "34 W PIONEER RD", "postcode": "54935"}}},
{"geometry": {"type": "Point", "coordinates": [-88.4503016261, 43.7753849368]}, "type": "Feature", "properties": {"collection_times": [{"days": "Mon-Sat", "time": "5:30pm"}, {"days": "Sun", "time": "Closed"}], "id": "5493500102", "name": "USPS COLLECTION BOX - PO LOBBY", "address": {"city": "FOND DU LAC", "state": "WI", "street": "99 W 2ND ST", "postcode": "54935"}}},
{"geometry": {"type": "Point", "coordinates": [-88.4503016261, 43.7753849368]}, "type": "Feature", "properties": {"collection_times": [{"days": "Mon-Sat", "time": "5:30pm"}, {"days": "Sun", "time": "Closed"}], "id": "5493500103", "name": "USPS COLLECTION BOX - PO LOBBY", "address": {"city": "FOND DU LAC", "state": "WI", "street": "99 W 2ND ST", "postcode": "54935"}}},
{"geometry": {"type": "Point", "coordinates": [-88.4503016261, 43.7753849368]}, "type": "Feature", "properties": {"collection_times": [{"days": "Mon-Sat", "time": "5:30pm"}, {"days": "Sun", "time": "Closed"}], "id": "5493500104", "name": "USPS COLLECTION BOX - PO LOBBY", "address": {"city": "FOND DU LAC", "state": "WI", "street": "99 W 2ND ST", "postcode": "54935"}}},
{"geometry": {"type": "Point", "coordinates": [-88.4503016261, 43.7753849368]}, "type": "Feature", "properties": {"collection_times": [{"days": "Mon-Sat", "time": "5:30pm"}, {"days": "Sun", "time": "Closed"}], "id": "5493500106", "name": "USPS COLLECTION BOX - PO LOBBY", "address": {"city": "FOND DU LAC", "state": "WI", "street": "99 W 2ND ST", "postcode": "54935"}}},
{"geometry": {"type": "Point", "coordinates": [-88.4867793487, 43.7846463226]}, "type": "Feature", "properties": {"collection_times": [{"days": "Mon-Fri", "time": "3:00pm"}, {"days": "Sat", "time": "1:00pm"}, {"days": "Sun", "time": "Closed"}], "id": "5493700001", "name": "USPS COLLECTION BOX - BLUE BOX", "address": {"city": "N FOND DU LAC", "state": "WI", "street": "1123 W JOHNSON ST", "postcode": "54937"}}},
{"geometry": {"type": "Point", "coordinates": [-88.4758251487, 43.7543980618]}, "type": "Feature", "properties": {"collection_times": [{"days": "Mon-Fri", "time": "3:00pm"}, {"days": "Sat", "time": "1:00pm"}, {"days": "Sun", "time": "Closed"}], "id": "5493700002", "name": "USPS COLLECTION BOX - BLUE BOX", "address": {"city": "N FOND DU LAC", "state": "WI", "street": "560 W ROLLING MEADOWS DR", "postcode": "54937"}}},
{"geometry": {"type": "Point", "coordinates": [-88.4800104575, 43.8029135749]}, "type": "Feature", "properties": {"collection_times": [{"days": "Mon-Fri", "time": "3:00pm"}, {"days": "Sat", "time": "1:00pm"}, {"days": "Sun", "time": "Closed"}], "id": "5493700005", "name": "USPS COLLECTION BOX - BLUE BOX", "address": {"city": "N FOND DU LAC", "state": "WI", "street": "400 PROSPECT AVE", "postcode": "54937"}}},
{"geometry": {"type": "Point", "coordinates": [-88.4809958623, 43.8087207205]}, "type": "Feature", "properties": {"collection_times": [{"days": "Mon-Fri", "time": "3:00pm"}, {"days": "Sat", "time": "1:00pm"}, {"days": "Sun", "time": "Closed"}], "id": "5493700006", "name": "USPS COLLECTION BOX - BLUE BOX", "address": {"city": "N FOND DU LAC", "state": "WI", "street": "718 WISCONSIN AVE", "postcode": "54937"}}},
{"geometry": {"type": "Point", "coordinates": [-88.4867793487, 43.7846463226]}, "type": "Feature", "properties": {"collection_times": [{"days": "Mon-Fri", "time": "3:00pm"}, {"days": "Sat", "time": "1:00pm"}, {"days": "Sun", "time": "Closed"}], "id": "5493700008", "name": "USPS COLLECTION BOX - BLUE BOX", "address": {"city": "N FOND DU LAC", "state": "WI", "street": "1123 W JOHNSON ST", "postcode": "54937"}}},
{"geometry": {"type": "Point", "coordinates": [-88.8723721912, 44.2630355559]}, "type": "Feature", "properties": {"collection_times": [{"days": "Mon-Fri", "time": "4:30pm"}, {"days": "Sat", "time": "11:15am"}, {"days": "Sun", "time": "Closed"}], "id": "5494000000", "name": "USPS COLLECTION BOX - BLUE BOX", "address": {"city": "FREMONT", "state": "WI", "street": "627 WOLF RIVER DR", "postcode": "54940"}}},
{"geometry": {"type": "Point", "coordinates": [-88.8723721912, 44.2630355559]}, "type": "Feature", "properties": {"collection_times": [{"days": "Mon-Fri", "time": "2:45pm"}, {"days": "Sat", "time": "11:15am"}, {"days": "Sun", "time": "Closed"}], "id": "5494000001", "name": "USPS COLLECTION BOX - PO LOBBY", "address": {"city": "FREMONT", "state": "WI", "street": "627 WOLF RIVER DR", "postcode": "54940"}}},
{"geometry": {"type": "Point", "coordinates": [-88.8723721912, 44.2630355559]}, "type": "Feature", "properties": {"collection_times": [{"days": "Mon-Fri", "time": "2:45pm"}, {"days": "Sat", "time": "11:15am"}, {"days": "Sun", "time": "Closed"}], "id": "5494000002", "name": "USPS COLLECTION BOX - PO LOBBY", "address": {"city": "FREMONT", "state": "WI", "street": "627 WOLF RIVER DR", "postcode": "54940"}}},
{"geometry": {"type": "Point", "coordinates": [-88.848399472, 44.256958679]}, "type": "Feature", "properties": {"collection_times": [{"days": "Mon-Sat", "time": "9:00am"}, {"days": "Sun", "time": "Closed"}], "id": "5494000003", "name": "USPS COLLECTION BOX - BLUE BOX", "address": {"city": "FREMONT", "state": "WI", "street": "N478 WOOD DUCK DR", "postcode": "54940"}}},
{"geometry": {"type": "Point", "coordinates": [-88.9609654329, 43.8451160963]}, "type": "Feature", "properties": {"collection_times": [{"days": "Mon-Fri", "time": "4:00pm"}, {"days": "Sat", "time": "11:00am"}, {"days": "Sun", "time": "Closed"}], "id": "5494100000", "name": "USPS COLLECTION BOX - BLUE BOX", "address": {"city": "GREEN LAKE", "state": "WI", "street": "487 HILL ST", "postcode": "54941"}}},
{"geometry": {"type": "Point", "coordinates": [-88.9609654329, 43.8451160963]}, "type": "Feature", "properties": {"collection_times": [{"days": "Mon-Fri", "time": "4:00pm"}, {"days": "Sat", "time": "11:00am"}, {"days": "Sun", "time": "Closed"}], "id": "5494100002", "name": "USPS COLLECTION BOX - PO LOBBY", "address": {"city": "GREEN LAKE", "state": "WI", "street": "487 HILL ST", "postcode": "54941"}}},
{"geometry": {"type": "Point", "coordinates": [-88.5367025829, 44.3088994301]}, "type": "Feature", "properties": {"collection_times": [{"days": "Mon-Fri", "time": "4:00pm"}, {"days": "Sat", "time": "10:30am"}, {"days": "Sun", "time": "Closed"}], "id": "5494200000", "name": "USPS COLLECTION BOX - BLUE BOX", "address": {"city": "GREENVILLE", "state": "WI", "street": "N1886 MUNICIPAL DR", "postcode": "54942"}}},
{"geometry": {"type": "Point", "coordinates": [-88.5367025829, 44.3088994301]}, "type": "Feature", "properties": {"collection_times": [{"days": "Mon-Fri", "time": "4:30pm"}, {"days": "Sat", "time": "10:30am"}, {"days": "Sun", "time": "Closed"}], "id": "5494200001", "name": "USPS COLLECTION BOX - PO LOBBY", "address": {"city": "GREENVILLE", "state": "WI", "street": "N1886 MUNICIPAL DR", "postcode": "54942"}}},
{"geometry": {"type": "Point", "coordinates": [-88.5367025829, 44.3088994301]}, "type": "Feature", "properties": {"collection_times": [{"days": "Mon-Fri", "time": "4:30pm"}, {"days": "Sat", "time": "10:30am"}, {"days": "Sun", "time": "Closed"}], "id": "5494200002", "name": "USPS COLLECTION BOX - PO LOBBY", "address": {"city": "GREENVILLE", "state": "WI", "street": "N1886 MUNICIPAL DR", "postcode": "54942"}}},
{"geometry": {"type": "Point", "coordinates": [-89.5425784421, 44.1284009369]}, "type": "Feature", "properties": {"collection_times": [{"days": "Mon-Fri", "time": "3:30pm"}, {"days": "Sat", "time": "10:15am"}, {"days": "Sun", "time": "Closed"}], "id": "5494300000", "name": "USPS COLLECTION BOX - BLUE BOX", "address": {"city": "HANCOCK", "state": "WI", "street": "127 W NORTH LAKE ST", "postcode": "54943"}}},
{"geometry": {"type": "Point", "coordinates": [-89.5228642421, 44.1334723363]}, "type": "Feature", "properties": {"collection_times": [{"days": "Mon-Fri", "time": "2:15pm"}, {"days": "Sat", "time": "8:45am"}, {"days": "Sun", "time": "Closed"}], "id": "5494300001", "name": "USPS COLLECTION BOX - PO LOBBY", "address": {"city": "HANCOCK", "state": "WI", "street": "127 W NORTH LAKE ST", "postcode": "54943"}}},
{"geometry": {"type": "Point", "coordinates": [-88.6392993457, 44.335182388]}, "type": "Feature", "properties": {"collection_times": [{"days": "Mon-Fri", "time": "4:15pm"}, {"days": "Sat", "time": "10:15am"}, {"days": "Sun", "time": "Closed"}], "id": "5494400000", "name": "USPS COLLECTION BOX - PO LOBBY", "address": {"city": "HORTONVILLE", "state": "WI", "street": "119 N PINE ST", "postcode": "54944"}}},
{"geometry": {"type": "Point", "coordinates": [-88.6392993457, 44.335182388]}, "type": "Feature", "properties": {"collection_times": [{"days": "Mon-Fri", "time": "4:15pm"}, {"days": "Sat", "time": "10:15am"}, {"days": "Sun", "time": "Closed"}], "id": "5494400001", "name": "USPS COLLECTION BOX - BLUE BOX", "address": {"city": "HORTONVILLE", "state": "WI", "street": "119 N PINE ST", "postcode": "54944"}}},
{"geometry": {"type": "Point", "coordinates": [-88.6392993457, 44.335182388]}, "type": "Feature", "properties": {"collection_times": [{"days": "Mon-Fri", "time": "4:15pm"}, {"days": "Sat", "time": "10:15am"}, {"days": "Sun", "time": "Closed"}], "id": "5494400002", "name": "USPS COLLECTION BOX - PO LOBBY", "address": {"city": "HORTONVILLE", "state": "WI", "street": "119 N PINE ST", "postcode": "54944"}}},
{"geometry": {"type": "Point", "coordinates": [-89.1308024916, 44.5080505469]}, "type": "Feature", "properties": {"collection_times": [{"days": "Mon-Fri", "time": "4:45pm"}, {"days": "Sat", "time": "11:00am"}, {"days": "Sun", "time": "Closed"}], "id": "5494500000", "name": "USPS COLLECTION BOX - BLUE BOX", "address": {"city": "IOLA", "state": "WI", "street": "190 N MAIN ST", "postcode": "54945"}}},
{"geometry": {"type": "Point", "coordinates": [-89.1308024916, 44.5080505469]}, "type": "Feature", "properties": {"collection_times": [{"days": "Mon-Fri", "time": "4:45pm"}, {"days": "Sat", "time": "11:00am"}, {"days": "Sun", "time": "Closed"}], "id": "5494500001", "name": "USPS COLLECTION BOX - PO LOBBY", "address": {"city": "IOLA", "state": "WI", "street": "190 N MAIN ST", "postcode": "54945"}}},
{"geometry": {"type": "Point", "coordinates": [-89.1308024916, 44.5080505469]}, "type": "Feature", "properties": {"collection_times": [{"days": "Mon-Fri", "time": "4:45pm"}, {"days": "Sat", "time": "11:00am"}, {"days": "Sun", "time": "Closed"}], "id": "5494500002", "name": "USPS COLLECTION BOX - PO LOBBY", "address": {"city": "IOLA", "state": "WI", "street": "190 N MAIN ST", "postcode": "54945"}}},
{"geometry": {"type": "Point", "coordinates": [-89.11832856, 44.3548983478]}, "type": "Feature", "properties": {"collection_times": [{"days": "Mon-Fri", "time": "4:30pm"}, {"days": "Sat", "time": "10:00am"}, {"days": "Sun", "time": "Closed"}], "id": "5494600000", "name": "USPS COLLECTION BOX - BLUE BOX", "address": {"city": "KING", "state": "WI", "street": "300 CUMBERLIDGE AVE", "postcode": "54946"}}},
{"geometry": {"type": "Point", "coordinates": [-89.11832856, 44.3548983478]}, "type": "Feature", "properties": {"collection_times": [{"days": "Mon-Fri", "time": "3:45pm"}, {"days": "Sat", "time": "10:00am"}, {"days": "Sun", "time": "Closed"}], "id": "5494600001", "name": "USPS COLLECTION BOX - PO LOBBY", "address": {"city": "KING", "state": "WI", "street": "300 CUMBERLIDGE AVE", "postcode": "54946"}}},
{"geometry": {"type": "Point", "coordinates": [-88.6211876524, 44.19097844]}, "type": "Feature", "properties": {"collection_times": [{"days": "Mon-Fri", "time": "3:45pm"}, {"days": "Sat", "time": "9:45am"}, {"days": "Sun", "time": "Closed"}], "id": "5494700001", "name": "USPS COLLECTION BOX - BLUE BOX", "address": {"city": "LARSEN", "state": "WI", "street": "8284 COUNTY ROAD T", "postcode": "54947"}}},
{"geometry": {"type": "Point", "coordinates": [-88.6640019981, 44.1986944334]}, "type": "Feature", "properties": {"collection_times": [{"days": "Mon-Sat", "time": "11:30am"}, {"days": "Sun", "time": "Closed"}], "id": "5494700003", "name": "USPS COLLECTION BOX - BLUE BOX", "address": {"city": "LARSEN", "state": "WI", "street": "5291 COUNTY ROAD II", "postcode": "54947"}}},
{"geometry": {"type": "Point", "coordinates": [-88.6227403714, 44.1912506121]}, "type": "Feature", "properties": {"collection_times": [{"days": "Mon-Fri", "time": "2:15pm"}, {"days": "Sat", "time": "9:45am"}, {"days": "Sun", "time": "Closed"}], "id": "5494700004", "name": "USPS COLLECTION BOX - PO LOBBY", "address": {"city": "LARSEN", "state": "WI", "street": "8284 COUNTY ROAD T", "postcode": "54947"}}},
{"geometry": {"type": "Point", "coordinates": [-88.6227403714, 44.1912506121]}, "type": "Feature", "properties": {"collection_times": [{"days": "Mon-Fri", "time": "2:15pm"}, {"days": "Sat", "time": "9:45am"}, {"days": "Sun", "time": "Closed"}], "id": "5494700005", "name": "USPS COLLECTION BOX - PO LOBBY", "address": {"city": "LARSEN", "state": "WI", "street": "8284 COUNTY ROAD T", "postcode": "54947"}}},
{"geometry": {"type": "Point", "coordinates": [-88.8730999947, 44.7787787402]}, "type": "Feature", "properties": {"collection_times": [{"days": "Mon-Fri", "time": "4:30pm"}, {"days": "Sat", "time": "10:45am"}, {"days": "Sun", "time": "Closed"}], "id": "5494800000", "name": "USPS COLLECTION BOX - BLUE BOX", "address": {"city": "LEOPOLIS", "state": "WI", "street": "N4952 4TH ST", "postcode": "54948"}}},
{"geometry": {"type": "Point", "coordinates": [-88.8730999947, 44.7787787402]}, "type": "Feature", "properties": {"collection_times": [{"days": "Mon-Fri", "time": "11:45am"}, {"days": "Sat", "time": "11:30am"}, {"days": "Sun", "time": "Closed"}], "id": "5494800001", "name": "USPS COLLECTION BOX - PO LOBBY", "address": {"city": "LEOPOLIS", "state": "WI", "street": "N4952 4TH ST", "postcode": "54948"}}},
{"geometry": {"type": "Point", "coordinates": [-88.9195696753, 44.4641224264]}, "type": "Feature", "properties": {"collection_times": [{"days": "Mon-Fri", "time": "4:30pm"}, {"days": "Sat", "time": "11:30am"}, {"days": "Sun", "time": "Closed"}], "id": "5494900000", "name": "USPS COLLECTION BOX - BLUE BOX", "address": {"city": "MANAWA", "state": "WI", "street": "129 UNION ST", "postcode": "54949"}}},
{"geometry": {"type": "Point", "coordinates": [-88.9195696753, 44.4641224264]}, "type": "Feature", "properties": {"collection_times": [{"days": "Mon-Fri", "time": "4:30pm"}, {"days": "Sat", "time": "11:30am"}, {"days": "Sun", "time": "Closed"}], "id": "5494900001", "name": "USPS COLLECTION BOX - PO LOBBY", "address": {"city": "MANAWA", "state": "WI", "street": "129 UNION ST", "postcode": "54949"}}},
{"geometry": {"type": "Point", "coordinates": [-88.9195696753, 44.4641224264]}, "type": "Feature", "properties": {"collection_times": [{"days": "Mon-Fri", "time": "4:30pm"}, {"days": "Sat", "time": "11:30am"}, {"days": "Sun", "time": "Closed"}], "id": "5494900002", "name": "USPS COLLECTION BOX - PO LOBBY", "address": {"city": "MANAWA", "state": "WI", "street": "129 UNION ST", "postcode": "54949"}}},
{"geometry": {"type": "Point", "coordinates": [-88.8886071305, 44.6721878216]}, "type": "Feature", "properties": {"collection_times": [{"days": "Mon-Fri", "time": "4:30pm"}, {"days": "Sat", "time": "10:45am"}, {"days": "Sun", "time": "Closed"}], "id": "5495000000", "name": "USPS COLLECTION BOX - BLUE BOX", "address": {"city": "MARION", "state": "WI", "street": "238 N MAIN ST", "postcode": "54950"}}},
{"geometry": {"type": "Point", "coordinates": [-88.8888723205, 44.6718406933]}, "type": "Feature", "properties": {"collection_times": [{"days": "Mon-Fri", "time": "4:30pm"}, {"days": "Sat", "time": "10:45am"}, {"days": "Sun", "time": "Closed"}], "id": "5495000003", "name": "USPS COLLECTION BOX - PO LOBBY", "address": {"city": "MARION", "state": "WI", "street": "238 N MAIN ST", "postcode": "54950"}}},
{"geometry": {"type": "Point", "coordinates": [-88.8888723205, 44.6718406933]}, "type": "Feature", "properties": {"collection_times": [{"days": "Mon-Fri", "time": "4:30pm"}, {"days": "Sat", "time": "10:45am"}, {"days": "Sun", "time": "Closed"}], "id": "5495000004", "name": "USPS COLLECTION BOX - PO LOBBY", "address": {"city": "MARION", "state": "WI", "street": "238 N MAIN ST", "postcode": "54950"}}},
{"geometry": {"type": "Point", "coordinates": [-88.4244357161, 44.2260252183]}, "type": "Feature", "properties": {"collection_times": [{"days": "Mon-Fri", "time": "2:30pm"}, {"days": "Sat", "time": "11:00am"}, {"days": "Sun", "time": "Closed"}], "id": "5495200009", "name": "USPS COLLECTION BOX - BLUE BOX", "address": {"city": "MENASHA", "state": "WI", "street": "1325 APPLETON RD", "postcode": "54952"}}},
{"geometry": {"type": "Point", "coordinates": [-88.4241002679, 44.2320567816]}, "type": "Feature", "properties": {"collection_times": [{"days": "Mon-Fri", "time": "2:30pm"}, {"days": "Sat", "time": "11:00am"}, {"days": "Sun", "time": "Closed"}], "id": "5495200010", "name": "USPS COLLECTION BOX - BLUE BOX", "address": {"city": "MENASHA", "state": "WI", "street": "1700 APPLETON RD", "postcode": "54952"}}},
{"geometry": {"type": "Point", "coordinates": [-88.4290793749, 44.2296500519]}, "type": "Feature", "properties": {"collection_times": [{"days": "Mon-Fri", "time": "2:30pm"}, {"days": "Sat", "time": "11:00am"}, {"days": "Sun", "time": "Closed"}], "id": "5495200012", "name": "USPS COLLECTION BOX - BLUE BOX", "address": {"city": "MENASHA", "state": "WI", "street": "1487 KENWOOD CTR", "postcode": "54952"}}},
{"geometry": {"type": "Point", "coordinates": [-88.4241685438, 44.2358102879]}, "type": "Feature", "properties": {"collection_times": [{"days": "Mon-Fri", "time": "2:30pm"}, {"days": "Sat", "time": "12:00pm"}, {"days": "Sun", "time": "Closed"}], "id": "5495200019", "name": "USPS COLLECTION BOX - BLUE BOX", "address": {"city": "MENASHA", "state": "WI", "street": "1800 APPLETON RD", "postcode": "54952"}}},
{"geometry": {"type": "Point", "coordinates": [-88.4497326457, 44.2007297789]}, "type": "Feature", "properties": {"collection_times": [{"days": "Mon-Sat", "time": "2:30pm"}, {"days": "Sun", "time": "Closed"}], "id": "5495200030", "name": "USPS COLLECTION BOX - BLUE BOX", "address": {"city": "MENASHA", "state": "WI", "street": "140 MAIN ST", "postcode": "54952"}}},
{"geometry": {"type": "Point", "coordinates": [-88.4462175534, 44.2020438064]}, "type": "Feature", "properties": {"collection_times": [{"days": "Mon-Fri", "time": "2:30pm"}, {"days": "Sat", "time": "12:00pm"}, {"days": "Sun", "time": "Closed"}], "id": "5495200034", "name": "USPS COLLECTION BOX - BLUE BOX", "address": {"city": "MENASHA", "state": "WI", "street": "84 RACINE ST", "postcode": "54952"}}},
{"geometry": {"type": "Point", "coordinates": [-88.4458183501, 44.2020700915]}, "type": "Feature", "properties": {"collection_times": [{"days": "Mon-Sat", "time": "2:30pm"}, {"days": "Sun", "time": "Closed"}], "id": "5495200036", "name": "USPS COLLECTION BOX - BLUE BOX", "address": {"city": "MENASHA", "state": "WI", "street": "508 BROAD ST", "postcode": "54952"}}},
{"geometry": {"type": "Point", "coordinates": [-88.4459110213, 44.2020572306]}, "type": "Feature", "properties": {"collection_times": [{"days": "Mon-Sat", "time": "2:30pm"}, {"days": "Sun", "time": "Closed"}], "id": "5495200044", "name": "USPS COLLECTION BOX - BLUE BOX", "address": {"city": "MENASHA", "state": "WI", "street": "508 BROAD ST", "postcode": "54952"}}},
{"geometry": {"type": "Point", "coordinates": [-88.4459110213, 44.2020572306]}, "type": "Feature", "properties": {"collection_times": [{"days": "Mon-Sat", "time": "2:30pm"}, {"days": "Sun", "time": "Closed"}], "id": "5495200045", "name": "USPS COLLECTION BOX - BLUE BOX", "address": {"city": "MENASHA", "state": "WI", "street": "508 BROAD ST", "postcode": "54952"}}},
{"geometry": {"type": "Point", "coordinates": [-88.4290793749, 44.2296500519]}, "type": "Feature", "properties": {"collection_times": [{"days": "Mon-Fri", "time": "2:30pm"}, {"days": "Sat", "time": "11:00am"}, {"days": "Sun", "time": "Closed"}], "id": "5495200046", "name": "USPS COLLECTION BOX - BLUE BOX", "address": {"city": "MENASHA", "state": "WI", "street": "1487 KENWOOD CTR", "postcode": "54952"}}},
{"geometry": {"type": "Point", "coordinates": [-88.4443873408, 44.2141765152]}, "type": "Feature", "properties": {"collection_times": [{"days": "Mon-Sat", "time": "2:30pm"}, {"days": "Sun", "time": "Closed"}], "id": "5495200047", "name": "USPS COLLECTION BOX - BLUE BOX", "address": {"city": "MENASHA", "state": "WI", "street": "849 WARSAW ST", "postcode": "54952"}}},
{"geometry": {"type": "Point", "coordinates": [-88.4462175534, 44.2020438064]}, "type": "Feature", "properties": {"collection_times": [{"days": "Mon-Fri", "time": "5:00pm"}, {"days": "Sat", "time": "12:00pm"}, {"days": "Sun", "time": "Closed"}], "id": "5495200048", "name": "USPS COLLECTION BOX - PO LOBBY", "address": {"city": "MENASHA", "state": "WI", "street": "84 RACINE ST", "postcode": "54952"}}},
{"geometry": {"type": "Point", "coordinates": [-88.4462175534, 44.2020438064]}, "type": "Feature", "properties": {"collection_times": [{"days": "Mon-Fri", "time": "5:00pm"}, {"days": "Sat", "time": "12:00pm"}, {"days": "Sun", "time": "Closed"}], "id": "5495200049", "name": "USPS COLLECTION BOX - PO LOBBY", "address": {"city": "MENASHA", "state": "WI", "street": "84 RACINE ST", "postcode": "54952"}}},
{"geometry": {"type": "Point", "coordinates": [-88.4641218019, 44.1845434555]}, "type": "Feature", "properties": {"collection_times": [{"days": "Mon-Fri", "time": "5:45pm"}, {"days": "Sat", "time": "4:45pm"}, {"days": "Sun", "time": "Closed"}], "id": "5495600000", "name": "USPS COLLECTION BOX - BLUE BOX", "address": {"city": "NEENAH", "state": "WI", "street": "130 W FRANKLIN AVE", "postcode": "54956"}}},
{"geometry": {"type": "Point", "coordinates": [-88.4643635907, 44.1846939146]}, "type": "Feature", "properties": {"collection_times": [{"days": "Mon-Fri", "time": "5:45pm"}, {"days": "Sat", "time": "4:45pm"}, {"days": "Sun", "time": "Closed"}], "id": "5495600001", "name": "USPS COLLECTION BOX - BLUE BOX", "address": {"city": "NEENAH", "state": "WI", "street": "130 W FRANKLIN AVE", "postcode": "54956"}}},
{"geometry": {"type": "Point", "coordinates": [-88.464363643, 44.184693579]}, "type": "Feature", "properties": {"collection_times": [{"days": "Mon-Fri", "time": "5:45pm"}, {"days": "Sat", "time": "4:45pm"}, {"days": "Sun", "time": "Closed"}], "id": "5495600002", "name": "USPS COLLECTION BOX - PO LOBBY", "address": {"city": "NEENAH", "state": "WI", "street": "130 W FRANKLIN AVE", "postcode": "54956"}}},
{"geometry": {"type": "Point", "coordinates": [-88.4643635907, 44.1846939146]}, "type": "Feature", "properties": {"collection_times": [{"days": "Mon-Fri", "time": "5:45pm"}, {"days": "Sat", "time": "4:45pm"}, {"days": "Sun", "time": "Closed"}], "id": "5495600003", "name": "USPS COLLECTION BOX - BLUE BOX", "address": {"city": "NEENAH", "state": "WI", "street": "130 W FRANKLIN AVE", "postcode": "54956"}}},
{"geometry": {"type": "Point", "coordinates": [-88.4643635907, 44.1846939146]}, "type": "Feature", "properties": {"collection_times": [{"days": "Mon-Fri", "time": "5:45pm"}, {"days": "Sat", "time": "4:45pm"}, {"days": "Sun", "time": "Closed"}], "id": "5495600004", "name": "USPS COLLECTION BOX - BLUE BOX", "address": {"city": "NEENAH", "state": "WI", "street": "130 W FRANKLIN AVE", "postcode": "54956"}}},
{"geometry": {"type": "Point", "coordinates": [-88.4694951353, 44.2345173363]}, "type": "Feature", "properties": {"collection_times": [{"days": "Mon-Fri", "time": "2:00pm"}, {"days": "Sat", "time": "1:00pm"}, {"days": "Sun", "time": "Closed"}], "id": "5495600006", "name": "USPS COLLECTION BOX - BLUE BOX", "address": {"city": "NEENAH", "state": "WI", "street": "2225 AMERICAN DR", "postcode": "54956"}}},
{"geometry": {"type": "Point", "coordinates": [-88.4576743517, 44.1905797759]}, "type": "Feature", "properties": {"collection_times": [{"days": "Mon-Fri", "time": "2:00pm"}, {"days": "Sat", "time": "1:00pm"}, {"days": "Sun", "time": "Closed"}], "id": "5495600016", "name": "USPS COLLECTION BOX - BLUE BOX", "address": {"city": "NEENAH", "state": "WI", "street": "325 N COMMERCIAL ST", "postcode": "54956"}}},
{"geometry": {"type": "Point", "coordinates": [-88.4648101049, 44.1652945106]}, "type": "Feature", "properties": {"collection_times": [{"days": "Mon-Fri", "time": "2:00pm"}, {"days": "Sat", "time": "1:00pm"}, {"days": "Sun", "time": "Closed"}], "id": "5495600018", "name": "USPS COLLECTION BOX - BLUE BOX", "address": {"city": "NEENAH", "state": "WI", "street": "1112 S COMMERCIAL ST", "postcode": "54956"}}},
{"geometry": {"type": "Point", "coordinates": [-88.463350086, 44.1549251711]}, "type": "Feature", "properties": {"collection_times": [{"days": "Mon-Fri", "time": "3:00pm"}, {"days": "Sat", "time": "1:00pm"}, {"days": "Sun", "time": "Closed"}], "id": "5495600019", "name": "USPS COLLECTION BOX - BLUE BOX", "address": {"city": "NEENAH", "state": "WI", "street": "101 E BELL ST", "postcode": "54956"}}},
{"geometry": {"type": "Point", "coordinates": [-88.4850316783, 44.1736394797]}, "type": "Feature", "properties": {"collection_times": [{"days": "Mon-Fri", "time": "2:00pm"}, {"days": "Sat", "time": "1:00pm"}, {"days": "Sun", "time": "Closed"}], "id": "5495600024", "name": "USPS COLLECTION BOX - BLUE BOX", "address": {"city": "NEENAH", "state": "WI", "street": "699 S GREEN BAY RD", "postcode": "54956"}}},
{"geometry": {"type": "Point", "coordinates": [-88.4848841234, 44.1724189949]}, "type": "Feature", "properties": {"collection_times": [{"days": "Mon-Fri", "time": "2:00pm"}, {"days": "Sat", "time": "1:00pm"}, {"days": "Sun", "time": "Closed"}], "id": "5495600026", "name": "USPS COLLECTION BOX - BLUE BOX", "address": {"city": "NEENAH", "state": "WI", "street": "848 S GREEN BAY RD", "postcode": "54956"}}},
{"geometry": {"type": "Point", "coordinates": [-88.4748807949, 44.1542083871]}, "type": "Feature", "properties": {"collection_times": [{"days": "Mon-Fri", "time": "2:00pm"}, {"days": "Sat", "time": "10:00am"}, {"days": "Sun", "time": "Closed"}], "id": "5495600030", "name": "USPS COLLECTION BOX - BLUE BOX", "address": {"city": "NEENAH", "state": "WI", "street": "2361 INDUSTRIAL DR", "postcode": "54956"}}},
{"geometry": {"type": "Point", "coordinates": [-88.4748393542, 44.1520761933]}, "type": "Feature", "properties": {"collection_times": [{"days": "Mon-Fri", "time": "2:00pm"}, {"days": "Sat", "time": "10:00am"}, {"days": "Sun", "time": "Closed"}], "id": "5495600032", "name": "USPS COLLECTION BOX - BLUE BOX", "address": {"city": "NEENAH", "state": "WI", "street": "2415 INDUSTRIAL DR", "postcode": "54956"}}},
{"geometry": {"type": "Point", "coordinates": [-88.4748393542, 44.1520761933]}, "type": "Feature", "properties": {"collection_times": [{"days": "Mon-Fri", "time": "2:00pm"}, {"days": "Sat", "time": "10:00am"}, {"days": "Sun", "time": "Closed"}], "id": "5495600033", "name": "USPS COLLECTION BOX - BLUE BOX", "address": {"city": "NEENAH", "state": "WI", "street": "2415 INDUSTRIAL DR", "postcode": "54956"}}},
{"geometry": {"type": "Point", "coordinates": [-88.453412183, 44.1867500862]}, "type": "Feature", "properties": {"collection_times": [{"days": "Mon-Fri", "time": "2:00pm"}, {"days": "Sat", "time": "1:00pm"}, {"days": "Sun", "time": "Closed"}], "id": "5495600042", "name": "USPS COLLECTION BOX - BLUE BOX", "address": {"city": "NEENAH", "state": "WI", "street": "200 THEDA CLARK MEDICAL PLZ", "postcode": "54956"}}},
{"geometry": {"type": "Point", "coordinates": [-88.504025745, 44.2041366551]}, "type": "Feature", "properties": {"collection_times": [{"days": "Mon-Sat", "time": "10:00am"}, {"days": "Sun", "time": "Closed"}], "id": "5495600045", "name": "USPS COLLECTION BOX - BLUE BOX", "address": {"city": "NEENAH", "state": "WI", "street": "1700 WENDY WAY", "postcode": "54956"}}},
{"geometry": {"type": "Point", "coordinates": [-88.46195815, 44.1867171575]}, "type": "Feature", "properties": {"collection_times": [{"days": "Mon-Fri", "time": "2:00pm"}, {"days": "Sat", "time": "1:00pm"}, {"days": "Sun", "time": "Closed"}], "id": "5495600047", "name": "USPS COLLECTION BOX - BLUE BOX", "address": {"city": "NEENAH", "state": "WI", "street": "125 W WISCONSIN AVE", "postcode": "54956"}}},
{"geometry": {"type": "Point", "coordinates": [-88.4990766536, 44.202625835]}, "type": "Feature", "properties": {"collection_times": [{"days": "Mon-Sat", "time": "3:00pm"}, {"days": "Sun", "time": "Closed"}], "id": "5495600060", "name": "USPS COLLECTION BOX - BLUE BOX", "address": {"city": "NEENAH", "state": "WI", "street": "1370 JACOBSEN RD", "postcode": "54956"}}},
{"geometry": {"type": "Point", "coordinates": [-88.4990766536, 44.202625835]}, "type": "Feature", "properties": {"collection_times": [{"days": "Mon-Fri", "time": "2:00pm"}, {"days": "Sat", "time": "10:00am"}, {"days": "Sun", "time": "Closed"}], "id": "5495600061", "name": "USPS COLLECTION BOX - BLUE BOX", "address": {"city": "NEENAH", "state": "WI", "street": "799 DEERWOOD AVE", "postcode": "54956"}}},
{"geometry": {"type": "Point", "coordinates": [-88.4916594115, 44.1752921191]}, "type": "Feature", "properties": {"collection_times": [{"days": "Mon-Fri", "time": "2:00pm"}, {"days": "Sat", "time": "1:00pm"}, {"days": "Sun", "time": "Closed"}], "id": "5495600067", "name": "USPS COLLECTION BOX - BLUE BOX", "address": {"city": "NEENAH", "state": "WI", "street": "1155 W WINNECONNE AVE", "postcode": "54956"}}},
{"geometry": {"type": "Point", "coordinates": [-88.4641218019, 44.1845434555]}, "type": "Feature", "properties": {"collection_times": [{"days": "Mon-Fri", "time": "5:45pm"}, {"days": "Sat", "time": "4:45pm"}, {"days": "Sun", "time": "Closed"}], "id": "5495600069", "name": "USPS COLLECTION BOX - APC", "address": {"city": "NEENAH", "state": "WI", "street": "130 W FRANKLIN AVE", "postcode": "54956"}}},
{"geometry": {"type": "Point", "coordinates": [-88.49463822, 44.2144216976]}, "type": "Feature", "properties": {"collection_times": [{"days": "Mon-Sat", "time": "3:00pm"}, {"days": "Sun", "time": "Closed"}], "id": "5495600074", "name": "USPS COLLECTION BOX - BLUE BOX", "address": {"city": "NEENAH", "state": "WI", "street": "1370 JACOBSEN RD", "postcode": "54956"}}},
{"geometry": {"type": "Point", "coordinates": [-89.2186560369, 43.9600115591]}, "type": "Feature", "properties": {"collection_times": [{"days": "Mon-Fri", "time": "4:00pm"}, {"days": "Sat", "time": "12:15pm"}, {"days": "Sun", "time": "Closed"}], "id": "5496000000", "name": "USPS COLLECTION BOX - BLUE BOX", "address": {"city": "NESHKORO", "state": "WI", "street": "317 S MAIN ST", "postcode": "54960"}}},
{"geometry": {"type": "Point", "coordinates": [-89.2185037287, 43.9600129467]}, "type": "Feature", "properties": {"collection_times": [{"days": "Mon-Fri", "time": "4:00pm"}, {"days": "Sat", "time": "12:15pm"}, {"days": "Sun", "time": "Closed"}], "id": "5496000001", "name": "USPS COLLECTION BOX - PO LOBBY", "address": {"city": "NESHKORO", "state": "WI", "street": "316 S MAIN ST", "postcode": "54960"}}},
{"geometry": {"type": "Point", "coordinates": [-88.7331810659, 44.3816307694]}, "type": "Feature", "properties": {"collection_times": [{"days": "Mon-Sat", "time": "11:00am"}, {"days": "Sun", "time": "Closed"}], "id": "5496100005", "name": "USPS COLLECTION BOX - BLUE BOX", "address": {"city": "NEW LONDON", "state": "WI", "street": "1405 MILL ST", "postcode": "54961"}}},
{"geometry": {"type": "Point", "coordinates": [-88.7451946109, 44.396381308]}, "type": "Feature", "properties": {"collection_times": [{"days": "Mon-Sat", "time": "10:00am"}, {"days": "Sun", "time": "Closed"}], "id": "5496100007", "name": "USPS COLLECTION BOX - BLUE BOX", "address": {"city": "NEW LONDON", "state": "WI", "street": "308 N SHAWANO ST", "postcode": "54961"}}},
{"geometry": {"type": "Point", "coordinates": [-88.7395526068, 44.3913145108]}, "type": "Feature", "properties": {"collection_times": [{"days": "Mon-Fri", "time": "5:00pm"}, {"days": "Sat", "time": "12:00pm"}, {"days": "Sun", "time": "Closed"}], "id": "5496100013", "name": "USPS COLLECTION BOX - BLUE BOX", "address": {"city": "NEW LONDON", "state": "WI", "street": "208 S PEARL ST", "postcode": "54961"}}},
{"geometry": {"type": "Point", "coordinates": [-88.7395526068, 44.3913145108]}, "type": "Feature", "properties": {"collection_times": [{"days": "Mon-Fri", "time": "5:00pm"}, {"days": "Sat", "time": "12:00pm"}, {"days": "Sun", "time": "Closed"}], "id": "5496100014", "name": "USPS COLLECTION BOX - BLUE BOX", "address": {"city": "NEW LONDON", "state": "WI", "street": "208 S PEARL ST", "postcode": "54961"}}},
{"geometry": {"type": "Point", "coordinates": [-88.7395526068, 44.3913145108]}, "type": "Feature", "properties": {"collection_times": [{"days": "Mon-Fri", "time": "5:00pm"}, {"days": "Sat", "time": "12:00pm"}, {"days": "Sun", "time": "Closed"}], "id": "5496100015", "name": "USPS COLLECTION BOX - BLUE BOX", "address": {"city": "NEW LONDON", "state": "WI", "street": "208 S PEARL ST", "postcode": "54961"}}},
{"geometry": {"type": "Point", "coordinates": [-88.7396321934, 44.3910883287]}, "type": "Feature", "properties": {"collection_times": [{"days": "Mon-Fri", "time": "5:00pm"}, {"days": "Sat", "time": "12:00pm"}, {"days": "Sun", "time": "Closed"}], "id": "5496100016", "name": "USPS COLLECTION BOX - BLUE BOX", "address": {"city": "NEW LONDON", "state": "WI", "street": "208 S PEARL ST", "postcode": "54961"}}},
{"geometry": {"type": "Point", "coordinates": [-88.7395526068, 44.3913145108]}, "type": "Feature", "properties": {"collection_times": [{"days": "Mon-Fri", "time": "5:00pm"}, {"days": "Sat", "time": "12:00pm"}, {"days": "Sun", "time": "Closed"}], "id": "5496100017", "name": "USPS COLLECTION BOX - PO LOBBY", "address": {"city": "NEW LONDON", "state": "WI", "street": "208 S PEARL ST", "postcode": "54961"}}},
{"geometry": {"type": "Point", "coordinates": [-88.7420107146, 44.4051906505]}, "type": "Feature", "properties": {"collection_times": [{"days": "Mon-Sat", "time": "9:00am"}, {"days": "Sun", "time": "Closed"}], "id": "5496100019", "name": "USPS COLLECTION BOX - BLUE BOX", "address": {"city": "NEW LONDON", "state": "WI", "street": "1280 N SHAWANO ST", "postcode": "54961"}}},
{"geometry": {"type": "Point", "coordinates": [-89.0316687757, 44.4509287027]}, "type": "Feature", "properties": {"collection_times": [{"days": "Mon-Fri", "time": "4:45pm"}, {"days": "Sat", "time": "10:00am"}, {"days": "Sun", "time": "Closed"}], "id": "5496200000", "name": "USPS COLLECTION BOX - BLUE BOX", "address": {"city": "OGDENSBURG", "state": "WI", "street": "306 WASHINGTON ST", "postcode": "54962"}}},
{"geometry": {"type": "Point", "coordinates": [-89.0316687757, 44.4509287027]}, "type": "Feature", "properties": {"collection_times": [{"days": "Mon-Fri", "time": "11:45am"}, {"days": "Sat", "time": "9:45am"}, {"days": "Sun", "time": "Closed"}], "id": "5496200001", "name": "USPS COLLECTION BOX - PO LOBBY", "address": {"city": "OGDENSBURG", "state": "WI", "street": "306 WASHINGTON ST", "postcode": "54962"}}},
{"geometry": {"type": "Point", "coordinates": [-89.0316687757, 44.4509287027]}, "type": "Feature", "properties": {"collection_times": [{"days": "Mon-Fri", "time": "11:45am"}, {"days": "Sat", "time": "9:45am"}, {"days": "Sun", "time": "Closed"}], "id": "5496200002", "name": "USPS COLLECTION BOX - PO LOBBY", "address": {"city": "OGDENSBURG", "state": "WI", "street": "306 WASHINGTON ST", "postcode": "54962"}}},
{"geometry": {"type": "Point", "coordinates": [-88.7446348291, 44.0384324241]}, "type": "Feature", "properties": {"collection_times": [{"days": "Mon-Fri", "time": "5:00pm"}, {"days": "Sat", "time": "11:30am"}, {"days": "Sun", "time": "Closed"}], "id": "5496300000", "name": "USPS COLLECTION BOX - BLUE BOX", "address": {"city": "OMRO", "state": "WI", "street": "204 S WEBSTER AVE", "postcode": "54963"}}},
{"geometry": {"type": "Point", "coordinates": [-88.7445576143, 44.038610462]}, "type": "Feature", "properties": {"collection_times": [{"days": "Mon-Fri", "time": "5:00pm"}, {"days": "Sat", "time": "11:30am"}, {"days": "Sun", "time": "Closed"}], "id": "5496300001", "name": "USPS COLLECTION BOX - BLUE BOX", "address": {"city": "OMRO", "state": "WI", "street": "198 S WEBSTER AVE", "postcode": "54963"}}},
{"geometry": {"type": "Point", "coordinates": [-88.7399709644, 44.0393715892]}, "type": "Feature", "properties": {"collection_times": [{"days": "Mon-Sat", "time": "1:00pm"}, {"days": "Sun", "time": "Closed"}], "id": "5496300007", "name": "USPS COLLECTION BOX - BLUE BOX", "address": {"city": "OMRO", "state": "WI", "street": "328 E MAIN ST", "postcode": "54963"}}},
{"geometry": {"type": "Point", "coordinates": [-88.7358265166, 44.0394284756]}, "type": "Feature", "properties": {"collection_times": [{"days": "Mon-Sat", "time": "1:00pm"}, {"days": "Sun", "time": "Closed"}], "id": "5496300009", "name": "USPS COLLECTION BOX - BLUE BOX", "address": {"city": "OMRO", "state": "WI", "street": "604 E MAIN ST", "postcode": "54963"}}},
{"geometry": {"type": "Point", "coordinates": [-88.7446348291, 44.0384324241]}, "type": "Feature", "properties": {"collection_times": [{"days": "Mon-Fri", "time": "5:00pm"}, {"days": "Sat", "time": "11:30am"}, {"days": "Sun", "time": "Closed"}], "id": "5496300010", "name": "USPS COLLECTION BOX - PO LOBBY", "address": {"city": "OMRO", "state": "WI", "street": "204 S WEBSTER AVE", "postcode": "54963"}}},
{"geometry": {"type": "Point", "coordinates": [-88.7203959999, 44.0393421196]}, "type": "Feature", "properties": {"collection_times": [{"days": "Mon-Fri", "time": "1:00pm"}, {"days": "Sat", "time": "11:30am"}, {"days": "Sun", "time": "Closed"}], "id": "5496300011", "name": "USPS COLLECTION BOX - BLUE BOX", "address": {"city": "OMRO", "state": "WI", "street": "142 ALDER AVE", "postcode": "54963"}}},
{"geometry": {"type": "Point", "coordinates": [-88.7446348291, 44.0384324241]}, "type": "Feature", "properties": {"collection_times": [{"days": "Mon-Fri", "time": "5:00pm"}, {"days": "Sat", "time": "11:30am"}, {"days": "Sun", "time": "Closed"}], "id": "5496300012", "name": "USPS COLLECTION BOX - PO LOBBY", "address": {"city": "OMRO", "state": "WI", "street": "204 S WEBSTER AVE", "postcode": "54963"}}},
{"geometry": {"type": "Point", "coordinates": [-88.7308737, 43.910904841]}, "type": "Feature", "properties": {"collection_times": [{"days": "Mon-Fri", "time": "4:00pm"}, {"days": "Sat", "time": "10:00am"}, {"days": "Sun", "time": "Closed"}], "id": "5496400000", "name": "USPS COLLECTION BOX - BLUE BOX", "address": {"city": "PICKETT", "state": "WI", "street": "6642 STATE ROAD 44", "postcode": "54964"}}},
{"geometry": {"type": "Point", "coordinates": [-88.7308737, 43.910904841]}, "type": "Feature", "properties": {"collection_times": [{"days": "Mon-Fri", "time": "11:45am"}, {"days": "Sat", "time": "9:00am"}, {"days": "Sun", "time": "Closed"}], "id": "5496400001", "name": "USPS COLLECTION BOX - PO LOBBY", "address": {"city": "PICKETT", "state": "WI", "street": "6642 STATE ROAD 44", "postcode": "54964"}}},
{"geometry": {"type": "Point", "coordinates": [-89.0768960745, 44.149562599]}, "type": "Feature", "properties": {"collection_times": [{"days": "Mon-Fri", "time": "4:30pm"}, {"days": "Sat", "time": "10:00am"}, {"days": "Sun", "time": "Closed"}], "id": "5496500000", "name": "USPS COLLECTION BOX - BLUE BOX", "address": {"city": "PINE RIVER", "state": "WI", "street": "N4712 COUNTY ROAD E", "postcode": "54965"}}},
{"geometry": {"type": "Point", "coordinates": [-89.0768960745, 44.149562599]}, "type": "Feature", "properties": {"collection_times": [{"days": "Mon-Fri", "time": "11:15am"}, {"days": "Sat", "time": "9:45am"}, {"days": "Sun", "time": "Closed"}], "id": "5496500001", "name": "USPS COLLECTION BOX - PO LOBBY", "address": {"city": "PINE RIVER", "state": "WI", "street": "N4712 COUNTY ROAD E", "postcode": "54965"}}},
{"geometry": {"type": "Point", "coordinates": [-89.0768960745, 44.149562599]}, "type": "Feature", "properties": {"collection_times": [{"days": "Mon-Fri", "time": "11:15am"}, {"days": "Sat", "time": "9:45am"}, {"days": "Sun", "time": "Closed"}], "id": "5496500002", "name": "USPS COLLECTION BOX - PO LOBBY", "address": {"city": "PINE RIVER", "state": "WI", "street": "N4712 COUNTY ROAD E", "postcode": "54965"}}},
{"geometry": {"type": "Point", "coordinates": [-89.4924104292, 44.2137770007]}, "type": "Feature", "properties": {"collection_times": [{"days": "Mon-Fri", "time": "4:30pm"}, {"days": "Sat", "time": "10:00am"}, {"days": "Sun", "time": "Closed"}], "id": "5496600000", "name": "USPS COLLECTION BOX - BLUE BOX", "address": {"city": "PLAINFIELD", "state": "WI", "street": "110 W NORTH ST", "postcode": "54966"}}},
{"geometry": {"type": "Point", "coordinates": [-89.4924104292, 44.2137770007]}, "type": "Feature", "properties": {"collection_times": [{"days": "Mon-Fri", "time": "4:30pm"}, {"days": "Sat", "time": "10:00am"}, {"days": "Sun", "time": "Closed"}], "id": "5496600001", "name": "USPS COLLECTION BOX - PO LOBBY", "address": {"city": "PLAINFIELD", "state": "WI", "street": "110 W NORTH ST", "postcode": "54966"}}},
{"geometry": {"type": "Point", "coordinates": [-89.4924104292, 44.2137770007]}, "type": "Feature", "properties": {"collection_times": [{"days": "Mon-Fri", "time": "4:30pm"}, {"days": "Sat", "time": "10:00am"}, {"days": "Sun", "time": "Closed"}], "id": "5496600003", "name": "USPS COLLECTION BOX - PO LOBBY", "address": {"city": "PLAINFIELD", "state": "WI", "street": "110 W NORTH ST", "postcode": "54966"}}},
{"geometry": {"type": "Point", "coordinates": [-88.9967607202, 44.1341917531]}, "type": "Feature", "properties": {"collection_times": [{"days": "Mon-Fri", "time": "4:30pm"}, {"days": "Sat", "time": "9:45am"}, {"days": "Sun", "time": "Closed"}], "id": "5496700000", "name": "USPS COLLECTION BOX - BLUE BOX", "address": {"city": "POY SIPPI", "state": "WI", "street": "N4396 STATE ROAD 49", "postcode": "54967"}}},
{"geometry": {"type": "Point", "coordinates": [-88.9967607202, 44.1341917531]}, "type": "Feature", "properties": {"collection_times": [{"days": "Mon-Fri", "time": "11:45am"}, {"days": "Sat", "time": "9:30am"}, {"days": "Sun", "time": "Closed"}], "id": "5496700001", "name": "USPS COLLECTION BOX - PO LOBBY", "address": {"city": "POY SIPPI", "state": "WI", "street": "N4396 STATE ROAD 49", "postcode": "54967"}}},
{"geometry": {"type": "Point", "coordinates": [-89.1306924772, 43.8509405261]}, "type": "Feature", "properties": {"collection_times": [{"days": "Mon-Fri", "time": "4:45pm"}, {"days": "Sat", "time": "11:45am"}, {"days": "Sun", "time": "Closed"}], "id": "5496800000", "name": "USPS COLLECTION BOX - BLUE BOX", "address": {"city": "PRINCETON", "state": "WI", "street": "111 S PEARL ST", "postcode": "54968"}}},
{"geometry": {"type": "Point", "coordinates": [-89.1306924772, 43.8509405261]}, "type": "Feature", "properties": {"collection_times": [{"days": "Mon-Fri", "time": "4:45pm"}, {"days": "Sat", "time": "11:45am"}, {"days": "Sun", "time": "Closed"}], "id": "5496800001", "name": "USPS COLLECTION BOX - PO LOBBY", "address": {"city": "PRINCETON", "state": "WI", "street": "111 S PEARL ST", "postcode": "54968"}}},
{"geometry": {"type": "Point", "coordinates": [-89.1306924772, 43.8509405261]}, "type": "Feature", "properties": {"collection_times": [{"days": "Mon-Fri", "time": "4:45pm"}, {"days": "Sat", "time": "11:45am"}, {"days": "Sun", "time": "Closed"}], "id": "5496800002", "name": "USPS COLLECTION BOX - BLUE BOX", "address": {"city": "PRINCETON", "state": "WI", "street": "111 S PEARL ST", "postcode": "54968"}}},
{"geometry": {"type": "Point", "coordinates": [-89.1306924772, 43.8509405261]}, "type": "Feature", "properties": {"collection_times": [{"days": "Mon-Fri", "time": "4:45pm"}, {"days": "Sat", "time": "11:45am"}, {"days": "Sun", "time": "Closed"}], "id": "5496800003", "name": "USPS COLLECTION BOX - PO LOBBY", "address": {"city": "PRINCETON", "state": "WI", "street": "111 S PEARL ST", "postcode": "54968"}}},
{"geometry": {"type": "Point", "coordinates": [-88.77041, 44.272163]}, "type": "Feature", "properties": {"collection_times": [{"days": "Mon-Fri", "time": "4:30pm"}, {"days": "Sat", "time": "9:30am"}, {"days": "Sun", "time": "Closed"}], "id": "5496900000", "name": "USPS COLLECTION BOX - BLUE BOX", "address": {"city": "READFIELD", "state": "WI", "street": "E9090 STATE ROAD 96", "postcode": "54969"}}},
{"geometry": {"type": "Point", "coordinates": [-88.7698213628, 44.2723336891]}, "type": "Feature", "properties": {"collection_times": [{"days": "Mon-Fri", "time": "9:45am"}, {"days": "Sat", "time": "9:30am"}, {"days": "Sun", "time": "Closed"}], "id": "5496900001", "name": "USPS COLLECTION BOX - PO LOBBY", "address": {"city": "READFIELD", "state": "WI", "street": "E9090 STATE ROAD 96", "postcode": "54969"}}},
{"geometry": {"type": "Point", "coordinates": [-89.1019633151, 44.0438318016]}, "type": "Feature", "properties": {"collection_times": [{"days": "Mon-Fri", "time": "4:45pm"}, {"days": "Sat", "time": "10:45am"}, {"days": "Sun", "time": "Closed"}], "id": "5497000000", "name": "USPS COLLECTION BOX - BLUE BOX", "address": {"city": "REDGRANITE", "state": "WI", "street": "130 E BANNERMAN AVE", "postcode": "54970"}}},
{"geometry": {"type": "Point", "coordinates": [-89.1019633151, 44.0438318016]}, "type": "Feature", "properties": {"collection_times": [{"days": "Mon-Fri", "time": "4:15pm"}, {"days": "Sat", "time": "10:45am"}, {"days": "Sun", "time": "Closed"}], "id": "5497000001", "name": "USPS COLLECTION BOX - PO LOBBY", "address": {"city": "REDGRANITE", "state": "WI", "street": "130 E BANNERMAN AVE", "postcode": "54970"}}},
{"geometry": {"type": "Point", "coordinates": [-89.1019633151, 44.0438318016]}, "type": "Feature", "properties": {"collection_times": [{"days": "Mon-Fri", "time": "4:15pm"}, {"days": "Sat", "time": "10:45am"}, {"days": "Sun", "time": "Closed"}], "id": "5497000002", "name": "USPS COLLECTION BOX - PO LOBBY", "address": {"city": "REDGRANITE", "state": "WI", "street": "130 E BANNERMAN AVE", "postcode": "54970"}}},
{"geometry": {"type": "Point", "coordinates": [-88.8582793309, 43.8527894908]}, "type": "Feature", "properties": {"collection_times": [{"days": "Mon-Sat", "time": "1:00pm"}, {"days": "Sun", "time": "Closed"}], "id": "5497100014", "name": "USPS COLLECTION BOX - BLUE BOX", "address": {"city": "RIPON", "state": "WI", "street": "1085 W FOND DU LAC ST", "postcode": "54971"}}},
{"geometry": {"type": "Point", "coordinates": [-88.8374016452, 43.8446606294]}, "type": "Feature", "properties": {"collection_times": [{"days": "Mon-Fri", "time": "5:30pm"}, {"days": "Sat", "time": "1:00pm"}, {"days": "Sun", "time": "Closed"}], "id": "5497100023", "name": "USPS COLLECTION BOX - BLUE BOX", "address": {"city": "RIPON", "state": "WI", "street": "15 W FOND DU LAC ST", "postcode": "54971"}}},
{"geometry": {"type": "Point", "coordinates": [-88.8374016452, 43.8446606294]}, "type": "Feature", "properties": {"collection_times": [{"days": "Mon-Fri", "time": "5:30pm"}, {"days": "Sat", "time": "1:00pm"}, {"days": "Sun", "time": "Closed"}], "id": "5497100024", "name": "USPS COLLECTION BOX - BLUE BOX", "address": {"city": "RIPON", "state": "WI", "street": "15 W FOND DU LAC ST", "postcode": "54971"}}},
{"geometry": {"type": "Point", "coordinates": [-88.8384993676, 43.8453178971]}, "type": "Feature", "properties": {"collection_times": [{"days": "Mon-Fri", "time": "5:30pm"}, {"days": "Sat", "time": "1:00pm"}, {"days": "Sun", "time": "Closed"}], "id": "5497100025", "name": "USPS COLLECTION BOX - BLUE BOX", "address": {"city": "RIPON", "state": "WI", "street": "113 SCOTT ST", "postcode": "54971"}}},
{"geometry": {"type": "Point", "coordinates": [-88.8384993676, 43.8453178971]}, "type": "Feature", "properties": {"collection_times": [{"days": "Mon-Fri", "time": "5:30pm"}, {"days": "Sat", "time": "1:00pm"}, {"days": "Sun", "time": "Closed"}], "id": "5497100026", "name": "USPS COLLECTION BOX - BLUE BOX", "address": {"city": "RIPON", "state": "WI", "street": "113 SCOTT ST", "postcode": "54971"}}},
{"geometry": {"type": "Point", "coordinates": [-88.8370286561, 43.8449346433]}, "type": "Feature", "properties": {"collection_times": [{"days": "Mon-Fri", "time": "5:30pm"}, {"days": "Sat", "time": "12:00pm"}, {"days": "Sun", "time": "Closed"}], "id": "5497100027", "name": "USPS COLLECTION BOX - PO LOBBY", "address": {"city": "RIPON", "state": "WI", "street": "220 BLACKBURN ST", "postcode": "54971"}}},
{"geometry": {"type": "Point", "coordinates": [-88.6799447181, 43.8086047905]}, "type": "Feature", "properties": {"collection_times": [{"days": "Mon-Fri", "time": "4:00pm"}, {"days": "Sat", "time": "10:00am"}, {"days": "Sun", "time": "Closed"}], "id": "5497400000", "name": "USPS COLLECTION BOX - BLUE BOX", "address": {"city": "ROSENDALE", "state": "WI", "street": "181 N GRANT ST", "postcode": "54974"}}},
{"geometry": {"type": "Point", "coordinates": [-88.6799447181, 43.8086047905]}, "type": "Feature", "properties": {"collection_times": [{"days": "Mon-Fri", "time": "3:30pm"}, {"days": "Sat", "time": "10:00am"}, {"days": "Sun", "time": "Closed"}], "id": "5497400001", "name": "USPS COLLECTION BOX - PO LOBBY", "address": {"city": "ROSENDALE", "state": "WI", "street": "181 N GRANT ST", "postcode": "54974"}}},
{"geometry": {"type": "Point", "coordinates": [-88.6799447181, 43.8086047905]}, "type": "Feature", "properties": {"collection_times": [{"days": "Mon-Fri", "time": "3:30pm"}, {"days": "Sat", "time": "10:00am"}, {"days": "Sun", "time": "Closed"}], "id": "5497400002", "name": "USPS COLLECTION BOX - PO LOBBY", "address": {"city": "ROSENDALE", "state": "WI", "street": "181 N GRANT ST", "postcode": "54974"}}},
{"geometry": {"type": "Point", "coordinates": [-88.675030666, 43.807812492]}, "type": "Feature", "properties": {"collection_times": [{"days": "Mon-Fri", "time": "1:00pm"}, {"days": "Sat", "time": "12:00pm"}, {"days": "Sun", "time": "Closed"}], "id": "5497400003", "name": "USPS COLLECTION BOX - BLUE BOX", "address": {"city": "ROSENDALE", "state": "WI", "street": "102 E DIVISION ST", "postcode": "54974"}}},
{"geometry": {"type": "Point", "coordinates": [-89.1146956128, 44.1767944218]}, "type": "Feature", "properties": {"collection_times": [{"days": "Mon-Fri", "time": "4:30pm"}, {"days": "Sat", "time": "12:15pm"}, {"days": "Sun", "time": "Closed"}], "id": "5497600000", "name": "USPS COLLECTION BOX - BLUE BOX", "address": {"city": "SAXEVILLE", "state": "WI", "street": "W4655 PORTAGE ST", "postcode": "54976"}}},
{"geometry": {"type": "Point", "coordinates": [-89.1146956128, 44.1767944218]}, "type": "Feature", "properties": {"collection_times": [{"days": "Mon-Fri", "time": "4:15pm"}, {"days": "Sat", "time": "12:15pm"}, {"days": "Sun", "time": "Closed"}], "id": "5497600001", "name": "USPS COLLECTION BOX - PO LOBBY", "address": {"city": "SAXEVILLE", "state": "WI", "street": "W4655 PORTAGE ST", "postcode": "54976"}}},
{"geometry": {"type": "Point", "coordinates": [-89.1473413385, 44.4588846245]}, "type": "Feature", "properties": {"collection_times": [{"days": "Mon-Fri", "time": "4:30pm"}, {"days": "Sat", "time": "10:30am"}, {"days": "Sun", "time": "Closed"}], "id": "5497700000", "name": "USPS COLLECTION BOX - BLUE BOX", "address": {"city": "SCANDINAVIA", "state": "WI", "street": "345 N MAIN ST", "postcode": "54977"}}},
{"geometry": {"type": "Point", "coordinates": [-89.1473413385, 44.4588846245]}, "type": "Feature", "properties": {"collection_times": [{"days": "Mon-Fri", "time": "11:45am"}, {"days": "Sat", "time": "9:00am"}, {"days": "Sun", "time": "Closed"}], "id": "5497700001", "name": "USPS COLLECTION BOX - PO LOBBY", "address": {"city": "SCANDINAVIA", "state": "WI", "street": "345 N MAIN ST", "postcode": "54977"}}},
{"geometry": {"type": "Point", "coordinates": [-89.1473413385, 44.4588846245]}, "type": "Feature", "properties": {"collection_times": [{"days": "Mon-Fri", "time": "11:45am"}, {"days": "Sat", "time": "9:00am"}, {"days": "Sun", "time": "Closed"}], "id": "5497700002", "name": "USPS COLLECTION BOX - PO LOBBY", "address": {"city": "SCANDINAVIA", "state": "WI", "street": "345 N MAIN ST", "postcode": "54977"}}},
{"geometry": {"type": "Point", "coordinates": [-89.146316233, 44.457638365]}, "type": "Feature", "properties": {"collection_times": [{"days": "Mon-Sat", "time": "2:00pm"}, {"days": "Sun", "time": "Closed"}], "id": "5497700003", "name": "USPS COLLECTION BOX - BLUE BOX", "address": {"city": "SCANDINAVIA", "state": "WI", "street": "265 N MAIN ST", "postcode": "54977"}}},
{"geometry": {"type": "Point", "coordinates": [-88.878684752, 44.771567706]}, "type": "Feature", "properties": {"collection_times": [{"days": "Mon-Fri", "time": "4:00pm"}, {"days": "Sat", "time": "12:15pm"}, {"days": "Sun", "time": "Closed"}], "id": "5497800000", "name": "USPS COLLECTION BOX - BLUE BOX", "address": {"city": "TILLEDA", "state": "WI", "street": "N6192 COUNTY ROAD D", "postcode": "54978"}}},
{"geometry": {"type": "Point", "coordinates": [-88.878684752, 44.771567706]}, "type": "Feature", "properties": {"collection_times": [{"days": "Mon-Fri", "time": "4:00pm"}, {"days": "Sat", "time": "12:15pm"}, {"days": "Sun", "time": "Closed"}], "id": "5497800001", "name": "USPS COLLECTION BOX - PO LOBBY", "address": {"city": "TILLEDA", "state": "WI", "street": "N6192 COUNTY ROAD D", "postcode": "54978"}}},
{"geometry": {"type": "Point", "coordinates": [-88.878684752, 44.771567706]}, "type": "Feature", "properties": {"collection_times": [{"days": "Mon-Fri", "time": "4:00pm"}, {"days": "Sat", "time": "12:15pm"}, {"days": "Sun", "time": "Closed"}], "id": "5497800002", "name": "USPS COLLECTION BOX - PO LOBBY", "address": {"city": "TILLEDA", "state": "WI", "street": "N6192 COUNTY ROAD D", "postcode": "54978"}}},
{"geometry": {"type": "Point", "coordinates": [-88.5028971646, 43.8867877315]}, "type": "Feature", "properties": {"collection_times": [{"days": "Mon-Fri", "time": "4:15pm"}, {"days": "Sat", "time": "10:00am"}, {"days": "Sun", "time": "Closed"}], "id": "5497900000", "name": "USPS COLLECTION BOX - BLUE BOX", "address": {"city": "VAN DYNE", "state": "WI", "street": "N9519 VAN DYNE RD", "postcode": "54979"}}},
{"geometry": {"type": "Point", "coordinates": [-88.5028971646, 43.8867877315]}, "type": "Feature", "properties": {"collection_times": [{"days": "Mon-Fri", "time": "4:15pm"}, {"days": "Sat", "time": "10:00am"}, {"days": "Sun", "time": "Closed"}], "id": "5497900001", "name": "USPS COLLECTION BOX - PO LOBBY", "address": {"city": "VAN DYNE", "state": "WI", "street": "N9519 VAN DYNE RD", "postcode": "54979"}}},
{"geometry": {"type": "Point", "coordinates": [-88.7445200233, 44.0378217565]}, "type": "Feature", "properties": {"collection_times": [{"days": "Mon-Fri", "time": "4:15pm"}, {"days": "Sat", "time": "2:15pm"}, {"days": "Sun", "time": "Closed"}], "id": "5498000000", "name": "USPS COLLECTION BOX - BLUE BOX", "address": {"city": "WAUKAU", "state": "WI", "street": "2670 STATE ROAD 116", "postcode": "54980"}}},
{"geometry": {"type": "Point", "coordinates": [-88.7445200233, 44.0378217565]}, "type": "Feature", "properties": {"collection_times": [{"days": "Mon-Fri", "time": "2:45pm"}, {"days": "Sat", "time": "11:15am"}, {"days": "Sun", "time": "Closed"}], "id": "5498000001", "name": "USPS COLLECTION BOX - PO LOBBY", "address": {"city": "WAUKAU", "state": "WI", "street": "2670 STATE ROAD 116", "postcode": "54980"}}},
{"geometry": {"type": "Point", "coordinates": [-89.084899047, 44.355789933]}, "type": "Feature", "properties": {"collection_times": [{"days": "Mon-Sat", "time": "5:00pm"}, {"days": "Sun", "time": "Closed"}], "id": "5498100000", "name": "USPS COLLECTION BOX - BLUE BOX", "address": {"city": "WAUPACA", "state": "WI", "street": "306 S MAIN ST", "postcode": "54981"}}},
{"geometry": {"type": "Point", "coordinates": [-89.0849039317, 44.3559451772]}, "type": "Feature", "properties": {"collection_times": [{"days": "Mon-Sat", "time": "5:00pm"}, {"days": "Sun", "time": "Closed"}], "id": "5498100001", "name": "USPS COLLECTION BOX - BLUE BOX", "address": {"city": "WAUPACA", "state": "WI", "street": "306 S MAIN ST", "postcode": "54981"}}},
{"geometry": {"type": "Point", "coordinates": [-89.0849039317, 44.3559451772]}, "type": "Feature", "properties": {"collection_times": [{"days": "Mon-Sat", "time": "5:00pm"}, {"days": "Sun", "time": "Closed"}], "id": "5498100002", "name": "USPS COLLECTION BOX - BLUE BOX", "address": {"city": "WAUPACA", "state": "WI", "street": "306 S MAIN ST", "postcode": "54981"}}},
{"geometry": {"type": "Point", "coordinates": [-89.0758542388, 44.3452817285]}, "type": "Feature", "properties": {"collection_times": [{"days": "Mon-Sat", "time": "2:30pm"}, {"days": "Sun", "time": "Closed"}], "id": "5498100003", "name": "USPS COLLECTION BOX - BLUE BOX", "address": {"city": "WAUPACA", "state": "WI", "street": "800 RIVERSIDE DR", "postcode": "54981"}}},
{"geometry": {"type": "Point", "coordinates": [-89.0862871442, 44.3578077029]}, "type": "Feature", "properties": {"collection_times": [{"days": "Mon-Sat", "time": "2:30pm"}, {"days": "Sun", "time": "Closed"}], "id": "5498100004", "name": "USPS COLLECTION BOX - BLUE BOX", "address": {"city": "WAUPACA", "state": "WI", "street": "124 S WASHINGTON ST", "postcode": "54981"}}},
{"geometry": {"type": "Point", "coordinates": [-89.0862871442, 44.3578077029]}, "type": "Feature", "properties": {"collection_times": [{"days": "Mon-Sat", "time": "2:30pm"}, {"days": "Sun", "time": "Closed"}], "id": "5498100005", "name": "USPS COLLECTION BOX - BLUE BOX", "address": {"city": "WAUPACA", "state": "WI", "street": "124 S WASHINGTON ST", "postcode": "54981"}}},
{"geometry": {"type": "Point", "coordinates": [-89.0821175234, 44.3525817755]}, "type": "Feature", "properties": {"collection_times": [{"days": "Mon-Sat", "time": "2:30pm"}, {"days": "Sun", "time": "Closed"}], "id": "5498100008", "name": "USPS COLLECTION BOX - BLUE BOX", "address": {"city": "WAUPACA", "state": "WI", "street": "315 E LAKE ST", "postcode": "54981"}}},
{"geometry": {"type": "Point", "coordinates": [-89.0849407035, 44.357841064]}, "type": "Feature", "properties": {"collection_times": [{"days": "Mon-Sat", "time": "2:30pm"}, {"days": "Sun", "time": "Closed"}], "id": "5498100009", "name": "USPS COLLECTION BOX - BLUE BOX", "address": {"city": "WAUPACA", "state": "WI", "street": "122 S MAIN ST", "postcode": "54981"}}},
{"geometry": {"type": "Point", "coordinates": [-89.0848039555, 44.3590294909]}, "type": "Feature", "properties": {"collection_times": [{"days": "Mon-Sat", "time": "2:30pm"}, {"days": "Sun", "time": "Closed"}], "id": "5498100010", "name": "USPS COLLECTION BOX - BLUE BOX", "address": {"city": "WAUPACA", "state": "WI", "street": "222 N MAIN ST", "postcode": "54981"}}},
{"geometry": {"type": "Point", "coordinates": [-89.1038222579, 44.3570036056]}, "type": "Feature", "properties": {"collection_times": [{"days": "Mon-Sat", "time": "2:30pm"}, {"days": "Sun", "time": "Closed"}], "id": "5498100011", "name": "USPS COLLECTION BOX - BLUE BOX", "address": {"city": "WAUPACA", "state": "WI", "street": "809 W FULTON ST", "postcode": "54981"}}},
{"geometry": {"type": "Point", "coordinates": [-89.1063702112, 44.3568963208]}, "type": "Feature", "properties": {"collection_times": [{"days": "Mon-Sat", "time": "2:30pm"}, {"days": "Sun", "time": "Closed"}], "id": "5498100012", "name": "USPS COLLECTION BOX - BLUE BOX", "address": {"city": "WAUPACA", "state": "WI", "street": "822 W FULTON ST", "postcode": "54981"}}},
{"geometry": {"type": "Point", "coordinates": [-89.0677439572, 44.3504369016]}, "type": "Feature", "properties": {"collection_times": [{"days": "Mon-Fri", "time": "2:30pm"}, {"days": "Sat-Sun", "time": "Closed"}], "id": "5498100013", "name": "USPS COLLECTION BOX - BLUE BOX", "address": {"city": "WAUPACA", "state": "WI", "street": "811 HARDING ST", "postcode": "54981"}}},
{"geometry": {"type": "Point", "coordinates": [-89.1047611678, 44.3573949859]}, "type": "Feature", "properties": {"collection_times": [{"days": "Mon-Sat", "time": "2:30pm"}, {"days": "Sun", "time": "Closed"}], "id": "5498100014", "name": "USPS COLLECTION BOX - BLUE BOX", "address": {"city": "WAUPACA", "state": "WI", "street": "936 FURMAN DR", "postcode": "54981"}}},
{"geometry": {"type": "Point", "coordinates": [-89.2878635693, 44.0747063319]}, "type": "Feature", "properties": {"collection_times": [{"days": "Mon-Fri", "time": "5:00pm"}, {"days": "Sat", "time": "11:30am"}, {"days": "Sun", "time": "Closed"}], "id": "5498200001", "name": "USPS COLLECTION BOX - BLUE BOX", "address": {"city": "WAUTOMA", "state": "WI", "street": "100 W MAIN ST", "postcode": "54982"}}},
{"geometry": {"type": "Point", "coordinates": [-89.2878635693, 44.0747063319]}, "type": "Feature", "properties": {"collection_times": [{"days": "Mon-Fri", "time": "5:00pm"}, {"days": "Sat", "time": "11:30am"}, {"days": "Sun", "time": "Closed"}], "id": "5498200003", "name": "USPS COLLECTION BOX - PO LOBBY", "address": {"city": "WAUTOMA", "state": "WI", "street": "100 W MAIN ST", "postcode": "54982"}}},
{"geometry": {"type": "Point", "coordinates": [-89.2704522427, 44.0712759412]}, "type": "Feature", "properties": {"collection_times": [{"days": "Mon-Fri", "time": "11:00am"}, {"days": "Sat-Sun", "time": "Closed"}], "id": "5498200004", "name": "USPS COLLECTION BOX - BLUE BOX", "address": {"city": "WAUTOMA", "state": "WI", "street": "N2573 PLAZA RD", "postcode": "54982"}}},
{"geometry": {"type": "Point", "coordinates": [-89.2878635693, 44.0747063319]}, "type": "Feature", "properties": {"collection_times": [{"days": "Mon-Fri", "time": "5:00pm"}, {"days": "Sat", "time": "11:30am"}, {"days": "Sun", "time": "Closed"}], "id": "5498200005", "name": "USPS COLLECTION BOX - PO LOBBY", "address": {"city": "WAUTOMA", "state": "WI", "street": "100 W MAIN ST", "postcode": "54982"}}},
{"geometry": {"type": "Point", "coordinates": [-88.9319041864, 44.3213450564]}, "type": "Feature", "properties": {"collection_times": [{"days": "Mon-Fri", "time": "4:45pm"}, {"days": "Sat", "time": "11:45am"}, {"days": "Sun", "time": "Closed"}], "id": "5498300000", "name": "USPS COLLECTION BOX - BLUE BOX", "address": {"city": "WEYAUWEGA", "state": "WI", "street": "104 N PINE ST", "postcode": "54983"}}},
{"geometry": {"type": "Point", "coordinates": [-88.9319041864, 44.3213450564]}, "type": "Feature", "properties": {"collection_times": [{"days": "Mon-Fri", "time": "4:45pm"}, {"days": "Sat", "time": "11:45am"}, {"days": "Sun", "time": "Closed"}], "id": "5498300001", "name": "USPS COLLECTION BOX - PO LOBBY", "address": {"city": "WEYAUWEGA", "state": "WI", "street": "104 N PINE ST", "postcode": "54983"}}},
{"geometry": {"type": "Point", "coordinates": [-89.2512028587, 44.17586159]}, "type": "Feature", "properties": {"collection_times": [{"days": "Mon-Fri", "time": "5:00pm"}, {"days": "Sat", "time": "12:00pm"}, {"days": "Sun", "time": "Closed"}], "id": "5498400001", "name": "USPS COLLECTION BOX - BLUE BOX", "address": {"city": "WILD ROSE", "state": "WI", "street": "801 MAIN ST", "postcode": "54984"}}},
{"geometry": {"type": "Point", "coordinates": [-89.2512028587, 44.17586159]}, "type": "Feature", "properties": {"collection_times": [{"days": "Mon-Fri", "time": "5:00pm"}, {"days": "Sat", "time": "12:00pm"}, {"days": "Sun", "time": "Closed"}], "id": "5498400002", "name": "USPS COLLECTION BOX - BLUE BOX", "address": {"city": "WILD ROSE", "state": "WI", "street": "801 MAIN ST", "postcode": "54984"}}},
{"geometry": {"type": "Point", "coordinates": [-89.2512028587, 44.17586159]}, "type": "Feature", "properties": {"collection_times": [{"days": "Mon-Fri", "time": "5:00pm"}, {"days": "Sat", "time": "12:00pm"}, {"days": "Sun", "time": "Closed"}], "id": "5498400003", "name": "USPS COLLECTION BOX - PO LOBBY", "address": {"city": "WILD ROSE", "state": "WI", "street": "801 MAIN ST", "postcode": "54984"}}},
{"geometry": {"type": "Point", "coordinates": [-89.2512028587, 44.17586159]}, "type": "Feature", "properties": {"collection_times": [{"days": "Mon-Fri", "time": "5:00pm"}, {"days": "Sat", "time": "12:00pm"}, {"days": "Sun", "time": "Closed"}], "id": "5498400004", "name": "USPS COLLECTION BOX - PO LOBBY", "address": {"city": "WILD ROSE", "state": "WI", "street": "801 MAIN ST", "postcode": "54984"}}},
{"geometry": {"type": "Point", "coordinates": [-88.5636313586, 43.9959355936]}, "type": "Feature", "properties": {"collection_times": [{"days": "Mon-Fri", "time": "4:45pm"}, {"days": "Sat", "time": "10:45am"}, {"days": "Sun", "time": "Closed"}], "id": "5498500000", "name": "USPS COLLECTION BOX - BLUE BOX", "address": {"city": "WINNEBAGO", "state": "WI", "street": "4060 COUNTY ROAD A", "postcode": "54985"}}},
{"geometry": {"type": "Point", "coordinates": [-88.5636313586, 43.9959355936]}, "type": "Feature", "properties": {"collection_times": [{"days": "Mon-Fri", "time": "4:45pm"}, {"days": "Sat", "time": "10:45am"}, {"days": "Sun", "time": "Closed"}], "id": "5498500001", "name": "USPS COLLECTION BOX - BLUE BOX", "address": {"city": "WINNEBAGO", "state": "WI", "street": "4060 COUNTY ROAD A", "postcode": "54985"}}},
{"geometry": {"type": "Point", "coordinates": [-88.5636313586, 43.9959355936]}, "type": "Feature", "properties": {"collection_times": [{"days": "Mon-Fri", "time": "4:30pm"}, {"days": "Sat", "time": "11:00am"}, {"days": "Sun", "time": "Closed"}], "id": "5498500002", "name": "USPS COLLECTION BOX - PO LOBBY", "address": {"city": "WINNEBAGO", "state": "WI", "street": "4060 COUNTY ROAD A", "postcode": "54985"}}},
{"geometry": {"type": "Point", "coordinates": [-88.5636313586, 43.9959355936]}, "type": "Feature", "properties": {"collection_times": [{"days": "Mon-Fri", "time": "4:30pm"}, {"days": "Sat", "time": "11:00am"}, {"days": "Sun", "time": "Closed"}], "id": "5498500003", "name": "USPS COLLECTION BOX - PO LOBBY", "address": {"city": "WINNEBAGO", "state": "WI", "street": "4060 COUNTY ROAD A", "postcode": "54985"}}},
{"geometry": {"type": "Point", "coordinates": [-88.713734758, 44.1101256522]}, "type": "Feature", "properties": {"collection_times": [{"days": "Mon-Fri", "time": "4:15pm"}, {"days": "Sat", "time": "10:30am"}, {"days": "Sun", "time": "Closed"}], "id": "5498600000", "name": "USPS COLLECTION BOX - BLUE BOX", "address": {"city": "WINNECONNE", "state": "WI", "street": "34 S 2ND ST", "postcode": "54986"}}},
{"geometry": {"type": "Point", "coordinates": [-88.713734758, 44.1101256522]}, "type": "Feature", "properties": {"collection_times": [{"days": "Mon-Fri", "time": "4:15pm"}, {"days": "Sat", "time": "10:30am"}, {"days": "Sun", "time": "Closed"}], "id": "5498600002", "name": "USPS COLLECTION BOX - PO LOBBY", "address": {"city": "WINNECONNE", "state": "WI", "street": "34 S 2ND ST", "postcode": "54986"}}},
{"geometry": {"type": "Point", "coordinates": [-88.6957419521, 44.1122218555]}, "type": "Feature", "properties": {"collection_times": [{"days": "Mon-Sat", "time": "12:30pm"}, {"days": "Sun", "time": "Closed"}], "id": "5498600004", "name": "USPS COLLECTION BOX - BLUE BOX", "address": {"city": "WINNECONNE", "state": "WI", "street": "910 E MAIN ST", "postcode": "54986"}}}
]}
