{"type": "FeatureCollection", "features": [
{"geometry": {"type": "Point", "coordinates": [-105.1365210262, 39.7926365482]}, "type": "Feature", "properties": {"collection_times": [{"days": "Mon-Fri", "time": "4:05pm"}, {"days": "Sat-Sun", "time": "Closed"}], "id": "8000200006", "name": "USPS COLLECTION BOX - BLUE BOX", "address": {"city": "ARVADA", "state": "CO", "street": "12335 W 53RD AVE", "postcode": "80002"}}},
{"geometry": {"type": "Point", "coordinates": [-105.0861545453, 39.8028627855]}, "type": "Feature", "properties": {"collection_times": [{"days": "Mon-Fri", "time": "6:00pm"}, {"days": "Sat", "time": "4:00pm"}, {"days": "Sun", "time": "Closed"}], "id": "8000200007", "name": "USPS COLLECTION BOX - BLUE BOX", "address": {"city": "ARVADA", "state": "CO", "street": "5885  ALLISON ST", "postcode": "80002"}}},
{"geometry": {"type": "Point", "coordinates": [-105.0861104128, 39.8028289226]}, "type": "Feature", "properties": {"collection_times": [{"days": "Mon-Fri", "time": "6:00pm"}, {"days": "Sat", "time": "4:00pm"}, {"days": "Sun", "time": "Closed"}], "id": "8000200008", "name": "USPS COLLECTION BOX - BLUE BOX", "address": {"city": "ARVADA", "state": "CO", "street": "5885 ALLISON ST", "postcode": "80002"}}},
{"geometry": {"type": "Point", "coordinates": [-105.0861104128, 39.8028289226]}, "type": "Feature", "properties": {"collection_times": [{"days": "Mon-Fri", "time": "6:00pm"}, {"days": "Sat", "time": "4:00pm"}, {"days": "Sun", "time": "Closed"}], "id": "8000200009", "name": "USPS COLLECTION BOX - BLUE BOX", "address": {"city": "ARVADA", "state": "CO", "street": "5885 ALLISON ST", "postcode": "80002"}}},
{"geometry": {"type": "Point", "coordinates": [-105.0861104128, 39.8028289226]}, "type": "Feature", "properties": {"collection_times": [{"days": "Mon-Fri", "time": "6:00pm"}, {"days": "Sat", "time": "4:00pm"}, {"days": "Sun", "time": "Closed"}], "id": "8000200010", "name": "USPS COLLECTION BOX - BLUE BOX", "address": {"city": "ARVADA", "state": "CO", "street": "5885 ALLISON ST", "postcode": "80002"}}},
{"geometry": {"type": "Point", "coordinates": [-105.0861104128, 39.8028289226]}, "type": "Feature", "properties": {"collection_times": [{"days": "Mon-Fri", "time": "6:00pm"}, {"days": "Sat", "time": "4:00pm"}, {"days": "Sun", "time": "Closed"}], "id": "8000200011", "name": "USPS COLLECTION BOX - BLUE BOX", "address": {"city": "ARVADA", "state": "CO", "street": "5885 ALLISON ST", "postcode": "80002"}}},
{"geometry": {"type": "Point", "coordinates": [-105.0861104128, 39.8028289226]}, "type": "Feature", "properties": {"collection_times": [{"days": "Mon-Fri", "time": "6:00pm"}, {"days": "Sat", "time": "4:00pm"}, {"days": "Sun", "time": "Closed"}], "id": "8000200012", "name": "USPS COLLECTION BOX - BLUE BOX", "address": {"city": "ARVADA", "state": "CO", "street": "5885 ALLISON ST", "postcode": "80002"}}},
{"geometry": {"type": "Point", "coordinates": [-105.0861104128, 39.8028289226]}, "type": "Feature", "properties": {"collection_times": [{"days": "Mon-Fri", "time": "6:00pm"}, {"days": "Sat", "time": "4:00pm"}, {"days": "Sun", "time": "Closed"}], "id": "8000200013", "name": "USPS COLLECTION BOX - BLUE BOX", "address": {"city": "ARVADA", "state": "CO", "street": "5885 ALLISON ST", "postcode": "80002"}}},
{"geometry": {"type": "Point", "coordinates": [-105.0861104128, 39.8028289226]}, "type": "Feature", "properties": {"collection_times": [{"days": "Mon-Fri", "time": "6:00pm"}, {"days": "Sat", "time": "4:00pm"}, {"days": "Sun", "time": "Closed"}], "id": "8000200015", "name": "USPS COLLECTION BOX - BLUE BOX", "address": {"city": "ARVADA", "state": "CO", "street": "5885 ALLISON ST", "postcode": "80002"}}},
{"geometry": {"type": "Point", "coordinates": [-105.1030562929, 39.8021284807]}, "type": "Feature", "properties": {"collection_times": [{"days": "Mon-Fri", "time": "4:50pm"}, {"days": "Sat", "time": "2:55pm"}, {"days": "Sun", "time": "Closed"}], "id": "8000200018", "name": "USPS COLLECTION BOX - BLUE BOX", "address": {"city": "ARVADA", "state": "CO", "street": "9517 W 58TH AVE", "postcode": "80002"}}},
{"geometry": {"type": "Point", "coordinates": [-105.1379441258, 39.7958518306]}, "type": "Feature", "properties": {"collection_times": [{"days": "Mon-Fri", "time": "4:10pm"}, {"days": "Sat", "time": "2:15pm"}, {"days": "Sun", "time": "Closed"}], "id": "8000200020", "name": "USPS COLLECTION BOX - BLUE BOX", "address": {"city": "ARVADA", "state": "CO", "street": "5440 WARD RD", "postcode": "80002"}}},
{"geometry": {"type": "Point", "coordinates": [-105.0663987676, 39.7983443252]}, "type": "Feature", "properties": {"collection_times": [{"days": "Mon-Fri", "time": "3:20pm"}, {"days": "Sat", "time": "3:05pm"}, {"days": "Sun", "time": "Closed"}], "id": "8000200021", "name": "USPS COLLECTION BOX - BLUE BOX", "address": {"city": "ARVADA", "state": "CO", "street": "6395 W 56TH AVE", "postcode": "80002"}}},
{"geometry": {"type": "Point", "coordinates": [-105.0685955224, 39.7945399291]}, "type": "Feature", "properties": {"collection_times": [{"days": "Mon-Fri", "time": "3:20pm"}, {"days": "Sat", "time": "3:05pm"}, {"days": "Sun", "time": "Closed"}], "id": "8000200022", "name": "USPS COLLECTION BOX - BLUE BOX", "address": {"city": "ARVADA", "state": "CO", "street": "5405 MARSHALL ST", "postcode": "80002"}}},
{"geometry": {"type": "Point", "coordinates": [-105.106948235, 39.8019168612]}, "type": "Feature", "properties": {"collection_times": [{"days": "Mon-Fri", "time": "4:50pm"}, {"days": "Sat", "time": "2:35pm"}, {"days": "Sun", "time": "Closed"}], "id": "8000200024", "name": "USPS COLLECTION BOX - BLUE BOX", "address": {"city": "ARVADA", "state": "CO", "street": "9731 W 58TH AVE", "postcode": "80002"}}},
{"geometry": {"type": "Point", "coordinates": [-105.0777421611, 39.7911448369]}, "type": "Feature", "properties": {"collection_times": [{"days": "Mon-Sat", "time": "3:00pm"}, {"days": "Sun", "time": "Closed"}], "id": "8000200025", "name": "USPS COLLECTION BOX - BLUE BOX", "address": {"city": "ARVADA", "state": "CO", "street": "7375 W 52ND AVE", "postcode": "80002"}}},
{"geometry": {"type": "Point", "coordinates": [-105.1379441258, 39.7958518306]}, "type": "Feature", "properties": {"collection_times": [{"days": "Mon-Fri", "time": "4:10pm"}, {"days": "Sat", "time": "2:15pm"}, {"days": "Sun", "time": "Closed"}], "id": "8000200026", "name": "USPS COLLECTION BOX - BLUE BOX", "address": {"city": "ARVADA", "state": "CO", "street": "5440 WARD RD", "postcode": "80002"}}},
{"geometry": {"type": "Point", "coordinates": [-105.0861104128, 39.8028289226]}, "type": "Feature", "properties": {"collection_times": [{"days": "Mon-Fri", "time": "5:30pm"}, {"days": "Sat", "time": "4:00pm"}, {"days": "Sun", "time": "Closed"}], "id": "8000200027", "name": "USPS COLLECTION BOX - PO LOBBY", "address": {"city": "ARVADA", "state": "CO", "street": "5885 ALLISON ST", "postcode": "80002"}}},
{"geometry": {"type": "Point", "coordinates": [-105.0861104128, 39.8028289226]}, "type": "Feature", "properties": {"collection_times": [{"days": "Mon-Fri", "time": "5:30pm"}, {"days": "Sat", "time": "4:00pm"}, {"days": "Sun", "time": "Closed"}], "id": "8000200028", "name": "USPS COLLECTION BOX - PO LOBBY", "address": {"city": "ARVADA", "state": "CO", "street": "5885 ALLISON ST", "postcode": "80002"}}},
{"geometry": {"type": "Point", "coordinates": [-105.0777421611, 39.7911448369]}, "type": "Feature", "properties": {"collection_times": [{"days": "Mon-Sat", "time": "3:00pm"}, {"days": "Sun", "time": "Closed"}], "id": "8000200034", "name": "USPS COLLECTION BOX - BLUE BOX", "address": {"city": "ARVADA", "state": "CO", "street": "7375 W 52ND AVE", "postcode": "80002"}}},
{"geometry": {"type": "Point", "coordinates": [-105.162962525, 39.8125351009]}, "type": "Feature", "properties": {"collection_times": [{"days": "Mon-Fri", "time": "4:15pm"}, {"days": "Sat", "time": "2:00pm"}, {"days": "Sun", "time": "Closed"}], "id": "8000200036", "name": "USPS COLLECTION BOX - BLUE BOX", "address": {"city": "ARVADA", "state": "CO", "street": "14605 W 64TH AVE", "postcode": "80002"}}},
{"geometry": {"type": "Point", "coordinates": [-105.0861104128, 39.8028289226]}, "type": "Feature", "properties": {"collection_times": [{"days": "Mon-Fri", "time": "5:30pm"}, {"days": "Sat", "time": "4:00pm"}, {"days": "Sun", "time": "Closed"}], "id": "8000200037", "name": "USPS COLLECTION BOX - APC", "address": {"city": "ARVADA", "state": "CO", "street": "5885 ALLISON ST", "postcode": "80002"}}},
{"geometry": {"type": "Point", "coordinates": [-105.1378577289, 39.7979691373]}, "type": "Feature", "properties": {"collection_times": [{"days": "Mon-Fri", "time": "4:10pm"}, {"days": "Sat", "time": "2:30pm"}, {"days": "Sun", "time": "Closed"}], "id": "8000200040", "name": "USPS COLLECTION BOX - BLUE BOX", "address": {"city": "ARVADA", "state": "CO", "street": "5610 WARD RD", "postcode": "80002"}}},
{"geometry": {"type": "Point", "coordinates": [-105.081869505, 39.8385424538]}, "type": "Feature", "properties": {"collection_times": [{"days": "Mon-Fri", "time": "5:30pm"}, {"days": "Sat", "time": "4:30pm"}, {"days": "Sun", "time": "Closed"}], "id": "8000300000", "name": "USPS COLLECTION BOX - BLUE BOX", "address": {"city": "ARVADA", "state": "CO", "street": "7765 WADSWORTH BLVD", "postcode": "80003"}}},
{"geometry": {"type": "Point", "coordinates": [-105.081869505, 39.8385424538]}, "type": "Feature", "properties": {"collection_times": [{"days": "Mon-Fri", "time": "5:30pm"}, {"days": "Sat", "time": "4:30pm"}, {"days": "Sun", "time": "Closed"}], "id": "8000300001", "name": "USPS COLLECTION BOX - BLUE BOX", "address": {"city": "ARVADA", "state": "CO", "street": "7765 WADSWORTH BLVD", "postcode": "80003"}}},
{"geometry": {"type": "Point", "coordinates": [-105.081869505, 39.8385424538]}, "type": "Feature", "properties": {"collection_times": [{"days": "Mon-Fri", "time": "5:30pm"}, {"days": "Sat", "time": "4:30pm"}, {"days": "Sun", "time": "Closed"}], "id": "8000300002", "name": "USPS COLLECTION BOX - BLUE BOX", "address": {"city": "ARVADA", "state": "CO", "street": "7765 WADSWORTH BLVD", "postcode": "80003"}}},
{"geometry": {"type": "Point", "coordinates": [-105.081869505, 39.8385424538]}, "type": "Feature", "properties": {"collection_times": [{"days": "Mon-Fri", "time": "5:30pm"}, {"days": "Sat", "time": "4:30pm"}, {"days": "Sun", "time": "Closed"}], "id": "8000300003", "name": "USPS COLLECTION BOX - BLUE BOX", "address": {"city": "ARVADA", "state": "CO", "street": "7765 WADSWORTH BLVD", "postcode": "80003"}}},
{"geometry": {"type": "Point", "coordinates": [-105.081869505, 39.8385424538]}, "type": "Feature", "properties": {"collection_times": [{"days": "Mon-Fri", "time": "5:30pm"}, {"days": "Sat", "time": "4:30pm"}, {"days": "Sun", "time": "Closed"}], "id": "8000300004", "name": "USPS COLLECTION BOX - BLUE BOX", "address": {"city": "ARVADA", "state": "CO", "street": "7765 WADSWORTH BLVD", "postcode": "80003"}}},
{"geometry": {"type": "Point", "coordinates": [-105.081869505, 39.8385424538]}, "type": "Feature", "properties": {"collection_times": [{"days": "Mon-Fri", "time": "5:30pm"}, {"days": "Sat", "time": "4:30pm"}, {"days": "Sun", "time": "Closed"}], "id": "8000300005", "name": "USPS COLLECTION BOX - BLUE BOX", "address": {"city": "ARVADA", "state": "CO", "street": "7765 WADSWORTH BLVD", "postcode": "80003"}}},
{"geometry": {"type": "Point", "coordinates": [-105.0654581913, 39.8271322623]}, "type": "Feature", "properties": {"collection_times": [{"days": "Mon-Fri", "time": "5:05pm"}, {"days": "Sat", "time": "1:45pm"}, {"days": "Sun", "time": "Closed"}], "id": "8000300006", "name": "USPS COLLECTION BOX - EXPRESS", "address": {"city": "ARVADA", "state": "CO", "street": "7765 WADSWORTH BLVD", "postcode": "80003"}}},
{"geometry": {"type": "Point", "coordinates": [-105.0817098055, 39.853985983]}, "type": "Feature", "properties": {"collection_times": [{"days": "Mon-Fri", "time": "4:40pm"}, {"days": "Sat", "time": "4:05pm"}, {"days": "Sun", "time": "Closed"}], "id": "8000300010", "name": "USPS COLLECTION BOX - BLUE BOX", "address": {"city": "ARVADA", "state": "CO", "street": "8759 WADSWORTH BLVD", "postcode": "80003"}}},
{"geometry": {"type": "Point", "coordinates": [-105.0520199014, 39.8055674726]}, "type": "Feature", "properties": {"collection_times": [{"days": "Mon-Fri", "time": "3:40pm"}, {"days": "Sat", "time": "3:15pm"}, {"days": "Sun", "time": "Closed"}], "id": "8000300014", "name": "USPS COLLECTION BOX - BLUE BOX", "address": {"city": "ARVADA", "state": "CO", "street": "5005 W 60TH AVE", "postcode": "80003"}}},
{"geometry": {"type": "Point", "coordinates": [-105.053213507, 39.8463156771]}, "type": "Feature", "properties": {"collection_times": [{"days": "Mon-Sat", "time": "3:00pm"}, {"days": "Sun", "time": "Closed"}], "id": "8000300017", "name": "USPS COLLECTION BOX - BLUE BOX", "address": {"city": "ARVADA", "state": "CO", "street": "8378 SHERIDAN BLVD", "postcode": "80003"}}},
{"geometry": {"type": "Point", "coordinates": [-105.080713754, 39.8135808366]}, "type": "Feature", "properties": {"collection_times": [{"days": "Mon-Sat", "time": "3:40pm"}, {"days": "Sun", "time": "Closed"}], "id": "8000300021", "name": "USPS COLLECTION BOX - BLUE BOX", "address": {"city": "ARVADA", "state": "CO", "street": "6464 WADSWORTH BYP", "postcode": "80003"}}},
{"geometry": {"type": "Point", "coordinates": [-105.0575405328, 39.8399112793]}, "type": "Feature", "properties": {"collection_times": [{"days": "Mon-Sat", "time": "3:10pm"}, {"days": "Sun", "time": "Closed"}], "id": "8000300026", "name": "USPS COLLECTION BOX - BLUE BOX", "address": {"city": "ARVADA", "state": "CO", "street": "7950 CHASE CIR", "postcode": "80003"}}},
{"geometry": {"type": "Point", "coordinates": [-105.0707591544, 39.8497474411]}, "type": "Feature", "properties": {"collection_times": [{"days": "Mon-Sat", "time": "4:00pm"}, {"days": "Sun", "time": "Closed"}], "id": "8000300027", "name": "USPS COLLECTION BOX - BLUE BOX", "address": {"city": "ARVADA", "state": "CO", "street": "6630 W 84TH WAY", "postcode": "80003"}}},
{"geometry": {"type": "Point", "coordinates": [-105.0794503539, 39.8390594068]}, "type": "Feature", "properties": {"collection_times": [{"days": "Mon-Fri", "time": "4:45pm"}, {"days": "Sat", "time": "3:45pm"}, {"days": "Sun", "time": "Closed"}], "id": "8000300029", "name": "USPS COLLECTION BOX - BLUE BOX", "address": {"city": "ARVADA", "state": "CO", "street": "7828 VANCE DR", "postcode": "80003"}}},
{"geometry": {"type": "Point", "coordinates": [-105.0654581913, 39.8271322623]}, "type": "Feature", "properties": {"collection_times": [{"days": "Mon-Fri", "time": "4:45pm"}, {"days": "Sat", "time": "4:20pm"}, {"days": "Sun", "time": "Closed"}], "id": "8000300030", "name": "USPS COLLECTION BOX - BLUE BOX", "address": {"city": "ARVADA", "state": "CO", "street": "8031 WADSWORTH BLVD", "postcode": "80003"}}},
{"geometry": {"type": "Point", "coordinates": [-105.0542012777, 39.8555250127]}, "type": "Feature", "properties": {"collection_times": [{"days": "Mon-Sat", "time": "3:00pm"}, {"days": "Sun", "time": "Closed"}], "id": "8000300031", "name": "USPS COLLECTION BOX - BLUE BOX", "address": {"city": "ARVADA", "state": "CO", "street": "8757 SHERIDAN BLVD", "postcode": "80003"}}},
{"geometry": {"type": "Point", "coordinates": [-105.0805173829, 39.8418843128]}, "type": "Feature", "properties": {"collection_times": [{"days": "Mon-Fri", "time": "4:40pm"}, {"days": "Sat", "time": "3:50pm"}, {"days": "Sun", "time": "Closed"}], "id": "8000300032", "name": "USPS COLLECTION BOX - BLUE BOX", "address": {"city": "ARVADA", "state": "CO", "street": "7561 W 80TH AVE", "postcode": "80003"}}},
{"geometry": {"type": "Point", "coordinates": [-105.0505189658, 39.8128679247]}, "type": "Feature", "properties": {"collection_times": [{"days": "Mon-Fri", "time": "4:30pm"}, {"days": "Sat", "time": "3:30pm"}, {"days": "Sun", "time": "Closed"}], "id": "8000300033", "name": "USPS COLLECTION BOX - BLUE BOX", "address": {"city": "ARVADA", "state": "CO", "street": "5017 W 64TH AVE", "postcode": "80003"}}},
{"geometry": {"type": "Point", "coordinates": [-105.081869505, 39.8385424538]}, "type": "Feature", "properties": {"collection_times": [{"days": "Mon-Fri", "time": "5:30pm"}, {"days": "Sat", "time": "4:30pm"}, {"days": "Sun", "time": "Closed"}], "id": "8000300039", "name": "USPS COLLECTION BOX - PO LOBBY", "address": {"city": "ARVADA", "state": "CO", "street": "7765 WADSWORTH BLVD", "postcode": "80003"}}},
{"geometry": {"type": "Point", "coordinates": [-105.081869505, 39.8385424538]}, "type": "Feature", "properties": {"collection_times": [{"days": "Mon-Fri", "time": "5:30pm"}, {"days": "Sat", "time": "4:30pm"}, {"days": "Sun", "time": "Closed"}], "id": "8000300040", "name": "USPS COLLECTION BOX - PO LOBBY", "address": {"city": "ARVADA", "state": "CO", "street": "7765 WADSWORTH BLVD", "postcode": "80003"}}},
{"geometry": {"type": "Point", "coordinates": [-105.053185116, 39.8112527734]}, "type": "Feature", "properties": {"collection_times": [{"days": "Mon-Sat", "time": "3:30pm"}, {"days": "Sun", "time": "Closed"}], "id": "8000300041", "name": "USPS COLLECTION BOX - BLUE BOX", "address": {"city": "ARVADA", "state": "CO", "street": "6350 SHERIDAN BLVD", "postcode": "80003"}}},
{"geometry": {"type": "Point", "coordinates": [-105.081869505, 39.8385424538]}, "type": "Feature", "properties": {"collection_times": [{"days": "Mon-Fri", "time": "5:30pm"}, {"days": "Sat", "time": "4:30pm"}, {"days": "Sun", "time": "Closed"}], "id": "8000300044", "name": "USPS COLLECTION BOX - PO LOBBY", "address": {"city": "ARVADA", "state": "CO", "street": "7765 WADSWORTH BLVD", "postcode": "80003"}}},
{"geometry": {"type": "Point", "coordinates": [-105.0532253366, 39.8445944718]}, "type": "Feature", "properties": {"collection_times": [{"days": "Mon-Fri", "time": "4:30pm"}, {"days": "Sat", "time": "3:10pm"}, {"days": "Sun", "time": "Closed"}], "id": "8000300045", "name": "USPS COLLECTION BOX - BLUE BOX", "address": {"city": "ARVADA", "state": "CO", "street": "8175 SHERIDAN BLVD", "postcode": "80003"}}},
{"geometry": {"type": "Point", "coordinates": [-105.081869505, 39.8385424538]}, "type": "Feature", "properties": {"collection_times": [{"days": "Mon-Fri", "time": "5:30pm"}, {"days": "Sat", "time": "4:30pm"}, {"days": "Sun", "time": "Closed"}], "id": "8000300046", "name": "USPS COLLECTION BOX - APC", "address": {"city": "ARVADA", "state": "CO", "street": "7765 WADSWORTH BLVD", "postcode": "80003"}}},
{"geometry": {"type": "Point", "coordinates": [-105.081869505, 39.8385424538]}, "type": "Feature", "properties": {"collection_times": [{"days": "Mon-Fri", "time": "5:30pm"}, {"days": "Sat", "time": "4:30pm"}, {"days": "Sun", "time": "Closed"}], "id": "8000300049", "name": "USPS COLLECTION BOX - APC", "address": {"city": "ARVADA", "state": "CO", "street": "7765 WADSWORTH BLVD", "postcode": "80003"}}},
{"geometry": {"type": "Point", "coordinates": [-105.1350186683, 39.8127870712]}, "type": "Feature", "properties": {"collection_times": [{"days": "Mon-Fri", "time": "4:00pm"}, {"days": "Sat", "time": "2:15pm"}, {"days": "Sun", "time": "Closed"}], "id": "8000400012", "name": "USPS COLLECTION BOX - BLUE BOX", "address": {"city": "ARVADA", "state": "CO", "street": "12191 W 64TH AVE", "postcode": "80004"}}},
{"geometry": {"type": "Point", "coordinates": [-105.1598903805, 39.8141119852]}, "type": "Feature", "properties": {"collection_times": [{"days": "Mon-Fri", "time": "4:15pm"}, {"days": "Sat-Sun", "time": "Closed"}], "id": "8000400013", "name": "USPS COLLECTION BOX - BLUE BOX", "address": {"city": "ARVADA", "state": "CO", "street": "14401 W 65TH WAY", "postcode": "80004"}}},
{"geometry": {"type": "Point", "coordinates": [-105.1363471312, 39.8127941689]}, "type": "Feature", "properties": {"collection_times": [{"days": "Mon-Fri", "time": "4:00pm"}, {"days": "Sat", "time": "2:00pm"}, {"days": "Sun", "time": "Closed"}], "id": "8000400014", "name": "USPS COLLECTION BOX - BLUE BOX", "address": {"city": "ARVADA", "state": "CO", "street": "12391 W 64TH AVE", "postcode": "80004"}}},
{"geometry": {"type": "Point", "coordinates": [-105.1378861608, 39.8115993804]}, "type": "Feature", "properties": {"collection_times": [{"days": "Mon-Fri", "time": "4:45pm"}, {"days": "Sat", "time": "2:00pm"}, {"days": "Sun", "time": "Closed"}], "id": "8000400015", "name": "USPS COLLECTION BOX - BLUE BOX", "address": {"city": "ARVADA", "state": "CO", "street": "6355 WARD RD", "postcode": "80004"}}},
{"geometry": {"type": "Point", "coordinates": [-105.1365896378, 39.8126604946]}, "type": "Feature", "properties": {"collection_times": [{"days": "Mon-Fri", "time": "4:00pm"}, {"days": "Sat", "time": "2:30pm"}, {"days": "Sun", "time": "Closed"}], "id": "8000400016", "name": "USPS COLLECTION BOX - BLUE BOX", "address": {"city": "ARVADA", "state": "CO", "street": "12350 W 64TH AVE", "postcode": "80004"}}},
{"geometry": {"type": "Point", "coordinates": [-105.1378861608, 39.8115993804]}, "type": "Feature", "properties": {"collection_times": [{"days": "Mon-Fri", "time": "4:45pm"}, {"days": "Sat", "time": "2:00pm"}, {"days": "Sun", "time": "Closed"}], "id": "8000400017", "name": "USPS COLLECTION BOX - BLUE BOX", "address": {"city": "ARVADA", "state": "CO", "street": "6355 WARD RD", "postcode": "80004"}}},
{"geometry": {"type": "Point", "coordinates": [-105.1378861608, 39.8115993804]}, "type": "Feature", "properties": {"collection_times": [{"days": "Mon-Fri", "time": "4:45pm"}, {"days": "Sat", "time": "2:00pm"}, {"days": "Sun", "time": "Closed"}], "id": "8000400018", "name": "USPS COLLECTION BOX - BLUE BOX", "address": {"city": "ARVADA", "state": "CO", "street": "6355 WARD RD", "postcode": "80004"}}},
{"geometry": {"type": "Point", "coordinates": [-105.1412292029, 39.8126285547]}, "type": "Feature", "properties": {"collection_times": [{"days": "Mon-Fri", "time": "4:45pm"}, {"days": "Sat", "time": "2:00pm"}, {"days": "Sun", "time": "Closed"}], "id": "8000400019", "name": "USPS COLLECTION BOX - BLUE BOX", "address": {"city": "ARVADA", "state": "CO", "street": "12680 W 64TH AVE", "postcode": "80004"}}},
{"geometry": {"type": "Point", "coordinates": [-105.1216405854, 39.8127847053]}, "type": "Feature", "properties": {"collection_times": [{"days": "Mon-Fri", "time": "3:50pm"}, {"days": "Sat-Sun", "time": "Closed"}], "id": "8000400022", "name": "USPS COLLECTION BOX - BLUE BOX", "address": {"city": "ARVADA", "state": "CO", "street": "11005 RALSTON RD", "postcode": "80004"}}},
{"geometry": {"type": "Point", "coordinates": [-105.1350186683, 39.8127870712]}, "type": "Feature", "properties": {"collection_times": [{"days": "Mon-Fri", "time": "4:00pm"}, {"days": "Sat", "time": "2:15pm"}, {"days": "Sun", "time": "Closed"}], "id": "8000400023", "name": "USPS COLLECTION BOX - BLUE BOX", "address": {"city": "ARVADA", "state": "CO", "street": "12191 W 64TH AVE", "postcode": "80004"}}},
{"geometry": {"type": "Point", "coordinates": [-105.1598903805, 39.8141119852]}, "type": "Feature", "properties": {"collection_times": [{"days": "Mon-Fri", "time": "4:15pm"}, {"days": "Sat-Sun", "time": "Closed"}], "id": "8000400024", "name": "USPS COLLECTION BOX - BLUE BOX", "address": {"city": "ARVADA", "state": "CO", "street": "14401 W 65TH WAY", "postcode": "80004"}}},
{"geometry": {"type": "Point", "coordinates": [-105.1090030347, 39.8418985083]}, "type": "Feature", "properties": {"collection_times": [{"days": "Mon-Sat", "time": "4:15pm"}, {"days": "Sun", "time": "Closed"}], "id": "8000500000", "name": "USPS COLLECTION BOX - BLUE BOX", "address": {"city": "ARVADA", "state": "CO", "street": "9950 W 80TH AVE", "postcode": "80005"}}},
{"geometry": {"type": "Point", "coordinates": [-105.0853012689, 39.8423716919]}, "type": "Feature", "properties": {"collection_times": [{"days": "Mon-Fri", "time": "4:45pm"}, {"days": "Sat", "time": "4:20pm"}, {"days": "Sun", "time": "Closed"}], "id": "8000500001", "name": "USPS COLLECTION BOX - BLUE BOX", "address": {"city": "ARVADA", "state": "CO", "street": "7878 W 80TH PL", "postcode": "80005"}}},
{"geometry": {"type": "Point", "coordinates": [-105.0986911814, 39.8563495351]}, "type": "Feature", "properties": {"collection_times": [{"days": "Mon-Sat", "time": "4:10pm"}, {"days": "Sun", "time": "Closed"}], "id": "8000500002", "name": "USPS COLLECTION BOX - BLUE BOX", "address": {"city": "ARVADA", "state": "CO", "street": "9130 W 88TH AVE", "postcode": "80005"}}},
{"geometry": {"type": "Point", "coordinates": [-104.8469918195, 39.7652392185]}, "type": "Feature", "properties": {"collection_times": [{"days": "Mon-Sat", "time": "9:00am"}, {"days": "Sun", "time": "Closed"}], "id": "8001000001", "name": "USPS COLLECTION BOX - BLUE BOX", "address": {"city": "AURORA", "state": "CO", "street": "3350 PEORIA ST", "postcode": "80010"}}},
{"geometry": {"type": "Point", "coordinates": [-104.8666928181, 39.740203075]}, "type": "Feature", "properties": {"collection_times": [{"days": "Mon-Fri", "time": "3:17pm"}, {"days": "Sat", "time": "2:40pm"}, {"days": "Sun", "time": "Closed"}], "id": "8001000002", "name": "USPS COLLECTION BOX - BLUE BOX", "address": {"city": "AURORA", "state": "CO", "street": "10401 E COLFAX AVE", "postcode": "80010"}}},
{"geometry": {"type": "Point", "coordinates": [-104.8752207693, 39.7411494422]}, "type": "Feature", "properties": {"collection_times": [{"days": "Mon-Fri", "time": "5:00pm"}, {"days": "Sat", "time": "4:30pm"}, {"days": "Sun", "time": "Closed"}], "id": "8001000004", "name": "USPS COLLECTION BOX - BLUE BOX", "address": {"city": "AURORA", "state": "CO", "street": "1550 DAYTON ST", "postcode": "80010"}}},
{"geometry": {"type": "Point", "coordinates": [-104.8752207693, 39.7411494422]}, "type": "Feature", "properties": {"collection_times": [{"days": "Mon-Fri", "time": "5:00pm"}, {"days": "Sat", "time": "4:30pm"}, {"days": "Sun", "time": "Closed"}], "id": "8001000005", "name": "USPS COLLECTION BOX - BLUE BOX", "address": {"city": "AURORA", "state": "CO", "street": "1550 DAYTON ST", "postcode": "80010"}}},
{"geometry": {"type": "Point", "coordinates": [-104.8752207693, 39.7411494422]}, "type": "Feature", "properties": {"collection_times": [{"days": "Mon-Fri", "time": "5:00pm"}, {"days": "Sat", "time": "4:30pm"}, {"days": "Sun", "time": "Closed"}], "id": "8001000006", "name": "USPS COLLECTION BOX - BLUE BOX", "address": {"city": "AURORA", "state": "CO", "street": "1550 DAYTON ST", "postcode": "80010"}}},
{"geometry": {"type": "Point", "coordinates": [-104.8586109761, 39.7400733199]}, "type": "Feature", "properties": {"collection_times": [{"days": "Mon-Fri", "time": "2:05pm"}, {"days": "Sat", "time": "3:00pm"}, {"days": "Sun", "time": "Closed"}], "id": "8001000010", "name": "USPS COLLECTION BOX - BLUE BOX", "address": {"city": "AURORA", "state": "CO", "street": "11104 E COLFAX AVE", "postcode": "80010"}}},
{"geometry": {"type": "Point", "coordinates": [-104.8690457235, 39.7474155758]}, "type": "Feature", "properties": {"collection_times": [{"days": "Mon-Fri", "time": "1:00pm"}, {"days": "Sat", "time": "12:00pm"}, {"days": "Sun", "time": "Closed"}], "id": "8001000011", "name": "USPS COLLECTION BOX - BLUE BOX", "address": {"city": "AURORA", "state": "CO", "street": "10201 MONTVIEW BLVD", "postcode": "80010"}}},
{"geometry": {"type": "Point", "coordinates": [-104.8480623974, 39.7419645009]}, "type": "Feature", "properties": {"collection_times": [{"days": "Mon-Fri", "time": "12:30pm"}, {"days": "Sat", "time": "11:30am"}, {"days": "Sun", "time": "Closed"}], "id": "8001000013", "name": "USPS COLLECTION BOX - BLUE BOX", "address": {"city": "AURORA", "state": "CO", "street": "12000 E 16TH AVE", "postcode": "80010"}}},
{"geometry": {"type": "Point", "coordinates": [-104.8752207693, 39.7411494422]}, "type": "Feature", "properties": {"collection_times": [{"days": "Mon-Fri", "time": "5:00pm"}, {"days": "Sat", "time": "1:00pm"}, {"days": "Sun", "time": "Closed"}], "id": "8001000015", "name": "USPS COLLECTION BOX - PO LOBBY", "address": {"city": "AURORA", "state": "CO", "street": "1550 DAYTON ST", "postcode": "80010"}}},
{"geometry": {"type": "Point", "coordinates": [-104.8752207693, 39.7411494422]}, "type": "Feature", "properties": {"collection_times": [{"days": "Mon-Fri", "time": "5:00pm"}, {"days": "Sat", "time": "1:00pm"}, {"days": "Sun", "time": "Closed"}], "id": "8001000027", "name": "USPS COLLECTION BOX - PO LOBBY", "address": {"city": "AURORA", "state": "CO", "street": "1550 DAYTON ST", "postcode": "80010"}}},
{"geometry": {"type": "Point", "coordinates": [-104.76284214, 39.7607100801]}, "type": "Feature", "properties": {"collection_times": [{"days": "Mon-Fri", "time": "3:55pm"}, {"days": "Sat", "time": "12:30pm"}, {"days": "Sun", "time": "Closed"}], "id": "8001100001", "name": "USPS COLLECTION BOX - BLUE BOX", "address": {"city": "AURORA", "state": "CO", "street": "19401 E 34TH DR", "postcode": "80011"}}},
{"geometry": {"type": "Point", "coordinates": [-104.8088721498, 39.7387870731]}, "type": "Feature", "properties": {"collection_times": [{"days": "Mon-Fri", "time": "2:30pm"}, {"days": "Sat", "time": "12:50pm"}, {"days": "Sun", "time": "Closed"}], "id": "8001100002", "name": "USPS COLLECTION BOX - BLUE BOX", "address": {"city": "AURORA", "state": "CO", "street": "15400 E 14TH PL", "postcode": "80011"}}},
{"geometry": {"type": "Point", "coordinates": [-104.7940331125, 39.7166823019]}, "type": "Feature", "properties": {"collection_times": [{"days": "Mon-Fri", "time": "2:05pm"}, {"days": "Sat", "time": "1:00pm"}, {"days": "Sun", "time": "Closed"}], "id": "8001100008", "name": "USPS COLLECTION BOX - BLUE BOX", "address": {"city": "AURORA", "state": "CO", "street": "16800 E CENTRETECH PKWY", "postcode": "80011"}}},
{"geometry": {"type": "Point", "coordinates": [-104.7837888648, 39.755791617]}, "type": "Feature", "properties": {"collection_times": [{"days": "Mon-Sat", "time": "12:00pm"}, {"days": "Sun", "time": "Closed"}], "id": "8001100010", "name": "USPS COLLECTION BOX - BLUE BOX", "address": {"city": "AURORA", "state": "CO", "street": "651 CHAMBERS RD", "postcode": "80011"}}},
{"geometry": {"type": "Point", "coordinates": [-104.8088473077, 39.7401593055]}, "type": "Feature", "properties": {"collection_times": [{"days": "Mon-Fri", "time": "5:00pm"}, {"days": "Sat", "time": "4:45pm"}, {"days": "Sun", "time": "Closed"}], "id": "8001100017", "name": "USPS COLLECTION BOX - BLUE BOX", "address": {"city": "AURORA", "state": "CO", "street": "15355 E COLFAX AVE", "postcode": "80011"}}},
{"geometry": {"type": "Point", "coordinates": [-104.8088473077, 39.7401593055]}, "type": "Feature", "properties": {"collection_times": [{"days": "Mon-Fri", "time": "5:00pm"}, {"days": "Sat", "time": "4:45pm"}, {"days": "Sun", "time": "Closed"}], "id": "8001100018", "name": "USPS COLLECTION BOX - BLUE BOX", "address": {"city": "AURORA", "state": "CO", "street": "15355 E COLFAX AVE", "postcode": "80011"}}},
{"geometry": {"type": "Point", "coordinates": [-104.8088473077, 39.7401593055]}, "type": "Feature", "properties": {"collection_times": [{"days": "Mon-Fri", "time": "5:00pm"}, {"days": "Sat", "time": "4:45pm"}, {"days": "Sun", "time": "Closed"}], "id": "8001100019", "name": "USPS COLLECTION BOX - BLUE BOX", "address": {"city": "AURORA", "state": "CO", "street": "15355 E COLFAX AVE", "postcode": "80011"}}},
{"geometry": {"type": "Point", "coordinates": [-104.8118291703, 39.7646759971]}, "type": "Feature", "properties": {"collection_times": [{"days": "Mon-Fri", "time": "4:05pm"}, {"days": "Sat", "time": "12:30pm"}, {"days": "Sun", "time": "Closed"}], "id": "8001100021", "name": "USPS COLLECTION BOX - BLUE BOX", "address": {"city": "AURORA", "state": "CO", "street": "15006 E 33RD PL", "postcode": "80011"}}},
{"geometry": {"type": "Point", "coordinates": [-104.8211642764, 39.7647601202]}, "type": "Feature", "properties": {"collection_times": [{"days": "Mon-Fri", "time": "4:15pm"}, {"days": "Sat", "time": "12:30pm"}, {"days": "Sun", "time": "Closed"}], "id": "8001100023", "name": "USPS COLLECTION BOX - BLUE BOX", "address": {"city": "AURORA", "state": "CO", "street": "14200 E MONCRIEFF PL", "postcode": "80011"}}},
{"geometry": {"type": "Point", "coordinates": [-104.8162609115, 39.7197579952]}, "type": "Feature", "properties": {"collection_times": [{"days": "Mon-Sat", "time": "11:00am"}, {"days": "Sun", "time": "Closed"}], "id": "8001100033", "name": "USPS COLLECTION BOX - BLUE BOX", "address": {"city": "AURORA", "state": "CO", "street": "14707 E 2ND AVE", "postcode": "80011"}}},
{"geometry": {"type": "Point", "coordinates": [-104.8275329307, 39.7303262154]}, "type": "Feature", "properties": {"collection_times": [{"days": "Mon-Fri", "time": "1:55pm"}, {"days": "Sat", "time": "12:40pm"}, {"days": "Sun", "time": "Closed"}], "id": "8001100035", "name": "USPS COLLECTION BOX - BLUE BOX", "address": {"city": "AURORA", "state": "CO", "street": "830 POTOMAC CIR", "postcode": "80011"}}},
{"geometry": {"type": "Point", "coordinates": [-104.8487644345, 39.7187531948]}, "type": "Feature", "properties": {"collection_times": [{"days": "Mon-Fri", "time": "2:00pm"}, {"days": "Sat", "time": "1:15pm"}, {"days": "Sun", "time": "Closed"}], "id": "8001100058", "name": "USPS COLLECTION BOX - BLUE BOX", "address": {"city": "AURORA", "state": "CO", "street": "100 PARIS CIR", "postcode": "80011"}}},
{"geometry": {"type": "Point", "coordinates": [-104.8282464676, 39.7279892726]}, "type": "Feature", "properties": {"collection_times": [{"days": "Mon-Fri", "time": "2:30pm"}, {"days": "Sat", "time": "12:40pm"}, {"days": "Sun", "time": "Closed"}], "id": "8001100059", "name": "USPS COLLECTION BOX - BLUE BOX", "address": {"city": "AURORA", "state": "CO", "street": "750 POTOMAC ST", "postcode": "80011"}}},
{"geometry": {"type": "Point", "coordinates": [-104.8145704631, 39.7193143856]}, "type": "Feature", "properties": {"collection_times": [{"days": "Mon-Sat", "time": "11:15am"}, {"days": "Sun", "time": "Closed"}], "id": "8001100064", "name": "USPS COLLECTION BOX - BLUE BOX", "address": {"city": "AURORA", "state": "CO", "street": "14855 E 2ND AVE", "postcode": "80011"}}},
{"geometry": {"type": "Point", "coordinates": [-104.8088473077, 39.7401593055]}, "type": "Feature", "properties": {"collection_times": [{"days": "Mon-Fri", "time": "4:45pm"}, {"days": "Sat", "time": "1:00pm"}, {"days": "Sun", "time": "Closed"}], "id": "8001100069", "name": "USPS COLLECTION BOX - PO LOBBY", "address": {"city": "AURORA", "state": "CO", "street": "15355 E COLFAX AVE", "postcode": "80011"}}},
{"geometry": {"type": "Point", "coordinates": [-104.8088473077, 39.7401593055]}, "type": "Feature", "properties": {"collection_times": [{"days": "Mon-Fri", "time": "4:45pm"}, {"days": "Sat", "time": "1:00pm"}, {"days": "Sun", "time": "Closed"}], "id": "8001100070", "name": "USPS COLLECTION BOX - PO LOBBY", "address": {"city": "AURORA", "state": "CO", "street": "15355 E COLFAX AVE", "postcode": "80011"}}},
{"geometry": {"type": "Point", "coordinates": [-104.7939106968, 39.7428668069]}, "type": "Feature", "properties": {"collection_times": [{"days": "Mon-Fri", "time": "1:15pm"}, {"days": "Sat-Sun", "time": "Closed"}], "id": "8001100071", "name": "USPS COLLECTION BOX - BLUE BOX", "address": {"city": "AURORA", "state": "CO", "street": "237 N TELLURIDE ST", "postcode": "80011"}}},
{"geometry": {"type": "Point", "coordinates": [-104.821297954, 39.7561998771]}, "type": "Feature", "properties": {"collection_times": [{"days": "Mon-Sat", "time": "12:00pm"}, {"days": "Sun", "time": "Closed"}], "id": "8001100072", "name": "USPS COLLECTION BOX - BLUE BOX", "address": {"city": "AURORA", "state": "CO", "street": "14380 E 28TH AVE", "postcode": "80011"}}},
{"geometry": {"type": "Point", "coordinates": [-104.7935819308, 39.762046208]}, "type": "Feature", "properties": {"collection_times": [{"days": "Mon-Fri", "time": "3:45pm"}, {"days": "Sat", "time": "2:12pm"}, {"days": "Sun", "time": "Closed"}], "id": "8001100073", "name": "USPS COLLECTION BOX - BLUE BOX", "address": {"city": "AURORA", "state": "CO", "street": "16751 E 32ND AVE", "postcode": "80011"}}},
{"geometry": {"type": "Point", "coordinates": [-104.8226406092, 39.7219914217]}, "type": "Feature", "properties": {"collection_times": [{"days": "Mon-Fri", "time": "3:10pm"}, {"days": "Sat", "time": "1:15pm"}, {"days": "Sun", "time": "Closed"}], "id": "8001100077", "name": "USPS COLLECTION BOX - BLUE BOX", "address": {"city": "AURORA", "state": "CO", "street": "14231 E 4TH AVE", "postcode": "80011"}}},
{"geometry": {"type": "Point", "coordinates": [-104.8226406092, 39.7219914217]}, "type": "Feature", "properties": {"collection_times": [{"days": "Mon-Fri", "time": "3:10pm"}, {"days": "Sat", "time": "1:15pm"}, {"days": "Sun", "time": "Closed"}], "id": "8001100078", "name": "USPS COLLECTION BOX - BLUE BOX", "address": {"city": "AURORA", "state": "CO", "street": "14231 E 4TH AVE", "postcode": "80011"}}},
{"geometry": {"type": "Point", "coordinates": [-104.8120225469, 39.7402047376]}, "type": "Feature", "properties": {"collection_times": [{"days": "Mon-Fri", "time": "12:25pm"}, {"days": "Sat", "time": "12:50pm"}, {"days": "Sun", "time": "Closed"}], "id": "8001100079", "name": "USPS COLLECTION BOX - BLUE BOX", "address": {"city": "AURORA", "state": "CO", "street": "15109 E COLFAX AVE", "postcode": "80011"}}},
{"geometry": {"type": "Point", "coordinates": [-104.7965630665, 39.7157729212]}, "type": "Feature", "properties": {"collection_times": [{"days": "Mon-Sat", "time": "10:30am"}, {"days": "Sun", "time": "Closed"}], "id": "8001100085", "name": "USPS COLLECTION BOX - BLUE BOX", "address": {"city": "AURORA", "state": "CO", "street": "16470 E HUGES DR", "postcode": "80011"}}},
{"geometry": {"type": "Point", "coordinates": [-104.8262545488, 39.7174228342]}, "type": "Feature", "properties": {"collection_times": [{"days": "Mon-Sat", "time": "10:30am"}, {"days": "Sun", "time": "Closed"}], "id": "8001100086", "name": "USPS COLLECTION BOX - BLUE BOX", "address": {"city": "AURORA", "state": "CO", "street": "6 ABILENE ST", "postcode": "80011"}}},
{"geometry": {"type": "Point", "coordinates": [-104.8635336272, 39.6970830053]}, "type": "Feature", "properties": {"collection_times": [{"days": "Mon-Fri", "time": "4:15pm"}, {"days": "Sat", "time": "12:40pm"}, {"days": "Sun", "time": "Closed"}], "id": "8001200000", "name": "USPS COLLECTION BOX - BLUE BOX", "address": {"city": "AURORA", "state": "CO", "street": "1074 S IRONTON ST", "postcode": "80012"}}},
{"geometry": {"type": "Point", "coordinates": [-104.8659794938, 39.7157749724]}, "type": "Feature", "properties": {"collection_times": [{"days": "Mon-Sat", "time": "10:00am"}, {"days": "Sun", "time": "Closed"}], "id": "8001200001", "name": "USPS COLLECTION BOX - BLUE BOX", "address": {"city": "AURORA", "state": "CO", "street": "10 S HAVANA ST", "postcode": "80012"}}},
{"geometry": {"type": "Point", "coordinates": [-104.8635336272, 39.6970830053]}, "type": "Feature", "properties": {"collection_times": [{"days": "Mon-Fri", "time": "4:15pm"}, {"days": "Sat", "time": "12:40pm"}, {"days": "Sun", "time": "Closed"}], "id": "8001200002", "name": "USPS COLLECTION BOX - BLUE BOX", "address": {"city": "AURORA", "state": "CO", "street": "1074 S IRONTON ST", "postcode": "80012"}}},
{"geometry": {"type": "Point", "coordinates": [-104.8635336272, 39.6970830053]}, "type": "Feature", "properties": {"collection_times": [{"days": "Mon-Fri", "time": "4:15pm"}, {"days": "Sat", "time": "12:40pm"}, {"days": "Sun", "time": "Closed"}], "id": "8001200003", "name": "USPS COLLECTION BOX - BLUE BOX", "address": {"city": "AURORA", "state": "CO", "street": "1074 S IRONTON ST", "postcode": "80012"}}},
{"geometry": {"type": "Point", "coordinates": [-104.8311691953, 39.6925179003]}, "type": "Feature", "properties": {"collection_times": [{"days": "Mon-Sat", "time": "12:00pm"}, {"days": "Sun", "time": "Closed"}], "id": "8001200006", "name": "USPS COLLECTION BOX - BLUE BOX", "address": {"city": "AURORA", "state": "CO", "street": "1330 S POTOMAC ST", "postcode": "80012"}}},
{"geometry": {"type": "Point", "coordinates": [-104.8234320087, 39.7112371418]}, "type": "Feature", "properties": {"collection_times": [{"days": "Mon-Sat", "time": "12:00pm"}, {"days": "Sun", "time": "Closed"}], "id": "8001200009", "name": "USPS COLLECTION BOX - BLUE BOX", "address": {"city": "AURORA", "state": "CO", "street": "14111 E ALAMEDA AVE", "postcode": "80012"}}},
{"geometry": {"type": "Point", "coordinates": [-104.8311555478, 39.6905755805]}, "type": "Feature", "properties": {"collection_times": [{"days": "Mon-Fri", "time": "2:30pm"}, {"days": "Sat", "time": "3:05pm"}, {"days": "Sun", "time": "Closed"}], "id": "8001200012", "name": "USPS COLLECTION BOX - BLUE BOX", "address": {"city": "AURORA", "state": "CO", "street": "1421 S POTOMAC ST", "postcode": "80012"}}},
{"geometry": {"type": "Point", "coordinates": [-104.8659475539, 39.6952802083]}, "type": "Feature", "properties": {"collection_times": [{"days": "Mon-Fri", "time": "1:05pm"}, {"days": "Sat", "time": "12:20pm"}, {"days": "Sun", "time": "Closed"}], "id": "8001200019", "name": "USPS COLLECTION BOX - BLUE BOX", "address": {"city": "AURORA", "state": "CO", "street": "1155 S HAVANA ST", "postcode": "80012"}}},
{"geometry": {"type": "Point", "coordinates": [-104.819245517, 39.6983227788]}, "type": "Feature", "properties": {"collection_times": [{"days": "Mon-Sat", "time": "10:00am"}, {"days": "Sun", "time": "Closed"}], "id": "8001200021", "name": "USPS COLLECTION BOX - BLUE BOX", "address": {"city": "AURORA", "state": "CO", "street": "999 S SABLE BLVD", "postcode": "80012"}}},
{"geometry": {"type": "Point", "coordinates": [-104.8423321441, 39.71045284]}, "type": "Feature", "properties": {"collection_times": [{"days": "Mon-Sat", "time": "9:00am"}, {"days": "Sun", "time": "Closed"}], "id": "8001200025", "name": "USPS COLLECTION BOX - BLUE BOX", "address": {"city": "AURORA", "state": "CO", "street": "302 S TROY ST", "postcode": "80012"}}},
{"geometry": {"type": "Point", "coordinates": [-104.8279449972, 39.711086906]}, "type": "Feature", "properties": {"collection_times": [{"days": "Mon-Sat", "time": "9:00am"}, {"days": "Sun", "time": "Closed"}], "id": "8001200027", "name": "USPS COLLECTION BOX - BLUE BOX", "address": {"city": "AURORA", "state": "CO", "street": "13700 E ALAMEDA AVE", "postcode": "80012"}}},
{"geometry": {"type": "Point", "coordinates": [-104.8464112304, 39.6964946136]}, "type": "Feature", "properties": {"collection_times": [{"days": "Mon-Sat", "time": "11:00am"}, {"days": "Sun", "time": "Closed"}], "id": "8001200029", "name": "USPS COLLECTION BOX - BLUE BOX", "address": {"city": "AURORA", "state": "CO", "street": "12162 E MISSISSIPPI AVE", "postcode": "80012"}}},
{"geometry": {"type": "Point", "coordinates": [-104.8417561351, 39.6989123315]}, "type": "Feature", "properties": {"collection_times": [{"days": "Mon-Sat", "time": "11:00am"}, {"days": "Sun", "time": "Closed"}], "id": "8001200037", "name": "USPS COLLECTION BOX - BLUE BOX", "address": {"city": "AURORA", "state": "CO", "street": "12700 E FORD AVE", "postcode": "80012"}}},
{"geometry": {"type": "Point", "coordinates": [-104.8108157514, 39.6965341448]}, "type": "Feature", "properties": {"collection_times": [{"days": "Mon-Fri", "time": "3:15pm"}, {"days": "Sat", "time": "3:35pm"}, {"days": "Sun", "time": "Closed"}], "id": "8001200040", "name": "USPS COLLECTION BOX - BLUE BOX", "address": {"city": "AURORA", "state": "CO", "street": "15250 E MISSISSIPPI AVE", "postcode": "80012"}}},
{"geometry": {"type": "Point", "coordinates": [-104.8378456317, 39.6997545065]}, "type": "Feature", "properties": {"collection_times": [{"days": "Mon-Fri", "time": "5:00pm"}, {"days": "Sat", "time": "3:00pm"}, {"days": "Sun", "time": "Closed"}], "id": "8001200054", "name": "USPS COLLECTION BOX - BLUE BOX", "address": {"city": "AURORA", "state": "CO", "street": "738 D PEORIA ST", "postcode": "80012"}}},
{"geometry": {"type": "Point", "coordinates": [-104.8378456317, 39.6997545065]}, "type": "Feature", "properties": {"collection_times": [{"days": "Mon-Fri", "time": "5:00pm"}, {"days": "Sat", "time": "3:00pm"}, {"days": "Sun", "time": "Closed"}], "id": "8001200055", "name": "USPS COLLECTION BOX - BLUE BOX", "address": {"city": "AURORA", "state": "CO", "street": "738 D PEORIA ST", "postcode": "80012"}}},
{"geometry": {"type": "Point", "coordinates": [-104.8378456317, 39.6997545065]}, "type": "Feature", "properties": {"collection_times": [{"days": "Mon-Fri", "time": "5:00pm"}, {"days": "Sat", "time": "3:00pm"}, {"days": "Sun", "time": "Closed"}], "id": "8001200058", "name": "USPS COLLECTION BOX - PO LOBBY", "address": {"city": "AURORA", "state": "CO", "street": "738 D PEORIA ST", "postcode": "80012"}}},
{"geometry": {"type": "Point", "coordinates": [-104.8659369073, 39.6897865469]}, "type": "Feature", "properties": {"collection_times": [{"days": "Mon-Fri", "time": "3:00pm"}, {"days": "Sat", "time": "12:00pm"}, {"days": "Sun", "time": "Closed"}], "id": "8001200061", "name": "USPS COLLECTION BOX - BLUE BOX", "address": {"city": "AURORA", "state": "CO", "street": "1450 S HAVANA ST", "postcode": "80012"}}},
{"geometry": {"type": "Point", "coordinates": [-104.8113764739, 39.6997032919]}, "type": "Feature", "properties": {"collection_times": [{"days": "Mon-Sat", "time": "11:00am"}, {"days": "Sun", "time": "Closed"}], "id": "8001200065", "name": "USPS COLLECTION BOX - BLUE BOX", "address": {"city": "AURORA", "state": "CO", "street": "910 S GRANBY WAY", "postcode": "80012"}}},
{"geometry": {"type": "Point", "coordinates": [-104.8122857252, 39.7087401775]}, "type": "Feature", "properties": {"collection_times": [{"days": "Mon-Sat", "time": "9:00am"}, {"days": "Sun", "time": "Closed"}], "id": "8001200070", "name": "USPS COLLECTION BOX - BLUE BOX", "address": {"city": "AURORA", "state": "CO", "street": "15151 E ALAMEDA PKWY", "postcode": "80012"}}},
{"geometry": {"type": "Point", "coordinates": [-104.8092376841, 39.6530036208]}, "type": "Feature", "properties": {"collection_times": [{"days": "Mon-Fri", "time": "3:00pm"}, {"days": "Sat", "time": "1:30pm"}, {"days": "Sun", "time": "Closed"}], "id": "8001300004", "name": "USPS COLLECTION BOX - BLUE BOX", "address": {"city": "AURORA", "state": "CO", "street": "15320 E HAMPDEN AVE", "postcode": "80013"}}},
{"geometry": {"type": "Point", "coordinates": [-104.7670229502, 39.6531376266]}, "type": "Feature", "properties": {"collection_times": [{"days": "Mon-Fri", "time": "3:15pm"}, {"days": "Sat", "time": "2:05pm"}, {"days": "Sun", "time": "Closed"}], "id": "8001300006", "name": "USPS COLLECTION BOX - BLUE BOX", "address": {"city": "AURORA", "state": "CO", "street": "18883 E HAMPDEN AVE", "postcode": "80013"}}},
{"geometry": {"type": "Point", "coordinates": [-104.7865836085, 39.673250112]}, "type": "Feature", "properties": {"collection_times": [{"days": "Mon-Fri", "time": "2:45pm"}, {"days": "Sat", "time": "11:30am"}, {"days": "Sun", "time": "Closed"}], "id": "8001300007", "name": "USPS COLLECTION BOX - BLUE BOX", "address": {"city": "AURORA", "state": "CO", "street": "17200 E ILIFF AVE", "postcode": "80013"}}},
{"geometry": {"type": "Point", "coordinates": [-104.790830163, 39.6751515289]}, "type": "Feature", "properties": {"collection_times": [{"days": "Mon-Fri", "time": "2:45pm"}, {"days": "Sat", "time": "11:30am"}, {"days": "Sun", "time": "Closed"}], "id": "8001300012", "name": "USPS COLLECTION BOX - BLUE BOX", "address": {"city": "AURORA", "state": "CO", "street": "2222 S BUCKLEY RD", "postcode": "80013"}}},
{"geometry": {"type": "Point", "coordinates": [-104.7915536306, 39.6395084249]}, "type": "Feature", "properties": {"collection_times": [{"days": "Mon-Fri", "time": "3:25pm"}, {"days": "Sat", "time": "1:50pm"}, {"days": "Sun", "time": "Closed"}], "id": "8001300014", "name": "USPS COLLECTION BOX - BLUE BOX", "address": {"city": "AURORA", "state": "CO", "street": "4271 S BUCKLEY RD", "postcode": "80013"}}},
{"geometry": {"type": "Point", "coordinates": [-104.7993854402, 39.641304456]}, "type": "Feature", "properties": {"collection_times": [{"days": "Mon-Fri", "time": "12:50pm"}, {"days": "Sat", "time": "1:55pm"}, {"days": "Sun", "time": "Closed"}], "id": "8001300018", "name": "USPS COLLECTION BOX - BLUE BOX", "address": {"city": "AURORA", "state": "CO", "street": "4106 S MEMPHIS WAY", "postcode": "80013"}}},
{"geometry": {"type": "Point", "coordinates": [-104.8088236485, 39.6788642867]}, "type": "Feature", "properties": {"collection_times": [{"days": "Mon-Fri", "time": "12:45pm"}, {"days": "Sat", "time": "11:30am"}, {"days": "Sun", "time": "Closed"}], "id": "8001300038", "name": "USPS COLLECTION BOX - BLUE BOX", "address": {"city": "AURORA", "state": "CO", "street": "2020 S HANNIBAL WAY", "postcode": "80013"}}},
{"geometry": {"type": "Point", "coordinates": [-104.7697434161, 39.6529480217]}, "type": "Feature", "properties": {"collection_times": [{"days": "Mon-Fri", "time": "3:15pm"}, {"days": "Sat", "time": "2:05pm"}, {"days": "Sun", "time": "Closed"}], "id": "8001300040", "name": "USPS COLLECTION BOX - BLUE BOX", "address": {"city": "AURORA", "state": "CO", "street": "18730 E HAMPDEN AVE", "postcode": "80013"}}},
{"geometry": {"type": "Point", "coordinates": [-104.7763632545, 39.6531219167]}, "type": "Feature", "properties": {"collection_times": [{"days": "Mon-Fri", "time": "3:20pm"}, {"days": "Sat", "time": "2:10pm"}, {"days": "Sun", "time": "Closed"}], "id": "8001300046", "name": "USPS COLLECTION BOX - BLUE BOX", "address": {"city": "AURORA", "state": "CO", "street": "18211 E HAMPDEN AVE", "postcode": "80013"}}},
{"geometry": {"type": "Point", "coordinates": [-104.863755531, 39.6690315318]}, "type": "Feature", "properties": {"collection_times": [{"days": "Mon-Fri", "time": "2:10pm"}, {"days": "Sat", "time": "1:20pm"}, {"days": "Sun", "time": "Closed"}], "id": "8001400016", "name": "USPS COLLECTION BOX - BLUE BOX", "address": {"city": "AURORA", "state": "CO", "street": "2600 S PARKER RD", "postcode": "80014"}}},
{"geometry": {"type": "Point", "coordinates": [-104.8629002517, 39.6682850847]}, "type": "Feature", "properties": {"collection_times": [{"days": "Mon-Fri", "time": "2:10pm"}, {"days": "Sat", "time": "1:15pm"}, {"days": "Sun", "time": "Closed"}], "id": "8001400017", "name": "USPS COLLECTION BOX - BLUE BOX", "address": {"city": "AURORA", "state": "CO", "street": "2620 S PARKER RD", "postcode": "80014"}}},
{"geometry": {"type": "Point", "coordinates": [-104.8659712131, 39.6742767719]}, "type": "Feature", "properties": {"collection_times": [{"days": "Mon-Fri", "time": "1:50pm"}, {"days": "Sat", "time": "1:20pm"}, {"days": "Sun", "time": "Closed"}], "id": "8001400035", "name": "USPS COLLECTION BOX - BLUE BOX", "address": {"city": "AURORA", "state": "CO", "street": "2300 S HAVANA ST", "postcode": "80014"}}},
{"geometry": {"type": "Point", "coordinates": [-104.8214056, 39.6780539599]}, "type": "Feature", "properties": {"collection_times": [{"days": "Mon-Fri", "time": "2:30pm"}, {"days": "Sat", "time": "11:50am"}, {"days": "Sun", "time": "Closed"}], "id": "8001400040", "name": "USPS COLLECTION BOX - BLUE BOX", "address": {"city": "AURORA", "state": "CO", "street": "14292 E EVANS AVE", "postcode": "80014"}}},
{"geometry": {"type": "Point", "coordinates": [-104.8111351503, 39.6550028215]}, "type": "Feature", "properties": {"collection_times": [{"days": "Mon-Fri", "time": "1:10pm"}, {"days": "Sat", "time": "1:00pm"}, {"days": "Sun", "time": "Closed"}], "id": "8001400041", "name": "USPS COLLECTION BOX - BLUE BOX", "address": {"city": "AURORA", "state": "CO", "street": "15200 E GIRARD AVE", "postcode": "80014"}}},
{"geometry": {"type": "Point", "coordinates": [-104.8135140808, 39.6531550396]}, "type": "Feature", "properties": {"collection_times": [{"days": "Mon-Fri", "time": "1:15pm"}, {"days": "Sat", "time": "1:00pm"}, {"days": "Sun", "time": "Closed"}], "id": "8001400042", "name": "USPS COLLECTION BOX - BLUE BOX", "address": {"city": "AURORA", "state": "CO", "street": "14991 E HAMPDEN AVE", "postcode": "80014"}}},
{"geometry": {"type": "Point", "coordinates": [-104.8586143913, 39.6631403962]}, "type": "Feature", "properties": {"collection_times": [{"days": "Mon-Fri", "time": "3:50pm"}, {"days": "Sat", "time": "1:00pm"}, {"days": "Sun", "time": "Closed"}], "id": "8001400057", "name": "USPS COLLECTION BOX - BLUE BOX", "address": {"city": "AURORA", "state": "CO", "street": "11100 E BETHANY DR", "postcode": "80014"}}},
{"geometry": {"type": "Point", "coordinates": [-104.8280345434, 39.671436508]}, "type": "Feature", "properties": {"collection_times": [{"days": "Mon-Fri", "time": "6:00pm"}, {"days": "Sat", "time": "3:00pm"}, {"days": "Sun", "time": "Closed"}], "id": "8001400064", "name": "USPS COLLECTION BOX - BLUE BOX", "address": {"city": "AURORA", "state": "CO", "street": "2500 S ABILENE ST", "postcode": "80014"}}},
{"geometry": {"type": "Point", "coordinates": [-104.8385098639, 39.6642901922]}, "type": "Feature", "properties": {"collection_times": [{"days": "Mon-Fri", "time": "6:00pm"}, {"days": "Sat", "time": "3:00pm"}, {"days": "Sun", "time": "Closed"}], "id": "8001400065", "name": "USPS COLLECTION BOX - BLUE BOX", "address": {"city": "AURORA", "state": "CO", "street": "2500 S ABILENE ST", "postcode": "80014"}}},
{"geometry": {"type": "Point", "coordinates": [-104.828038451, 39.6452587885]}, "type": "Feature", "properties": {"collection_times": [{"days": "Mon-Fri", "time": "3:55pm"}, {"days": "Sat", "time": "1:00pm"}, {"days": "Sun", "time": "Closed"}], "id": "8001400070", "name": "USPS COLLECTION BOX - BLUE BOX", "address": {"city": "AURORA", "state": "CO", "street": "3870 S ATCHISON WAY", "postcode": "80014"}}},
{"geometry": {"type": "Point", "coordinates": [-104.8392777441, 39.6742992481]}, "type": "Feature", "properties": {"collection_times": [{"days": "Mon-Fri", "time": "2:25pm"}, {"days": "Sat", "time": "1:30pm"}, {"days": "Sun", "time": "Closed"}], "id": "8001400074", "name": "USPS COLLECTION BOX - BLUE BOX", "address": {"city": "AURORA", "state": "CO", "street": "2323 S TROY ST", "postcode": "80014"}}},
{"geometry": {"type": "Point", "coordinates": [-104.8323140396, 39.6761019581]}, "type": "Feature", "properties": {"collection_times": [{"days": "Mon-Fri", "time": "1:30pm"}, {"days": "Sat", "time": "12:00pm"}, {"days": "Sun", "time": "Closed"}], "id": "8001400079", "name": "USPS COLLECTION BOX - BLUE BOX", "address": {"city": "AURORA", "state": "CO", "street": "2280 S XANADU WAY", "postcode": "80014"}}},
{"geometry": {"type": "Point", "coordinates": [-104.8423037531, 39.6748280308]}, "type": "Feature", "properties": {"collection_times": [{"days": "Mon-Fri", "time": "2:20pm"}, {"days": "Sat", "time": "1:30pm"}, {"days": "Sun", "time": "Closed"}], "id": "8001400093", "name": "USPS COLLECTION BOX - BLUE BOX", "address": {"city": "AURORA", "state": "CO", "street": "12500 E ILIFF AVE", "postcode": "80014"}}},
{"geometry": {"type": "Point", "coordinates": [-104.8423037531, 39.6748280308]}, "type": "Feature", "properties": {"collection_times": [{"days": "Mon-Fri", "time": "2:20pm"}, {"days": "Sat", "time": "1:30pm"}, {"days": "Sun", "time": "Closed"}], "id": "8001400094", "name": "USPS COLLECTION BOX - BLUE BOX", "address": {"city": "AURORA", "state": "CO", "street": "12500 E ILIFF AVE", "postcode": "80014"}}},
{"geometry": {"type": "Point", "coordinates": [-104.8280345434, 39.671436508]}, "type": "Feature", "properties": {"collection_times": [{"days": "Mon-Fri", "time": "6:00pm"}, {"days": "Sat", "time": "3:00pm"}, {"days": "Sun", "time": "Closed"}], "id": "8001400099", "name": "USPS COLLECTION BOX - PO LOBBY", "address": {"city": "AURORA", "state": "CO", "street": "2500 S ABILENE ST", "postcode": "80014"}}},
{"geometry": {"type": "Point", "coordinates": [-104.8280345434, 39.671436508]}, "type": "Feature", "properties": {"collection_times": [{"days": "Mon-Fri", "time": "6:00pm"}, {"days": "Sat", "time": "3:00pm"}, {"days": "Sun", "time": "Closed"}], "id": "8001400100", "name": "USPS COLLECTION BOX - PO LOBBY", "address": {"city": "AURORA", "state": "CO", "street": "2500 S ABILENE ST", "postcode": "80014"}}},
{"geometry": {"type": "Point", "coordinates": [-104.8474311323, 39.6758783467]}, "type": "Feature", "properties": {"collection_times": [{"days": "Mon-Fri", "time": "4:25pm"}, {"days": "Sat", "time": "1:00pm"}, {"days": "Sun", "time": "Closed"}], "id": "8001400105", "name": "USPS COLLECTION BOX - BLUE BOX", "address": {"city": "AURORA", "state": "CO", "street": "2241 S PEORIA ST", "postcode": "80014"}}},
{"geometry": {"type": "Point", "coordinates": [-104.8659859721, 39.6698620765]}, "type": "Feature", "properties": {"collection_times": [{"days": "Mon-Fri", "time": "1:55pm"}, {"days": "Sat", "time": "1:20pm"}, {"days": "Sun", "time": "Closed"}], "id": "8001400124", "name": "USPS COLLECTION BOX - BLUE BOX", "address": {"city": "AURORA", "state": "CO", "street": "2500 S HAVANA ST", "postcode": "80014"}}},
{"geometry": {"type": "Point", "coordinates": [-104.857123863, 39.6621845653]}, "type": "Feature", "properties": {"collection_times": [{"days": "Mon-Fri", "time": "4:05pm"}, {"days": "Sat", "time": "1:00pm"}, {"days": "Sun", "time": "Closed"}], "id": "8001400128", "name": "USPS COLLECTION BOX - BLUE BOX", "address": {"city": "AURORA", "state": "CO", "street": "3005 S PARKER RD", "postcode": "80014"}}},
{"geometry": {"type": "Point", "coordinates": [-104.812211643, 39.675944744]}, "type": "Feature", "properties": {"collection_times": [{"days": "Mon-Fri", "time": "4:00pm"}, {"days": "Sat", "time": "11:50am"}, {"days": "Sun", "time": "Closed"}], "id": "8001400130", "name": "USPS COLLECTION BOX - BLUE BOX", "address": {"city": "AURORA", "state": "CO", "street": "2228 S FRASER ST", "postcode": "80014"}}},
{"geometry": {"type": "Point", "coordinates": [-104.8472099119, 39.6601274644]}, "type": "Feature", "properties": {"collection_times": [{"days": "Mon-Fri", "time": "4:15pm"}, {"days": "Sat", "time": "1:10pm"}, {"days": "Sun", "time": "Closed"}], "id": "8001400131", "name": "USPS COLLECTION BOX - BLUE BOX", "address": {"city": "AURORA", "state": "CO", "street": "3150 S PEORIA ST", "postcode": "80014"}}},
{"geometry": {"type": "Point", "coordinates": [-104.8280345434, 39.671436508]}, "type": "Feature", "properties": {"collection_times": [{"days": "Mon-Fri", "time": "6:00pm"}, {"days": "Sat", "time": "3:00pm"}, {"days": "Sun", "time": "Closed"}], "id": "8001400138", "name": "USPS COLLECTION BOX - APC", "address": {"city": "AURORA", "state": "CO", "street": "2500 S ABILENE ST", "postcode": "80014"}}},
{"geometry": {"type": "Point", "coordinates": [-104.8629002517, 39.6682850847]}, "type": "Feature", "properties": {"collection_times": [{"days": "Mon-Fri", "time": "2:10pm"}, {"days": "Sat", "time": "1:15pm"}, {"days": "Sun", "time": "Closed"}], "id": "8001400139", "name": "USPS COLLECTION BOX - BLUE BOX", "address": {"city": "AURORA", "state": "CO", "street": "2620 S PARKER RD", "postcode": "80014"}}},
{"geometry": {"type": "Point", "coordinates": [-104.7710555419, 39.6180678703]}, "type": "Feature", "properties": {"collection_times": [{"days": "Mon-Sat", "time": "5:00pm"}, {"days": "Sun", "time": "Closed"}], "id": "8001500001", "name": "USPS COLLECTION BOX - BLUE BOX", "address": {"city": "CENTENNIAL", "state": "CO", "street": "18555 E SMOKY HILL RD", "postcode": "80015"}}},
{"geometry": {"type": "Point", "coordinates": [-104.7710555419, 39.6180678703]}, "type": "Feature", "properties": {"collection_times": [{"days": "Mon-Sat", "time": "5:00pm"}, {"days": "Sun", "time": "Closed"}], "id": "8001500002", "name": "USPS COLLECTION BOX - BLUE BOX", "address": {"city": "CENTENNIAL", "state": "CO", "street": "18555 E SMOKY HILL RD", "postcode": "80015"}}},
{"geometry": {"type": "Point", "coordinates": [-104.7710555419, 39.6180678703]}, "type": "Feature", "properties": {"collection_times": [{"days": "Mon-Sat", "time": "5:00pm"}, {"days": "Sun", "time": "Closed"}], "id": "8001500003", "name": "USPS COLLECTION BOX - BLUE BOX", "address": {"city": "CENTENNIAL", "state": "CO", "street": "18555 E SMOKY HILL RD", "postcode": "80015"}}},
{"geometry": {"type": "Point", "coordinates": [-104.7710555419, 39.6180678703]}, "type": "Feature", "properties": {"collection_times": [{"days": "Mon-Sat", "time": "5:00pm"}, {"days": "Sun", "time": "Closed"}], "id": "8001500004", "name": "USPS COLLECTION BOX - BLUE BOX", "address": {"city": "CENTENNIAL", "state": "CO", "street": "18555 E SMOKY HILL RD", "postcode": "80015"}}},
{"geometry": {"type": "Point", "coordinates": [-104.7710555419, 39.6180678703]}, "type": "Feature", "properties": {"collection_times": [{"days": "Mon-Fri", "time": "6:00pm"}, {"days": "Sat", "time": "5:00pm"}, {"days": "Sun", "time": "Closed"}], "id": "8001500005", "name": "USPS COLLECTION BOX - PO LOBBY", "address": {"city": "CENTENNIAL", "state": "CO", "street": "18555 E SMOKY HILL RD", "postcode": "80015"}}},
{"geometry": {"type": "Point", "coordinates": [-104.7933493623, 39.6266532099]}, "type": "Feature", "properties": {"collection_times": [{"days": "Mon-Sat", "time": "1:45pm"}, {"days": "Sun", "time": "Closed"}], "id": "8001500008", "name": "USPS COLLECTION BOX - BLUE BOX", "address": {"city": "CENTENNIAL", "state": "CO", "street": "16746 E SMOKY HILL RD", "postcode": "80015"}}},
{"geometry": {"type": "Point", "coordinates": [-104.8278574582, 39.6366669575]}, "type": "Feature", "properties": {"collection_times": [{"days": "Mon-Fri", "time": "3:45pm"}, {"days": "Sat", "time": "2:15pm"}, {"days": "Sun", "time": "Closed"}], "id": "8001500009", "name": "USPS COLLECTION BOX - BLUE BOX", "address": {"city": "CENTENNIAL", "state": "CO", "street": "13731 E RICE PL", "postcode": "80015"}}},
{"geometry": {"type": "Point", "coordinates": [-104.7900580446, 39.6386182661]}, "type": "Feature", "properties": {"collection_times": [{"days": "Mon-Fri", "time": "2:40pm"}, {"days": "Sat", "time": "1:50pm"}, {"days": "Sun", "time": "Closed"}], "id": "8001500013", "name": "USPS COLLECTION BOX - BLUE BOX", "address": {"city": "CENTENNIAL", "state": "CO", "street": "16921 E QUINCY AVE", "postcode": "80015"}}},
{"geometry": {"type": "Point", "coordinates": [-104.7710555419, 39.6180678703]}, "type": "Feature", "properties": {"collection_times": [{"days": "Mon-Fri", "time": "6:00pm"}, {"days": "Sat", "time": "5:00pm"}, {"days": "Sun", "time": "Closed"}], "id": "8001500016", "name": "USPS COLLECTION BOX - APC", "address": {"city": "CENTENNIAL", "state": "CO", "street": "18555 E SMOKY HILL RD", "postcode": "80015"}}},
{"geometry": {"type": "Point", "coordinates": [-104.7590085999, 39.6141216554]}, "type": "Feature", "properties": {"collection_times": [{"days": "Mon-Fri", "time": "1:50pm"}, {"days": "Sat", "time": "1:30pm"}, {"days": "Sun", "time": "Closed"}], "id": "8001500017", "name": "USPS COLLECTION BOX - BLUE BOX", "address": {"city": "CENTENNIAL", "state": "CO", "street": "19711 E SMOKY HILL RD", "postcode": "80015"}}},
{"geometry": {"type": "Point", "coordinates": [-104.813883164, 39.6240873719]}, "type": "Feature", "properties": {"collection_times": [{"days": "Mon-Fri", "time": "1:40pm"}, {"days": "Sat", "time": "2:15pm"}, {"days": "Sun", "time": "Closed"}], "id": "8001500020", "name": "USPS COLLECTION BOX - BLUE BOX", "address": {"city": "CENTENNIAL", "state": "CO", "street": "5099 S FAIRPLAY ST", "postcode": "80015"}}},
{"geometry": {"type": "Point", "coordinates": [-104.7623210358, 39.6383854968]}, "type": "Feature", "properties": {"collection_times": [{"days": "Mon-Sat", "time": "10:00am"}, {"days": "Sun", "time": "Closed"}], "id": "8001500022", "name": "USPS COLLECTION BOX - BLUE BOX", "address": {"city": "CENTENNIAL", "state": "CO", "street": "19000 E QUINCY AVE", "postcode": "80015"}}},
{"geometry": {"type": "Point", "coordinates": [-104.7710555419, 39.6180678703]}, "type": "Feature", "properties": {"collection_times": [{"days": "Mon-Fri", "time": "6:00pm"}, {"days": "Sat", "time": "5:00pm"}, {"days": "Sun", "time": "Closed"}], "id": "8001500024", "name": "USPS COLLECTION BOX - APC", "address": {"city": "CENTENNIAL", "state": "CO", "street": "18555 E SMOKY HILL RD", "postcode": "80015"}}},
{"geometry": {"type": "Point", "coordinates": [-104.8087580292, 39.610765686]}, "type": "Feature", "properties": {"collection_times": [{"days": "Mon-Fri", "time": "1:35pm"}, {"days": "Sat", "time": "1:50pm"}, {"days": "Sun", "time": "Closed"}], "id": "8001600000", "name": "USPS COLLECTION BOX - BLUE BOX", "address": {"city": "CENTENNIAL", "state": "CO", "street": "15460 E ORCHARD RD", "postcode": "80016"}}},
{"geometry": {"type": "Point", "coordinates": [-104.8051848798, 39.6005744803]}, "type": "Feature", "properties": {"collection_times": [{"days": "Mon-Fri", "time": "1:30pm"}, {"days": "Sat", "time": "12:00pm"}, {"days": "Sun", "time": "Closed"}], "id": "8001600001", "name": "USPS COLLECTION BOX - BLUE BOX", "address": {"city": "CENTENNIAL", "state": "CO", "street": "6412 S PARKER RD", "postcode": "80016"}}},
{"geometry": {"type": "Point", "coordinates": [-104.7167504034, 39.6046016718]}, "type": "Feature", "properties": {"collection_times": [{"days": "Mon-Fri", "time": "2:30pm"}, {"days": "Sat", "time": "12:05pm"}, {"days": "Sun", "time": "Closed"}], "id": "8001600003", "name": "USPS COLLECTION BOX - BLUE BOX", "address": {"city": "CENTENNIAL", "state": "CO", "street": "6100 S GUN CLUB RD", "postcode": "80016"}}},
{"geometry": {"type": "Point", "coordinates": [-104.7251742542, 39.5743888998]}, "type": "Feature", "properties": {"collection_times": [{"days": "Mon-Fri", "time": "2:15pm"}, {"days": "Sat", "time": "12:05pm"}, {"days": "Sun", "time": "Closed"}], "id": "8001600004", "name": "USPS COLLECTION BOX - BLUE BOX", "address": {"city": "CENTENNIAL", "state": "CO", "street": "22675 E AURORA PKWY", "postcode": "80016"}}},
{"geometry": {"type": "Point", "coordinates": [-104.7911703728, 39.7063541122]}, "type": "Feature", "properties": {"collection_times": [{"days": "Mon-Fri", "time": "5:30pm"}, {"days": "Sat", "time": "4:45pm"}, {"days": "Sun", "time": "Closed"}], "id": "8001700006", "name": "USPS COLLECTION BOX - EXPRESS", "address": {"city": "AURORA", "state": "CO", "street": "16890 E ALAMEDA PKWY", "postcode": "80017"}}},
{"geometry": {"type": "Point", "coordinates": [-104.7908994542, 39.6847518735]}, "type": "Feature", "properties": {"collection_times": [{"days": "Mon-Fri", "time": "4:05pm"}, {"days": "Sat", "time": "3:45pm"}, {"days": "Sun", "time": "Closed"}], "id": "8001700009", "name": "USPS COLLECTION BOX - BLUE BOX", "address": {"city": "AURORA", "state": "CO", "street": "1730 S BUCKLEY RD", "postcode": "80017"}}},
{"geometry": {"type": "Point", "coordinates": [-104.8011749996, 39.7089123195]}, "type": "Feature", "properties": {"collection_times": [{"days": "Mon-Fri", "time": "11:50am"}, {"days": "Sat", "time": "1:45pm"}, {"days": "Sun", "time": "Closed"}], "id": "8001700012", "name": "USPS COLLECTION BOX - BLUE BOX", "address": {"city": "AURORA", "state": "CO", "street": "400 S KALISPELL WAY", "postcode": "80017"}}},
{"geometry": {"type": "Point", "coordinates": [-104.7911703728, 39.7063541122]}, "type": "Feature", "properties": {"collection_times": [{"days": "Mon-Fri", "time": "5:30pm"}, {"days": "Sat", "time": "4:45pm"}, {"days": "Sun", "time": "Closed"}], "id": "8001700016", "name": "USPS COLLECTION BOX - PO LOBBY", "address": {"city": "AURORA", "state": "CO", "street": "16890 E ALAMEDA PKWY", "postcode": "80017"}}},
{"geometry": {"type": "Point", "coordinates": [-104.7911703728, 39.7063541122]}, "type": "Feature", "properties": {"collection_times": [{"days": "Mon-Fri", "time": "5:30pm"}, {"days": "Sat", "time": "4:45pm"}, {"days": "Sun", "time": "Closed"}], "id": "8001700017", "name": "USPS COLLECTION BOX - PO LOBBY", "address": {"city": "AURORA", "state": "CO", "street": "16890 E ALAMEDA PKWY", "postcode": "80017"}}},
{"geometry": {"type": "Point", "coordinates": [-104.7911703728, 39.7063541122]}, "type": "Feature", "properties": {"collection_times": [{"days": "Mon-Fri", "time": "5:30pm"}, {"days": "Sat", "time": "4:45pm"}, {"days": "Sun", "time": "Closed"}], "id": "8001700018", "name": "USPS COLLECTION BOX - PO LOBBY", "address": {"city": "AURORA", "state": "CO", "street": "16890 E ALAMEDA PKWY", "postcode": "80017"}}},
{"geometry": {"type": "Point", "coordinates": [-104.7911703728, 39.7063541122]}, "type": "Feature", "properties": {"collection_times": [{"days": "Mon-Fri", "time": "5:30pm"}, {"days": "Sat", "time": "4:45pm"}, {"days": "Sun", "time": "Closed"}], "id": "8001700019", "name": "USPS COLLECTION BOX - PO LOBBY", "address": {"city": "AURORA", "state": "CO", "street": "16890 E ALAMEDA PKWY", "postcode": "80017"}}},
{"geometry": {"type": "Point", "coordinates": [-104.7911703728, 39.7063541122]}, "type": "Feature", "properties": {"collection_times": [{"days": "Mon-Fri", "time": "5:30pm"}, {"days": "Sat", "time": "4:45pm"}, {"days": "Sun", "time": "Closed"}], "id": "8001700021", "name": "USPS COLLECTION BOX - BLUE BOX", "address": {"city": "AURORA", "state": "CO", "street": "16890 E ALAMEDA PKWY", "postcode": "80017"}}},
{"geometry": {"type": "Point", "coordinates": [-104.7909479556, 39.6949596264]}, "type": "Feature", "properties": {"collection_times": [{"days": "Mon-Fri", "time": "4:05pm"}, {"days": "Sat", "time": "3:45pm"}, {"days": "Sun", "time": "Closed"}], "id": "8001700022", "name": "USPS COLLECTION BOX - BLUE BOX", "address": {"city": "AURORA", "state": "CO", "street": "1200 S BUCKLEY RD", "postcode": "80017"}}},
{"geometry": {"type": "Point", "coordinates": [-104.7911703728, 39.7063541122]}, "type": "Feature", "properties": {"collection_times": [{"days": "Mon-Fri", "time": "5:30pm"}, {"days": "Sat", "time": "4:45pm"}, {"days": "Sun", "time": "Closed"}], "id": "8001700023", "name": "USPS COLLECTION BOX - APC", "address": {"city": "AURORA", "state": "CO", "street": "16890 E ALAMEDA PKWY", "postcode": "80017"}}},
{"geometry": {"type": "Point", "coordinates": [-105.0676145853, 39.9159290023]}, "type": "Feature", "properties": {"collection_times": [{"days": "Mon-Fri", "time": "6:00pm"}, {"days": "Sat", "time": "4:30pm"}, {"days": "Sun", "time": "Closed"}], "id": "8002000000", "name": "USPS COLLECTION BOX - BLUE BOX", "address": {"city": "WESTMINSTER", "state": "CO", "street": "280 E 1ST AVE", "postcode": "80020"}}},
{"geometry": {"type": "Point", "coordinates": [-105.0676145853, 39.9159290023]}, "type": "Feature", "properties": {"collection_times": [{"days": "Mon-Fri", "time": "6:00pm"}, {"days": "Sat", "time": "4:30pm"}, {"days": "Sun", "time": "Closed"}], "id": "8002000001", "name": "USPS COLLECTION BOX - BLUE BOX", "address": {"city": "WESTMINSTER", "state": "CO", "street": "280 E 1ST AVE", "postcode": "80020"}}},
{"geometry": {"type": "Point", "coordinates": [-105.0676145853, 39.9159290023]}, "type": "Feature", "properties": {"collection_times": [{"days": "Mon-Fri", "time": "6:00pm"}, {"days": "Sat", "time": "4:30pm"}, {"days": "Sun", "time": "Closed"}], "id": "8002000002", "name": "USPS COLLECTION BOX - BLUE BOX", "address": {"city": "WESTMINSTER", "state": "CO", "street": "280 E 1ST AVE", "postcode": "80020"}}},
{"geometry": {"type": "Point", "coordinates": [-105.0669094232, 39.921692617]}, "type": "Feature", "properties": {"collection_times": [{"days": "Mon-Fri", "time": "5:30pm"}, {"days": "Sat", "time": "12:45pm"}, {"days": "Sun", "time": "Closed"}], "id": "8002000003", "name": "USPS COLLECTION BOX - EXPRESS", "address": {"city": "WESTMINSTER", "state": "CO", "street": "280 E 1ST AVE", "postcode": "80020"}}},
{"geometry": {"type": "Point", "coordinates": [-105.0545561654, 39.8997345551]}, "type": "Feature", "properties": {"collection_times": [{"days": "Mon-Fri", "time": "3:45pm"}, {"days": "Sat", "time": "2:00pm"}, {"days": "Sun", "time": "Closed"}], "id": "8002000004", "name": "USPS COLLECTION BOX - BLUE BOX", "address": {"city": "WESTMINSTER", "state": "CO", "street": "5390 W 112TH AVE", "postcode": "80020"}}},
{"geometry": {"type": "Point", "coordinates": [-105.094349722, 39.9278298305]}, "type": "Feature", "properties": {"collection_times": [{"days": "Mon-Fri", "time": "3:15pm"}, {"days": "Sat", "time": "1:15pm"}, {"days": "Sun", "time": "Closed"}], "id": "8002000006", "name": "USPS COLLECTION BOX - BLUE BOX", "address": {"city": "WESTMINSTER", "state": "CO", "street": "710 BURBANK ST", "postcode": "80020"}}},
{"geometry": {"type": "Point", "coordinates": [-105.0743168268, 39.931603888]}, "type": "Feature", "properties": {"collection_times": [{"days": "Mon-Sat", "time": "10:00am"}, {"days": "Sun", "time": "Closed"}], "id": "8002000008", "name": "USPS COLLECTION BOX - BLUE BOX", "address": {"city": "WESTMINSTER", "state": "CO", "street": "130TH E WESTLAKE DR", "postcode": "80020"}}},
{"geometry": {"type": "Point", "coordinates": [-105.0286020457, 39.9381298542]}, "type": "Feature", "properties": {"collection_times": [{"days": "Mon-Sat", "time": "10:00am"}, {"days": "Sun", "time": "Closed"}], "id": "8002000009", "name": "USPS COLLECTION BOX - BLUE BOX", "address": {"city": "WESTMINSTER", "state": "CO", "street": "3393 BRIARWOOD DR", "postcode": "80020"}}},
{"geometry": {"type": "Point", "coordinates": [-105.0818706879, 39.9288294308]}, "type": "Feature", "properties": {"collection_times": [{"days": "Mon-Sat", "time": "10:15am"}, {"days": "Sun", "time": "Closed"}], "id": "8002000012", "name": "USPS COLLECTION BOX - BLUE BOX", "address": {"city": "WESTMINSTER", "state": "CO", "street": "1000 E 10TH AVE", "postcode": "80020"}}},
{"geometry": {"type": "Point", "coordinates": [-105.0954220464, 39.9249544543]}, "type": "Feature", "properties": {"collection_times": [{"days": "Mon-Fri", "time": "3:15pm"}, {"days": "Sat", "time": "1:30pm"}, {"days": "Sun", "time": "Closed"}], "id": "8002000014", "name": "USPS COLLECTION BOX - BLUE BOX", "address": {"city": "WESTMINSTER", "state": "CO", "street": "555 BURBANK ST", "postcode": "80020"}}},
{"geometry": {"type": "Point", "coordinates": [-105.0859980317, 39.9229879795]}, "type": "Feature", "properties": {"collection_times": [{"days": "Mon-Fri", "time": "3:15pm"}, {"days": "Sat", "time": "1:15pm"}, {"days": "Sun", "time": "Closed"}], "id": "8002000018", "name": "USPS COLLECTION BOX - BLUE BOX", "address": {"city": "WESTMINSTER", "state": "CO", "street": "12 GARDEN CTR", "postcode": "80020"}}},
{"geometry": {"type": "Point", "coordinates": [-105.0676145853, 39.9159290023]}, "type": "Feature", "properties": {"collection_times": [{"days": "Mon-Fri", "time": "6:00pm"}, {"days": "Sat", "time": "4:30pm"}, {"days": "Sun", "time": "Closed"}], "id": "8002000022", "name": "USPS COLLECTION BOX - BLUE BOX", "address": {"city": "WESTMINSTER", "state": "CO", "street": "280 E 1ST AVE", "postcode": "80020"}}},
{"geometry": {"type": "Point", "coordinates": [-105.0669902471, 39.9212052603]}, "type": "Feature", "properties": {"collection_times": [{"days": "Mon-Fri", "time": "4:15pm"}, {"days": "Sat", "time": "2:15pm"}, {"days": "Sun", "time": "Closed"}], "id": "8002000023", "name": "USPS COLLECTION BOX - BLUE BOX", "address": {"city": "WESTMINSTER", "state": "CO", "street": "1 DESCOMBES DR", "postcode": "80020"}}},
{"geometry": {"type": "Point", "coordinates": [-105.0884798796, 39.9221528104]}, "type": "Feature", "properties": {"collection_times": [{"days": "Mon-Fri", "time": "3:00pm"}, {"days": "Sat", "time": "1:15pm"}, {"days": "Sun", "time": "Closed"}], "id": "8002000024", "name": "USPS COLLECTION BOX - BLUE BOX", "address": {"city": "WESTMINSTER", "state": "CO", "street": "1660 W MIDWAY BLVD", "postcode": "80020"}}},
{"geometry": {"type": "Point", "coordinates": [-105.0676145853, 39.9159290023]}, "type": "Feature", "properties": {"collection_times": [{"days": "Mon-Fri", "time": "6:00pm"}, {"days": "Sat", "time": "4:30pm"}, {"days": "Sun", "time": "Closed"}], "id": "8002000025", "name": "USPS COLLECTION BOX - PO LOBBY", "address": {"city": "WESTMINSTER", "state": "CO", "street": "280 E 1ST AVE", "postcode": "80020"}}},
{"geometry": {"type": "Point", "coordinates": [-105.0676145853, 39.9159290023]}, "type": "Feature", "properties": {"collection_times": [{"days": "Mon-Fri", "time": "6:00pm"}, {"days": "Sat", "time": "4:30pm"}, {"days": "Sun", "time": "Closed"}], "id": "8002000026", "name": "USPS COLLECTION BOX - PO LOBBY", "address": {"city": "WESTMINSTER", "state": "CO", "street": "280 E 1ST AVE", "postcode": "80020"}}},
{"geometry": {"type": "Point", "coordinates": [-105.0530821985, 39.9170093049]}, "type": "Feature", "properties": {"collection_times": [{"days": "Mon-Fri", "time": "4:00pm"}, {"days": "Sat", "time": "2:15pm"}, {"days": "Sun", "time": "Closed"}], "id": "8002000032", "name": "USPS COLLECTION BOX - BLUE BOX", "address": {"city": "WESTMINSTER", "state": "CO", "street": "12167 SHERIDAN BLVD", "postcode": "80020"}}},
{"geometry": {"type": "Point", "coordinates": [-105.0904900392, 39.9354318023]}, "type": "Feature", "properties": {"collection_times": [{"days": "Mon-Sat", "time": "10:15am"}, {"days": "Sun", "time": "Closed"}], "id": "8002000033", "name": "USPS COLLECTION BOX - BLUE BOX", "address": {"city": "WESTMINSTER", "state": "CO", "street": "1150 US HIGHWAY 287", "postcode": "80020"}}},
{"geometry": {"type": "Point", "coordinates": [-105.0743168268, 39.931603888]}, "type": "Feature", "properties": {"collection_times": [{"days": "Mon-Sat", "time": "10:00am"}, {"days": "Sun", "time": "Closed"}], "id": "8002000034", "name": "USPS COLLECTION BOX - BLUE BOX", "address": {"city": "WESTMINSTER", "state": "CO", "street": "3600 W 144TH AVE", "postcode": "80020"}}},
{"geometry": {"type": "Point", "coordinates": [-105.0676145853, 39.9159290023]}, "type": "Feature", "properties": {"collection_times": [{"days": "Mon-Fri", "time": "6:00pm"}, {"days": "Sat", "time": "4:30pm"}, {"days": "Sun", "time": "Closed"}], "id": "8002000035", "name": "USPS COLLECTION BOX - APC", "address": {"city": "WESTMINSTER", "state": "CO", "street": "280 E 1ST AVE", "postcode": "80020"}}},
{"geometry": {"type": "Point", "coordinates": [-105.0345054408, 39.9390935327]}, "type": "Feature", "properties": {"collection_times": [{"days": "Mon-Sat", "time": "10:00am"}, {"days": "Sun", "time": "Closed"}], "id": "8002000036", "name": "USPS COLLECTION BOX - BLUE BOX", "address": {"city": "WESTMINSTER", "state": "CO", "street": "13201 LOWELL BLVD", "postcode": "80020"}}},
{"geometry": {"type": "Point", "coordinates": [-105.111329915, 39.9178208147]}, "type": "Feature", "properties": {"collection_times": [{"days": "Mon-Fri", "time": "2:45pm"}, {"days": "Sat", "time": "3:00pm"}, {"days": "Sun", "time": "Closed"}], "id": "8002100000", "name": "USPS COLLECTION BOX - BLUE BOX", "address": {"city": "BROOMFIELD", "state": "CO", "street": "310 INTERLOCKEN PRKWY", "postcode": "80021"}}},
{"geometry": {"type": "Point", "coordinates": [-105.1024993632, 39.8864937274]}, "type": "Feature", "properties": {"collection_times": [{"days": "Mon-Fri", "time": "2:45pm"}, {"days": "Sat", "time": "3:00pm"}, {"days": "Sun", "time": "Closed"}], "id": "8002100001", "name": "USPS COLLECTION BOX - EXPRESS", "address": {"city": "BROOMFIELD", "state": "CO", "street": "310 INTERLOCKEN PRKWY", "postcode": "80021"}}},
{"geometry": {"type": "Point", "coordinates": [-105.1080874891, 39.9128001652]}, "type": "Feature", "properties": {"collection_times": [{"days": "Mon-Fri", "time": "3:00pm"}, {"days": "Sat", "time": "3:15pm"}, {"days": "Sun", "time": "Closed"}], "id": "8002100002", "name": "USPS COLLECTION BOX - BLUE BOX", "address": {"city": "BROOMFIELD", "state": "CO", "street": "11900 AIRPORT WAY", "postcode": "80021"}}},
{"geometry": {"type": "Point", "coordinates": [-105.1024993632, 39.8864937274]}, "type": "Feature", "properties": {"collection_times": [{"days": "Mon-Fri", "time": "3:00pm"}, {"days": "Sat", "time": "3:15pm"}, {"days": "Sun", "time": "Closed"}], "id": "8002100003", "name": "USPS COLLECTION BOX - EXPRESS", "address": {"city": "BROOMFIELD", "state": "CO", "street": "11900 AIRPORT WAY", "postcode": "80021"}}},
{"geometry": {"type": "Point", "coordinates": [-105.0955516083, 39.877365984]}, "type": "Feature", "properties": {"collection_times": [{"days": "Mon-Sat", "time": "3:45pm"}, {"days": "Sun", "time": "Closed"}], "id": "8002100004", "name": "USPS COLLECTION BOX - BLUE BOX", "address": {"city": "BROOMFIELD", "state": "CO", "street": "9983 WADSWORTH PKWY", "postcode": "80021"}}},
{"geometry": {"type": "Point", "coordinates": [-105.0955516083, 39.877365984]}, "type": "Feature", "properties": {"collection_times": [{"days": "Mon-Sat", "time": "3:45pm"}, {"days": "Sun", "time": "Closed"}], "id": "8002100005", "name": "USPS COLLECTION BOX - BLUE BOX", "address": {"city": "BROOMFIELD", "state": "CO", "street": "9983 WADSWORTH PKWY", "postcode": "80021"}}},
{"geometry": {"type": "Point", "coordinates": [-105.0820836205, 39.8606637864]}, "type": "Feature", "properties": {"collection_times": [{"days": "Mon-Fri", "time": "3:15pm"}, {"days": "Sat", "time": "3:30pm"}, {"days": "Sun", "time": "Closed"}], "id": "8002100006", "name": "USPS COLLECTION BOX - BLUE BOX", "address": {"city": "BROOMFIELD", "state": "CO", "street": "9035 WADSWORTH PKWY", "postcode": "80021"}}},
{"geometry": {"type": "Point", "coordinates": [-105.1024993632, 39.8864937274]}, "type": "Feature", "properties": {"collection_times": [{"days": "Mon-Fri", "time": "3:15pm"}, {"days": "Sat", "time": "3:30pm"}, {"days": "Sun", "time": "Closed"}], "id": "8002100007", "name": "USPS COLLECTION BOX - EXPRESS", "address": {"city": "BROOMFIELD", "state": "CO", "street": "9035 WADSWORTH PKWY", "postcode": "80021"}}},
{"geometry": {"type": "Point", "coordinates": [-105.0839444126, 39.8597994651]}, "type": "Feature", "properties": {"collection_times": [{"days": "Mon-Fri", "time": "3:15pm"}, {"days": "Sat", "time": "3:30pm"}, {"days": "Sun", "time": "Closed"}], "id": "8002100008", "name": "USPS COLLECTION BOX - BLUE BOX", "address": {"city": "BROOMFIELD", "state": "CO", "street": "7700 W 90TH AVE", "postcode": "80021"}}},
{"geometry": {"type": "Point", "coordinates": [-105.0793829252, 39.856524613]}, "type": "Feature", "properties": {"collection_times": [{"days": "Mon-Fri", "time": "3:30pm"}, {"days": "Sat", "time": "3:45pm"}, {"days": "Sun", "time": "Closed"}], "id": "8002100010", "name": "USPS COLLECTION BOX - BLUE BOX", "address": {"city": "BROOMFIELD", "state": "CO", "street": "7325 W 88TH AVE", "postcode": "80021"}}},
{"geometry": {"type": "Point", "coordinates": [-105.094121411, 39.8836131903]}, "type": "Feature", "properties": {"collection_times": [{"days": "Mon-Sat", "time": "11:00am"}, {"days": "Sun", "time": "Closed"}], "id": "8002100012", "name": "USPS COLLECTION BOX - BLUE BOX", "address": {"city": "BROOMFIELD", "state": "CO", "street": "10305 DOVER ST", "postcode": "80021"}}},
{"geometry": {"type": "Point", "coordinates": [-105.0824414158, 39.8801013584]}, "type": "Feature", "properties": {"collection_times": [{"days": "Mon-Sat", "time": "11:00am"}, {"days": "Sun", "time": "Closed"}], "id": "8002100018", "name": "USPS COLLECTION BOX - BLUE BOX", "address": {"city": "BROOMFIELD", "state": "CO", "street": "7605 CHURCH RANCH BLVD", "postcode": "80021"}}},
{"geometry": {"type": "Point", "coordinates": [-105.1269807374, 39.9220333395]}, "type": "Feature", "properties": {"collection_times": [{"days": "Mon-Fri", "time": "2:30pm"}, {"days": "Sat", "time": "2:45pm"}, {"days": "Sun", "time": "Closed"}], "id": "8002100022", "name": "USPS COLLECTION BOX - BLUE BOX", "address": {"city": "BROOMFIELD", "state": "CO", "street": "577 ELDORADO BLVD", "postcode": "80021"}}},
{"geometry": {"type": "Point", "coordinates": [-105.1368731932, 39.9215875727]}, "type": "Feature", "properties": {"collection_times": [{"days": "Mon-Fri", "time": "2:30pm"}, {"days": "Sat", "time": "3:00pm"}, {"days": "Sun", "time": "Closed"}], "id": "8002100023", "name": "USPS COLLECTION BOX - BLUE BOX", "address": {"city": "BROOMFIELD", "state": "CO", "street": "878 ELDORADO BLVD", "postcode": "80021"}}},
{"geometry": {"type": "Point", "coordinates": [-105.146762042, 39.9162144257]}, "type": "Feature", "properties": {"collection_times": [{"days": "Mon-Fri", "time": "2:30pm"}, {"days": "Sat", "time": "2:45pm"}, {"days": "Sun", "time": "Closed"}], "id": "8002100024", "name": "USPS COLLECTION BOX - BLUE BOX", "address": {"city": "BROOMFIELD", "state": "CO", "street": "1077 ELDORADO BLVD", "postcode": "80021"}}},
{"geometry": {"type": "Point", "coordinates": [-105.1024993632, 39.8864937274]}, "type": "Feature", "properties": {"collection_times": [{"days": "Mon-Fri", "time": "2:30pm"}, {"days": "Sat", "time": "2:45pm"}, {"days": "Sun", "time": "Closed"}], "id": "8002100025", "name": "USPS COLLECTION BOX - EXPRESS", "address": {"city": "BROOMFIELD", "state": "CO", "street": "577 ELDORADO BLVD", "postcode": "80021"}}},
{"geometry": {"type": "Point", "coordinates": [-105.1024993632, 39.8864937274]}, "type": "Feature", "properties": {"collection_times": [{"days": "Mon-Fri", "time": "2:30pm"}, {"days": "Sat", "time": "2:45pm"}, {"days": "Sun", "time": "Closed"}], "id": "8002100028", "name": "USPS COLLECTION BOX - EXPRESS", "address": {"city": "BROOMFIELD", "state": "CO", "street": "1077 ELDORADO BLVD", "postcode": "80021"}}},
{"geometry": {"type": "Point", "coordinates": [-105.1373455435, 39.9216519755]}, "type": "Feature", "properties": {"collection_times": [{"days": "Mon-Fri", "time": "2:30pm"}, {"days": "Sat", "time": "3:00pm"}, {"days": "Sun", "time": "Closed"}], "id": "8002100029", "name": "USPS COLLECTION BOX - EXPRESS", "address": {"city": "BROOMFIELD", "state": "CO", "street": "878 ELDORADO BLVD", "postcode": "80021"}}},
{"geometry": {"type": "Point", "coordinates": [-105.1024993632, 39.8864937274]}, "type": "Feature", "properties": {"collection_times": [{"days": "Mon-Fri", "time": "3:00pm"}, {"days": "Sat", "time": "3:15pm"}, {"days": "Sun", "time": "Closed"}], "id": "8002100030", "name": "USPS COLLECTION BOX - EXPRESS", "address": {"city": "BROOMFIELD", "state": "CO", "street": "10355 WESTMOOR DR (2ND ENTRANCE)", "postcode": "80021"}}},
{"geometry": {"type": "Point", "coordinates": [-105.114127613, 39.8976584621]}, "type": "Feature", "properties": {"collection_times": [{"days": "Mon-Fri", "time": "3:00pm"}, {"days": "Sat", "time": "3:15pm"}, {"days": "Sun", "time": "Closed"}], "id": "8002100031", "name": "USPS COLLECTION BOX - BLUE BOX", "address": {"city": "BROOMFIELD", "state": "CO", "street": "10355 WESTMOOR DR", "postcode": "80021"}}},
{"geometry": {"type": "Point", "coordinates": [-105.13101, 39.92985]}, "type": "Feature", "properties": {"collection_times": [{"days": "Mon-Fri", "time": "2:15pm"}, {"days": "Sat", "time": "2:30pm"}, {"days": "Sun", "time": "Closed"}], "id": "8002100032", "name": "USPS COLLECTION BOX - BLUE BOX", "address": {"city": "BROOMFIELD", "state": "CO", "street": "1 FLATIRON CIR", "postcode": "80021"}}},
{"geometry": {"type": "Point", "coordinates": [-105.1362204298, 39.8949774711]}, "type": "Feature", "properties": {"collection_times": [{"days": "Mon-Fri", "time": "2:15pm"}, {"days": "Sat", "time": "2:30pm"}, {"days": "Sun", "time": "Closed"}], "id": "8002100033", "name": "USPS COLLECTION BOX - BLUE BOX", "address": {"city": "BROOMFIELD", "state": "CO", "street": "#31 W FLATIRON CR.", "postcode": "80021"}}},
{"geometry": {"type": "Point", "coordinates": [-105.1024993632, 39.8864937274]}, "type": "Feature", "properties": {"collection_times": [{"days": "Mon-Fri", "time": "5:05pm"}, {"days": "Sat", "time": "12:45pm"}, {"days": "Sun", "time": "Closed"}], "id": "8002100034", "name": "USPS COLLECTION BOX - EXPRESS", "address": {"city": "BROOMFIELD", "state": "CO", "street": "8800 W 116TH CIR", "postcode": "80021"}}},
{"geometry": {"type": "Point", "coordinates": [-105.0969510488, 39.9034040938]}, "type": "Feature", "properties": {"collection_times": [{"days": "Mon-Sat", "time": "6:00pm"}, {"days": "Sun", "time": "Closed"}], "id": "8002100035", "name": "USPS COLLECTION BOX - BLUE BOX", "address": {"city": "BROOMFIELD", "state": "CO", "street": "8800 W 116TH CIR", "postcode": "80021"}}},
{"geometry": {"type": "Point", "coordinates": [-105.0969510488, 39.9034040938]}, "type": "Feature", "properties": {"collection_times": [{"days": "Mon-Sat", "time": "6:00pm"}, {"days": "Sun", "time": "Closed"}], "id": "8002100036", "name": "USPS COLLECTION BOX - BLUE BOX", "address": {"city": "BROOMFIELD", "state": "CO", "street": "8800 W 116TH CIR", "postcode": "80021"}}},
{"geometry": {"type": "Point", "coordinates": [-105.0969510488, 39.9034040938]}, "type": "Feature", "properties": {"collection_times": [{"days": "Mon-Sat", "time": "6:00pm"}, {"days": "Sun", "time": "Closed"}], "id": "8002100037", "name": "USPS COLLECTION BOX - BLUE BOX", "address": {"city": "BROOMFIELD", "state": "CO", "street": "8800 W 116TH CIR", "postcode": "80021"}}},
{"geometry": {"type": "Point", "coordinates": [-105.0969510488, 39.9034040938]}, "type": "Feature", "properties": {"collection_times": [{"days": "Mon-Sat", "time": "6:00pm"}, {"days": "Sun", "time": "Closed"}], "id": "8002100038", "name": "USPS COLLECTION BOX - BLUE BOX", "address": {"city": "BROOMFIELD", "state": "CO", "street": "8800 W 116TH CIR", "postcode": "80021"}}},
{"geometry": {"type": "Point", "coordinates": [-105.0969510488, 39.9034040938]}, "type": "Feature", "properties": {"collection_times": [{"days": "Mon-Sat", "time": "6:00pm"}, {"days": "Sun", "time": "Closed"}], "id": "8002100039", "name": "USPS COLLECTION BOX - BLUE BOX", "address": {"city": "BROOMFIELD", "state": "CO", "street": "8800 W 116TH CIR", "postcode": "80021"}}},
{"geometry": {"type": "Point", "coordinates": [-105.0969510488, 39.9034040938]}, "type": "Feature", "properties": {"collection_times": [{"days": "Mon-Sat", "time": "6:00pm"}, {"days": "Sun", "time": "Closed"}], "id": "8002100040", "name": "USPS COLLECTION BOX - PO LOBBY", "address": {"city": "BROOMFIELD", "state": "CO", "street": "8800 W 116TH CIR", "postcode": "80021"}}},
{"geometry": {"type": "Point", "coordinates": [-105.0969510488, 39.9034040938]}, "type": "Feature", "properties": {"collection_times": [{"days": "Mon-Sat", "time": "6:00pm"}, {"days": "Sun", "time": "Closed"}], "id": "8002100041", "name": "USPS COLLECTION BOX - PO LOBBY", "address": {"city": "BROOMFIELD", "state": "CO", "street": "8800 W 116TH CIR", "postcode": "80021"}}},
{"geometry": {"type": "Point", "coordinates": [-105.0969510488, 39.9034040938]}, "type": "Feature", "properties": {"collection_times": [{"days": "Mon-Sat", "time": "6:00pm"}, {"days": "Sun", "time": "Closed"}], "id": "8002100042", "name": "USPS COLLECTION BOX - APC", "address": {"city": "BROOMFIELD", "state": "CO", "street": "8800 W 116TH CIR", "postcode": "80021"}}},
{"geometry": {"type": "Point", "coordinates": [-104.9107296485, 39.8302475455]}, "type": "Feature", "properties": {"collection_times": [{"days": "Mon-Fri", "time": "5:30pm"}, {"days": "Sat", "time": "12:45pm"}, {"days": "Sun", "time": "Closed"}], "id": "8002200000", "name": "USPS COLLECTION BOX - BLUE BOX", "address": {"city": "DENVER", "state": "CO", "street": "7351 MAGNOLIA ST", "postcode": "80022"}}},
{"geometry": {"type": "Point", "coordinates": [-104.9107296485, 39.8302475455]}, "type": "Feature", "properties": {"collection_times": [{"days": "Mon-Fri", "time": "5:30pm"}, {"days": "Sat", "time": "4:30pm"}, {"days": "Sun", "time": "Closed"}], "id": "8002200001", "name": "USPS COLLECTION BOX - BLUE BOX", "address": {"city": "DENVER", "state": "CO", "street": "7351 MAGNOLIA ST", "postcode": "80022"}}},
{"geometry": {"type": "Point", "coordinates": [-104.9107296485, 39.8302475455]}, "type": "Feature", "properties": {"collection_times": [{"days": "Mon-Fri", "time": "5:30pm"}, {"days": "Sat", "time": "4:30pm"}, {"days": "Sun", "time": "Closed"}], "id": "8002200002", "name": "USPS COLLECTION BOX - BLUE BOX", "address": {"city": "DENVER", "state": "CO", "street": "7351 MAGNOLIA ST", "postcode": "80022"}}},
{"geometry": {"type": "Point", "coordinates": [-104.9107296485, 39.8302475455]}, "type": "Feature", "properties": {"collection_times": [{"days": "Mon-Fri", "time": "5:30pm"}, {"days": "Sat", "time": "4:30pm"}, {"days": "Sun", "time": "Closed"}], "id": "8002200003", "name": "USPS COLLECTION BOX - PO LOBBY", "address": {"city": "DENVER", "state": "CO", "street": "7351 MAGNOLIA ST", "postcode": "80022"}}},
{"geometry": {"type": "Point", "coordinates": [-104.8967655583, 39.8057277278]}, "type": "Feature", "properties": {"collection_times": [{"days": "Mon-Sat", "time": "3:35pm"}, {"days": "Sun", "time": "Closed"}], "id": "8002200017", "name": "USPS COLLECTION BOX - BLUE BOX", "address": {"city": "DENVER", "state": "CO", "street": "7887 E 60TH AVE", "postcode": "80022"}}},
{"geometry": {"type": "Point", "coordinates": [-104.9319081629, 39.8066049276]}, "type": "Feature", "properties": {"collection_times": [{"days": "Mon-Sat", "time": "3:30pm"}, {"days": "Sun", "time": "Closed"}], "id": "8002200019", "name": "USPS COLLECTION BOX - BLUE BOX", "address": {"city": "DENVER", "state": "CO", "street": "6001 DEXTER ST", "postcode": "80022"}}},
{"geometry": {"type": "Point", "coordinates": [-104.9055466856, 39.7851802289]}, "type": "Feature", "properties": {"collection_times": [{"days": "Mon-Sat", "time": "4:05pm"}, {"days": "Sun", "time": "Closed"}], "id": "8002200022", "name": "USPS COLLECTION BOX - BLUE BOX", "address": {"city": "DENVER", "state": "CO", "street": "7120 E 49TH AVE", "postcode": "80022"}}},
{"geometry": {"type": "Point", "coordinates": [-104.9308053953, 39.8095159009]}, "type": "Feature", "properties": {"collection_times": [{"days": "Mon-Sat", "time": "3:40pm"}, {"days": "Sun", "time": "Closed"}], "id": "8002200028", "name": "USPS COLLECTION BOX - BLUE BOX", "address": {"city": "DENVER", "state": "CO", "street": "4850 E 62ND AVE", "postcode": "80022"}}},
{"geometry": {"type": "Point", "coordinates": [-104.9340457394, 39.8176652224]}, "type": "Feature", "properties": {"collection_times": [{"days": "Mon-Fri", "time": "4:00pm"}, {"days": "Sat-Sun", "time": "Closed"}], "id": "8002200033", "name": "USPS COLLECTION BOX - PO LOBBY", "address": {"city": "DENVER", "state": "CO", "street": "6655 BRIGHTON BLVD", "postcode": "80022"}}},
{"geometry": {"type": "Point", "coordinates": [-104.9034733782, 39.7906539089]}, "type": "Feature", "properties": {"collection_times": [{"days": "Mon-Sat", "time": "3:55pm"}, {"days": "Sun", "time": "Closed"}], "id": "8002200040", "name": "USPS COLLECTION BOX - BLUE BOX", "address": {"city": "DENVER", "state": "CO", "street": "5101 QUEBEC ST", "postcode": "80022"}}},
{"geometry": {"type": "Point", "coordinates": [-104.9400410058, 39.8266205933]}, "type": "Feature", "properties": {"collection_times": [{"days": "Mon-Sat", "time": "3:25pm"}, {"days": "Sun", "time": "Closed"}], "id": "8002200042", "name": "USPS COLLECTION BOX - BLUE BOX", "address": {"city": "DENVER", "state": "CO", "street": "7190 COLORADO BLVD", "postcode": "80022"}}},
{"geometry": {"type": "Point", "coordinates": [-104.9107296485, 39.8302475455]}, "type": "Feature", "properties": {"collection_times": [{"days": "Mon-Fri", "time": "5:30pm"}, {"days": "Sat", "time": "4:30pm"}, {"days": "Sun", "time": "Closed"}], "id": "8002200044", "name": "USPS COLLECTION BOX - PO LOBBY", "address": {"city": "DENVER", "state": "CO", "street": "7351 MAGNOLIA ST", "postcode": "80022"}}},
{"geometry": {"type": "Point", "coordinates": [-104.9280446189, 39.8055461793]}, "type": "Feature", "properties": {"collection_times": [{"days": "Mon-Sat", "time": "3:35pm"}, {"days": "Sun", "time": "Closed"}], "id": "8002200045", "name": "USPS COLLECTION BOX - BLUE BOX", "address": {"city": "DENVER", "state": "CO", "street": "5291 E 60TH AVE", "postcode": "80022"}}},
{"geometry": {"type": "Point", "coordinates": [-104.9222303756, 39.8007575615]}, "type": "Feature", "properties": {"collection_times": [{"days": "Mon-Sat", "time": "3:50pm"}, {"days": "Sun", "time": "Closed"}], "id": "8002200046", "name": "USPS COLLECTION BOX - BLUE BOX", "address": {"city": "DENVER", "state": "CO", "street": "5750 HOLLY ST", "postcode": "80022"}}},
{"geometry": {"type": "Point", "coordinates": [-104.9340457394, 39.8176652224]}, "type": "Feature", "properties": {"collection_times": [{"days": "Mon-Fri", "time": "4:00pm"}, {"days": "Sat", "time": "3:30pm"}, {"days": "Sun", "time": "Closed"}], "id": "8002200047", "name": "USPS COLLECTION BOX - BLUE BOX", "address": {"city": "DENVER", "state": "CO", "street": "6655 BRIGHTON BLVD", "postcode": "80022"}}},
{"geometry": {"type": "Point", "coordinates": [-104.8967655583, 39.8057277278]}, "type": "Feature", "properties": {"collection_times": [{"days": "Mon-Sat", "time": "3:35pm"}, {"days": "Sun", "time": "Closed"}], "id": "8002200048", "name": "USPS COLLECTION BOX - BLUE BOX", "address": {"city": "DENVER", "state": "CO", "street": "7887 E 60TH AVE", "postcode": "80022"}}},
{"geometry": {"type": "Point", "coordinates": [-104.7745622604, 39.8854582841]}, "type": "Feature", "properties": {"collection_times": [{"days": "Mon-Sat", "time": "1:00pm"}, {"days": "Sun", "time": "Closed"}], "id": "8002200049", "name": "USPS COLLECTION BOX - BLUE BOX", "address": {"city": "DENVER", "state": "CO", "street": "18220 E 104TH AVE", "postcode": "80022"}}},
{"geometry": {"type": "Point", "coordinates": [-104.8867394251, 39.8533109204]}, "type": "Feature", "properties": {"collection_times": [{"days": "Mon-Sat", "time": "2:00pm"}, {"days": "Sun", "time": "Closed"}], "id": "8002200050", "name": "USPS COLLECTION BOX - BLUE BOX", "address": {"city": "DENVER", "state": "CO", "street": "15051 E 104TH AVE", "postcode": "80022"}}},
{"geometry": {"type": "Point", "coordinates": [-104.9209997937, 39.8437979429]}, "type": "Feature", "properties": {"collection_times": [{"days": "Mon-Fri", "time": "3:45pm"}, {"days": "Sat", "time": "11:45am"}, {"days": "Sun", "time": "Closed"}], "id": "8002400000", "name": "USPS COLLECTION BOX - BLUE BOX", "address": {"city": "DUPONT", "state": "CO", "street": "8098 BRIGHTON RD", "postcode": "80024"}}},
{"geometry": {"type": "Point", "coordinates": [-104.9209997937, 39.8437979429]}, "type": "Feature", "properties": {"collection_times": [{"days": "Mon-Fri", "time": "12:45pm"}, {"days": "Sat", "time": "11:45am"}, {"days": "Sun", "time": "Closed"}], "id": "8002400001", "name": "USPS COLLECTION BOX - PO LOBBY", "address": {"city": "DUPONT", "state": "CO", "street": "8098 BRIGHTON RD", "postcode": "80024"}}},
{"geometry": {"type": "Point", "coordinates": [-104.9209997937, 39.8437979429]}, "type": "Feature", "properties": {"collection_times": [{"days": "Mon-Fri", "time": "12:45pm"}, {"days": "Sat", "time": "11:45am"}, {"days": "Sun", "time": "Closed"}], "id": "8002400002", "name": "USPS COLLECTION BOX - PO LOBBY", "address": {"city": "DUPONT", "state": "CO", "street": "8098 BRIGHTON RD", "postcode": "80024"}}},
{"geometry": {"type": "Point", "coordinates": [-105.2376587966, 39.984479823]}, "type": "Feature", "properties": {"collection_times": [{"days": "Mon-Fri", "time": "4:45pm"}, {"days": "Sat", "time": "8:00am"}, {"days": "Sun", "time": "Closed"}], "id": "8002500000", "name": "USPS COLLECTION BOX - BLUE BOX", "address": {"city": "ELDORADO SPRGS", "state": "CO", "street": "3330 ELDORADO SPGS", "postcode": "80025"}}},
{"geometry": {"type": "Point", "coordinates": [-105.2376587966, 39.984479823]}, "type": "Feature", "properties": {"collection_times": [{"days": "Mon-Fri", "time": "4:45pm"}, {"days": "Sat", "time": "8:00am"}, {"days": "Sun", "time": "Closed"}], "id": "8002500001", "name": "USPS COLLECTION BOX - PO LOBBY", "address": {"city": "ELDORADO SPRGS", "state": "CO", "street": "3330 ELDORADO SPGS", "postcode": "80025"}}},
{"geometry": {"type": "Point", "coordinates": [-105.1043362566, 40.0029401671]}, "type": "Feature", "properties": {"collection_times": [{"days": "Mon-Sat", "time": "12:00pm"}, {"days": "Sun", "time": "Closed"}], "id": "8002600002", "name": "USPS COLLECTION BOX - BLUE BOX", "address": {"city": "LAFAYETTE", "state": "CO", "street": "588 BLACK DIAMOND", "postcode": "80026"}}},
{"geometry": {"type": "Point", "coordinates": [-105.1083867131, 39.9800941406]}, "type": "Feature", "properties": {"collection_times": [{"days": "Mon-Sat", "time": "12:00pm"}, {"days": "Sun", "time": "Closed"}], "id": "8002600008", "name": "USPS COLLECTION BOX - BLUE BOX", "address": {"city": "LAFAYETTE", "state": "CO", "street": "1300 CENTAUR VILLAGE DR", "postcode": "80026"}}},
{"geometry": {"type": "Point", "coordinates": [-105.0905104341, 39.992514146]}, "type": "Feature", "properties": {"collection_times": [{"days": "Mon-Fri", "time": "5:30pm"}, {"days": "Sat", "time": "4:30pm"}, {"days": "Sun", "time": "Closed"}], "id": "8002600017", "name": "USPS COLLECTION BOX - BLUE BOX", "address": {"city": "LAFAYETTE", "state": "CO", "street": "603 S PUBLIC RD", "postcode": "80026"}}},
{"geometry": {"type": "Point", "coordinates": [-105.090545534, 39.993263039]}, "type": "Feature", "properties": {"collection_times": [{"days": "Mon-Fri", "time": "5:30pm"}, {"days": "Sat", "time": "4:30pm"}, {"days": "Sun", "time": "Closed"}], "id": "8002600018", "name": "USPS COLLECTION BOX - BLUE BOX", "address": {"city": "LAFAYETTE", "state": "CO", "street": "603 S PUBLIC RD", "postcode": "80026"}}},
{"geometry": {"type": "Point", "coordinates": [-105.1028066957, 40.0016275426]}, "type": "Feature", "properties": {"collection_times": [{"days": "Mon-Sat", "time": "12:00pm"}, {"days": "Sun", "time": "Closed"}], "id": "8002600020", "name": "USPS COLLECTION BOX - BLUE BOX", "address": {"city": "LAFAYETTE", "state": "CO", "street": "480 US HIGHWAY 287", "postcode": "80026"}}},
{"geometry": {"type": "Point", "coordinates": [-105.090545534, 39.993263039]}, "type": "Feature", "properties": {"collection_times": [{"days": "Mon-Fri", "time": "5:30pm"}, {"days": "Sat", "time": "4:30pm"}, {"days": "Sun", "time": "Closed"}], "id": "8002600021", "name": "USPS COLLECTION BOX - BLUE BOX", "address": {"city": "LAFAYETTE", "state": "CO", "street": "603 S PUBLIC RD", "postcode": "80026"}}},
{"geometry": {"type": "Point", "coordinates": [-105.0905413229, 39.9932604053]}, "type": "Feature", "properties": {"collection_times": [{"days": "Mon-Fri", "time": "4:40pm"}, {"days": "Sat", "time": "4:25pm"}, {"days": "Sun", "time": "Closed"}], "id": "8002600022", "name": "USPS COLLECTION BOX - PO LOBBY", "address": {"city": "LAFAYETTE", "state": "CO", "street": "603 S PUBLIC RD", "postcode": "80026"}}},
{"geometry": {"type": "Point", "coordinates": [-105.1277138967, 40.0138132029]}, "type": "Feature", "properties": {"collection_times": [{"days": "Mon-Sat", "time": "12:00pm"}, {"days": "Sun", "time": "Closed"}], "id": "8002600023", "name": "USPS COLLECTION BOX - BLUE BOX", "address": {"city": "LAFAYETTE", "state": "CO", "street": "1365 FOREST PARK CIR", "postcode": "80026"}}},
{"geometry": {"type": "Point", "coordinates": [-105.0830926845, 39.9696367833]}, "type": "Feature", "properties": {"collection_times": [{"days": "Mon-Sat", "time": "12:00pm"}, {"days": "Sun", "time": "Closed"}], "id": "8002600024", "name": "USPS COLLECTION BOX - BLUE BOX", "address": {"city": "LAFAYETTE", "state": "CO", "street": "300 EXEMPLA CIR", "postcode": "80026"}}},
{"geometry": {"type": "Point", "coordinates": [-105.1660819878, 39.9540607626]}, "type": "Feature", "properties": {"collection_times": [{"days": "Mon-Fri", "time": "3:10pm"}, {"days": "Sat", "time": "9:30am"}, {"days": "Sun", "time": "Closed"}], "id": "8002700000", "name": "USPS COLLECTION BOX - BLUE BOX", "address": {"city": "SUPERIOR", "state": "CO", "street": "124 E COAL CREEK DR", "postcode": "80027"}}},
{"geometry": {"type": "Point", "coordinates": [-105.1633055831, 39.9655378305]}, "type": "Feature", "properties": {"collection_times": [{"days": "Mon-Sat", "time": "3:00pm"}, {"days": "Sun", "time": "Closed"}], "id": "8002700002", "name": "USPS COLLECTION BOX - BLUE BOX", "address": {"city": "SUPERIOR", "state": "CO", "street": "300 S MCCASLIN BLVD", "postcode": "80027"}}},
{"geometry": {"type": "Point", "coordinates": [-105.1250960085, 39.9869529366]}, "type": "Feature", "properties": {"collection_times": [{"days": "Mon-Sat", "time": "2:50pm"}, {"days": "Sun", "time": "Closed"}], "id": "8002700004", "name": "USPS COLLECTION BOX - BLUE BOX", "address": {"city": "SUPERIOR", "state": "CO", "street": "1355 S BOULDER RD", "postcode": "80027"}}},
{"geometry": {"type": "Point", "coordinates": [-105.1307576501, 39.9869659492]}, "type": "Feature", "properties": {"collection_times": [{"days": "Mon-Fri", "time": "2:50pm"}, {"days": "Sat", "time": "1:00pm"}, {"days": "Sun", "time": "Closed"}], "id": "8002700005", "name": "USPS COLLECTION BOX - BLUE BOX", "address": {"city": "SUPERIOR", "state": "CO", "street": "1017 S BOULDER RD", "postcode": "80027"}}},
{"geometry": {"type": "Point", "coordinates": [-105.1353631654, 39.9870561623]}, "type": "Feature", "properties": {"collection_times": [{"days": "Mon-Sat", "time": "2:55pm"}, {"days": "Sun", "time": "Closed"}], "id": "8002700006", "name": "USPS COLLECTION BOX - BLUE BOX", "address": {"city": "SUPERIOR", "state": "CO", "street": "655 E SOUTH BOULDER RD", "postcode": "80027"}}},
{"geometry": {"type": "Point", "coordinates": [-105.1508312808, 39.9520450005]}, "type": "Feature", "properties": {"collection_times": [{"days": "Mon-Fri", "time": "3:15pm"}, {"days": "Sat", "time": "9:30am"}, {"days": "Sun", "time": "Closed"}], "id": "8002700009", "name": "USPS COLLECTION BOX - BLUE BOX", "address": {"city": "SUPERIOR", "state": "CO", "street": "100 HEALTH PARK DR", "postcode": "80027"}}},
{"geometry": {"type": "Point", "coordinates": [-105.1556340362, 39.9534683485]}, "type": "Feature", "properties": {"collection_times": [{"days": "Mon-Fri", "time": "2:52pm"}, {"days": "Sat", "time": "2:50pm"}, {"days": "Sun", "time": "Closed"}], "id": "8002700030", "name": "USPS COLLECTION BOX - BLUE BOX", "address": {"city": "SUPERIOR", "state": "CO", "street": "1075 W SO. BOULDER RD", "postcode": "80027"}}},
{"geometry": {"type": "Point", "coordinates": [-105.1641336543, 39.9620007832]}, "type": "Feature", "properties": {"collection_times": [{"days": "Mon-Fri", "time": "5:15pm"}, {"days": "Sat", "time": "3:30pm"}, {"days": "Sun", "time": "Closed"}], "id": "8002700031", "name": "USPS COLLECTION BOX - PO LOBBY", "address": {"city": "SUPERIOR", "state": "CO", "street": "566 S MC CASLIN BLVD", "postcode": "80027"}}},
{"geometry": {"type": "Point", "coordinates": [-105.1641336543, 39.9620007832]}, "type": "Feature", "properties": {"collection_times": [{"days": "Mon-Fri", "time": "5:15pm"}, {"days": "Sat", "time": "3:30pm"}, {"days": "Sun", "time": "Closed"}], "id": "8002700032", "name": "USPS COLLECTION BOX - BLUE BOX", "address": {"city": "SUPERIOR", "state": "CO", "street": "566 S MC CASLIN BLVD", "postcode": "80027"}}},
{"geometry": {"type": "Point", "coordinates": [-105.1641336543, 39.9620007832]}, "type": "Feature", "properties": {"collection_times": [{"days": "Mon-Fri", "time": "5:15pm"}, {"days": "Sat", "time": "3:30pm"}, {"days": "Sun", "time": "Closed"}], "id": "8002700033", "name": "USPS COLLECTION BOX - BLUE BOX", "address": {"city": "SUPERIOR", "state": "CO", "street": "566 S MC CASLIN BLVD", "postcode": "80027"}}},
{"geometry": {"type": "Point", "coordinates": [-105.1641336543, 39.9620007832]}, "type": "Feature", "properties": {"collection_times": [{"days": "Mon-Fri", "time": "5:15pm"}, {"days": "Sat", "time": "3:30pm"}, {"days": "Sun", "time": "Closed"}], "id": "8002700034", "name": "USPS COLLECTION BOX - BLUE BOX", "address": {"city": "SUPERIOR", "state": "CO", "street": "566 S MC CASLIN BLVD", "postcode": "80027"}}},
{"geometry": {"type": "Point", "coordinates": [-105.1641336543, 39.9620007832]}, "type": "Feature", "properties": {"collection_times": [{"days": "Mon-Fri", "time": "5:15pm"}, {"days": "Sat", "time": "3:30pm"}, {"days": "Sun", "time": "Closed"}], "id": "8002700035", "name": "USPS COLLECTION BOX - BLUE BOX", "address": {"city": "SUPERIOR", "state": "CO", "street": "566 S MC CASLIN BLVD", "postcode": "80027"}}},
{"geometry": {"type": "Point", "coordinates": [-105.1467184842, 39.9640824906]}, "type": "Feature", "properties": {"collection_times": [{"days": "Mon-Fri", "time": "4:20pm"}, {"days": "Sat", "time": "11:45am"}, {"days": "Sun", "time": "Closed"}], "id": "8002700036", "name": "USPS COLLECTION BOX - EXPRESS", "address": {"city": "SUPERIOR", "state": "CO", "street": "566 S MC CASLIN BLVD", "postcode": "80027"}}},
{"geometry": {"type": "Point", "coordinates": [-105.1501516957, 39.9287596418]}, "type": "Feature", "properties": {"collection_times": [{"days": "Mon-Fri", "time": "3:13pm"}, {"days": "Sat", "time": "9:30am"}, {"days": "Sun", "time": "Closed"}], "id": "8002700037", "name": "USPS COLLECTION BOX - BLUE BOX", "address": {"city": "SUPERIOR", "state": "CO", "street": "1600 COALTON RD", "postcode": "80027"}}},
{"geometry": {"type": "Point", "coordinates": [-105.1641336543, 39.9620007832]}, "type": "Feature", "properties": {"collection_times": [{"days": "Mon-Fri", "time": "5:15pm"}, {"days": "Sat", "time": "3:30pm"}, {"days": "Sun", "time": "Closed"}], "id": "8002700038", "name": "USPS COLLECTION BOX - PO LOBBY", "address": {"city": "SUPERIOR", "state": "CO", "street": "566 S MC CASLIN BLVD", "postcode": "80027"}}},
{"geometry": {"type": "Point", "coordinates": [-105.1641336543, 39.9620007832]}, "type": "Feature", "properties": {"collection_times": [{"days": "Mon-Fri", "time": "5:15pm"}, {"days": "Sat", "time": "3:30pm"}, {"days": "Sun", "time": "Closed"}], "id": "8002700039", "name": "USPS COLLECTION BOX - PO LOBBY", "address": {"city": "SUPERIOR", "state": "CO", "street": "566 S MC CASLIN BLVD", "postcode": "80027"}}},
{"geometry": {"type": "Point", "coordinates": [-105.1641336543, 39.9620007832]}, "type": "Feature", "properties": {"collection_times": [{"days": "Mon-Fri", "time": "5:15pm"}, {"days": "Sat", "time": "3:30pm"}, {"days": "Sun", "time": "Closed"}], "id": "8002700040", "name": "USPS COLLECTION BOX - BLUE BOX", "address": {"city": "SUPERIOR", "state": "CO", "street": "566 S MC CASLIN BLVD", "postcode": "80027"}}},
{"geometry": {"type": "Point", "coordinates": [-105.1641336543, 39.9620007832]}, "type": "Feature", "properties": {"collection_times": [{"days": "Mon-Fri", "time": "5:15pm"}, {"days": "Sat", "time": "3:30pm"}, {"days": "Sun", "time": "Closed"}], "id": "8002700042", "name": "USPS COLLECTION BOX - APC", "address": {"city": "SUPERIOR", "state": "CO", "street": "566 S MCCASLIN BLVD", "postcode": "80027"}}},
{"geometry": {"type": "Point", "coordinates": [-105.1467184842, 39.9640824906]}, "type": "Feature", "properties": {"collection_times": [{"days": "Mon-Fri", "time": "4:00pm"}, {"days": "Sat", "time": "11:00am"}, {"days": "Sun", "time": "Closed"}], "id": "8002700043", "name": "USPS COLLECTION BOX - EXPRESS", "address": {"city": "SUPERIOR", "state": "CO", "street": "637 FRONT ST", "postcode": "80027"}}},
{"geometry": {"type": "Point", "coordinates": [-105.1307836752, 39.9765251534]}, "type": "Feature", "properties": {"collection_times": [{"days": "Mon-Fri", "time": "4:00pm"}, {"days": "Sat", "time": "2:40pm"}, {"days": "Sun", "time": "Closed"}], "id": "8002700044", "name": "USPS COLLECTION BOX - BLUE BOX", "address": {"city": "SUPERIOR", "state": "CO", "street": "637 FRONT ST", "postcode": "80027"}}},
{"geometry": {"type": "Point", "coordinates": [-105.1307836752, 39.9765251534]}, "type": "Feature", "properties": {"collection_times": [{"days": "Mon-Fri", "time": "4:00pm"}, {"days": "Sat", "time": "2:40pm"}, {"days": "Sun", "time": "Closed"}], "id": "8002700045", "name": "USPS COLLECTION BOX - BLUE BOX", "address": {"city": "SUPERIOR", "state": "CO", "street": "637 FRONT ST", "postcode": "80027"}}},
{"geometry": {"type": "Point", "coordinates": [-105.1307836752, 39.9765251534]}, "type": "Feature", "properties": {"collection_times": [{"days": "Mon-Fri", "time": "4:00pm"}, {"days": "Sat", "time": "2:40pm"}, {"days": "Sun", "time": "Closed"}], "id": "8002700046", "name": "USPS COLLECTION BOX - BLUE BOX", "address": {"city": "SUPERIOR", "state": "CO", "street": "637 FRONT ST", "postcode": "80027"}}},
{"geometry": {"type": "Point", "coordinates": [-105.0250354244, 39.8286399043]}, "type": "Feature", "properties": {"collection_times": [{"days": "Mon-Sat", "time": "9:00am"}, {"days": "Sun", "time": "Closed"}], "id": "8003000005", "name": "USPS COLLECTION BOX - BLUE BOX", "address": {"city": "WESTMINSTER", "state": "CO", "street": "7301 FEDERAL BLVD", "postcode": "80030"}}},
{"geometry": {"type": "Point", "coordinates": [-105.0355749202, 39.8202268164]}, "type": "Feature", "properties": {"collection_times": [{"days": "Mon-Sat", "time": "3:00pm"}, {"days": "Sun", "time": "Closed"}], "id": "8003000015", "name": "USPS COLLECTION BOX - BLUE BOX", "address": {"city": "WESTMINSTER", "state": "CO", "street": "3791 W 68TH AVE", "postcode": "80030"}}},
{"geometry": {"type": "Point", "coordinates": [-105.0514000309, 39.8272830503]}, "type": "Feature", "properties": {"collection_times": [{"days": "Mon-Sat", "time": "11:00am"}, {"days": "Sun", "time": "Closed"}], "id": "8003000020", "name": "USPS COLLECTION BOX - BLUE BOX", "address": {"city": "WESTMINSTER", "state": "CO", "street": "5005 W 72ND AVE", "postcode": "80030"}}},
{"geometry": {"type": "Point", "coordinates": [-105.050952038, 39.8417109474]}, "type": "Feature", "properties": {"collection_times": [{"days": "Mon-Sat", "time": "9:00am"}, {"days": "Sun", "time": "Closed"}], "id": "8003000036", "name": "USPS COLLECTION BOX - BLUE BOX", "address": {"city": "WESTMINSTER", "state": "CO", "street": "7998 YATES ST", "postcode": "80030"}}},
{"geometry": {"type": "Point", "coordinates": [-105.0301233309, 39.8272877822]}, "type": "Feature", "properties": {"collection_times": [{"days": "Mon-Sat", "time": "9:00am"}, {"days": "Sun", "time": "Closed"}], "id": "8003000038", "name": "USPS COLLECTION BOX - BLUE BOX", "address": {"city": "WESTMINSTER", "state": "CO", "street": "3300 W 72ND AVE", "postcode": "80030"}}},
{"geometry": {"type": "Point", "coordinates": [-105.0358949877, 39.8282223197]}, "type": "Feature", "properties": {"collection_times": [{"days": "Mon-Fri", "time": "5:15pm"}, {"days": "Sat", "time": "12:30pm"}, {"days": "Sun", "time": "Closed"}], "id": "8003000048", "name": "USPS COLLECTION BOX - BLUE BOX", "address": {"city": "WESTMINSTER", "state": "CO", "street": "7262 MEADE ST", "postcode": "80030"}}},
{"geometry": {"type": "Point", "coordinates": [-105.0250354244, 39.8286399043]}, "type": "Feature", "properties": {"collection_times": [{"days": "Mon-Sat", "time": "9:00am"}, {"days": "Sun", "time": "Closed"}], "id": "8003000050", "name": "USPS COLLECTION BOX - BLUE BOX", "address": {"city": "WESTMINSTER", "state": "CO", "street": "7301 FEDERAL BLVD", "postcode": "80030"}}},
{"geometry": {"type": "Point", "coordinates": [-105.050952038, 39.8417109474]}, "type": "Feature", "properties": {"collection_times": [{"days": "Mon-Sat", "time": "9:00am"}, {"days": "Sun", "time": "Closed"}], "id": "8003000056", "name": "USPS COLLECTION BOX - BLUE BOX", "address": {"city": "WESTMINSTER", "state": "CO", "street": "7998 YATES ST", "postcode": "80030"}}},
{"geometry": {"type": "Point", "coordinates": [-105.0358949877, 39.8282223197]}, "type": "Feature", "properties": {"collection_times": [{"days": "Mon-Fri", "time": "5:15pm"}, {"days": "Sat", "time": "12:30pm"}, {"days": "Sun", "time": "Closed"}], "id": "8003000057", "name": "USPS COLLECTION BOX - PO LOBBY", "address": {"city": "WESTMINSTER", "state": "CO", "street": "7262 MEADE ST", "postcode": "80030"}}},
{"geometry": {"type": "Point", "coordinates": [-105.0250306926, 39.8299139511]}, "type": "Feature", "properties": {"collection_times": [{"days": "Mon-Sat", "time": "9:00am"}, {"days": "Sun", "time": "Closed"}], "id": "8003000058", "name": "USPS COLLECTION BOX - BLUE BOX", "address": {"city": "WESTMINSTER", "state": "CO", "street": "7353 FEDERAL BLVD", "postcode": "80030"}}},
{"geometry": {"type": "Point", "coordinates": [-105.0358949877, 39.8282223197]}, "type": "Feature", "properties": {"collection_times": [{"days": "Mon-Fri", "time": "5:15pm"}, {"days": "Sat", "time": "12:30pm"}, {"days": "Sun", "time": "Closed"}], "id": "8003000059", "name": "USPS COLLECTION BOX - BLUE BOX", "address": {"city": "WESTMINSTER", "state": "CO", "street": "7262 MEADE ST", "postcode": "80030"}}},
{"geometry": {"type": "Point", "coordinates": [-105.0507943559, 39.8172373628]}, "type": "Feature", "properties": {"collection_times": [{"days": "Mon-Sat", "time": "12:00pm"}, {"days": "Sun", "time": "Closed"}], "id": "8003000061", "name": "USPS COLLECTION BOX - BLUE BOX", "address": {"city": "WESTMINSTER", "state": "CO", "street": "4934 W 68TH AVE", "postcode": "80030"}}},
{"geometry": {"type": "Point", "coordinates": [-105.0358949877, 39.8282223197]}, "type": "Feature", "properties": {"collection_times": [{"days": "Mon-Fri", "time": "5:15pm"}, {"days": "Sat", "time": "12:30pm"}, {"days": "Sun", "time": "Closed"}], "id": "8003000062", "name": "USPS COLLECTION BOX - BLUE BOX", "address": {"city": "WESTMINSTER", "state": "CO", "street": "7262 MEADE ST", "postcode": "80030"}}},
{"geometry": {"type": "Point", "coordinates": [-105.0257713045, 39.8869193296]}, "type": "Feature", "properties": {"collection_times": [{"days": "Mon-Fri", "time": "5:30pm"}, {"days": "Sat", "time": "4:30pm"}, {"days": "Sun", "time": "Closed"}], "id": "8003100000", "name": "USPS COLLECTION BOX - BLUE BOX", "address": {"city": "WESTMINSTER", "state": "CO", "street": "3051 W 105TH AVE", "postcode": "80031"}}},
{"geometry": {"type": "Point", "coordinates": [-105.0257713045, 39.8869193296]}, "type": "Feature", "properties": {"collection_times": [{"days": "Mon-Fri", "time": "5:30pm"}, {"days": "Sat", "time": "4:30pm"}, {"days": "Sun", "time": "Closed"}], "id": "8003100001", "name": "USPS COLLECTION BOX - BLUE BOX", "address": {"city": "WESTMINSTER", "state": "CO", "street": "3051 W 105TH AVE", "postcode": "80031"}}},
{"geometry": {"type": "Point", "coordinates": [-105.0257713045, 39.8869193296]}, "type": "Feature", "properties": {"collection_times": [{"days": "Mon-Fri", "time": "5:30pm"}, {"days": "Sat", "time": "4:30pm"}, {"days": "Sun", "time": "Closed"}], "id": "8003100002", "name": "USPS COLLECTION BOX - BLUE BOX", "address": {"city": "WESTMINSTER", "state": "CO", "street": "3051 W 105TH AVE", "postcode": "80031"}}},
{"geometry": {"type": "Point", "coordinates": [-105.0376197411, 39.8732936007]}, "type": "Feature", "properties": {"collection_times": [{"days": "Mon-Fri", "time": "5:30pm"}, {"days": "Sat", "time": "4:30pm"}, {"days": "Sun", "time": "Closed"}], "id": "8003100003", "name": "USPS COLLECTION BOX - EXPRESS", "address": {"city": "WESTMINSTER", "state": "CO", "street": "3051 W 105TH AVE", "postcode": "80031"}}},
{"geometry": {"type": "Point", "coordinates": [-105.0257713045, 39.8869193296]}, "type": "Feature", "properties": {"collection_times": [{"days": "Mon-Fri", "time": "5:30pm"}, {"days": "Sat", "time": "4:30pm"}, {"days": "Sun", "time": "Closed"}], "id": "8003100004", "name": "USPS COLLECTION BOX - PO LOBBY", "address": {"city": "WESTMINSTER", "state": "CO", "street": "3051 W 105TH AVE", "postcode": "80031"}}},
{"geometry": {"type": "Point", "coordinates": [-105.0257713045, 39.8869193296]}, "type": "Feature", "properties": {"collection_times": [{"days": "Mon-Fri", "time": "5:30pm"}, {"days": "Sat", "time": "4:30pm"}, {"days": "Sun", "time": "Closed"}], "id": "8003100005", "name": "USPS COLLECTION BOX - PO LOBBY", "address": {"city": "WESTMINSTER", "state": "CO", "street": "3051 W 105TH AVE", "postcode": "80031"}}},
{"geometry": {"type": "Point", "coordinates": [-105.0257713045, 39.8869193296]}, "type": "Feature", "properties": {"collection_times": [{"days": "Mon-Fri", "time": "5:30pm"}, {"days": "Sat", "time": "4:30pm"}, {"days": "Sun", "time": "Closed"}], "id": "8003100006", "name": "USPS COLLECTION BOX - PO LOBBY", "address": {"city": "WESTMINSTER", "state": "CO", "street": "3051 W 105TH AVE", "postcode": "80031"}}},
{"geometry": {"type": "Point", "coordinates": [-105.0257713045, 39.8869193296]}, "type": "Feature", "properties": {"collection_times": [{"days": "Mon-Fri", "time": "5:30pm"}, {"days": "Sat", "time": "4:30pm"}, {"days": "Sun", "time": "Closed"}], "id": "8003100007", "name": "USPS COLLECTION BOX - PO LOBBY", "address": {"city": "WESTMINSTER", "state": "CO", "street": "3051 W 105TH AVE", "postcode": "80031"}}},
{"geometry": {"type": "Point", "coordinates": [-105.0180772598, 39.8490080917]}, "type": "Feature", "properties": {"collection_times": [{"days": "Mon-Fri", "time": "9:00am"}, {"days": "Sat-Sun", "time": "Closed"}], "id": "8003100008", "name": "USPS COLLECTION BOX - BLUE BOX", "address": {"city": "WESTMINSTER", "state": "CO", "street": "2551 W 84TH AVE", "postcode": "80031"}}},
{"geometry": {"type": "Point", "coordinates": [-105.0248532488, 39.8502939681]}, "type": "Feature", "properties": {"collection_times": [{"days": "Mon-Sat", "time": "10:30am"}, {"days": "Sun", "time": "Closed"}], "id": "8003100009", "name": "USPS COLLECTION BOX - BLUE BOX", "address": {"city": "WESTMINSTER", "state": "CO", "street": "8430 FEDERAL BLVD", "postcode": "80031"}}},
{"geometry": {"type": "Point", "coordinates": [-105.051875863, 39.8801246958]}, "type": "Feature", "properties": {"collection_times": [{"days": "Mon-Sat", "time": "2:00pm"}, {"days": "Sun", "time": "Closed"}], "id": "8003100010", "name": "USPS COLLECTION BOX - BLUE BOX", "address": {"city": "WESTMINSTER", "state": "CO", "street": "5100 W 101ST CIR", "postcode": "80031"}}},
{"geometry": {"type": "Point", "coordinates": [-105.0380396923, 39.8997310062]}, "type": "Feature", "properties": {"collection_times": [{"days": "Mon-Fri", "time": "9:00am"}, {"days": "Sat-Sun", "time": "Closed"}], "id": "8003100012", "name": "USPS COLLECTION BOX - BLUE BOX", "address": {"city": "WESTMINSTER", "state": "CO", "street": "3645 W 112TH AVE", "postcode": "80031"}}},
{"geometry": {"type": "Point", "coordinates": [-105.0409304608, 39.9129033733]}, "type": "Feature", "properties": {"collection_times": [{"days": "Mon-Sat", "time": "12:00pm"}, {"days": "Sun", "time": "Closed"}], "id": "8003100013", "name": "USPS COLLECTION BOX - BLUE BOX", "address": {"city": "WESTMINSTER", "state": "CO", "street": "4451 MAIN ST", "postcode": "80031"}}},
{"geometry": {"type": "Point", "coordinates": [-105.051195379, 39.8440361152]}, "type": "Feature", "properties": {"collection_times": [{"days": "Mon-Fri", "time": "10:00am"}, {"days": "Sat-Sun", "time": "Closed"}], "id": "8003100014", "name": "USPS COLLECTION BOX - BLUE BOX", "address": {"city": "WESTMINSTER", "state": "CO", "street": "5005 W 81ST PL", "postcode": "80031"}}},
{"geometry": {"type": "Point", "coordinates": [-105.0314041671, 39.8468851937]}, "type": "Feature", "properties": {"collection_times": [{"days": "Mon-Fri", "time": "9:00am"}, {"days": "Sat-Sun", "time": "Closed"}], "id": "8003100015", "name": "USPS COLLECTION BOX - BLUE BOX", "address": {"city": "WESTMINSTER", "state": "CO", "street": "3455 W 83RD AVE", "postcode": "80031"}}},
{"geometry": {"type": "Point", "coordinates": [-105.0618423154, 39.8566000482]}, "type": "Feature", "properties": {"collection_times": [{"days": "Mon-Fri", "time": "9:00am"}, {"days": "Sat-Sun", "time": "Closed"}], "id": "8003100018", "name": "USPS COLLECTION BOX - BLUE BOX", "address": {"city": "WESTMINSTER", "state": "CO", "street": "5740 W 88TH AVE", "postcode": "80031"}}},
{"geometry": {"type": "Point", "coordinates": [-105.0516898558, 39.8634697651]}, "type": "Feature", "properties": {"collection_times": [{"days": "Mon-Sat", "time": "9:00am"}, {"days": "Sun", "time": "Closed"}], "id": "8003100020", "name": "USPS COLLECTION BOX - BLUE BOX", "address": {"city": "WESTMINSTER", "state": "CO", "street": "5036 W 92ND AVE", "postcode": "80031"}}},
{"geometry": {"type": "Point", "coordinates": [-105.0226304689, 39.8536015214]}, "type": "Feature", "properties": {"collection_times": [{"days": "Mon-Fri", "time": "3:30pm"}, {"days": "Sat", "time": "2:20pm"}, {"days": "Sun", "time": "Closed"}], "id": "8003100025", "name": "USPS COLLECTION BOX - BLUE BOX", "address": {"city": "WESTMINSTER", "state": "CO", "street": "8654 DECATUR ST", "postcode": "80031"}}},
{"geometry": {"type": "Point", "coordinates": [-105.0638293807, 39.8617544746]}, "type": "Feature", "properties": {"collection_times": [{"days": "Mon-Fri", "time": "9:00am"}, {"days": "Sat-Sun", "time": "Closed"}], "id": "8003100027", "name": "USPS COLLECTION BOX - BLUE BOX", "address": {"city": "WESTMINSTER", "state": "CO", "street": "9101 HARLAN ST", "postcode": "80031"}}},
{"geometry": {"type": "Point", "coordinates": [-105.0376197411, 39.8732936007]}, "type": "Feature", "properties": {"collection_times": [{"days": "Mon-Fri", "time": "9:00am"}, {"days": "Sat-Sun", "time": "Closed"}], "id": "8003100028", "name": "USPS COLLECTION BOX - EXPRESS", "address": {"city": "WESTMINSTER", "state": "CO", "street": "9101 HARLAN ST", "postcode": "80031"}}},
{"geometry": {"type": "Point", "coordinates": [-105.0638293807, 39.8617544746]}, "type": "Feature", "properties": {"collection_times": [{"days": "Mon-Fri", "time": "9:00am"}, {"days": "Sat-Sun", "time": "Closed"}], "id": "8003100029", "name": "USPS COLLECTION BOX - BLUE BOX", "address": {"city": "WESTMINSTER", "state": "CO", "street": "9101 HARLAN ST", "postcode": "80031"}}},
{"geometry": {"type": "Point", "coordinates": [-105.0343731721, 39.8758920589]}, "type": "Feature", "properties": {"collection_times": [{"days": "Mon-Sat", "time": "12:00pm"}, {"days": "Sun", "time": "Closed"}], "id": "8003100030", "name": "USPS COLLECTION BOX - BLUE BOX", "address": {"city": "WESTMINSTER", "state": "CO", "street": "9898 LOWELL BLVD", "postcode": "80031"}}},
{"geometry": {"type": "Point", "coordinates": [-105.0376197411, 39.8732936007]}, "type": "Feature", "properties": {"collection_times": [{"days": "Mon-Fri", "time": "12:00pm"}, {"days": "Sat-Sun", "time": "Closed"}], "id": "8003100036", "name": "USPS COLLECTION BOX - EXPRESS", "address": {"city": "WESTMINSTER", "state": "CO", "street": "8690 WOLFF CT", "postcode": "80031"}}},
{"geometry": {"type": "Point", "coordinates": [-105.0494126598, 39.85444852]}, "type": "Feature", "properties": {"collection_times": [{"days": "Mon-Fri", "time": "12:00pm"}, {"days": "Sat-Sun", "time": "Closed"}], "id": "8003100037", "name": "USPS COLLECTION BOX - BLUE BOX", "address": {"city": "WESTMINSTER", "state": "CO", "street": "8690 WOLFF CT", "postcode": "80031"}}},
{"geometry": {"type": "Point", "coordinates": [-105.0494126598, 39.85444852]}, "type": "Feature", "properties": {"collection_times": [{"days": "Mon-Fri", "time": "12:00pm"}, {"days": "Sat-Sun", "time": "Closed"}], "id": "8003100038", "name": "USPS COLLECTION BOX - BLUE BOX", "address": {"city": "WESTMINSTER", "state": "CO", "street": "8690 WOLFF CT", "postcode": "80031"}}},
{"geometry": {"type": "Point", "coordinates": [-105.0494126598, 39.85444852]}, "type": "Feature", "properties": {"collection_times": [{"days": "Mon-Fri", "time": "12:00pm"}, {"days": "Sat-Sun", "time": "Closed"}], "id": "8003100039", "name": "USPS COLLECTION BOX - BLUE BOX", "address": {"city": "WESTMINSTER", "state": "CO", "street": "8690 WOLFF CT", "postcode": "80031"}}},
{"geometry": {"type": "Point", "coordinates": [-105.0494126598, 39.85444852]}, "type": "Feature", "properties": {"collection_times": [{"days": "Mon-Fri", "time": "12:00pm"}, {"days": "Sat-Sun", "time": "Closed"}], "id": "8003100040", "name": "USPS COLLECTION BOX - BLUE BOX", "address": {"city": "WESTMINSTER", "state": "CO", "street": "8690 WOLFF CT", "postcode": "80031"}}},
{"geometry": {"type": "Point", "coordinates": [-105.0472906104, 39.8636268994]}, "type": "Feature", "properties": {"collection_times": [{"days": "Mon-Sat", "time": "12:00pm"}, {"days": "Sun", "time": "Closed"}], "id": "8003100042", "name": "USPS COLLECTION BOX - BLUE BOX", "address": {"city": "WESTMINSTER", "state": "CO", "street": "9200 XAVIER ST", "postcode": "80031"}}},
{"geometry": {"type": "Point", "coordinates": [-105.049668179, 39.8505352917]}, "type": "Feature", "properties": {"collection_times": [{"days": "Mon-Fri", "time": "9:45am"}, {"days": "Sat-Sun", "time": "Closed"}], "id": "8003100043", "name": "USPS COLLECTION BOX - BLUE BOX", "address": {"city": "WESTMINSTER", "state": "CO", "street": "8501 TURNPIKE DR", "postcode": "80031"}}},
{"geometry": {"type": "Point", "coordinates": [-105.049668179, 39.8505352917]}, "type": "Feature", "properties": {"collection_times": [{"days": "Mon-Fri", "time": "9:45am"}, {"days": "Sat-Sun", "time": "Closed"}], "id": "8003100044", "name": "USPS COLLECTION BOX - BLUE BOX", "address": {"city": "WESTMINSTER", "state": "CO", "street": "8501 TURNPIKE DR", "postcode": "80031"}}},
{"geometry": {"type": "Point", "coordinates": [-105.0257713045, 39.8869193296]}, "type": "Feature", "properties": {"collection_times": [{"days": "Mon-Fri", "time": "5:30pm"}, {"days": "Sat", "time": "4:30pm"}, {"days": "Sun", "time": "Closed"}], "id": "8003100045", "name": "USPS COLLECTION BOX - APC", "address": {"city": "WESTMINSTER", "state": "CO", "street": "3051 W 105TH AVE", "postcode": "80031"}}},
{"geometry": {"type": "Point", "coordinates": [-105.0813080889, 39.7740685796]}, "type": "Feature", "properties": {"collection_times": [{"days": "Mon-Fri", "time": "5:45pm"}, {"days": "Sat", "time": "4:15pm"}, {"days": "Sun", "time": "Closed"}], "id": "8003300000", "name": "USPS COLLECTION BOX - BLUE BOX", "address": {"city": "WHEAT RIDGE", "state": "CO", "street": "4210 WADSWORTH BLVD", "postcode": "80033"}}},
{"geometry": {"type": "Point", "coordinates": [-105.0813080889, 39.7740685796]}, "type": "Feature", "properties": {"collection_times": [{"days": "Mon-Fri", "time": "5:45pm"}, {"days": "Sat", "time": "4:15pm"}, {"days": "Sun", "time": "Closed"}], "id": "8003300001", "name": "USPS COLLECTION BOX - BLUE BOX", "address": {"city": "WHEAT RIDGE", "state": "CO", "street": "4210 WADSWORTH BLVD", "postcode": "80033"}}},
{"geometry": {"type": "Point", "coordinates": [-105.0813080889, 39.7740685796]}, "type": "Feature", "properties": {"collection_times": [{"days": "Mon-Fri", "time": "5:45pm"}, {"days": "Sat", "time": "4:15pm"}, {"days": "Sun", "time": "Closed"}], "id": "8003300002", "name": "USPS COLLECTION BOX - BLUE BOX", "address": {"city": "WHEAT RIDGE", "state": "CO", "street": "4210 WADSWORTH BLVD", "postcode": "80033"}}},
{"geometry": {"type": "Point", "coordinates": [-105.0813080889, 39.7740685796]}, "type": "Feature", "properties": {"collection_times": [{"days": "Mon-Fri", "time": "5:45pm"}, {"days": "Sat", "time": "4:15pm"}, {"days": "Sun", "time": "Closed"}], "id": "8003300003", "name": "USPS COLLECTION BOX - BLUE BOX", "address": {"city": "WHEAT RIDGE", "state": "CO", "street": "4210 WADSWORTH BLVD", "postcode": "80033"}}},
{"geometry": {"type": "Point", "coordinates": [-105.0813080889, 39.7740685796]}, "type": "Feature", "properties": {"collection_times": [{"days": "Mon-Fri", "time": "5:45pm"}, {"days": "Sat", "time": "4:15pm"}, {"days": "Sun", "time": "Closed"}], "id": "8003300004", "name": "USPS COLLECTION BOX - BLUE BOX", "address": {"city": "WHEAT RIDGE", "state": "CO", "street": "4210 WADSWORTH BLVD", "postcode": "80033"}}},
{"geometry": {"type": "Point", "coordinates": [-105.0964467706, 39.773223779]}, "type": "Feature", "properties": {"collection_times": [{"days": "Mon-Fri", "time": "5:45pm"}, {"days": "Sat", "time": "1:45pm"}, {"days": "Sun", "time": "Closed"}], "id": "8003300005", "name": "USPS COLLECTION BOX - EXPRESS", "address": {"city": "WHEAT RIDGE", "state": "CO", "street": "4210 WADSWORTH BLVD", "postcode": "80033"}}},
{"geometry": {"type": "Point", "coordinates": [-105.0964467706, 39.773223779]}, "type": "Feature", "properties": {"collection_times": [{"days": "Mon-Fri", "time": "5:45pm"}, {"days": "Sat", "time": "1:45pm"}, {"days": "Sun", "time": "Closed"}], "id": "8003300006", "name": "USPS COLLECTION BOX - EXPRESS", "address": {"city": "WHEAT RIDGE", "state": "CO", "street": "4210 WADSWORTH BLVD", "postcode": "80033"}}},
{"geometry": {"type": "Point", "coordinates": [-105.0813080889, 39.7740685796]}, "type": "Feature", "properties": {"collection_times": [{"days": "Mon-Fri", "time": "5:45pm"}, {"days": "Sat", "time": "4:15pm"}, {"days": "Sun", "time": "Closed"}], "id": "8003300007", "name": "USPS COLLECTION BOX - BLUE BOX", "address": {"city": "WHEAT RIDGE", "state": "CO", "street": "4210 WADSWORTH BLVD", "postcode": "80033"}}},
{"geometry": {"type": "Point", "coordinates": [-105.087949914, 39.7693346225]}, "type": "Feature", "properties": {"collection_times": [{"days": "Mon-Fri", "time": "3:15pm"}, {"days": "Sat", "time": "1:15pm"}, {"days": "Sun", "time": "Closed"}], "id": "8003300010", "name": "USPS COLLECTION BOX - BLUE BOX", "address": {"city": "WHEAT RIDGE", "state": "CO", "street": "8300 W 38TH AVE", "postcode": "80033"}}},
{"geometry": {"type": "Point", "coordinates": [-105.0922653483, 39.7662589292]}, "type": "Feature", "properties": {"collection_times": [{"days": "Mon-Fri", "time": "3:15pm"}, {"days": "Sat-Sun", "time": "Closed"}], "id": "8003300011", "name": "USPS COLLECTION BOX - BLUE BOX", "address": {"city": "WHEAT RIDGE", "state": "CO", "street": "3550 LUTHERAN PKWY", "postcode": "80033"}}},
{"geometry": {"type": "Point", "coordinates": [-105.0925752836, 39.7693251588]}, "type": "Feature", "properties": {"collection_times": [{"days": "Mon-Fri", "time": "3:15pm"}, {"days": "Sat-Sun", "time": "Closed"}], "id": "8003300012", "name": "USPS COLLECTION BOX - BLUE BOX", "address": {"city": "WHEAT RIDGE", "state": "CO", "street": "8550 W 38TH AVE", "postcode": "80033"}}},
{"geometry": {"type": "Point", "coordinates": [-105.0746771144, 39.7693902215]}, "type": "Feature", "properties": {"collection_times": [{"days": "Mon-Fri", "time": "3:15pm"}, {"days": "Sat", "time": "1:30pm"}, {"days": "Sun", "time": "Closed"}], "id": "8003300013", "name": "USPS COLLECTION BOX - BLUE BOX", "address": {"city": "WHEAT RIDGE", "state": "CO", "street": "7001 W 38TH AVE", "postcode": "80033"}}},
{"geometry": {"type": "Point", "coordinates": [-105.0643049302, 39.7766003564]}, "type": "Feature", "properties": {"collection_times": [{"days": "Mon-Fri", "time": "3:15pm"}, {"days": "Sat", "time": "1:45pm"}, {"days": "Sun", "time": "Closed"}], "id": "8003300014", "name": "USPS COLLECTION BOX - BLUE BOX", "address": {"city": "WHEAT RIDGE", "state": "CO", "street": "6105 W 44TH AVE", "postcode": "80033"}}},
{"geometry": {"type": "Point", "coordinates": [-105.1117510484, 39.7781488497]}, "type": "Feature", "properties": {"collection_times": [{"days": "Mon-Fri", "time": "3:30pm"}, {"days": "Sat", "time": "2:00pm"}, {"days": "Sun", "time": "Closed"}], "id": "8003300017", "name": "USPS COLLECTION BOX - BLUE BOX", "address": {"city": "WHEAT RIDGE", "state": "CO", "street": "10200 W 44TH AVE", "postcode": "80033"}}},
{"geometry": {"type": "Point", "coordinates": [-105.1090638355, 39.7855859357]}, "type": "Feature", "properties": {"collection_times": [{"days": "Mon-Fri", "time": "3:45pm"}, {"days": "Sat", "time": "1:45pm"}, {"days": "Sun", "time": "Closed"}], "id": "8003300021", "name": "USPS COLLECTION BOX - BLUE BOX", "address": {"city": "WHEAT RIDGE", "state": "CO", "street": "9950 W 49TH AVE", "postcode": "80033"}}},
{"geometry": {"type": "Point", "coordinates": [-105.1090638355, 39.7855859357]}, "type": "Feature", "properties": {"collection_times": [{"days": "Mon-Fri", "time": "3:45pm"}, {"days": "Sat", "time": "1:45pm"}, {"days": "Sun", "time": "Closed"}], "id": "8003300022", "name": "USPS COLLECTION BOX - BLUE BOX", "address": {"city": "WHEAT RIDGE", "state": "CO", "street": "9950 W 49TH AVE", "postcode": "80033"}}},
{"geometry": {"type": "Point", "coordinates": [-105.109020801, 39.7855349825]}, "type": "Feature", "properties": {"collection_times": [{"days": "Mon-Fri", "time": "3:45pm"}, {"days": "Sat", "time": "1:45pm"}, {"days": "Sun", "time": "Closed"}], "id": "8003300023", "name": "USPS COLLECTION BOX - BLUE BOX", "address": {"city": "WHEAT RIDGE", "state": "CO", "street": "9950 W 49TH AVE", "postcode": "80033"}}},
{"geometry": {"type": "Point", "coordinates": [-105.0964467706, 39.773223779]}, "type": "Feature", "properties": {"collection_times": [{"days": "Mon-Fri", "time": "3:45pm"}, {"days": "Sat-Sun", "time": "Closed"}], "id": "8003300024", "name": "USPS COLLECTION BOX - EXPRESS", "address": {"city": "WHEAT RIDGE", "state": "CO", "street": "9950 W 49TH AVE", "postcode": "80033"}}},
{"geometry": {"type": "Point", "coordinates": [-105.1096323689, 39.7758598241]}, "type": "Feature", "properties": {"collection_times": [{"days": "Mon-Fri", "time": "4:00pm"}, {"days": "Sat", "time": "12:00pm"}, {"days": "Sun", "time": "Closed"}], "id": "8003300031", "name": "USPS COLLECTION BOX - BLUE BOX", "address": {"city": "WHEAT RIDGE", "state": "CO", "street": "4251 KIPLING ST", "postcode": "80033"}}},
{"geometry": {"type": "Point", "coordinates": [-105.0813643815, 39.7758231524]}, "type": "Feature", "properties": {"collection_times": [{"days": "Mon-Fri", "time": "4:30pm"}, {"days": "Sat", "time": "2:45pm"}, {"days": "Sun", "time": "Closed"}], "id": "8003300032", "name": "USPS COLLECTION BOX - BLUE BOX", "address": {"city": "WHEAT RIDGE", "state": "CO", "street": "4350 WADSWORTH BLVD", "postcode": "80033"}}},
{"geometry": {"type": "Point", "coordinates": [-105.5478136962, 38.9985525982]}, "type": "Feature", "properties": {"collection_times": [{"days": "Mon-Fri", "time": "12:30pm"}, {"days": "Sat", "time": "11:00am"}, {"days": "Sun", "time": "Closed"}], "id": "8003300034", "name": "USPS COLLECTION BOX - BLUE BOX", "address": {"city": "WHEAT RIDGE", "state": "CO", "street": "4991 GARRISON ST", "postcode": "80033"}}},
{"geometry": {"type": "Point", "coordinates": [-105.084289839, 39.7693452691]}, "type": "Feature", "properties": {"collection_times": [{"days": "Mon-Sat", "time": "12:20pm"}, {"days": "Sun", "time": "Closed"}], "id": "8003300039", "name": "USPS COLLECTION BOX - BLUE BOX", "address": {"city": "WHEAT RIDGE", "state": "CO", "street": "7760 W 38TH AVE", "postcode": "80033"}}},
{"geometry": {"type": "Point", "coordinates": [-105.0964467706, 39.773223779]}, "type": "Feature", "properties": {"collection_times": [{"days": "Mon-Fri", "time": "4:15pm"}, {"days": "Sat-Sun", "time": "Closed"}], "id": "8003300041", "name": "USPS COLLECTION BOX - EXPRESS", "address": {"city": "WHEAT RIDGE", "state": "CO", "street": "3500 YOUNGFIELD ST", "postcode": "80033"}}},
{"geometry": {"type": "Point", "coordinates": [-105.1425340066, 39.7654616148]}, "type": "Feature", "properties": {"collection_times": [{"days": "Mon-Fri", "time": "4:15pm"}, {"days": "Sat", "time": "2:30pm"}, {"days": "Sun", "time": "Closed"}], "id": "8003300042", "name": "USPS COLLECTION BOX - BLUE BOX", "address": {"city": "WHEAT RIDGE", "state": "CO", "street": "3500 YOUNGFIELD ST", "postcode": "80033"}}},
{"geometry": {"type": "Point", "coordinates": [-105.1425340066, 39.7654616148]}, "type": "Feature", "properties": {"collection_times": [{"days": "Mon-Fri", "time": "4:15pm"}, {"days": "Sat", "time": "2:30pm"}, {"days": "Sun", "time": "Closed"}], "id": "8003300043", "name": "USPS COLLECTION BOX - BLUE BOX", "address": {"city": "WHEAT RIDGE", "state": "CO", "street": "3500 YOUNGFIELD ST", "postcode": "80033"}}},
{"geometry": {"type": "Point", "coordinates": [-105.1425340066, 39.7654616148]}, "type": "Feature", "properties": {"collection_times": [{"days": "Mon-Fri", "time": "4:15pm"}, {"days": "Sat", "time": "2:30pm"}, {"days": "Sun", "time": "Closed"}], "id": "8003300044", "name": "USPS COLLECTION BOX - BLUE BOX", "address": {"city": "WHEAT RIDGE", "state": "CO", "street": "3500 YOUNGFIELD ST", "postcode": "80033"}}},
{"geometry": {"type": "Point", "coordinates": [-105.1425340066, 39.7654616148]}, "type": "Feature", "properties": {"collection_times": [{"days": "Mon-Fri", "time": "4:15pm"}, {"days": "Sat", "time": "2:30pm"}, {"days": "Sun", "time": "Closed"}], "id": "8003300045", "name": "USPS COLLECTION BOX - BLUE BOX", "address": {"city": "WHEAT RIDGE", "state": "CO", "street": "3500 YOUNGFIELD ST", "postcode": "80033"}}},
{"geometry": {"type": "Point", "coordinates": [-105.1344851538, 39.7783523187]}, "type": "Feature", "properties": {"collection_times": [{"days": "Mon-Fri", "time": "11:55am"}, {"days": "Sat", "time": "10:30am"}, {"days": "Sun", "time": "Closed"}], "id": "8003300049", "name": "USPS COLLECTION BOX - BLUE BOX", "address": {"city": "WHEAT RIDGE", "state": "CO", "street": "12151 W 44TH AVE", "postcode": "80033"}}},
{"geometry": {"type": "Point", "coordinates": [-105.1096323689, 39.7758598241]}, "type": "Feature", "properties": {"collection_times": [{"days": "Mon-Fri", "time": "4:00pm"}, {"days": "Sat-Sun", "time": "Closed"}], "id": "8003300051", "name": "USPS COLLECTION BOX - BLUE BOX", "address": {"city": "WHEAT RIDGE", "state": "CO", "street": "4251 KIPLING ST", "postcode": "80033"}}},
{"geometry": {"type": "Point", "coordinates": [-105.0813080889, 39.7740685796]}, "type": "Feature", "properties": {"collection_times": [{"days": "Mon-Fri", "time": "5:45pm"}, {"days": "Sat", "time": "4:15pm"}, {"days": "Sun", "time": "Closed"}], "id": "8003300052", "name": "USPS COLLECTION BOX - PO LOBBY", "address": {"city": "WHEAT RIDGE", "state": "CO", "street": "4210 WADSWORTH BLVD", "postcode": "80033"}}},
{"geometry": {"type": "Point", "coordinates": [-105.0813080889, 39.7740685796]}, "type": "Feature", "properties": {"collection_times": [{"days": "Mon-Fri", "time": "5:45pm"}, {"days": "Sat", "time": "4:15pm"}, {"days": "Sun", "time": "Closed"}], "id": "8003300053", "name": "USPS COLLECTION BOX - PO LOBBY", "address": {"city": "WHEAT RIDGE", "state": "CO", "street": "4210 WADSWORTH BLVD", "postcode": "80033"}}},
{"geometry": {"type": "Point", "coordinates": [-105.1304122261, 39.7834390422]}, "type": "Feature", "properties": {"collection_times": [{"days": "Mon-Fri", "time": "3:30pm"}, {"days": "Sat", "time": "2:00pm"}, {"days": "Sun", "time": "Closed"}], "id": "8003300061", "name": "USPS COLLECTION BOX - BLUE BOX", "address": {"city": "WHEAT RIDGE", "state": "CO", "street": "11941 W 48TH AVE", "postcode": "80033"}}},
{"geometry": {"type": "Point", "coordinates": [-105.0813821259, 39.7711043291]}, "type": "Feature", "properties": {"collection_times": [{"days": "Mon-Sat", "time": "10:00am"}, {"days": "Sun", "time": "Closed"}], "id": "8003300062", "name": "USPS COLLECTION BOX - BLUE BOX", "address": {"city": "WHEAT RIDGE", "state": "CO", "street": "3900 WADSWORTH BLVD", "postcode": "80033"}}},
{"geometry": {"type": "Point", "coordinates": [-105.0813080889, 39.7740685796]}, "type": "Feature", "properties": {"collection_times": [{"days": "Mon-Fri", "time": "5:45pm"}, {"days": "Sat", "time": "4:15pm"}, {"days": "Sun", "time": "Closed"}], "id": "8003300063", "name": "USPS COLLECTION BOX - APC", "address": {"city": "WHEAT RIDGE", "state": "CO", "street": "4210 WADSWORTH BLVD", "postcode": "80033"}}},
{"geometry": {"type": "Point", "coordinates": [-105.0813080889, 39.7740685796]}, "type": "Feature", "properties": {"collection_times": [{"days": "Mon-Fri", "time": "5:45pm"}, {"days": "Sat", "time": "4:15pm"}, {"days": "Sun", "time": "Closed"}], "id": "8003300065", "name": "USPS COLLECTION BOX - PO LOBBY", "address": {"city": "WHEAT RIDGE", "state": "CO", "street": "4210 WADSWORTH BLVD", "postcode": "80033"}}},
{"geometry": {"type": "Point", "coordinates": [-104.8374023468, 39.7474104774]}, "type": "Feature", "properties": {"collection_times": [{"days": "Mon-Fri", "time": "3:18pm"}, {"days": "Sat", "time": "2:30pm"}, {"days": "Sun", "time": "Closed"}], "id": "8004500005", "name": "USPS COLLECTION BOX - BLUE BOX", "address": {"city": "AURORA", "state": "CO", "street": "1635 AURORA CT", "postcode": "80045"}}}
]}
