{"type": "FeatureCollection", "features": [
{"geometry": {"type": "Point", "coordinates": [-103.942876073, 39.4617627222]}, "type": "Feature", "properties": {"collection_times": [{"days": "Mon-Fri", "time": "3:45pm"}, {"days": "Sat", "time": "2:45pm"}, {"days": "Sun", "time": "Closed"}], "id": "8010100000", "name": "USPS COLLECTION BOX - BLUE BOX", "address": {"city": "AGATE", "state": "CO", "street": "40992 US HIGHWAY 40", "postcode": "80101"}}},
{"geometry": {"type": "Point", "coordinates": [-103.942876073, 39.4617627222]}, "type": "Feature", "properties": {"collection_times": [{"days": "Mon-Fri", "time": "3:45pm"}, {"days": "Sat", "time": "2:45pm"}, {"days": "Sun", "time": "Closed"}], "id": "8010100001", "name": "USPS COLLECTION BOX - PO LOBBY", "address": {"city": "AGATE", "state": "CO", "street": "40992 US HIGHWAY 40", "postcode": "80101"}}},
{"geometry": {"type": "Point", "coordinates": [-104.4319800363, 39.7547298735]}, "type": "Feature", "properties": {"collection_times": [{"days": "Mon-Fri", "time": "4:45pm"}, {"days": "Sat", "time": "12:00pm"}, {"days": "Sun", "time": "Closed"}], "id": "8010200000", "name": "USPS COLLECTION BOX - PO LOBBY", "address": {"city": "BENNETT", "state": "CO", "street": "205 S ASH ST", "postcode": "80102"}}},
{"geometry": {"type": "Point", "coordinates": [-104.4319800363, 39.7547298735]}, "type": "Feature", "properties": {"collection_times": [{"days": "Mon-Fri", "time": "4:45pm"}, {"days": "Sat", "time": "12:00pm"}, {"days": "Sun", "time": "Closed"}], "id": "8010200001", "name": "USPS COLLECTION BOX - PO LOBBY", "address": {"city": "BENNETT", "state": "CO", "street": "205 S ASH ST", "postcode": "80102"}}},
{"geometry": {"type": "Point", "coordinates": [-104.4319800363, 39.7547298735]}, "type": "Feature", "properties": {"collection_times": [{"days": "Mon-Fri", "time": "4:45pm"}, {"days": "Sat", "time": "12:00pm"}, {"days": "Sun", "time": "Closed"}], "id": "8010200002", "name": "USPS COLLECTION BOX - BLUE BOX", "address": {"city": "BENNETT", "state": "CO", "street": "205 S ASH ST", "postcode": "80102"}}},
{"geometry": {"type": "Point", "coordinates": [-104.2240408967, 39.7118037791]}, "type": "Feature", "properties": {"collection_times": [{"days": "Mon-Fri", "time": "4:45pm"}, {"days": "Sat", "time": "12:00pm"}, {"days": "Sun", "time": "Closed"}], "id": "8010300000", "name": "USPS COLLECTION BOX - BLUE BOX", "address": {"city": "BYERS", "state": "CO", "street": "47 CEDAR AVE", "postcode": "80103"}}},
{"geometry": {"type": "Point", "coordinates": [-104.2240408967, 39.7118037791]}, "type": "Feature", "properties": {"collection_times": [{"days": "Mon-Fri", "time": "4:45pm"}, {"days": "Sat", "time": "12:00pm"}, {"days": "Sun", "time": "Closed"}], "id": "8010300002", "name": "USPS COLLECTION BOX - PO LOBBY", "address": {"city": "BYERS", "state": "CO", "street": "47 CEDAR AVE", "postcode": "80103"}}},
{"geometry": {"type": "Point", "coordinates": [-104.2240408967, 39.7118037791]}, "type": "Feature", "properties": {"collection_times": [{"days": "Mon-Fri", "time": "4:45pm"}, {"days": "Sat", "time": "12:00pm"}, {"days": "Sun", "time": "Closed"}], "id": "8010300003", "name": "USPS COLLECTION BOX - PO LOBBY", "address": {"city": "BYERS", "state": "CO", "street": "47 CEDAR AVE", "postcode": "80103"}}},
{"geometry": {"type": "Point", "coordinates": [-104.8746896207, 39.4721102677]}, "type": "Feature", "properties": {"collection_times": [{"days": "Mon-Sat", "time": "12:00pm"}, {"days": "Sun", "time": "Closed"}], "id": "8010400000", "name": "USPS COLLECTION BOX - BLUE BOX", "address": {"city": "CASTLE ROCK", "state": "CO", "street": "560 CASTLE PINES PKWY", "postcode": "80104"}}},
{"geometry": {"type": "Point", "coordinates": [-104.8741584721, 39.412631091]}, "type": "Feature", "properties": {"collection_times": [{"days": "Mon-Sat", "time": "12:00pm"}, {"days": "Sun", "time": "Closed"}], "id": "8010400001", "name": "USPS COLLECTION BOX - BLUE BOX", "address": {"city": "CASTLE ROCK", "state": "CO", "street": "5050 FACTORY SHOPS BLVD", "postcode": "80104"}}},
{"geometry": {"type": "Point", "coordinates": [-104.8601153324, 39.3655671458]}, "type": "Feature", "properties": {"collection_times": [{"days": "Mon-Fri", "time": "5:00pm"}, {"days": "Sat", "time": "3:30pm"}, {"days": "Sun", "time": "Closed"}], "id": "8010400002", "name": "USPS COLLECTION BOX - BLUE BOX", "address": {"city": "CASTLE ROCK", "state": "CO", "street": "300 E MILLER CT", "postcode": "80104"}}},
{"geometry": {"type": "Point", "coordinates": [-104.8267260235, 39.373384506]}, "type": "Feature", "properties": {"collection_times": [{"days": "Mon-Sat", "time": "12:00pm"}, {"days": "Sun", "time": "Closed"}], "id": "8010400004", "name": "USPS COLLECTION BOX - BLUE BOX", "address": {"city": "CASTLE ROCK", "state": "CO", "street": "750 N RIDGE RD", "postcode": "80104"}}},
{"geometry": {"type": "Point", "coordinates": [-104.8380492932, 39.3673916218]}, "type": "Feature", "properties": {"collection_times": [{"days": "Mon-Fri", "time": "4:00pm"}, {"days": "Sat-Sun", "time": "Closed"}], "id": "8010400009", "name": "USPS COLLECTION BOX - BLUE BOX", "address": {"city": "CASTLE ROCK", "state": "CO", "street": "301 WILCOX ST", "postcode": "80104"}}},
{"geometry": {"type": "Point", "coordinates": [-104.8380492932, 39.3673916218]}, "type": "Feature", "properties": {"collection_times": [{"days": "Mon-Fri", "time": "4:00pm"}, {"days": "Sat-Sun", "time": "Closed"}], "id": "8010400010", "name": "USPS COLLECTION BOX - BLUE BOX", "address": {"city": "CASTLE ROCK", "state": "CO", "street": "301 WILCOX ST", "postcode": "80104"}}},
{"geometry": {"type": "Point", "coordinates": [-104.8601153324, 39.3655671458]}, "type": "Feature", "properties": {"collection_times": [{"days": "Mon-Fri", "time": "5:00pm"}, {"days": "Sat", "time": "3:30pm"}, {"days": "Sun", "time": "Closed"}], "id": "8010400014", "name": "USPS COLLECTION BOX - BLUE BOX", "address": {"city": "CASTLE ROCK", "state": "CO", "street": "300 E MILLER CT", "postcode": "80104"}}},
{"geometry": {"type": "Point", "coordinates": [-104.8601153324, 39.3655671458]}, "type": "Feature", "properties": {"collection_times": [{"days": "Mon-Fri", "time": "5:00pm"}, {"days": "Sat", "time": "3:30pm"}, {"days": "Sun", "time": "Closed"}], "id": "8010400015", "name": "USPS COLLECTION BOX - BLUE BOX", "address": {"city": "CASTLE ROCK", "state": "CO", "street": "300 E MILLER CT", "postcode": "80104"}}},
{"geometry": {"type": "Point", "coordinates": [-104.8379884634, 39.3673828853]}, "type": "Feature", "properties": {"collection_times": [{"days": "Mon-Fri", "time": "5:00pm"}, {"days": "Sat", "time": "11:45am"}, {"days": "Sun", "time": "Closed"}], "id": "8010400016", "name": "USPS COLLECTION BOX - EXPRESS", "address": {"city": "CASTLE ROCK", "state": "CO", "street": "300 E MILLER CT", "postcode": "80104"}}},
{"geometry": {"type": "Point", "coordinates": [-104.8601153324, 39.3655671458]}, "type": "Feature", "properties": {"collection_times": [{"days": "Mon-Fri", "time": "3:45pm"}, {"days": "Sat", "time": "3:30pm"}, {"days": "Sun", "time": "Closed"}], "id": "8010400018", "name": "USPS COLLECTION BOX - PO LOBBY", "address": {"city": "CASTLE ROCK", "state": "CO", "street": "300 E MILLER CT", "postcode": "80104"}}},
{"geometry": {"type": "Point", "coordinates": [-104.8601153324, 39.3655671458]}, "type": "Feature", "properties": {"collection_times": [{"days": "Mon-Fri", "time": "3:45pm"}, {"days": "Sat", "time": "3:30pm"}, {"days": "Sun", "time": "Closed"}], "id": "8010400019", "name": "USPS COLLECTION BOX - PO LOBBY", "address": {"city": "CASTLE ROCK", "state": "CO", "street": "300 E MILLER CT", "postcode": "80104"}}},
{"geometry": {"type": "Point", "coordinates": [-104.8639022179, 39.4123318023]}, "type": "Feature", "properties": {"collection_times": [{"days": "Mon-Sat", "time": "12:00pm"}, {"days": "Sun", "time": "Closed"}], "id": "8010400020", "name": "USPS COLLECTION BOX - BLUE BOX", "address": {"city": "CASTLE ROCK", "state": "CO", "street": "100 FOUNDERS PKWY", "postcode": "80104"}}},
{"geometry": {"type": "Point", "coordinates": [-104.8660977897, 39.4043598419]}, "type": "Feature", "properties": {"collection_times": [{"days": "Mon-Fri", "time": "4:00pm"}, {"days": "Sat-Sun", "time": "Closed"}], "id": "8010400022", "name": "USPS COLLECTION BOX - BLUE BOX", "address": {"city": "CASTLE ROCK", "state": "CO", "street": "4000 JUSTICE WAY", "postcode": "80104"}}},
{"geometry": {"type": "Point", "coordinates": [-104.8601153324, 39.3655671458]}, "type": "Feature", "properties": {"collection_times": [{"days": "Mon-Fri", "time": "5:00pm"}, {"days": "Sat", "time": "3:30pm"}, {"days": "Sun", "time": "Closed"}], "id": "8010400023", "name": "USPS COLLECTION BOX - APC", "address": {"city": "CASTLE ROCK", "state": "CO", "street": "300 E MILLER CT", "postcode": "80104"}}},
{"geometry": {"type": "Point", "coordinates": [-104.0455130248, 39.6141366657]}, "type": "Feature", "properties": {"collection_times": [{"days": "Mon-Fri", "time": "4:30pm"}, {"days": "Sat", "time": "10:30am"}, {"days": "Sun", "time": "Closed"}], "id": "8010500000", "name": "USPS COLLECTION BOX - BLUE BOX", "address": {"city": "DEERTRAIL", "state": "CO", "street": "195 DATE ST", "postcode": "80105"}}},
{"geometry": {"type": "Point", "coordinates": [-104.0455130248, 39.6141366657]}, "type": "Feature", "properties": {"collection_times": [{"days": "Mon-Fri", "time": "4:30pm"}, {"days": "Sat", "time": "10:30am"}, {"days": "Sun", "time": "Closed"}], "id": "8010500001", "name": "USPS COLLECTION BOX - PO LOBBY", "address": {"city": "DEERTRAIL", "state": "CO", "street": "195 DATE ST", "postcode": "80105"}}},
{"geometry": {"type": "Point", "coordinates": [-104.0455130248, 39.6141366657]}, "type": "Feature", "properties": {"collection_times": [{"days": "Mon-Fri", "time": "4:30pm"}, {"days": "Sat", "time": "10:30am"}, {"days": "Sun", "time": "Closed"}], "id": "8010500002", "name": "USPS COLLECTION BOX - PO LOBBY", "address": {"city": "DEERTRAIL", "state": "CO", "street": "195 DATE ST", "postcode": "80105"}}},
{"geometry": {"type": "Point", "coordinates": [-104.5364755473, 39.2203168207]}, "type": "Feature", "properties": {"collection_times": [{"days": "Mon-Fri", "time": "4:20pm"}, {"days": "Sat", "time": "4:00pm"}, {"days": "Sun", "time": "Closed"}], "id": "8010600000", "name": "USPS COLLECTION BOX - BLUE BOX", "address": {"city": "ELBERT", "state": "CO", "street": "24150 ELBERT ST", "postcode": "80106"}}},
{"geometry": {"type": "Point", "coordinates": [-104.5364755473, 39.2203168207]}, "type": "Feature", "properties": {"collection_times": [{"days": "Mon-Fri", "time": "4:20pm"}, {"days": "Sat", "time": "11:30am"}, {"days": "Sun", "time": "Closed"}], "id": "8010600001", "name": "USPS COLLECTION BOX - PO LOBBY", "address": {"city": "ELBERT", "state": "CO", "street": "24150 ELBERT ST", "postcode": "80106"}}},
{"geometry": {"type": "Point", "coordinates": [-104.5364755473, 39.2203168207]}, "type": "Feature", "properties": {"collection_times": [{"days": "Mon-Fri", "time": "4:20pm"}, {"days": "Sat", "time": "11:30am"}, {"days": "Sun", "time": "Closed"}], "id": "8010600002", "name": "USPS COLLECTION BOX - PO LOBBY", "address": {"city": "ELBERT", "state": "CO", "street": "24150 ELBERT ST", "postcode": "80106"}}},
{"geometry": {"type": "Point", "coordinates": [-104.5898557478, 39.361298533]}, "type": "Feature", "properties": {"collection_times": [{"days": "Mon-Sat", "time": "5:00pm"}, {"days": "Sun", "time": "Closed"}], "id": "8010700000", "name": "USPS COLLECTION BOX - BLUE BOX", "address": {"city": "ELIZABETH", "state": "CO", "street": "790 E KIOWA AVE", "postcode": "80107"}}},
{"geometry": {"type": "Point", "coordinates": [-104.5898557478, 39.361298533]}, "type": "Feature", "properties": {"collection_times": [{"days": "Mon-Sat", "time": "5:00pm"}, {"days": "Sun", "time": "Closed"}], "id": "8010700001", "name": "USPS COLLECTION BOX - BLUE BOX", "address": {"city": "ELIZABETH", "state": "CO", "street": "790 E KIOWA AVE", "postcode": "80107"}}},
{"geometry": {"type": "Point", "coordinates": [-104.5180059875, 39.502431627]}, "type": "Feature", "properties": {"collection_times": [{"days": "Mon-Sat", "time": "9:00am"}, {"days": "Sun", "time": "Closed"}], "id": "8010700004", "name": "USPS COLLECTION BOX - BLUE BOX", "address": {"city": "ELIZABETH", "state": "CO", "street": "7119 SUN COUNTRY DR", "postcode": "80107"}}},
{"geometry": {"type": "Point", "coordinates": [-104.5898557478, 39.361298533]}, "type": "Feature", "properties": {"collection_times": [{"days": "Mon-Fri", "time": "4:30pm"}, {"days": "Sat", "time": "12:00pm"}, {"days": "Sun", "time": "Closed"}], "id": "8010700005", "name": "USPS COLLECTION BOX - PO LOBBY", "address": {"city": "ELIZABETH", "state": "CO", "street": "790 E KIOWA AVE", "postcode": "80107"}}},
{"geometry": {"type": "Point", "coordinates": [-104.5898557478, 39.361298533]}, "type": "Feature", "properties": {"collection_times": [{"days": "Mon-Fri", "time": "4:30pm"}, {"days": "Sat", "time": "12:00pm"}, {"days": "Sun", "time": "Closed"}], "id": "8010700006", "name": "USPS COLLECTION BOX - PO LOBBY", "address": {"city": "ELIZABETH", "state": "CO", "street": "790 E KIOWA AVE", "postcode": "80107"}}},
{"geometry": {"type": "Point", "coordinates": [-104.6081269469, 39.3601728155]}, "type": "Feature", "properties": {"collection_times": [{"days": "Mon-Sat", "time": "5:00pm"}, {"days": "Sun", "time": "Closed"}], "id": "8010700008", "name": "USPS COLLECTION BOX - BLUE BOX", "address": {"city": "ELIZABETH", "state": "CO", "street": "220 ELIZABETH ST", "postcode": "80107"}}},
{"geometry": {"type": "Point", "coordinates": [-104.989993814, 39.6557540004]}, "type": "Feature", "properties": {"collection_times": [{"days": "Mon-Fri", "time": "5:00pm"}, {"days": "Sat", "time": "12:00pm"}, {"days": "Sun", "time": "Closed"}], "id": "8011000006", "name": "USPS COLLECTION BOX - BLUE BOX", "address": {"city": "ENGLEWOOD", "state": "CO", "street": "3333 S BANNOCK ST", "postcode": "80110"}}},
{"geometry": {"type": "Point", "coordinates": [-105.025451826, 39.6254856294]}, "type": "Feature", "properties": {"collection_times": [{"days": "Mon-Fri", "time": "12:30pm"}, {"days": "Sat", "time": "1:00pm"}, {"days": "Sun", "time": "Closed"}], "id": "8011000027", "name": "USPS COLLECTION BOX - BLUE BOX", "address": {"city": "ENGLEWOOD", "state": "CO", "street": "5050 S FEDERAL BLVD", "postcode": "80110"}}},
{"geometry": {"type": "Point", "coordinates": [-105.0243244551, 39.6333471638]}, "type": "Feature", "properties": {"collection_times": [{"days": "Mon-Sat", "time": "1:00pm"}, {"days": "Sun", "time": "Closed"}], "id": "8011000029", "name": "USPS COLLECTION BOX - BLUE BOX", "address": {"city": "ENGLEWOOD", "state": "CO", "street": "4540 S DECATUR ST", "postcode": "80110"}}},
{"geometry": {"type": "Point", "coordinates": [-105.0083746304, 39.6536637119]}, "type": "Feature", "properties": {"collection_times": [{"days": "Mon-Fri", "time": "12:00pm"}, {"days": "Sat", "time": "10:00am"}, {"days": "Sun", "time": "Closed"}], "id": "8011000036", "name": "USPS COLLECTION BOX - BLUE BOX", "address": {"city": "ENGLEWOOD", "state": "CO", "street": "1500 W HAMPDEN AVE", "postcode": "80110"}}},
{"geometry": {"type": "Point", "coordinates": [-104.9966834469, 39.6531810647]}, "type": "Feature", "properties": {"collection_times": [{"days": "Mon-Fri", "time": "5:00pm"}, {"days": "Sat", "time": "11:00am"}, {"days": "Sun", "time": "Closed"}], "id": "8011000042", "name": "USPS COLLECTION BOX - BLUE BOX", "address": {"city": "ENGLEWOOD", "state": "CO", "street": "770 W HAMPDEN AVE", "postcode": "80110"}}},
{"geometry": {"type": "Point", "coordinates": [-105.025451826, 39.6254856294]}, "type": "Feature", "properties": {"collection_times": [{"days": "Mon-Fri", "time": "12:30pm"}, {"days": "Sat", "time": "1:00pm"}, {"days": "Sun", "time": "Closed"}], "id": "8011000043", "name": "USPS COLLECTION BOX - BLUE BOX", "address": {"city": "ENGLEWOOD", "state": "CO", "street": "5050 S FEDERAL BLVD", "postcode": "80110"}}},
{"geometry": {"type": "Point", "coordinates": [-104.9924496368, 39.6533135561]}, "type": "Feature", "properties": {"collection_times": [{"days": "Mon-Fri", "time": "5:00pm"}, {"days": "Sat", "time": "11:00am"}, {"days": "Sun", "time": "Closed"}], "id": "8011000051", "name": "USPS COLLECTION BOX - BLUE BOX", "address": {"city": "ENGLEWOOD", "state": "CO", "street": "333 W HAMPDEN AVE", "postcode": "80110"}}},
{"geometry": {"type": "Point", "coordinates": [-105.0146100071, 39.6536660778]}, "type": "Feature", "properties": {"collection_times": [{"days": "Mon-Sat", "time": "12:00pm"}, {"days": "Sun", "time": "Closed"}], "id": "8011000052", "name": "USPS COLLECTION BOX - BLUE BOX", "address": {"city": "ENGLEWOOD", "state": "CO", "street": "2331 W HAMPDEN AVE", "postcode": "80110"}}},
{"geometry": {"type": "Point", "coordinates": [-104.991232372, 39.6498498522]}, "type": "Feature", "properties": {"collection_times": [{"days": "Mon-Sat", "time": "1:00pm"}, {"days": "Sun", "time": "Closed"}], "id": "8011000055", "name": "USPS COLLECTION BOX - BLUE BOX", "address": {"city": "ENGLEWOOD", "state": "CO", "street": "3675 S CHEROKEE ST", "postcode": "80110"}}},
{"geometry": {"type": "Point", "coordinates": [-104.9924496368, 39.6533135561]}, "type": "Feature", "properties": {"collection_times": [{"days": "Mon-Fri", "time": "5:00pm"}, {"days": "Sat", "time": "11:00am"}, {"days": "Sun", "time": "Closed"}], "id": "8011000059", "name": "USPS COLLECTION BOX - BLUE BOX", "address": {"city": "ENGLEWOOD", "state": "CO", "street": "333 W HAMPDEN AVE", "postcode": "80110"}}},
{"geometry": {"type": "Point", "coordinates": [-104.9924496368, 39.6533135561]}, "type": "Feature", "properties": {"collection_times": [{"days": "Mon-Fri", "time": "5:00pm"}, {"days": "Sat", "time": "11:00am"}, {"days": "Sun", "time": "Closed"}], "id": "8011000060", "name": "USPS COLLECTION BOX - BLUE BOX", "address": {"city": "ENGLEWOOD", "state": "CO", "street": "333 W HAMPDEN AVE", "postcode": "80110"}}},
{"geometry": {"type": "Point", "coordinates": [-104.9985631687, 39.6475951324]}, "type": "Feature", "properties": {"collection_times": [{"days": "Mon-Fri", "time": "5:45pm"}, {"days": "Sat", "time": "5:00pm"}, {"days": "Sun", "time": "Closed"}], "id": "8011000068", "name": "USPS COLLECTION BOX - BLUE BOX", "address": {"city": "ENGLEWOOD", "state": "CO", "street": "915 W LEHIGH AVE", "postcode": "80110"}}},
{"geometry": {"type": "Point", "coordinates": [-104.9985631687, 39.6475951324]}, "type": "Feature", "properties": {"collection_times": [{"days": "Mon-Fri", "time": "5:45pm"}, {"days": "Sat", "time": "5:00pm"}, {"days": "Sun", "time": "Closed"}], "id": "8011000069", "name": "USPS COLLECTION BOX - BLUE BOX", "address": {"city": "ENGLEWOOD", "state": "CO", "street": "915 W LEHIGH AVE", "postcode": "80110"}}},
{"geometry": {"type": "Point", "coordinates": [-104.9985631687, 39.6475951324]}, "type": "Feature", "properties": {"collection_times": [{"days": "Mon-Fri", "time": "6:00pm"}, {"days": "Sat", "time": "5:00pm"}, {"days": "Sun", "time": "Closed"}], "id": "8011000070", "name": "USPS COLLECTION BOX - PO LOBBY", "address": {"city": "ENGLEWOOD", "state": "CO", "street": "915 W LEHIGH AVE", "postcode": "80110"}}},
{"geometry": {"type": "Point", "coordinates": [-105.0046063893, 39.6469405392]}, "type": "Feature", "properties": {"collection_times": [{"days": "Mon-Fri", "time": "3:45pm"}, {"days": "Sat", "time": "12:30pm"}, {"days": "Sun", "time": "Closed"}], "id": "8011000071", "name": "USPS COLLECTION BOX - EXPRESS", "address": {"city": "ENGLEWOOD", "state": "CO", "street": "915 W LEHIGH AVE", "postcode": "80110"}}},
{"geometry": {"type": "Point", "coordinates": [-104.9985631687, 39.6475951324]}, "type": "Feature", "properties": {"collection_times": [{"days": "Mon-Fri", "time": "5:45pm"}, {"days": "Sat", "time": "5:00pm"}, {"days": "Sun", "time": "Closed"}], "id": "8011000072", "name": "USPS COLLECTION BOX - BLUE BOX", "address": {"city": "ENGLEWOOD", "state": "CO", "street": "915 W LEHIGH AVE", "postcode": "80110"}}},
{"geometry": {"type": "Point", "coordinates": [-105.0098426825, 39.65204779]}, "type": "Feature", "properties": {"collection_times": [{"days": "Mon-Fri", "time": "12:15pm"}, {"days": "Sat", "time": "11:00am"}, {"days": "Sun", "time": "Closed"}], "id": "8011000080", "name": "USPS COLLECTION BOX - BLUE BOX", "address": {"city": "ENGLEWOOD", "state": "CO", "street": "4000 RIVER POINT PKWY", "postcode": "80110"}}},
{"geometry": {"type": "Point", "coordinates": [-105.0238483544, 39.6416895941]}, "type": "Feature", "properties": {"collection_times": [{"days": "Mon-Fri", "time": "12:30pm"}, {"days": "Sat", "time": "11:00am"}, {"days": "Sun", "time": "Closed"}], "id": "8011000081", "name": "USPS COLLECTION BOX - BLUE BOX", "address": {"city": "ENGLEWOOD", "state": "CO", "street": "4051 S ELIOT ST", "postcode": "80110"}}},
{"geometry": {"type": "Point", "coordinates": [-105.0107535609, 39.6323432425]}, "type": "Feature", "properties": {"collection_times": [{"days": "Mon-Sat", "time": "1:00pm"}, {"days": "Sun", "time": "Closed"}], "id": "8011000089", "name": "USPS COLLECTION BOX - BLUE BOX", "address": {"city": "ENGLEWOOD", "state": "CO", "street": "1825 W UNION AVE", "postcode": "80110"}}},
{"geometry": {"type": "Point", "coordinates": [-105.0083746304, 39.6536637119]}, "type": "Feature", "properties": {"collection_times": [{"days": "Mon-Fri", "time": "12:00pm"}, {"days": "Sat", "time": "10:00am"}, {"days": "Sun", "time": "Closed"}], "id": "8011000094", "name": "USPS COLLECTION BOX - BLUE BOX", "address": {"city": "ENGLEWOOD", "state": "CO", "street": "1500 W HAMPDEN AVE", "postcode": "80110"}}},
{"geometry": {"type": "Point", "coordinates": [-104.989993814, 39.6557540004]}, "type": "Feature", "properties": {"collection_times": [{"days": "Mon-Fri", "time": "5:00pm"}, {"days": "Sat", "time": "12:00pm"}, {"days": "Sun", "time": "Closed"}], "id": "8011000099", "name": "USPS COLLECTION BOX - BLUE BOX", "address": {"city": "ENGLEWOOD", "state": "CO", "street": "3333 S BANNOCK ST", "postcode": "80110"}}},
{"geometry": {"type": "Point", "coordinates": [-105.0046063893, 39.6469405392]}, "type": "Feature", "properties": {"collection_times": [{"days": "Mon-Fri", "time": "12:30pm"}, {"days": "Sat", "time": "12:00pm"}, {"days": "Sun", "time": "Closed"}], "id": "8011000100", "name": "USPS COLLECTION BOX - EXPRESS", "address": {"city": "ENGLEWOOD", "state": "CO", "street": "3333 S BANNOCK ST", "postcode": "80110"}}},
{"geometry": {"type": "Point", "coordinates": [-105.010982041, 39.669658763]}, "type": "Feature", "properties": {"collection_times": [{"days": "Mon-Fri", "time": "12:00pm"}, {"days": "Sat", "time": "1:00pm"}, {"days": "Sun", "time": "Closed"}], "id": "8011000101", "name": "USPS COLLECTION BOX - BLUE BOX", "address": {"city": "ENGLEWOOD", "state": "CO", "street": "2590 S TEJON ST", "postcode": "80110"}}},
{"geometry": {"type": "Point", "coordinates": [-105.004550124, 39.6338456004]}, "type": "Feature", "properties": {"collection_times": [{"days": "Mon-Fri", "time": "1:00pm"}, {"days": "Sat", "time": "11:00am"}, {"days": "Sun", "time": "Closed"}], "id": "8011000107", "name": "USPS COLLECTION BOX - BLUE BOX", "address": {"city": "ENGLEWOOD", "state": "CO", "street": "4540 S NAVAJO ST", "postcode": "80110"}}},
{"geometry": {"type": "Point", "coordinates": [-105.0253560063, 39.6418175608]}, "type": "Feature", "properties": {"collection_times": [{"days": "Mon-Sat", "time": "12:30pm"}, {"days": "Sun", "time": "Closed"}], "id": "8011000109", "name": "USPS COLLECTION BOX - BLUE BOX", "address": {"city": "ENGLEWOOD", "state": "CO", "street": "4101 S FEDERAL BLVD", "postcode": "80110"}}},
{"geometry": {"type": "Point", "coordinates": [-104.8850751505, 39.632424292]}, "type": "Feature", "properties": {"collection_times": [{"days": "Mon-Fri", "time": "4:30pm"}, {"days": "Sat", "time": "1:00pm"}, {"days": "Sun", "time": "Closed"}], "id": "8011100002", "name": "USPS COLLECTION BOX - BLUE BOX", "address": {"city": "GREENWOOD VLG", "state": "CO", "street": "4660 S YOSEMITE ST", "postcode": "80111"}}},
{"geometry": {"type": "Point", "coordinates": [-104.8982482485, 39.6094861094]}, "type": "Feature", "properties": {"collection_times": [{"days": "Mon-Fri", "time": "4:00pm"}, {"days": "Sat", "time": "12:30pm"}, {"days": "Sun", "time": "Closed"}], "id": "8011100003", "name": "USPS COLLECTION BOX - BLUE BOX", "address": {"city": "GREENWOOD VLG", "state": "CO", "street": "7800 E ORCHARD RD", "postcode": "80111"}}},
{"geometry": {"type": "Point", "coordinates": [-104.9028558737, 39.6094754627]}, "type": "Feature", "properties": {"collection_times": [{"days": "Mon-Fri", "time": "2:45pm"}, {"days": "Sat", "time": "12:00pm"}, {"days": "Sun", "time": "Closed"}], "id": "8011100006", "name": "USPS COLLECTION BOX - BLUE BOX", "address": {"city": "GREENWOOD VLG", "state": "CO", "street": "7400 E ORCHARD RD", "postcode": "80111"}}},
{"geometry": {"type": "Point", "coordinates": [-104.9028558737, 39.6094754627]}, "type": "Feature", "properties": {"collection_times": [{"days": "Mon-Fri", "time": "2:45pm"}, {"days": "Sat", "time": "12:00pm"}, {"days": "Sun", "time": "Closed"}], "id": "8011100007", "name": "USPS COLLECTION BOX - BLUE BOX", "address": {"city": "GREENWOOD VLG", "state": "CO", "street": "7400 E ORCHARD RD", "postcode": "80111"}}},
{"geometry": {"type": "Point", "coordinates": [-104.8876084262, 39.6097342571]}, "type": "Feature", "properties": {"collection_times": [{"days": "Mon-Fri", "time": "2:45pm"}, {"days": "Sat", "time": "12:00pm"}, {"days": "Sun", "time": "Closed"}], "id": "8011100008", "name": "USPS COLLECTION BOX - EXPRESS", "address": {"city": "GREENWOOD VLG", "state": "CO", "street": "7400 E ORCHARD RD", "postcode": "80111"}}},
{"geometry": {"type": "Point", "coordinates": [-104.9006886928, 39.6094730968]}, "type": "Feature", "properties": {"collection_times": [{"days": "Mon-Fri", "time": "3:00pm"}, {"days": "Sat", "time": "12:15pm"}, {"days": "Sun", "time": "Closed"}], "id": "8011100009", "name": "USPS COLLECTION BOX - BLUE BOX", "address": {"city": "GREENWOOD VLG", "state": "CO", "street": "7600 E ORCHARD RD", "postcode": "80111"}}},
{"geometry": {"type": "Point", "coordinates": [-104.9006886928, 39.6094730968]}, "type": "Feature", "properties": {"collection_times": [{"days": "Mon-Fri", "time": "3:00pm"}, {"days": "Sat", "time": "12:15pm"}, {"days": "Sun", "time": "Closed"}], "id": "8011100010", "name": "USPS COLLECTION BOX - BLUE BOX", "address": {"city": "GREENWOOD VLG", "state": "CO", "street": "7600 E ORCHARD RD", "postcode": "80111"}}},
{"geometry": {"type": "Point", "coordinates": [-104.8876084262, 39.6097342571]}, "type": "Feature", "properties": {"collection_times": [{"days": "Mon-Fri", "time": "3:00pm"}, {"days": "Sat", "time": "12:15pm"}, {"days": "Sun", "time": "Closed"}], "id": "8011100011", "name": "USPS COLLECTION BOX - EXPRESS", "address": {"city": "GREENWOOD VLG", "state": "CO", "street": "7600 E ORCHARD RD", "postcode": "80111"}}},
{"geometry": {"type": "Point", "coordinates": [-104.8968063646, 39.607766884]}, "type": "Feature", "properties": {"collection_times": [{"days": "Mon-Fri", "time": "3:45pm"}, {"days": "Sat", "time": "12:30pm"}, {"days": "Sun", "time": "Closed"}], "id": "8011100014", "name": "USPS COLLECTION BOX - BLUE BOX", "address": {"city": "GREENWOOD VLG", "state": "CO", "street": "5995 GREENWOOD PLAZA BLVD", "postcode": "80111"}}},
{"geometry": {"type": "Point", "coordinates": [-104.8960219197, 39.607708122]}, "type": "Feature", "properties": {"collection_times": [{"days": "Mon-Fri", "time": "3:45pm"}, {"days": "Sat", "time": "12:30pm"}, {"days": "Sun", "time": "Closed"}], "id": "8011100015", "name": "USPS COLLECTION BOX - BLUE BOX", "address": {"city": "GREENWOOD VLG", "state": "CO", "street": "5990 GREENWOOD PLAZA BLVD", "postcode": "80111"}}},
{"geometry": {"type": "Point", "coordinates": [-104.8876084262, 39.6097342571]}, "type": "Feature", "properties": {"collection_times": [{"days": "Mon-Fri", "time": "3:30pm"}, {"days": "Sat-Sun", "time": "Closed"}], "id": "8011100016", "name": "USPS COLLECTION BOX - EXPRESS", "address": {"city": "GREENWOOD VLG", "state": "CO", "street": "6000 GREENWOOD PLAZA BLVD", "postcode": "80111"}}},
{"geometry": {"type": "Point", "coordinates": [-104.8967336346, 39.6076579899]}, "type": "Feature", "properties": {"collection_times": [{"days": "Mon-Fri", "time": "3:30pm"}, {"days": "Sat-Sun", "time": "Closed"}], "id": "8011100017", "name": "USPS COLLECTION BOX - BLUE BOX", "address": {"city": "GREENWOOD VLG", "state": "CO", "street": "6000 GREENWOOD PLAZA BLVD", "postcode": "80111"}}},
{"geometry": {"type": "Point", "coordinates": [-104.8967336346, 39.6076579899]}, "type": "Feature", "properties": {"collection_times": [{"days": "Mon-Fri", "time": "3:30pm"}, {"days": "Sat-Sun", "time": "Closed"}], "id": "8011100018", "name": "USPS COLLECTION BOX - BLUE BOX", "address": {"city": "GREENWOOD VLG", "state": "CO", "street": "6000 GREENWOOD PLAZA BLVD", "postcode": "80111"}}},
{"geometry": {"type": "Point", "coordinates": [-104.8967336346, 39.6076579899]}, "type": "Feature", "properties": {"collection_times": [{"days": "Mon-Fri", "time": "3:30pm"}, {"days": "Sat-Sun", "time": "Closed"}], "id": "8011100019", "name": "USPS COLLECTION BOX - BLUE BOX", "address": {"city": "GREENWOOD VLG", "state": "CO", "street": "6000 GREENWOOD PLAZA BLVD", "postcode": "80111"}}},
{"geometry": {"type": "Point", "coordinates": [-104.8902337015, 39.5998899462]}, "type": "Feature", "properties": {"collection_times": [{"days": "Mon-Fri", "time": "5:30pm"}, {"days": "Sat-Sun", "time": "Closed"}], "id": "8011100020", "name": "USPS COLLECTION BOX - BLUE BOX", "address": {"city": "GREENWOOD VLG", "state": "CO", "street": "6400 S FIDDLERS GREEN CIR", "postcode": "80111"}}},
{"geometry": {"type": "Point", "coordinates": [-104.8902337015, 39.5998899462]}, "type": "Feature", "properties": {"collection_times": [{"days": "Mon-Fri", "time": "5:30pm"}, {"days": "Sat-Sun", "time": "Closed"}], "id": "8011100021", "name": "USPS COLLECTION BOX - BLUE BOX", "address": {"city": "GREENWOOD VLG", "state": "CO", "street": "6400 S FIDDLERS GREEN CIR", "postcode": "80111"}}},
{"geometry": {"type": "Point", "coordinates": [-104.8876084262, 39.6097342571]}, "type": "Feature", "properties": {"collection_times": [{"days": "Mon-Fri", "time": "3:30pm"}, {"days": "Sat-Sun", "time": "Closed"}], "id": "8011100022", "name": "USPS COLLECTION BOX - EXPRESS", "address": {"city": "GREENWOOD VLG", "state": "CO", "street": "6200 S SYRACUSE WAY", "postcode": "80111"}}},
{"geometry": {"type": "Point", "coordinates": [-104.9030368664, 39.5986998895]}, "type": "Feature", "properties": {"collection_times": [{"days": "Mon-Fri", "time": "5:15pm"}, {"days": "Sat", "time": "12:00pm"}, {"days": "Sun", "time": "Closed"}], "id": "8011100025", "name": "USPS COLLECTION BOX - BLUE BOX", "address": {"city": "GREENWOOD VLG", "state": "CO", "street": "7385 E PEAKVIEW AVE", "postcode": "80111"}}},
{"geometry": {"type": "Point", "coordinates": [-104.9030368664, 39.5986998895]}, "type": "Feature", "properties": {"collection_times": [{"days": "Mon-Fri", "time": "5:15pm"}, {"days": "Sat", "time": "12:00pm"}, {"days": "Sun", "time": "Closed"}], "id": "8011100026", "name": "USPS COLLECTION BOX - BLUE BOX", "address": {"city": "GREENWOOD VLG", "state": "CO", "street": "7385 E PEAKVIEW AVE", "postcode": "80111"}}},
{"geometry": {"type": "Point", "coordinates": [-104.9041393841, 39.6072716102]}, "type": "Feature", "properties": {"collection_times": [{"days": "Mon-Fri", "time": "2:45pm"}, {"days": "Sat", "time": "12:00pm"}, {"days": "Sun", "time": "Closed"}], "id": "8011100027", "name": "USPS COLLECTION BOX - BLUE BOX", "address": {"city": "GREENWOOD VLG", "state": "CO", "street": "6025 S QUEBEC ST", "postcode": "80111"}}},
{"geometry": {"type": "Point", "coordinates": [-104.8876084262, 39.6097342571]}, "type": "Feature", "properties": {"collection_times": [{"days": "Mon-Fri", "time": "2:45pm"}, {"days": "Sat", "time": "12:00pm"}, {"days": "Sun", "time": "Closed"}], "id": "8011100029", "name": "USPS COLLECTION BOX - EXPRESS", "address": {"city": "GREENWOOD VLG", "state": "CO", "street": "6025 S QUEBEC ST", "postcode": "80111"}}},
{"geometry": {"type": "Point", "coordinates": [-104.8876084262, 39.6097342571]}, "type": "Feature", "properties": {"collection_times": [{"days": "Mon-Fri", "time": "2:00pm"}, {"days": "Sat", "time": "12:00pm"}, {"days": "Sun", "time": "Closed"}], "id": "8011100033", "name": "USPS COLLECTION BOX - EXPRESS", "address": {"city": "GREENWOOD VLG", "state": "CO", "street": "6050 S HOLLY ST", "postcode": "80111"}}},
{"geometry": {"type": "Point", "coordinates": [-104.9227733538, 39.6073863572]}, "type": "Feature", "properties": {"collection_times": [{"days": "Mon-Fri", "time": "2:00pm"}, {"days": "Sat", "time": "12:00pm"}, {"days": "Sun", "time": "Closed"}], "id": "8011100034", "name": "USPS COLLECTION BOX - BLUE BOX", "address": {"city": "GREENWOOD VLG", "state": "CO", "street": "6050 S HOLLY ST", "postcode": "80111"}}},
{"geometry": {"type": "Point", "coordinates": [-104.8876084262, 39.6097342571]}, "type": "Feature", "properties": {"collection_times": [{"days": "Mon-Fri", "time": "2:30pm"}, {"days": "Sat", "time": "12:30pm"}, {"days": "Sun", "time": "Closed"}], "id": "8011100035", "name": "USPS COLLECTION BOX - EXPRESS", "address": {"city": "GREENWOOD VLG", "state": "CO", "street": "5600 S QUEBEC ST", "postcode": "80111"}}},
{"geometry": {"type": "Point", "coordinates": [-104.9039430129, 39.6140972834]}, "type": "Feature", "properties": {"collection_times": [{"days": "Mon-Fri", "time": "2:30pm"}, {"days": "Sat", "time": "12:30pm"}, {"days": "Sun", "time": "Closed"}], "id": "8011100036", "name": "USPS COLLECTION BOX - BLUE BOX", "address": {"city": "GREENWOOD VLG", "state": "CO", "street": "5600 S QUEBEC ST", "postcode": "80111"}}},
{"geometry": {"type": "Point", "coordinates": [-104.9039430129, 39.6140972834]}, "type": "Feature", "properties": {"collection_times": [{"days": "Mon-Fri", "time": "2:30pm"}, {"days": "Sat", "time": "12:30pm"}, {"days": "Sun", "time": "Closed"}], "id": "8011100037", "name": "USPS COLLECTION BOX - BLUE BOX", "address": {"city": "GREENWOOD VLG", "state": "CO", "street": "5600 S QUEBEC ST", "postcode": "80111"}}},
{"geometry": {"type": "Point", "coordinates": [-104.8973286569, 39.6124161818]}, "type": "Feature", "properties": {"collection_times": [{"days": "Mon-Fri", "time": "3:15pm"}, {"days": "Sat-Sun", "time": "Closed"}], "id": "8011100041", "name": "USPS COLLECTION BOX - BLUE BOX", "address": {"city": "GREENWOOD VLG", "state": "CO", "street": "5670 GREENWOOD PLAZA BLVD", "postcode": "80111"}}},
{"geometry": {"type": "Point", "coordinates": [-104.8973286569, 39.6124161818]}, "type": "Feature", "properties": {"collection_times": [{"days": "Mon-Fri", "time": "3:15pm"}, {"days": "Sat-Sun", "time": "Closed"}], "id": "8011100042", "name": "USPS COLLECTION BOX - BLUE BOX", "address": {"city": "GREENWOOD VLG", "state": "CO", "street": "5670 GREENWOOD PLAZA BLVD", "postcode": "80111"}}},
{"geometry": {"type": "Point", "coordinates": [-104.8973201699, 39.6127584908]}, "type": "Feature", "properties": {"collection_times": [{"days": "Mon-Fri", "time": "3:15pm"}, {"days": "Sat-Sun", "time": "Closed"}], "id": "8011100044", "name": "USPS COLLECTION BOX - BLUE BOX", "address": {"city": "GREENWOOD VLG", "state": "CO", "street": "5660 GREENWOOD PLAZA BLVD", "postcode": "80111"}}},
{"geometry": {"type": "Point", "coordinates": [-104.8973201699, 39.6127584908]}, "type": "Feature", "properties": {"collection_times": [{"days": "Mon-Fri", "time": "3:15pm"}, {"days": "Sat-Sun", "time": "Closed"}], "id": "8011100045", "name": "USPS COLLECTION BOX - BLUE BOX", "address": {"city": "GREENWOOD VLG", "state": "CO", "street": "5660 GREENWOOD PLAZA BLVD", "postcode": "80111"}}},
{"geometry": {"type": "Point", "coordinates": [-104.8988834975, 39.6141848224]}, "type": "Feature", "properties": {"collection_times": [{"days": "Mon-Fri", "time": "3:15pm"}, {"days": "Sat-Sun", "time": "Closed"}], "id": "8011100046", "name": "USPS COLLECTION BOX - BLUE BOX", "address": {"city": "GREENWOOD VLG", "state": "CO", "street": "5600 GREENWOOD PLAZA BLVD", "postcode": "80111"}}},
{"geometry": {"type": "Point", "coordinates": [-104.8876084262, 39.6097342571]}, "type": "Feature", "properties": {"collection_times": [{"days": "Mon-Fri", "time": "2:00pm"}, {"days": "Sat", "time": "12:30pm"}, {"days": "Sun", "time": "Closed"}], "id": "8011100053", "name": "USPS COLLECTION BOX - EXPRESS", "address": {"city": "GREENWOOD VLG", "state": "CO", "street": "7000 E BELLEVIEW AVE", "postcode": "80111"}}},
{"geometry": {"type": "Point", "coordinates": [-104.9069914982, 39.6240755423]}, "type": "Feature", "properties": {"collection_times": [{"days": "Mon-Fri", "time": "2:00pm"}, {"days": "Sat", "time": "12:30pm"}, {"days": "Sun", "time": "Closed"}], "id": "8011100054", "name": "USPS COLLECTION BOX - BLUE BOX", "address": {"city": "GREENWOOD VLG", "state": "CO", "street": "7000 E BELLEVIEW AVE", "postcode": "80111"}}},
{"geometry": {"type": "Point", "coordinates": [-104.8876084262, 39.6097342571]}, "type": "Feature", "properties": {"collection_times": [{"days": "Mon-Fri", "time": "4:15pm"}, {"days": "Sat", "time": "1:00pm"}, {"days": "Sun", "time": "Closed"}], "id": "8011100057", "name": "USPS COLLECTION BOX - EXPRESS", "address": {"city": "GREENWOOD VLG", "state": "CO", "street": "8200 E BELLEVIEW AVE", "postcode": "80111"}}},
{"geometry": {"type": "Point", "coordinates": [-104.8933649939, 39.6240341387]}, "type": "Feature", "properties": {"collection_times": [{"days": "Mon-Fri", "time": "4:15pm"}, {"days": "Sat", "time": "1:00pm"}, {"days": "Sun", "time": "Closed"}], "id": "8011100058", "name": "USPS COLLECTION BOX - BLUE BOX", "address": {"city": "GREENWOOD VLG", "state": "CO", "street": "8200 E BELLEVIEW AVE", "postcode": "80111"}}},
{"geometry": {"type": "Point", "coordinates": [-104.8933649939, 39.6240341387]}, "type": "Feature", "properties": {"collection_times": [{"days": "Mon-Fri", "time": "4:15pm"}, {"days": "Sat", "time": "1:00pm"}, {"days": "Sun", "time": "Closed"}], "id": "8011100059", "name": "USPS COLLECTION BOX - BLUE BOX", "address": {"city": "GREENWOOD VLG", "state": "CO", "street": "8200 E BELLEVIEW AVE", "postcode": "80111"}}},
{"geometry": {"type": "Point", "coordinates": [-104.8876084262, 39.6097342571]}, "type": "Feature", "properties": {"collection_times": [{"days": "Mon-Fri", "time": "5:00pm"}, {"days": "Sat", "time": "12:45pm"}, {"days": "Sun", "time": "Closed"}], "id": "8011100062", "name": "USPS COLLECTION BOX - EXPRESS", "address": {"city": "GREENWOOD VLG", "state": "CO", "street": "5613 DTC PKWY", "postcode": "80111"}}},
{"geometry": {"type": "Point", "coordinates": [-104.8941859674, 39.6143516196]}, "type": "Feature", "properties": {"collection_times": [{"days": "Mon-Fri", "time": "5:00pm"}, {"days": "Sat", "time": "12:45pm"}, {"days": "Sun", "time": "Closed"}], "id": "8011100063", "name": "USPS COLLECTION BOX - BLUE BOX", "address": {"city": "GREENWOOD VLG", "state": "CO", "street": "5613 DTC PKWY", "postcode": "80111"}}},
{"geometry": {"type": "Point", "coordinates": [-104.8941859674, 39.6143516196]}, "type": "Feature", "properties": {"collection_times": [{"days": "Mon-Fri", "time": "5:00pm"}, {"days": "Sat", "time": "12:45pm"}, {"days": "Sun", "time": "Closed"}], "id": "8011100064", "name": "USPS COLLECTION BOX - BLUE BOX", "address": {"city": "GREENWOOD VLG", "state": "CO", "street": "5613 DTC PKWY", "postcode": "80111"}}},
{"geometry": {"type": "Point", "coordinates": [-104.8985287334, 39.623828095]}, "type": "Feature", "properties": {"collection_times": [{"days": "Mon-Fri", "time": "4:45pm"}, {"days": "Sat", "time": "12:45pm"}, {"days": "Sun", "time": "Closed"}], "id": "8011100066", "name": "USPS COLLECTION BOX - BLUE BOX", "address": {"city": "GREENWOOD VLG", "state": "CO", "street": "7720 E BELLEVIEW AVE", "postcode": "80111"}}},
{"geometry": {"type": "Point", "coordinates": [-104.8985287334, 39.623828095]}, "type": "Feature", "properties": {"collection_times": [{"days": "Mon-Fri", "time": "4:45pm"}, {"days": "Sat", "time": "12:45pm"}, {"days": "Sun", "time": "Closed"}], "id": "8011100067", "name": "USPS COLLECTION BOX - BLUE BOX", "address": {"city": "GREENWOOD VLG", "state": "CO", "street": "7720 E BELLEVIEW AVE", "postcode": "80111"}}},
{"geometry": {"type": "Point", "coordinates": [-104.8985287334, 39.623828095]}, "type": "Feature", "properties": {"collection_times": [{"days": "Mon-Fri", "time": "4:45pm"}, {"days": "Sat", "time": "12:45pm"}, {"days": "Sun", "time": "Closed"}], "id": "8011100068", "name": "USPS COLLECTION BOX - BLUE BOX", "address": {"city": "GREENWOOD VLG", "state": "CO", "street": "7720 E BELLEVIEW AVE", "postcode": "80111"}}},
{"geometry": {"type": "Point", "coordinates": [-104.8876084262, 39.6097342571]}, "type": "Feature", "properties": {"collection_times": [{"days": "Mon-Fri", "time": "4:45pm"}, {"days": "Sat", "time": "12:45pm"}, {"days": "Sun", "time": "Closed"}], "id": "8011100070", "name": "USPS COLLECTION BOX - EXPRESS", "address": {"city": "GREENWOOD VLG", "state": "CO", "street": "7720 E BELLEVIEW AVE", "postcode": "80111"}}},
{"geometry": {"type": "Point", "coordinates": [-104.8761529409, 39.5979463447]}, "type": "Feature", "properties": {"collection_times": [{"days": "Mon-Fri", "time": "5:30pm"}, {"days": "Sat", "time": "1:30pm"}, {"days": "Sun", "time": "Closed"}], "id": "8011100088", "name": "USPS COLLECTION BOX - BLUE BOX", "address": {"city": "GREENWOOD VLG", "state": "CO", "street": "6535 S DAYTON ST", "postcode": "80111"}}},
{"geometry": {"type": "Point", "coordinates": [-104.8876084262, 39.6097342571]}, "type": "Feature", "properties": {"collection_times": [{"days": "Mon-Fri", "time": "5:30pm"}, {"days": "Sat", "time": "1:30pm"}, {"days": "Sun", "time": "Closed"}], "id": "8011100089", "name": "USPS COLLECTION BOX - EXPRESS", "address": {"city": "GREENWOOD VLG", "state": "CO", "street": "6535 S DAYTON ST", "postcode": "80111"}}},
{"geometry": {"type": "Point", "coordinates": [-104.8761529409, 39.5979463447]}, "type": "Feature", "properties": {"collection_times": [{"days": "Mon-Fri", "time": "5:30pm"}, {"days": "Sat", "time": "1:30pm"}, {"days": "Sun", "time": "Closed"}], "id": "8011100090", "name": "USPS COLLECTION BOX - BLUE BOX", "address": {"city": "GREENWOOD VLG", "state": "CO", "street": "6535 S DAYTON ST", "postcode": "80111"}}},
{"geometry": {"type": "Point", "coordinates": [-104.8910889808, 39.6091927355]}, "type": "Feature", "properties": {"collection_times": [{"days": "Mon-Fri", "time": "4:00pm"}, {"days": "Sat-Sun", "time": "Closed"}], "id": "8011100091", "name": "USPS COLLECTION BOX - BLUE BOX", "address": {"city": "GREENWOOD VLG", "state": "CO", "street": "8480 E ORCHARD RD", "postcode": "80111"}}},
{"geometry": {"type": "Point", "coordinates": [-104.8910889808, 39.6091927355]}, "type": "Feature", "properties": {"collection_times": [{"days": "Mon-Fri", "time": "4:00pm"}, {"days": "Sat-Sun", "time": "Closed"}], "id": "8011100092", "name": "USPS COLLECTION BOX - BLUE BOX", "address": {"city": "GREENWOOD VLG", "state": "CO", "street": "8480 E ORCHARD RD", "postcode": "80111"}}},
{"geometry": {"type": "Point", "coordinates": [-104.9006886928, 39.6094730968]}, "type": "Feature", "properties": {"collection_times": [{"days": "Mon-Fri", "time": "3:00pm"}, {"days": "Sat", "time": "12:15pm"}, {"days": "Sun", "time": "Closed"}], "id": "8011100096", "name": "USPS COLLECTION BOX - BLUE BOX", "address": {"city": "GREENWOOD VLG", "state": "CO", "street": "7600 E ORCHARD RD", "postcode": "80111"}}},
{"geometry": {"type": "Point", "coordinates": [-104.9006886928, 39.6094730968]}, "type": "Feature", "properties": {"collection_times": [{"days": "Mon-Fri", "time": "3:00pm"}, {"days": "Sat", "time": "12:15pm"}, {"days": "Sun", "time": "Closed"}], "id": "8011100097", "name": "USPS COLLECTION BOX - BLUE BOX", "address": {"city": "GREENWOOD VLG", "state": "CO", "street": "7600 E ORCHARD RD", "postcode": "80111"}}},
{"geometry": {"type": "Point", "coordinates": [-104.8899237663, 39.6208578939]}, "type": "Feature", "properties": {"collection_times": [{"days": "Mon-Fri", "time": "4:15pm"}, {"days": "Sat-Sun", "time": "Closed"}], "id": "8011100100", "name": "USPS COLLECTION BOX - BLUE BOX", "address": {"city": "GREENWOOD VLG", "state": "CO", "street": "5299 DTC BLVD", "postcode": "80111"}}},
{"geometry": {"type": "Point", "coordinates": [-104.8974083476, 39.6120472155]}, "type": "Feature", "properties": {"collection_times": [{"days": "Mon-Fri", "time": "3:15pm"}, {"days": "Sat-Sun", "time": "Closed"}], "id": "8011100105", "name": "USPS COLLECTION BOX - BLUE BOX", "address": {"city": "GREENWOOD VLG", "state": "CO", "street": "5680 GREENWOOD PLAZA BLVD", "postcode": "80111"}}},
{"geometry": {"type": "Point", "coordinates": [-104.8974083476, 39.6120472155]}, "type": "Feature", "properties": {"collection_times": [{"days": "Mon-Fri", "time": "3:15pm"}, {"days": "Sat-Sun", "time": "Closed"}], "id": "8011100106", "name": "USPS COLLECTION BOX - BLUE BOX", "address": {"city": "GREENWOOD VLG", "state": "CO", "street": "5680 GREENWOOD PLAZA BLVD", "postcode": "80111"}}},
{"geometry": {"type": "Point", "coordinates": [-104.8725028405, 39.617235313]}, "type": "Feature", "properties": {"collection_times": [{"days": "Mon-Fri", "time": "5:00pm"}, {"days": "Sat-Sun", "time": "Closed"}], "id": "8011100108", "name": "USPS COLLECTION BOX - BLUE BOX", "address": {"city": "GREENWOOD VLG", "state": "CO", "street": "5575 D.T.C. PKWY", "postcode": "80111"}}},
{"geometry": {"type": "Point", "coordinates": [-104.8762366497, 39.59228741]}, "type": "Feature", "properties": {"collection_times": [{"days": "Mon-Fri", "time": "6:00pm"}, {"days": "Sat", "time": "4:00pm"}, {"days": "Sun", "time": "Closed"}], "id": "8011100115", "name": "USPS COLLECTION BOX - BLUE BOX", "address": {"city": "GREENWOOD VLG", "state": "CO", "street": "6855 S DAYTON ST", "postcode": "80111"}}},
{"geometry": {"type": "Point", "coordinates": [-104.8876084262, 39.6097342571]}, "type": "Feature", "properties": {"collection_times": [{"days": "Mon-Fri", "time": "5:30pm"}, {"days": "Sat", "time": "12:45pm"}, {"days": "Sun", "time": "Closed"}], "id": "8011100116", "name": "USPS COLLECTION BOX - EXPRESS", "address": {"city": "GREENWOOD VLG", "state": "CO", "street": "6855 S DAYTON ST", "postcode": "80111"}}},
{"geometry": {"type": "Point", "coordinates": [-104.8762366497, 39.59228741]}, "type": "Feature", "properties": {"collection_times": [{"days": "Mon-Fri", "time": "6:00pm"}, {"days": "Sat", "time": "4:00pm"}, {"days": "Sun", "time": "Closed"}], "id": "8011100117", "name": "USPS COLLECTION BOX - PO LOBBY", "address": {"city": "GREENWOOD VLG", "state": "CO", "street": "6855 S DAYTON ST", "postcode": "80111"}}},
{"geometry": {"type": "Point", "coordinates": [-104.8762366497, 39.59228741]}, "type": "Feature", "properties": {"collection_times": [{"days": "Mon-Fri", "time": "6:00pm"}, {"days": "Sat", "time": "4:00pm"}, {"days": "Sun", "time": "Closed"}], "id": "8011100118", "name": "USPS COLLECTION BOX - PO LOBBY", "address": {"city": "GREENWOOD VLG", "state": "CO", "street": "6855 S DAYTON ST", "postcode": "80111"}}},
{"geometry": {"type": "Point", "coordinates": [-104.9017155012, 39.6201185445]}, "type": "Feature", "properties": {"collection_times": [{"days": "Mon-Fri", "time": "2:15pm"}, {"days": "Sat", "time": "12:30pm"}, {"days": "Sun", "time": "Closed"}], "id": "8011100119", "name": "USPS COLLECTION BOX - BLUE BOX", "address": {"city": "GREENWOOD VLG", "state": "CO", "street": "5350 S ROSLYN ST", "postcode": "80111"}}},
{"geometry": {"type": "Point", "coordinates": [-104.8876084262, 39.6097342571]}, "type": "Feature", "properties": {"collection_times": [{"days": "Mon-Fri", "time": "2:15pm"}, {"days": "Sat", "time": "12:30pm"}, {"days": "Sun", "time": "Closed"}], "id": "8011100121", "name": "USPS COLLECTION BOX - EXPRESS", "address": {"city": "GREENWOOD VLG", "state": "CO", "street": "5350 S ROSLYN ST", "postcode": "80111"}}},
{"geometry": {"type": "Point", "coordinates": [-104.8851990281, 39.6260960362]}, "type": "Feature", "properties": {"collection_times": [{"days": "Mon-Fri", "time": "4:30pm"}, {"days": "Sat", "time": "1:00pm"}, {"days": "Sun", "time": "Closed"}], "id": "8011100123", "name": "USPS COLLECTION BOX - BLUE BOX", "address": {"city": "GREENWOOD VLG", "state": "CO", "street": "4910 S YOSEMITE ST", "postcode": "80111"}}},
{"geometry": {"type": "Point", "coordinates": [-104.8762366497, 39.59228741]}, "type": "Feature", "properties": {"collection_times": [{"days": "Mon-Fri", "time": "6:00pm"}, {"days": "Sat", "time": "4:00pm"}, {"days": "Sun", "time": "Closed"}], "id": "8011100124", "name": "USPS COLLECTION BOX - APC", "address": {"city": "GREENWOOD VLG", "state": "CO", "street": "6855 S DAYTON ST", "postcode": "80111"}}},
{"geometry": {"type": "Point", "coordinates": [-104.8579497396, 39.5729807014]}, "type": "Feature", "properties": {"collection_times": [{"days": "Mon-Fri", "time": "4:15pm"}, {"days": "Sat", "time": "12:00pm"}, {"days": "Sun", "time": "Closed"}], "id": "8011200000", "name": "USPS COLLECTION BOX - BLUE BOX", "address": {"city": "CENTENNIAL", "state": "CO", "street": "6500 S REVERE PKWY", "postcode": "80112"}}},
{"geometry": {"type": "Point", "coordinates": [-104.8579497396, 39.5729807014]}, "type": "Feature", "properties": {"collection_times": [{"days": "Mon-Fri", "time": "4:15pm"}, {"days": "Sat", "time": "12:00pm"}, {"days": "Sun", "time": "Closed"}], "id": "8011200001", "name": "USPS COLLECTION BOX - BLUE BOX", "address": {"city": "CENTENNIAL", "state": "CO", "street": "6500 S REVERE PKWY", "postcode": "80112"}}},
{"geometry": {"type": "Point", "coordinates": [-104.8720272365, 39.5781330321]}, "type": "Feature", "properties": {"collection_times": [{"days": "Mon-Fri", "time": "3:30pm"}, {"days": "Sat", "time": "12:00pm"}, {"days": "Sun", "time": "Closed"}], "id": "8011200002", "name": "USPS COLLECTION BOX - EXPRESS", "address": {"city": "CENTENNIAL", "state": "CO", "street": "6800 S REVERE PKWY", "postcode": "80112"}}},
{"geometry": {"type": "Point", "coordinates": [-104.8408326224, 39.5926504223]}, "type": "Feature", "properties": {"collection_times": [{"days": "Mon-Fri", "time": "3:30pm"}, {"days": "Sat", "time": "12:00pm"}, {"days": "Sun", "time": "Closed"}], "id": "8011200003", "name": "USPS COLLECTION BOX - BLUE BOX", "address": {"city": "CENTENNIAL", "state": "CO", "street": "6800 S REVERE PKWY", "postcode": "80112"}}},
{"geometry": {"type": "Point", "coordinates": [-104.8408326224, 39.5926504223]}, "type": "Feature", "properties": {"collection_times": [{"days": "Mon-Fri", "time": "3:30pm"}, {"days": "Sat", "time": "12:00pm"}, {"days": "Sun", "time": "Closed"}], "id": "8011200004", "name": "USPS COLLECTION BOX - BLUE BOX", "address": {"city": "CENTENNIAL", "state": "CO", "street": "6800 S REVERE PKWY", "postcode": "80112"}}},
{"geometry": {"type": "Point", "coordinates": [-104.8408326224, 39.5926504223]}, "type": "Feature", "properties": {"collection_times": [{"days": "Mon-Fri", "time": "3:30pm"}, {"days": "Sat", "time": "12:00pm"}, {"days": "Sun", "time": "Closed"}], "id": "8011200005", "name": "USPS COLLECTION BOX - BLUE BOX", "address": {"city": "CENTENNIAL", "state": "CO", "street": "6800 S REVERE PKWY", "postcode": "80112"}}},
{"geometry": {"type": "Point", "coordinates": [-104.8408326224, 39.5926504223]}, "type": "Feature", "properties": {"collection_times": [{"days": "Mon-Fri", "time": "3:30pm"}, {"days": "Sat", "time": "12:00pm"}, {"days": "Sun", "time": "Closed"}], "id": "8011200006", "name": "USPS COLLECTION BOX - BLUE BOX", "address": {"city": "CENTENNIAL", "state": "CO", "street": "6800 S REVERE PKWY", "postcode": "80112"}}},
{"geometry": {"type": "Point", "coordinates": [-104.8295453607, 39.5829296623]}, "type": "Feature", "properties": {"collection_times": [{"days": "Mon-Fri", "time": "3:45pm"}, {"days": "Sat", "time": "10:00am"}, {"days": "Sun", "time": "Closed"}], "id": "8011200008", "name": "USPS COLLECTION BOX - BLUE BOX", "address": {"city": "CENTENNIAL", "state": "CO", "street": "7305 S POTOMAC ST", "postcode": "80112"}}},
{"geometry": {"type": "Point", "coordinates": [-104.8720272365, 39.5781330321]}, "type": "Feature", "properties": {"collection_times": [{"days": "Mon-Fri", "time": "3:30pm"}, {"days": "Sat-Sun", "time": "Closed"}], "id": "8011200016", "name": "USPS COLLECTION BOX - EXPRESS", "address": {"city": "CENTENNIAL", "state": "CO", "street": "9050 S MINERAL CIR", "postcode": "80112"}}},
{"geometry": {"type": "Point", "coordinates": [-104.8827711898, 39.5762101721]}, "type": "Feature", "properties": {"collection_times": [{"days": "Mon-Fri", "time": "3:30pm"}, {"days": "Sat-Sun", "time": "Closed"}], "id": "8011200017", "name": "USPS COLLECTION BOX - BLUE BOX", "address": {"city": "CENTENNIAL", "state": "CO", "street": "9050 S MINERAL CIR", "postcode": "80112"}}},
{"geometry": {"type": "Point", "coordinates": [-104.8827711898, 39.5762101721]}, "type": "Feature", "properties": {"collection_times": [{"days": "Mon-Fri", "time": "3:30pm"}, {"days": "Sat-Sun", "time": "Closed"}], "id": "8011200019", "name": "USPS COLLECTION BOX - BLUE BOX", "address": {"city": "CENTENNIAL", "state": "CO", "street": "9050 S MINERAL CIR", "postcode": "80112"}}},
{"geometry": {"type": "Point", "coordinates": [-104.8720272365, 39.5781330321]}, "type": "Feature", "properties": {"collection_times": [{"days": "Mon-Fri", "time": "4:00pm"}, {"days": "Sat", "time": "1:00pm"}, {"days": "Sun", "time": "Closed"}], "id": "8011200020", "name": "USPS COLLECTION BOX - EXPRESS", "address": {"city": "CENTENNIAL", "state": "CO", "street": "7600 E ARAPAHOE RD", "postcode": "80112"}}},
{"geometry": {"type": "Point", "coordinates": [-104.9001788375, 39.5949641051]}, "type": "Feature", "properties": {"collection_times": [{"days": "Mon-Fri", "time": "4:00pm"}, {"days": "Sat", "time": "1:00pm"}, {"days": "Sun", "time": "Closed"}], "id": "8011200021", "name": "USPS COLLECTION BOX - BLUE BOX", "address": {"city": "CENTENNIAL", "state": "CO", "street": "7600 E ARAPAHOE RD", "postcode": "80112"}}},
{"geometry": {"type": "Point", "coordinates": [-104.9001788375, 39.5949641051]}, "type": "Feature", "properties": {"collection_times": [{"days": "Mon-Fri", "time": "4:00pm"}, {"days": "Sat", "time": "1:00pm"}, {"days": "Sun", "time": "Closed"}], "id": "8011200022", "name": "USPS COLLECTION BOX - BLUE BOX", "address": {"city": "CENTENNIAL", "state": "CO", "street": "7600 E ARAPAHOE RD", "postcode": "80112"}}},
{"geometry": {"type": "Point", "coordinates": [-104.8473005718, 39.5791290164]}, "type": "Feature", "properties": {"collection_times": [{"days": "Mon-Fri", "time": "3:30pm"}, {"days": "Sat-Sun", "time": "Closed"}], "id": "8011200027", "name": "USPS COLLECTION BOX - BLUE BOX", "address": {"city": "CENTENNIAL", "state": "CO", "street": "7601 S PEORIA ST", "postcode": "80112"}}},
{"geometry": {"type": "Point", "coordinates": [-104.8720272365, 39.5781330321]}, "type": "Feature", "properties": {"collection_times": [{"days": "Mon-Fri", "time": "3:30pm"}, {"days": "Sat-Sun", "time": "Closed"}], "id": "8011200029", "name": "USPS COLLECTION BOX - EXPRESS", "address": {"city": "CENTENNIAL", "state": "CO", "street": "7601 S PEORIA ST", "postcode": "80112"}}},
{"geometry": {"type": "Point", "coordinates": [-104.8720272365, 39.5781330321]}, "type": "Feature", "properties": {"collection_times": [{"days": "Mon-Fri", "time": "4:30pm"}, {"days": "Sat", "time": "1:00pm"}, {"days": "Sun", "time": "Closed"}], "id": "8011200034", "name": "USPS COLLECTION BOX - EXPRESS", "address": {"city": "CENTENNIAL", "state": "CO", "street": "7000 S ALTON WAY", "postcode": "80112"}}},
{"geometry": {"type": "Point", "coordinates": [-104.8852574005, 39.5904834235]}, "type": "Feature", "properties": {"collection_times": [{"days": "Mon-Fri", "time": "4:30pm"}, {"days": "Sat", "time": "1:00pm"}, {"days": "Sun", "time": "Closed"}], "id": "8011200035", "name": "USPS COLLECTION BOX - BLUE BOX", "address": {"city": "CENTENNIAL", "state": "CO", "street": "7000 S ALTON WAY", "postcode": "80112"}}},
{"geometry": {"type": "Point", "coordinates": [-104.8852574005, 39.5904834235]}, "type": "Feature", "properties": {"collection_times": [{"days": "Mon-Fri", "time": "4:30pm"}, {"days": "Sat", "time": "1:00pm"}, {"days": "Sun", "time": "Closed"}], "id": "8011200036", "name": "USPS COLLECTION BOX - BLUE BOX", "address": {"city": "CENTENNIAL", "state": "CO", "street": "7000 S ALTON WAY", "postcode": "80112"}}},
{"geometry": {"type": "Point", "coordinates": [-104.8852574005, 39.5904834235]}, "type": "Feature", "properties": {"collection_times": [{"days": "Mon-Fri", "time": "4:30pm"}, {"days": "Sat", "time": "1:00pm"}, {"days": "Sun", "time": "Closed"}], "id": "8011200037", "name": "USPS COLLECTION BOX - BLUE BOX", "address": {"city": "CENTENNIAL", "state": "CO", "street": "7000 S ALTON WAY", "postcode": "80112"}}},
{"geometry": {"type": "Point", "coordinates": [-104.8720272365, 39.5781330321]}, "type": "Feature", "properties": {"collection_times": [{"days": "Mon-Fri", "time": "3:15pm"}, {"days": "Sat-Sun", "time": "Closed"}], "id": "8011200038", "name": "USPS COLLECTION BOX - EXPRESS", "address": {"city": "CENTENNIAL", "state": "CO", "street": "7200 E DRY CREEK RD", "postcode": "80112"}}},
{"geometry": {"type": "Point", "coordinates": [-104.9050987639, 39.5804917851]}, "type": "Feature", "properties": {"collection_times": [{"days": "Mon-Fri", "time": "3:15pm"}, {"days": "Sat-Sun", "time": "Closed"}], "id": "8011200039", "name": "USPS COLLECTION BOX - BLUE BOX", "address": {"city": "CENTENNIAL", "state": "CO", "street": "7200 E DRY CREEK RD", "postcode": "80112"}}},
{"geometry": {"type": "Point", "coordinates": [-104.8720272365, 39.5781330321]}, "type": "Feature", "properties": {"collection_times": [{"days": "Mon-Fri", "time": "3:15pm"}, {"days": "Sat-Sun", "time": "Closed"}], "id": "8011200040", "name": "USPS COLLECTION BOX - EXPRESS", "address": {"city": "CENTENNIAL", "state": "CO", "street": "6851 S HOLLY CIR", "postcode": "80112"}}},
{"geometry": {"type": "Point", "coordinates": [-104.9217678386, 39.5925686132]}, "type": "Feature", "properties": {"collection_times": [{"days": "Mon-Fri", "time": "3:15pm"}, {"days": "Sat-Sun", "time": "Closed"}], "id": "8011200041", "name": "USPS COLLECTION BOX - BLUE BOX", "address": {"city": "CENTENNIAL", "state": "CO", "street": "6851 S HOLLY CIR", "postcode": "80112"}}},
{"geometry": {"type": "Point", "coordinates": [-104.8720272365, 39.5781330321]}, "type": "Feature", "properties": {"collection_times": [{"days": "Mon-Fri", "time": "4:00pm"}, {"days": "Sat", "time": "1:00pm"}, {"days": "Sun", "time": "Closed"}], "id": "8011200043", "name": "USPS COLLECTION BOX - EXPRESS", "address": {"city": "CENTENNIAL", "state": "CO", "street": "7475 E ARAPAHOE RD", "postcode": "80112"}}},
{"geometry": {"type": "Point", "coordinates": [-104.9021508301, 39.5951048772]}, "type": "Feature", "properties": {"collection_times": [{"days": "Mon-Fri", "time": "4:00pm"}, {"days": "Sat", "time": "1:00pm"}, {"days": "Sun", "time": "Closed"}], "id": "8011200044", "name": "USPS COLLECTION BOX - BLUE BOX", "address": {"city": "CENTENNIAL", "state": "CO", "street": "7475 E ARAPAHOE RD", "postcode": "80112"}}},
{"geometry": {"type": "Point", "coordinates": [-104.9021508301, 39.5951048772]}, "type": "Feature", "properties": {"collection_times": [{"days": "Mon-Fri", "time": "4:00pm"}, {"days": "Sat", "time": "1:00pm"}, {"days": "Sun", "time": "Closed"}], "id": "8011200045", "name": "USPS COLLECTION BOX - BLUE BOX", "address": {"city": "CENTENNIAL", "state": "CO", "street": "7475 E ARAPAHOE RD", "postcode": "80112"}}},
{"geometry": {"type": "Point", "coordinates": [-104.8579497396, 39.5729807014]}, "type": "Feature", "properties": {"collection_times": [{"days": "Mon-Fri", "time": "4:15pm"}, {"days": "Sat", "time": "12:00pm"}, {"days": "Sun", "time": "Closed"}], "id": "8011200048", "name": "USPS COLLECTION BOX - BLUE BOX", "address": {"city": "CENTENNIAL", "state": "CO", "street": "6500 S REVERE PKWY", "postcode": "80112"}}},
{"geometry": {"type": "Point", "coordinates": [-104.8720272365, 39.5781330321]}, "type": "Feature", "properties": {"collection_times": [{"days": "Mon-Fri", "time": "4:15pm"}, {"days": "Sat", "time": "12:00pm"}, {"days": "Sun", "time": "Closed"}], "id": "8011200049", "name": "USPS COLLECTION BOX - EXPRESS", "address": {"city": "CENTENNIAL", "state": "CO", "street": "6500 S REVERE PKWY", "postcode": "80112"}}},
{"geometry": {"type": "Point", "coordinates": [-104.9050987639, 39.5804917851]}, "type": "Feature", "properties": {"collection_times": [{"days": "Mon-Fri", "time": "3:15pm"}, {"days": "Sat-Sun", "time": "Closed"}], "id": "8011200058", "name": "USPS COLLECTION BOX - BLUE BOX", "address": {"city": "CENTENNIAL", "state": "CO", "street": "7200 E DRY CREEK RD", "postcode": "80112"}}},
{"geometry": {"type": "Point", "coordinates": [-104.8908970313, 39.5951664176]}, "type": "Feature", "properties": {"collection_times": [{"days": "Mon-Fri", "time": "3:00pm"}, {"days": "Sat", "time": "1:00pm"}, {"days": "Sun", "time": "Closed"}], "id": "8011200061", "name": "USPS COLLECTION BOX - BLUE BOX", "address": {"city": "CENTENNIAL", "state": "CO", "street": "8557 E ARAPAHOE RD", "postcode": "80112"}}},
{"geometry": {"type": "Point", "coordinates": [-104.8720272365, 39.5781330321]}, "type": "Feature", "properties": {"collection_times": [{"days": "Mon-Fri", "time": "3:00pm"}, {"days": "Sat", "time": "1:00pm"}, {"days": "Sun", "time": "Closed"}], "id": "8011200062", "name": "USPS COLLECTION BOX - EXPRESS", "address": {"city": "CENTENNIAL", "state": "CO", "street": "8557 E ARAPAHOE RD", "postcode": "80112"}}},
{"geometry": {"type": "Point", "coordinates": [-104.8776966993, 39.5661112782]}, "type": "Feature", "properties": {"collection_times": [{"days": "Mon-Sat", "time": "10:00am"}, {"days": "Sun", "time": "Closed"}], "id": "8011200067", "name": "USPS COLLECTION BOX - BLUE BOX", "address": {"city": "CENTENNIAL", "state": "CO", "street": "9595 E COUNTY LINE RD", "postcode": "80112"}}},
{"geometry": {"type": "Point", "coordinates": [-104.8720272365, 39.5781330321]}, "type": "Feature", "properties": {"collection_times": [{"days": "Mon-Fri", "time": "4:00pm"}, {"days": "Sat-Sun", "time": "Closed"}], "id": "8011200068", "name": "USPS COLLECTION BOX - EXPRESS", "address": {"city": "CENTENNIAL", "state": "CO", "street": "6767 S SPRUCE ST", "postcode": "80112"}}},
{"geometry": {"type": "Point", "coordinates": [-104.8978933608, 39.5940484949]}, "type": "Feature", "properties": {"collection_times": [{"days": "Mon-Fri", "time": "4:00pm"}, {"days": "Sat-Sun", "time": "Closed"}], "id": "8011200069", "name": "USPS COLLECTION BOX - BLUE BOX", "address": {"city": "CENTENNIAL", "state": "CO", "street": "6767 S SPRUCE ST", "postcode": "80112"}}},
{"geometry": {"type": "Point", "coordinates": [-104.8978933608, 39.5940484949]}, "type": "Feature", "properties": {"collection_times": [{"days": "Mon-Fri", "time": "4:00pm"}, {"days": "Sat-Sun", "time": "Closed"}], "id": "8011200070", "name": "USPS COLLECTION BOX - BLUE BOX", "address": {"city": "CENTENNIAL", "state": "CO", "street": "6767 S SPRUCE ST", "postcode": "80112"}}},
{"geometry": {"type": "Point", "coordinates": [-104.8864791729, 39.5848283384]}, "type": "Feature", "properties": {"collection_times": [{"days": "Mon-Sat", "time": "1:00pm"}, {"days": "Sun", "time": "Closed"}], "id": "8011200071", "name": "USPS COLLECTION BOX - BLUE BOX", "address": {"city": "CENTENNIAL", "state": "CO", "street": "7200 S XENIA CIR", "postcode": "80112"}}},
{"geometry": {"type": "Point", "coordinates": [-104.9042044432, 39.5674844522]}, "type": "Feature", "properties": {"collection_times": [{"days": "Mon-Sat", "time": "1:00pm"}, {"days": "Sun", "time": "Closed"}], "id": "8011200072", "name": "USPS COLLECTION BOX - BLUE BOX", "address": {"city": "CENTENNIAL", "state": "CO", "street": "8200 S QUEBEC ST", "postcode": "80112"}}},
{"geometry": {"type": "Point", "coordinates": [-104.8106558876, 39.5824406318]}, "type": "Feature", "properties": {"collection_times": [{"days": "Mon-Fri", "time": "3:00pm"}, {"days": "Sat", "time": "1:00pm"}, {"days": "Sun", "time": "Closed"}], "id": "8011200073", "name": "USPS COLLECTION BOX - BLUE BOX", "address": {"city": "CENTENNIAL", "state": "CO", "street": "15327 E HINSDALE CIR", "postcode": "80112"}}},
{"geometry": {"type": "Point", "coordinates": [-104.8106558876, 39.5824406318]}, "type": "Feature", "properties": {"collection_times": [{"days": "Mon-Fri", "time": "3:00pm"}, {"days": "Sat", "time": "1:00pm"}, {"days": "Sun", "time": "Closed"}], "id": "8011200074", "name": "USPS COLLECTION BOX - BLUE BOX", "address": {"city": "CENTENNIAL", "state": "CO", "street": "15327 E HINSDALE CIR", "postcode": "80112"}}},
{"geometry": {"type": "Point", "coordinates": [-104.8687878384, 39.5677513171]}, "type": "Feature", "properties": {"collection_times": [{"days": "Mon-Fri", "time": "4:30pm"}, {"days": "Sat", "time": "10:00am"}, {"days": "Sun", "time": "Closed"}], "id": "8011200076", "name": "USPS COLLECTION BOX - BLUE BOX", "address": {"city": "CENTENNIAL", "state": "CO", "street": "199 INVERNESS DR W", "postcode": "80112"}}},
{"geometry": {"type": "Point", "coordinates": [-104.8687878384, 39.5677513171]}, "type": "Feature", "properties": {"collection_times": [{"days": "Mon-Fri", "time": "4:30pm"}, {"days": "Sat", "time": "10:00am"}, {"days": "Sun", "time": "Closed"}], "id": "8011200079", "name": "USPS COLLECTION BOX - BLUE BOX", "address": {"city": "CENTENNIAL", "state": "CO", "street": "199 INVERNESS DR W", "postcode": "80112"}}},
{"geometry": {"type": "Point", "coordinates": [-104.9874924361, 39.6561103141]}, "type": "Feature", "properties": {"collection_times": [{"days": "Mon-Fri", "time": "5:30pm"}, {"days": "Sat", "time": "3:15pm"}, {"days": "Sun", "time": "Closed"}], "id": "8011300000", "name": "USPS COLLECTION BOX - BLUE BOX", "address": {"city": "ENGLEWOOD", "state": "CO", "street": "3330 S BROADWAY", "postcode": "80113"}}},
{"geometry": {"type": "Point", "coordinates": [-104.9874924361, 39.6561103141]}, "type": "Feature", "properties": {"collection_times": [{"days": "Mon-Fri", "time": "5:30pm"}, {"days": "Sat", "time": "3:15pm"}, {"days": "Sun", "time": "Closed"}], "id": "8011300001", "name": "USPS COLLECTION BOX - BLUE BOX", "address": {"city": "ENGLEWOOD", "state": "CO", "street": "3330 S BROADWAY", "postcode": "80113"}}},
{"geometry": {"type": "Point", "coordinates": [-104.9874924361, 39.6561103141]}, "type": "Feature", "properties": {"collection_times": [{"days": "Mon-Fri", "time": "5:30pm"}, {"days": "Sat", "time": "3:15pm"}, {"days": "Sun", "time": "Closed"}], "id": "8011300002", "name": "USPS COLLECTION BOX - BLUE BOX", "address": {"city": "ENGLEWOOD", "state": "CO", "street": "3330 S BROADWAY", "postcode": "80113"}}},
{"geometry": {"type": "Point", "coordinates": [-104.9874924361, 39.6561103141]}, "type": "Feature", "properties": {"collection_times": [{"days": "Mon-Fri", "time": "5:30pm"}, {"days": "Sat", "time": "3:15pm"}, {"days": "Sun", "time": "Closed"}], "id": "8011300003", "name": "USPS COLLECTION BOX - BLUE BOX", "address": {"city": "ENGLEWOOD", "state": "CO", "street": "3330 S BROADWAY", "postcode": "80113"}}},
{"geometry": {"type": "Point", "coordinates": [-104.9737568503, 39.6494041573]}, "type": "Feature", "properties": {"collection_times": [{"days": "Mon-Fri", "time": "12:30pm"}, {"days": "Sat", "time": "1:00pm"}, {"days": "Sun", "time": "Closed"}], "id": "8011300004", "name": "USPS COLLECTION BOX - EXPRESS", "address": {"city": "ENGLEWOOD", "state": "CO", "street": "3330 S BROADWAY", "postcode": "80113"}}},
{"geometry": {"type": "Point", "coordinates": [-104.9874924361, 39.6561103141]}, "type": "Feature", "properties": {"collection_times": [{"days": "Mon-Fri", "time": "5:30pm"}, {"days": "Sat-Sun", "time": "Closed"}], "id": "8011300005", "name": "USPS COLLECTION BOX - PO LOBBY", "address": {"city": "ENGLEWOOD", "state": "CO", "street": "3330 S BROADWAY", "postcode": "80113"}}},
{"geometry": {"type": "Point", "coordinates": [-104.9878786833, 39.637892503]}, "type": "Feature", "properties": {"collection_times": [{"days": "Mon-Sat", "time": "1:00pm"}, {"days": "Sun", "time": "Closed"}], "id": "8011300006", "name": "USPS COLLECTION BOX - BLUE BOX", "address": {"city": "ENGLEWOOD", "state": "CO", "street": "4301 S BROADWAY", "postcode": "80113"}}},
{"geometry": {"type": "Point", "coordinates": [-104.9737568503, 39.6494041573]}, "type": "Feature", "properties": {"collection_times": [{"days": "Mon-Sat", "time": "12:30pm"}, {"days": "Sun", "time": "Closed"}], "id": "8011300007", "name": "USPS COLLECTION BOX - EXPRESS", "address": {"city": "ENGLEWOOD", "state": "CO", "street": "5158 S BROADWAY", "postcode": "80113"}}},
{"geometry": {"type": "Point", "coordinates": [-104.9879127534, 39.6223768597]}, "type": "Feature", "properties": {"collection_times": [{"days": "Mon-Fri", "time": "1:00pm"}, {"days": "Sat", "time": "12:30pm"}, {"days": "Sun", "time": "Closed"}], "id": "8011300008", "name": "USPS COLLECTION BOX - BLUE BOX", "address": {"city": "ENGLEWOOD", "state": "CO", "street": "5158 S BROADWAY", "postcode": "80113"}}},
{"geometry": {"type": "Point", "coordinates": [-104.9782825202, 39.6502946448]}, "type": "Feature", "properties": {"collection_times": [{"days": "Mon-Fri", "time": "4:30pm"}, {"days": "Sat", "time": "11:00am"}, {"days": "Sun", "time": "Closed"}], "id": "8011300009", "name": "USPS COLLECTION BOX - BLUE BOX", "address": {"city": "ENGLEWOOD", "state": "CO", "street": "3601 S CLARKSON ST", "postcode": "80113"}}},
{"geometry": {"type": "Point", "coordinates": [-104.9782825202, 39.6502946448]}, "type": "Feature", "properties": {"collection_times": [{"days": "Mon-Fri", "time": "4:30pm"}, {"days": "Sat", "time": "11:00am"}, {"days": "Sun", "time": "Closed"}], "id": "8011300010", "name": "USPS COLLECTION BOX - BLUE BOX", "address": {"city": "ENGLEWOOD", "state": "CO", "street": "3601 S CLARKSON ST", "postcode": "80113"}}},
{"geometry": {"type": "Point", "coordinates": [-104.97821, 39.654457]}, "type": "Feature", "properties": {"collection_times": [{"days": "Mon-Fri", "time": "4:30pm"}, {"days": "Sat", "time": "11:00am"}, {"days": "Sun", "time": "Closed"}], "id": "8011300011", "name": "USPS COLLECTION BOX - BLUE BOX", "address": {"city": "ENGLEWOOD", "state": "CO", "street": "3426 S CLARKSON ST", "postcode": "80113"}}},
{"geometry": {"type": "Point", "coordinates": [-104.9793471833, 39.6531337463]}, "type": "Feature", "properties": {"collection_times": [{"days": "Mon-Fri", "time": "5:15pm"}, {"days": "Sat", "time": "11:00am"}, {"days": "Sun", "time": "Closed"}], "id": "8011300012", "name": "USPS COLLECTION BOX - BLUE BOX", "address": {"city": "ENGLEWOOD", "state": "CO", "street": "701 E HAMPDEN AVE", "postcode": "80113"}}},
{"geometry": {"type": "Point", "coordinates": [-104.9800794349, 39.6531372952]}, "type": "Feature", "properties": {"collection_times": [{"days": "Mon-Fri", "time": "5:15pm"}, {"days": "Sat", "time": "11:00am"}, {"days": "Sun", "time": "Closed"}], "id": "8011300013", "name": "USPS COLLECTION BOX - BLUE BOX", "address": {"city": "ENGLEWOOD", "state": "CO", "street": "601 E HAMPDEN AVE", "postcode": "80113"}}},
{"geometry": {"type": "Point", "coordinates": [-104.9800794349, 39.6531372952]}, "type": "Feature", "properties": {"collection_times": [{"days": "Mon-Fri", "time": "5:15pm"}, {"days": "Sat", "time": "11:00am"}, {"days": "Sun", "time": "Closed"}], "id": "8011300014", "name": "USPS COLLECTION BOX - BLUE BOX", "address": {"city": "ENGLEWOOD", "state": "CO", "street": "601 E HAMPDEN AVE", "postcode": "80113"}}},
{"geometry": {"type": "Point", "coordinates": [-104.9840267529, 39.6531179842]}, "type": "Feature", "properties": {"collection_times": [{"days": "Mon-Fri", "time": "4:30pm"}, {"days": "Sat", "time": "11:00am"}, {"days": "Sun", "time": "Closed"}], "id": "8011300015", "name": "USPS COLLECTION BOX - BLUE BOX", "address": {"city": "ENGLEWOOD", "state": "CO", "street": "3500 S GRANT ST", "postcode": "80113"}}},
{"geometry": {"type": "Point", "coordinates": [-104.9820194876, 39.6531361122]}, "type": "Feature", "properties": {"collection_times": [{"days": "Mon-Fri", "time": "5:15pm"}, {"days": "Sat-Sun", "time": "Closed"}], "id": "8011300018", "name": "USPS COLLECTION BOX - BLUE BOX", "address": {"city": "ENGLEWOOD", "state": "CO", "street": "499 E HAMPDEN AVE", "postcode": "80113"}}},
{"geometry": {"type": "Point", "coordinates": [-104.9689592918, 39.6549990482]}, "type": "Feature", "properties": {"collection_times": [{"days": "Mon-Fri", "time": "11:30am"}, {"days": "Sat", "time": "11:00am"}, {"days": "Sun", "time": "Closed"}], "id": "8011300019", "name": "USPS COLLECTION BOX - BLUE BOX", "address": {"city": "ENGLEWOOD", "state": "CO", "street": "1613 E GIRARD PL", "postcode": "80113"}}},
{"geometry": {"type": "Point", "coordinates": [-104.9793471833, 39.6531337463]}, "type": "Feature", "properties": {"collection_times": [{"days": "Mon-Fri", "time": "5:15pm"}, {"days": "Sat", "time": "11:00am"}, {"days": "Sun", "time": "Closed"}], "id": "8011300020", "name": "USPS COLLECTION BOX - BLUE BOX", "address": {"city": "ENGLEWOOD", "state": "CO", "street": "701 E HAMPDEN AVE", "postcode": "80113"}}},
{"geometry": {"type": "Point", "coordinates": [-104.9830295894, 39.65291359]}, "type": "Feature", "properties": {"collection_times": [{"days": "Mon-Fri", "time": "4:30pm"}, {"days": "Sat", "time": "1:00pm"}, {"days": "Sun", "time": "Closed"}], "id": "8011300021", "name": "USPS COLLECTION BOX - BLUE BOX", "address": {"city": "ENGLEWOOD", "state": "CO", "street": "3515 S LOGAN ST", "postcode": "80113"}}},
{"geometry": {"type": "Point", "coordinates": [-104.9570460409, 39.6371271285]}, "type": "Feature", "properties": {"collection_times": [{"days": "Mon-Sat", "time": "11:30am"}, {"days": "Sun", "time": "Closed"}], "id": "8011300022", "name": "USPS COLLECTION BOX - BLUE BOX", "address": {"city": "ENGLEWOOD", "state": "CO", "street": "120 MEADE LN", "postcode": "80113"}}},
{"geometry": {"type": "Point", "coordinates": [-104.7494391084, 39.3903583396]}, "type": "Feature", "properties": {"collection_times": [{"days": "Mon-Sat", "time": "5:30pm"}, {"days": "Sun", "time": "Closed"}], "id": "8011600000", "name": "USPS COLLECTION BOX - BLUE BOX", "address": {"city": "FRANKTOWN", "state": "CO", "street": "7519 E STATE HIGHWAY 86", "postcode": "80116"}}},
{"geometry": {"type": "Point", "coordinates": [-104.7537048585, 39.3935901835]}, "type": "Feature", "properties": {"collection_times": [{"days": "Mon-Sat", "time": "5:30pm"}, {"days": "Sun", "time": "Closed"}], "id": "8011600001", "name": "USPS COLLECTION BOX - BLUE BOX", "address": {"city": "FRANKTOWN", "state": "CO", "street": "2195 N STATE HIGHWAY 83", "postcode": "80116"}}},
{"geometry": {"type": "Point", "coordinates": [-104.7494391084, 39.3903583396]}, "type": "Feature", "properties": {"collection_times": [{"days": "Mon-Fri", "time": "4:30pm"}, {"days": "Sat", "time": "12:00pm"}, {"days": "Sun", "time": "Closed"}], "id": "8011600002", "name": "USPS COLLECTION BOX - PO LOBBY", "address": {"city": "FRANKTOWN", "state": "CO", "street": "7519 E STATE HIGHWAY 86", "postcode": "80116"}}},
{"geometry": {"type": "Point", "coordinates": [-104.7494391084, 39.3903583396]}, "type": "Feature", "properties": {"collection_times": [{"days": "Mon-Fri", "time": "4:30pm"}, {"days": "Sat", "time": "12:00pm"}, {"days": "Sun", "time": "Closed"}], "id": "8011600003", "name": "USPS COLLECTION BOX - PO LOBBY", "address": {"city": "FRANKTOWN", "state": "CO", "street": "7519 E STATE HIGHWAY 86", "postcode": "80116"}}},
{"geometry": {"type": "Point", "coordinates": [-104.4598667676, 39.3463729914]}, "type": "Feature", "properties": {"collection_times": [{"days": "Mon-Fri", "time": "4:30pm"}, {"days": "Sat", "time": "10:30am"}, {"days": "Sun", "time": "Closed"}], "id": "8011700000", "name": "USPS COLLECTION BOX - BLUE BOX", "address": {"city": "KIOWA", "state": "CO", "street": "708 COMANCHE ST", "postcode": "80117"}}},
{"geometry": {"type": "Point", "coordinates": [-104.4598667676, 39.3463729914]}, "type": "Feature", "properties": {"collection_times": [{"days": "Mon-Fri", "time": "4:30pm"}, {"days": "Sat", "time": "10:30am"}, {"days": "Sun", "time": "Closed"}], "id": "8011700001", "name": "USPS COLLECTION BOX - PO LOBBY", "address": {"city": "KIOWA", "state": "CO", "street": "708 COMANCHE ST", "postcode": "80117"}}},
{"geometry": {"type": "Point", "coordinates": [-104.4598667676, 39.3463729914]}, "type": "Feature", "properties": {"collection_times": [{"days": "Mon-Fri", "time": "4:30pm"}, {"days": "Sat", "time": "10:30am"}, {"days": "Sun", "time": "Closed"}], "id": "8011700002", "name": "USPS COLLECTION BOX - PO LOBBY", "address": {"city": "KIOWA", "state": "CO", "street": "708 COMANCHE ST", "postcode": "80117"}}},
{"geometry": {"type": "Point", "coordinates": [-104.8846773432, 39.2292334137]}, "type": "Feature", "properties": {"collection_times": [{"days": "Mon-Fri", "time": "3:30pm"}, {"days": "Sat", "time": "10:30am"}, {"days": "Sun", "time": "Closed"}], "id": "8011800000", "name": "USPS COLLECTION BOX - BLUE BOX", "address": {"city": "LARKSPUR", "state": "CO", "street": "96 PERRY PARK AVE", "postcode": "80118"}}},
{"geometry": {"type": "Point", "coordinates": [-104.8846773432, 39.2292334137]}, "type": "Feature", "properties": {"collection_times": [{"days": "Mon-Fri", "time": "4:00pm"}, {"days": "Sat", "time": "10:00am"}, {"days": "Sun", "time": "Closed"}], "id": "8011800001", "name": "USPS COLLECTION BOX - PO LOBBY", "address": {"city": "LARKSPUR", "state": "CO", "street": "96 PERRY PARK AVE", "postcode": "80118"}}},
{"geometry": {"type": "Point", "coordinates": [-104.8846773432, 39.2292334137]}, "type": "Feature", "properties": {"collection_times": [{"days": "Mon-Fri", "time": "4:00pm"}, {"days": "Sat", "time": "10:00am"}, {"days": "Sun", "time": "Closed"}], "id": "8011800002", "name": "USPS COLLECTION BOX - PO LOBBY", "address": {"city": "LARKSPUR", "state": "CO", "street": "96 PERRY PARK AVE", "postcode": "80118"}}},
{"geometry": {"type": "Point", "coordinates": [-105.0045997217, 39.5685533105]}, "type": "Feature", "properties": {"collection_times": [{"days": "Mon-Fri", "time": "2:50pm"}, {"days": "Sat", "time": "2:10pm"}, {"days": "Sun", "time": "Closed"}], "id": "8012000000", "name": "USPS COLLECTION BOX - BLUE BOX", "address": {"city": "LITTLETON", "state": "CO", "street": "8191 SOUTHPARK LN", "postcode": "80120"}}},
{"geometry": {"type": "Point", "coordinates": [-104.9919297383, 39.5727971524]}, "type": "Feature", "properties": {"collection_times": [{"days": "Mon-Fri", "time": "3:00pm"}, {"days": "Sat", "time": "2:00pm"}, {"days": "Sun", "time": "Closed"}], "id": "8012000001", "name": "USPS COLLECTION BOX - BLUE BOX", "address": {"city": "LITTLETON", "state": "CO", "street": "7921 SOUTHPARK PLZ", "postcode": "80120"}}},
{"geometry": {"type": "Point", "coordinates": [-104.9903605313, 39.5807319258]}, "type": "Feature", "properties": {"collection_times": [{"days": "Mon-Fri", "time": "3:30pm"}, {"days": "Sat", "time": "1:50pm"}, {"days": "Sun", "time": "Closed"}], "id": "8012000004", "name": "USPS COLLECTION BOX - BLUE BOX", "address": {"city": "LITTLETON", "state": "CO", "street": "1 W DRY CREEK CIR", "postcode": "80120"}}},
{"geometry": {"type": "Point", "coordinates": [-104.9903605313, 39.5807319258]}, "type": "Feature", "properties": {"collection_times": [{"days": "Mon-Fri", "time": "3:30pm"}, {"days": "Sat", "time": "1:50pm"}, {"days": "Sun", "time": "Closed"}], "id": "8012000005", "name": "USPS COLLECTION BOX - BLUE BOX", "address": {"city": "LITTLETON", "state": "CO", "street": "1 W DRY CREEK CIR", "postcode": "80120"}}},
{"geometry": {"type": "Point", "coordinates": [-105.0062574914, 39.5986935981]}, "type": "Feature", "properties": {"collection_times": [{"days": "Mon-Fri", "time": "12:45pm"}, {"days": "Sat-Sun", "time": "Closed"}], "id": "8012000007", "name": "USPS COLLECTION BOX - EXPRESS", "address": {"city": "LITTLETON", "state": "CO", "street": "1 W DRY CREEK CIR", "postcode": "80120"}}},
{"geometry": {"type": "Point", "coordinates": [-105.0251146827, 39.5861688052]}, "type": "Feature", "properties": {"collection_times": [{"days": "Mon-Fri", "time": "2:30pm"}, {"days": "Sat", "time": "2:35pm"}, {"days": "Sun", "time": "Closed"}], "id": "8012000008", "name": "USPS COLLECTION BOX - BLUE BOX", "address": {"city": "LITTLETON", "state": "CO", "street": "7301 S SANTA FE DR", "postcode": "80120"}}},
{"geometry": {"type": "Point", "coordinates": [-105.0321024213, 39.5667540827]}, "type": "Feature", "properties": {"collection_times": [{"days": "Mon-Fri", "time": "2:40pm"}, {"days": "Sat", "time": "2:15pm"}, {"days": "Sun", "time": "Closed"}], "id": "8012000009", "name": "USPS COLLECTION BOX - BLUE BOX", "address": {"city": "LITTLETON", "state": "CO", "street": "8201 S SANTA FE DR", "postcode": "80120"}}},
{"geometry": {"type": "Point", "coordinates": [-104.990340421, 39.5807189133]}, "type": "Feature", "properties": {"collection_times": [{"days": "Mon-Fri", "time": "3:30pm"}, {"days": "Sat", "time": "1:45pm"}, {"days": "Sun", "time": "Closed"}], "id": "8012000010", "name": "USPS COLLECTION BOX - BLUE BOX", "address": {"city": "LITTLETON", "state": "CO", "street": "26 W DRY CREEK CIR", "postcode": "80120"}}},
{"geometry": {"type": "Point", "coordinates": [-105.016197538, 39.6129746554]}, "type": "Feature", "properties": {"collection_times": [{"days": "Mon-Fri", "time": "5:00pm"}, {"days": "Sat", "time": "3:50pm"}, {"days": "Sun", "time": "Closed"}], "id": "8012000019", "name": "USPS COLLECTION BOX - BLUE BOX", "address": {"city": "LITTLETON", "state": "CO", "street": "5753 S PRINCE ST", "postcode": "80120"}}},
{"geometry": {"type": "Point", "coordinates": [-105.016197538, 39.6129746554]}, "type": "Feature", "properties": {"collection_times": [{"days": "Mon-Fri", "time": "5:00pm"}, {"days": "Sat", "time": "3:50pm"}, {"days": "Sun", "time": "Closed"}], "id": "8012000020", "name": "USPS COLLECTION BOX - BLUE BOX", "address": {"city": "LITTLETON", "state": "CO", "street": "5753 S PRINCE ST", "postcode": "80120"}}},
{"geometry": {"type": "Point", "coordinates": [-105.0062574914, 39.5986935981]}, "type": "Feature", "properties": {"collection_times": [{"days": "Mon-Fri", "time": "3:05pm"}, {"days": "Sat-Sun", "time": "Closed"}], "id": "8012000021", "name": "USPS COLLECTION BOX - EXPRESS", "address": {"city": "LITTLETON", "state": "CO", "street": "5753 S PRINCE ST", "postcode": "80120"}}},
{"geometry": {"type": "Point", "coordinates": [-105.0161821595, 39.6157475112]}, "type": "Feature", "properties": {"collection_times": [{"days": "Mon-Fri", "time": "4:40pm"}, {"days": "Sat", "time": "12:27pm"}, {"days": "Sun", "time": "Closed"}], "id": "8012000023", "name": "USPS COLLECTION BOX - BLUE BOX", "address": {"city": "LITTLETON", "state": "CO", "street": "5574 S PRINCE ST", "postcode": "80120"}}},
{"geometry": {"type": "Point", "coordinates": [-105.0190889186, 39.6089637838]}, "type": "Feature", "properties": {"collection_times": [{"days": "Mon-Fri", "time": "4:50pm"}, {"days": "Sat", "time": "2:25pm"}, {"days": "Sun", "time": "Closed"}], "id": "8012000024", "name": "USPS COLLECTION BOX - BLUE BOX", "address": {"city": "LITTLETON", "state": "CO", "street": "2600 W COLLEGE DR", "postcode": "80120"}}},
{"geometry": {"type": "Point", "coordinates": [-105.0126037087, 39.6132964202]}, "type": "Feature", "properties": {"collection_times": [{"days": "Mon-Fri", "time": "4:35pm"}, {"days": "Sat", "time": "12:25pm"}, {"days": "Sun", "time": "Closed"}], "id": "8012000025", "name": "USPS COLLECTION BOX - BLUE BOX", "address": {"city": "LITTLETON", "state": "CO", "street": "2069 W LITTLETON BLVD", "postcode": "80120"}}},
{"geometry": {"type": "Point", "coordinates": [-105.0162294779, 39.6083753109]}, "type": "Feature", "properties": {"collection_times": [{"days": "Mon-Fri", "time": "4:45pm"}, {"days": "Sat", "time": "2:30pm"}, {"days": "Sun", "time": "Closed"}], "id": "8012000026", "name": "USPS COLLECTION BOX - BLUE BOX", "address": {"city": "LITTLETON", "state": "CO", "street": "5984 S PRINCE ST", "postcode": "80120"}}},
{"geometry": {"type": "Point", "coordinates": [-105.0056573736, 39.6131769413]}, "type": "Feature", "properties": {"collection_times": [{"days": "Mon-Fri", "time": "4:10pm"}, {"days": "Sat", "time": "1:30pm"}, {"days": "Sun", "time": "Closed"}], "id": "8012000027", "name": "USPS COLLECTION BOX - BLUE BOX", "address": {"city": "LITTLETON", "state": "CO", "street": "1500 W LITTLETON BLVD", "postcode": "80120"}}},
{"geometry": {"type": "Point", "coordinates": [-104.9946215494, 39.6132834076]}, "type": "Feature", "properties": {"collection_times": [{"days": "Mon-Fri", "time": "4:05pm"}, {"days": "Sat", "time": "12:15pm"}, {"days": "Sun", "time": "Closed"}], "id": "8012000030", "name": "USPS COLLECTION BOX - BLUE BOX", "address": {"city": "LITTLETON", "state": "CO", "street": "599 W LITTLETON BLVD", "postcode": "80120"}}},
{"geometry": {"type": "Point", "coordinates": [-105.016197538, 39.6129746554]}, "type": "Feature", "properties": {"collection_times": [{"days": "Mon-Fri", "time": "5:00pm"}, {"days": "Sat", "time": "3:50pm"}, {"days": "Sun", "time": "Closed"}], "id": "8012000032", "name": "USPS COLLECTION BOX - PO LOBBY", "address": {"city": "LITTLETON", "state": "CO", "street": "5753 S PRINCE ST", "postcode": "80120"}}},
{"geometry": {"type": "Point", "coordinates": [-105.016197538, 39.6129746554]}, "type": "Feature", "properties": {"collection_times": [{"days": "Mon-Fri", "time": "5:00pm"}, {"days": "Sat", "time": "3:50pm"}, {"days": "Sun", "time": "Closed"}], "id": "8012000033", "name": "USPS COLLECTION BOX - PO LOBBY", "address": {"city": "LITTLETON", "state": "CO", "street": "5753 S PRINCE ST", "postcode": "80120"}}},
{"geometry": {"type": "Point", "coordinates": [-105.016197538, 39.6129746554]}, "type": "Feature", "properties": {"collection_times": [{"days": "Mon-Fri", "time": "5:00pm"}, {"days": "Sat", "time": "3:50pm"}, {"days": "Sun", "time": "Closed"}], "id": "8012000034", "name": "USPS COLLECTION BOX - BLUE BOX", "address": {"city": "LITTLETON", "state": "CO", "street": "5753 S PRINCE ST", "postcode": "80120"}}},
{"geometry": {"type": "Point", "coordinates": [-104.9976648892, 39.5748603058]}, "type": "Feature", "properties": {"collection_times": [{"days": "Mon-Fri", "time": "3:05pm"}, {"days": "Sat", "time": "2:05pm"}, {"days": "Sun", "time": "Closed"}], "id": "8012000039", "name": "USPS COLLECTION BOX - BLUE BOX", "address": {"city": "LITTLETON", "state": "CO", "street": "7852 S ELATI ST", "postcode": "80120"}}},
{"geometry": {"type": "Point", "coordinates": [-105.0269695623, 39.5702793004]}, "type": "Feature", "properties": {"collection_times": [{"days": "Mon-Fri", "time": "2:45pm"}, {"days": "Sat", "time": "2:15pm"}, {"days": "Sun", "time": "Closed"}], "id": "8012000040", "name": "USPS COLLECTION BOX - BLUE BOX", "address": {"city": "LITTLETON", "state": "CO", "street": "8020 SOUTHPARK CIR", "postcode": "80120"}}},
{"geometry": {"type": "Point", "coordinates": [-104.990340421, 39.5807189133]}, "type": "Feature", "properties": {"collection_times": [{"days": "Mon-Fri", "time": "3:30pm"}, {"days": "Sat", "time": "1:45pm"}, {"days": "Sun", "time": "Closed"}], "id": "8012000041", "name": "USPS COLLECTION BOX - BLUE BOX", "address": {"city": "LITTLETON", "state": "CO", "street": "26 W DRY CREEK CIR", "postcode": "80120"}}},
{"geometry": {"type": "Point", "coordinates": [-104.9581178017, 39.6097037738]}, "type": "Feature", "properties": {"collection_times": [{"days": "Mon-Fri", "time": "4:15pm"}, {"days": "Sat", "time": "1:30pm"}, {"days": "Sun", "time": "Closed"}], "id": "8012100001", "name": "USPS COLLECTION BOX - BLUE BOX", "address": {"city": "GREENWOOD VLG", "state": "CO", "street": "2500 E ORCHARD RD", "postcode": "80121"}}},
{"geometry": {"type": "Point", "coordinates": [-104.9414631239, 39.5968761603]}, "type": "Feature", "properties": {"collection_times": [{"days": "Mon-Fri", "time": "12:00pm"}, {"days": "Sat", "time": "12:30pm"}, {"days": "Sun", "time": "Closed"}], "id": "8012100004", "name": "USPS COLLECTION BOX - BLUE BOX", "address": {"city": "GREENWOOD VLG", "state": "CO", "street": "3999 E EUCLID AVE", "postcode": "80121"}}},
{"geometry": {"type": "Point", "coordinates": [-104.9881389343, 39.6149147081]}, "type": "Feature", "properties": {"collection_times": [{"days": "Mon-Fri", "time": "2:45pm"}, {"days": "Sat-Sun", "time": "Closed"}], "id": "8012100011", "name": "USPS COLLECTION BOX - BLUE BOX", "address": {"city": "GREENWOOD VLG", "state": "CO", "street": "5601 S BROADWAY", "postcode": "80121"}}},
{"geometry": {"type": "Point", "coordinates": [-104.9229129429, 39.6089419482]}, "type": "Feature", "properties": {"collection_times": [{"days": "Mon-Fri", "time": "12:15pm"}, {"days": "Sat", "time": "12:30pm"}, {"days": "Sun", "time": "Closed"}], "id": "8012100016", "name": "USPS COLLECTION BOX - BLUE BOX", "address": {"city": "GREENWOOD VLG", "state": "CO", "street": "5955 S HOLLY ST", "postcode": "80121"}}},
{"geometry": {"type": "Point", "coordinates": [-104.9264902108, 39.6228358013]}, "type": "Feature", "properties": {"collection_times": [{"days": "Mon-Fri", "time": "12:15pm"}, {"days": "Sat", "time": "12:30pm"}, {"days": "Sun", "time": "Closed"}], "id": "8012100017", "name": "USPS COLLECTION BOX - BLUE BOX", "address": {"city": "GREENWOOD VLG", "state": "CO", "street": "72 BLUE HERON LN", "postcode": "80121"}}},
{"geometry": {"type": "Point", "coordinates": [-104.9601962113, 39.582230792]}, "type": "Feature", "properties": {"collection_times": [{"days": "Mon-Fri", "time": "3:30pm"}, {"days": "Sat", "time": "1:15pm"}, {"days": "Sun", "time": "Closed"}], "id": "8012200001", "name": "USPS COLLECTION BOX - BLUE BOX", "address": {"city": "CENTENNIAL", "state": "CO", "street": "7450 S UNIVERSITY BLVD", "postcode": "80122"}}},
{"geometry": {"type": "Point", "coordinates": [-104.988493822, 39.5761763508]}, "type": "Feature", "properties": {"collection_times": [{"days": "Mon-Fri", "time": "12:45pm"}, {"days": "Sat", "time": "3:00pm"}, {"days": "Sun", "time": "Closed"}], "id": "8012200002", "name": "USPS COLLECTION BOX - BLUE BOX", "address": {"city": "CENTENNIAL", "state": "CO", "street": "7700 S BROADWAY", "postcode": "80122"}}},
{"geometry": {"type": "Point", "coordinates": [-104.9885837269, 39.57248197]}, "type": "Feature", "properties": {"collection_times": [{"days": "Mon-Fri", "time": "2:45pm"}, {"days": "Sat", "time": "3:00pm"}, {"days": "Sun", "time": "Closed"}], "id": "8012200005", "name": "USPS COLLECTION BOX - BLUE BOX", "address": {"city": "CENTENNIAL", "state": "CO", "street": "7901 S BROADWAY", "postcode": "80122"}}},
{"geometry": {"type": "Point", "coordinates": [-104.9275851345, 39.5949613172]}, "type": "Feature", "properties": {"collection_times": [{"days": "Mon-Fri", "time": "12:00pm"}, {"days": "Sat", "time": "12:30pm"}, {"days": "Sun", "time": "Closed"}], "id": "8012200006", "name": "USPS COLLECTION BOX - BLUE BOX", "address": {"city": "CENTENNIAL", "state": "CO", "street": "5150 E ARAPAHOE RD", "postcode": "80122"}}},
{"geometry": {"type": "Point", "coordinates": [-104.9229636108, 39.5683497066]}, "type": "Feature", "properties": {"collection_times": [{"days": "Mon-Fri", "time": "3:15pm"}, {"days": "Sat", "time": "12:45pm"}, {"days": "Sun", "time": "Closed"}], "id": "8012200007", "name": "USPS COLLECTION BOX - BLUE BOX", "address": {"city": "CENTENNIAL", "state": "CO", "street": "8174 S HOLLY ST", "postcode": "80122"}}},
{"geometry": {"type": "Point", "coordinates": [-104.9229636108, 39.5683497066]}, "type": "Feature", "properties": {"collection_times": [{"days": "Mon-Fri", "time": "3:15pm"}, {"days": "Sat", "time": "12:45pm"}, {"days": "Sun", "time": "Closed"}], "id": "8012200008", "name": "USPS COLLECTION BOX - BLUE BOX", "address": {"city": "CENTENNIAL", "state": "CO", "street": "8174 S HOLLY ST", "postcode": "80122"}}},
{"geometry": {"type": "Point", "coordinates": [-104.9604683412, 39.5791881644]}, "type": "Feature", "properties": {"collection_times": [{"days": "Mon-Fri", "time": "1:00pm"}, {"days": "Sat", "time": "1:15pm"}, {"days": "Sun", "time": "Closed"}], "id": "8012200009", "name": "USPS COLLECTION BOX - BLUE BOX", "address": {"city": "CENTENNIAL", "state": "CO", "street": "7575 S UNIVERSITY BLVD", "postcode": "80122"}}},
{"geometry": {"type": "Point", "coordinates": [-104.960017151, 39.5942401451]}, "type": "Feature", "properties": {"collection_times": [{"days": "Mon-Fri", "time": "1:00pm"}, {"days": "Sat", "time": "1:15pm"}, {"days": "Sun", "time": "Closed"}], "id": "8012200011", "name": "USPS COLLECTION BOX - BLUE BOX", "address": {"city": "CENTENNIAL", "state": "CO", "street": "6780 S UNIVERSITY BLVD", "postcode": "80122"}}},
{"geometry": {"type": "Point", "coordinates": [-104.9631855979, 39.5951652081]}, "type": "Feature", "properties": {"collection_times": [{"days": "Mon-Fri", "time": "5:30pm"}, {"days": "Sat", "time": "4:30pm"}, {"days": "Sun", "time": "Closed"}], "id": "8012200012", "name": "USPS COLLECTION BOX - BLUE BOX", "address": {"city": "CENTENNIAL", "state": "CO", "street": "2221 E ARAPAHOE RD", "postcode": "80122"}}},
{"geometry": {"type": "Point", "coordinates": [-104.9631855979, 39.5951652081]}, "type": "Feature", "properties": {"collection_times": [{"days": "Mon-Fri", "time": "5:30pm"}, {"days": "Sat", "time": "4:30pm"}, {"days": "Sun", "time": "Closed"}], "id": "8012200015", "name": "USPS COLLECTION BOX - BLUE BOX", "address": {"city": "CENTENNIAL", "state": "CO", "street": "2221 E ARAPAHOE RD", "postcode": "80122"}}},
{"geometry": {"type": "Point", "coordinates": [-104.9576890199, 39.5823303074]}, "type": "Feature", "properties": {"collection_times": [{"days": "Mon-Fri", "time": "12:45pm"}, {"days": "Sat-Sun", "time": "Closed"}], "id": "8012200016", "name": "USPS COLLECTION BOX - EXPRESS", "address": {"city": "CENTENNIAL", "state": "CO", "street": "2221 E ARAPAHOE RD", "postcode": "80122"}}},
{"geometry": {"type": "Point", "coordinates": [-104.9883270248, 39.5909952778]}, "type": "Feature", "properties": {"collection_times": [{"days": "Mon-Fri", "time": "12:30pm"}, {"days": "Sat", "time": "2:45pm"}, {"days": "Sun", "time": "Closed"}], "id": "8012200024", "name": "USPS COLLECTION BOX - BLUE BOX", "address": {"city": "CENTENNIAL", "state": "CO", "street": "6905 S BROADWAY", "postcode": "80122"}}},
{"geometry": {"type": "Point", "coordinates": [-104.9631855979, 39.5951652081]}, "type": "Feature", "properties": {"collection_times": [{"days": "Mon-Fri", "time": "5:30pm"}, {"days": "Sat", "time": "4:30pm"}, {"days": "Sun", "time": "Closed"}], "id": "8012200028", "name": "USPS COLLECTION BOX - PO LOBBY", "address": {"city": "CENTENNIAL", "state": "CO", "street": "2221 E ARAPAHOE RD", "postcode": "80122"}}},
{"geometry": {"type": "Point", "coordinates": [-104.9631855979, 39.5951652081]}, "type": "Feature", "properties": {"collection_times": [{"days": "Mon-Fri", "time": "5:30pm"}, {"days": "Sat", "time": "4:30pm"}, {"days": "Sun", "time": "Closed"}], "id": "8012200029", "name": "USPS COLLECTION BOX - PO LOBBY", "address": {"city": "CENTENNIAL", "state": "CO", "street": "2221 E ARAPAHOE RD", "postcode": "80122"}}},
{"geometry": {"type": "Point", "coordinates": [-104.9631855979, 39.5951652081]}, "type": "Feature", "properties": {"collection_times": [{"days": "Mon-Fri", "time": "5:30pm"}, {"days": "Sat", "time": "4:30pm"}, {"days": "Sun", "time": "Closed"}], "id": "8012200030", "name": "USPS COLLECTION BOX - BLUE BOX", "address": {"city": "CENTENNIAL", "state": "CO", "street": "2221 E ARAPAHOE RD", "postcode": "80122"}}},
{"geometry": {"type": "Point", "coordinates": [-104.9631855979, 39.5951652081]}, "type": "Feature", "properties": {"collection_times": [{"days": "Mon-Fri", "time": "5:30pm"}, {"days": "Sat", "time": "4:30pm"}, {"days": "Sun", "time": "Closed"}], "id": "8012200031", "name": "USPS COLLECTION BOX - BLUE BOX", "address": {"city": "CENTENNIAL", "state": "CO", "street": "2221 E ARAPAHOE RD", "postcode": "80122"}}},
{"geometry": {"type": "Point", "coordinates": [-104.9604103762, 39.5728084667]}, "type": "Feature", "properties": {"collection_times": [{"days": "Mon-Fri", "time": "3:30pm"}, {"days": "Sat", "time": "1:00pm"}, {"days": "Sun", "time": "Closed"}], "id": "8012200033", "name": "USPS COLLECTION BOX - BLUE BOX", "address": {"city": "CENTENNIAL", "state": "CO", "street": "7940 S UNIVERSITY BLVD", "postcode": "80122"}}},
{"geometry": {"type": "Point", "coordinates": [-104.9273525879, 39.5951510126]}, "type": "Feature", "properties": {"collection_times": [{"days": "Mon-Fri", "time": "12:00pm"}, {"days": "Sat", "time": "12:30pm"}, {"days": "Sun", "time": "Closed"}], "id": "8012200036", "name": "USPS COLLECTION BOX - BLUE BOX", "address": {"city": "CENTENNIAL", "state": "CO", "street": "5161 E ARAPAHOE RD", "postcode": "80122"}}},
{"geometry": {"type": "Point", "coordinates": [-104.9631855979, 39.5951652081]}, "type": "Feature", "properties": {"collection_times": [{"days": "Mon-Fri", "time": "5:30pm"}, {"days": "Sat", "time": "4:30pm"}, {"days": "Sun", "time": "Closed"}], "id": "8012200038", "name": "USPS COLLECTION BOX - APC", "address": {"city": "CENTENNIAL", "state": "CO", "street": "2221 E ARAPAHOE RD", "postcode": "80122"}}},
{"geometry": {"type": "Point", "coordinates": [-105.094984971, 39.6096801146]}, "type": "Feature", "properties": {"collection_times": [{"days": "Mon-Fri", "time": "4:15pm"}, {"days": "Sat", "time": "2:00pm"}, {"days": "Sun", "time": "Closed"}], "id": "8012300000", "name": "USPS COLLECTION BOX - BLUE BOX", "address": {"city": "LITTLETON", "state": "CO", "street": "8500 W BOWLES AVE", "postcode": "80123"}}},
{"geometry": {"type": "Point", "coordinates": [-105.0898923732, 39.6048323084]}, "type": "Feature", "properties": {"collection_times": [{"days": "Mon-Fri", "time": "4:00pm"}, {"days": "Sat", "time": "1:35pm"}, {"days": "Sun", "time": "Closed"}], "id": "8012300003", "name": "USPS COLLECTION BOX - BLUE BOX", "address": {"city": "LITTLETON", "state": "CO", "street": "6169 S BALSAM WAY", "postcode": "80123"}}},
{"geometry": {"type": "Point", "coordinates": [-105.1011304428, 39.6126434268]}, "type": "Feature", "properties": {"collection_times": [{"days": "Mon-Fri", "time": "3:00pm"}, {"days": "Sat", "time": "2:00pm"}, {"days": "Sun", "time": "Closed"}], "id": "8012300006", "name": "USPS COLLECTION BOX - BLUE BOX", "address": {"city": "LITTLETON", "state": "CO", "street": "9200 W CROSS DR", "postcode": "80123"}}},
{"geometry": {"type": "Point", "coordinates": [-105.1054470601, 39.5959660714]}, "type": "Feature", "properties": {"collection_times": [{"days": "Mon-Sat", "time": "5:00pm"}, {"days": "Sun", "time": "Closed"}], "id": "8012300012", "name": "USPS COLLECTION BOX - BLUE BOX", "address": {"city": "LITTLETON", "state": "CO", "street": "6698 S IRIS ST", "postcode": "80123"}}},
{"geometry": {"type": "Point", "coordinates": [-105.1054470601, 39.5959660714]}, "type": "Feature", "properties": {"collection_times": [{"days": "Mon-Sat", "time": "5:00pm"}, {"days": "Sun", "time": "Closed"}], "id": "8012300013", "name": "USPS COLLECTION BOX - BLUE BOX", "address": {"city": "LITTLETON", "state": "CO", "street": "6698 S IRIS ST", "postcode": "80123"}}},
{"geometry": {"type": "Point", "coordinates": [-105.1054470601, 39.5959660714]}, "type": "Feature", "properties": {"collection_times": [{"days": "Mon-Sat", "time": "5:00pm"}, {"days": "Sun", "time": "Closed"}], "id": "8012300014", "name": "USPS COLLECTION BOX - BLUE BOX", "address": {"city": "LITTLETON", "state": "CO", "street": "6698 S IRIS ST", "postcode": "80123"}}},
{"geometry": {"type": "Point", "coordinates": [-105.1054470601, 39.5959660714]}, "type": "Feature", "properties": {"collection_times": [{"days": "Mon-Sat", "time": "5:00pm"}, {"days": "Sun", "time": "Closed"}], "id": "8012300015", "name": "USPS COLLECTION BOX - BLUE BOX", "address": {"city": "LITTLETON", "state": "CO", "street": "6698 S IRIS ST", "postcode": "80123"}}},
{"geometry": {"type": "Point", "coordinates": [-105.0829685635, 39.6114722593]}, "type": "Feature", "properties": {"collection_times": [{"days": "Mon-Fri", "time": "4:30pm"}, {"days": "Sat-Sun", "time": "Closed"}], "id": "8012300016", "name": "USPS COLLECTION BOX - EXPRESS", "address": {"city": "LITTLETON", "state": "CO", "street": "6698 S IRIS ST", "postcode": "80123"}}},
{"geometry": {"type": "Point", "coordinates": [-105.1074604562, 39.6241536176]}, "type": "Feature", "properties": {"collection_times": [{"days": "Mon-Fri", "time": "4:30pm"}, {"days": "Sat", "time": "2:15pm"}, {"days": "Sun", "time": "Closed"}], "id": "8012300024", "name": "USPS COLLECTION BOX - BLUE BOX", "address": {"city": "LITTLETON", "state": "CO", "street": "9818 W BELLEVIEW AVE", "postcode": "80123"}}},
{"geometry": {"type": "Point", "coordinates": [-105.1074604562, 39.6241536176]}, "type": "Feature", "properties": {"collection_times": [{"days": "Mon-Fri", "time": "4:30pm"}, {"days": "Sat", "time": "2:15pm"}, {"days": "Sun", "time": "Closed"}], "id": "8012300025", "name": "USPS COLLECTION BOX - BLUE BOX", "address": {"city": "LITTLETON", "state": "CO", "street": "9818 W BELLEVIEW AVE", "postcode": "80123"}}},
{"geometry": {"type": "Point", "coordinates": [-105.0368062173, 39.6029052102]}, "type": "Feature", "properties": {"collection_times": [{"days": "Mon-Fri", "time": "2:30pm"}, {"days": "Sat", "time": "1:30pm"}, {"days": "Sun", "time": "Closed"}], "id": "8012300029", "name": "USPS COLLECTION BOX - BLUE BOX", "address": {"city": "LITTLETON", "state": "CO", "street": "30 CLUB LN", "postcode": "80123"}}},
{"geometry": {"type": "Point", "coordinates": [-105.0349190466, 39.6096446259]}, "type": "Feature", "properties": {"collection_times": [{"days": "Mon-Fri", "time": "2:30pm"}, {"days": "Sat", "time": "1:30pm"}, {"days": "Sun", "time": "Closed"}], "id": "8012300039", "name": "USPS COLLECTION BOX - BLUE BOX", "address": {"city": "LITTLETON", "state": "CO", "street": "3600 W BOWLES AVE", "postcode": "80123"}}},
{"geometry": {"type": "Point", "coordinates": [-105.1054470601, 39.5959660714]}, "type": "Feature", "properties": {"collection_times": [{"days": "Mon-Sat", "time": "5:00pm"}, {"days": "Sun", "time": "Closed"}], "id": "8012300040", "name": "USPS COLLECTION BOX - PO LOBBY", "address": {"city": "LITTLETON", "state": "CO", "street": "6698 S IRIS ST", "postcode": "80123"}}},
{"geometry": {"type": "Point", "coordinates": [-105.1054470601, 39.5959660714]}, "type": "Feature", "properties": {"collection_times": [{"days": "Mon-Sat", "time": "5:00pm"}, {"days": "Sun", "time": "Closed"}], "id": "8012300042", "name": "USPS COLLECTION BOX - BLUE BOX", "address": {"city": "LITTLETON", "state": "CO", "street": "6698 S IRIS ST", "postcode": "80123"}}},
{"geometry": {"type": "Point", "coordinates": [-105.1054470601, 39.5959660714]}, "type": "Feature", "properties": {"collection_times": [{"days": "Mon-Sat", "time": "5:00pm"}, {"days": "Sun", "time": "Closed"}], "id": "8012300043", "name": "USPS COLLECTION BOX - BLUE BOX", "address": {"city": "LITTLETON", "state": "CO", "street": "6698 S IRIS ST", "postcode": "80123"}}},
{"geometry": {"type": "Point", "coordinates": [-105.1054470601, 39.5959660714]}, "type": "Feature", "properties": {"collection_times": [{"days": "Mon-Sat", "time": "5:00pm"}, {"days": "Sun", "time": "Closed"}], "id": "8012300050", "name": "USPS COLLECTION BOX - APC", "address": {"city": "LITTLETON", "state": "CO", "street": "6698 S IRIS ST", "postcode": "80123"}}},
{"geometry": {"type": "Point", "coordinates": [-104.8728121353, 39.5635435335]}, "type": "Feature", "properties": {"collection_times": [{"days": "Mon-Fri", "time": "1:30pm"}, {"days": "Sat", "time": "1:40pm"}, {"days": "Sun", "time": "Closed"}], "id": "8012400001", "name": "USPS COLLECTION BOX - BLUE BOX", "address": {"city": "LITTLETON", "state": "CO", "street": "8405 PARK MEADOWS CENTER DR", "postcode": "80124"}}},
{"geometry": {"type": "Point", "coordinates": [-104.8836387053, 39.5377006105]}, "type": "Feature", "properties": {"collection_times": [{"days": "Mon-Fri", "time": "1:10pm"}, {"days": "Sat", "time": "1:30pm"}, {"days": "Sun", "time": "Closed"}], "id": "8012400004", "name": "USPS COLLECTION BOX - BLUE BOX", "address": {"city": "LITTLETON", "state": "CO", "street": "9229 W LINCOLN AVE", "postcode": "80124"}}},
{"geometry": {"type": "Point", "coordinates": [-104.8716659776, 39.5406047748]}, "type": "Feature", "properties": {"collection_times": [{"days": "Mon-Sat", "time": "10:00am"}, {"days": "Sun", "time": "Closed"}], "id": "8012400011", "name": "USPS COLLECTION BOX - BLUE BOX", "address": {"city": "LITTLETON", "state": "CO", "street": "10375 PARK MEADOWS DR", "postcode": "80124"}}},
{"geometry": {"type": "Point", "coordinates": [-105.0377735266, 39.5434296808]}, "type": "Feature", "properties": {"collection_times": [{"days": "Mon-Sat", "time": "10:30am"}, {"days": "Sun", "time": "Closed"}], "id": "8012500001", "name": "USPS COLLECTION BOX - BLUE BOX", "address": {"city": "LITTLETON", "state": "CO", "street": "12483 MEAD WAY", "postcode": "80125"}}},
{"geometry": {"type": "Point", "coordinates": [-105.0733471547, 39.48339528]}, "type": "Feature", "properties": {"collection_times": [{"days": "Mon-Sat", "time": "3:15pm"}, {"days": "Sun", "time": "Closed"}], "id": "8012500002", "name": "USPS COLLECTION BOX - BLUE BOX", "address": {"city": "LITTLETON", "state": "CO", "street": "8375 N RAMPART RANGE RD", "postcode": "80125"}}},
{"geometry": {"type": "Point", "coordinates": [-105.0733471547, 39.48339528]}, "type": "Feature", "properties": {"collection_times": [{"days": "Mon-Sat", "time": "3:15pm"}, {"days": "Sun", "time": "Closed"}], "id": "8012500003", "name": "USPS COLLECTION BOX - BLUE BOX", "address": {"city": "LITTLETON", "state": "CO", "street": "8375 N RAMPART RANGE RD", "postcode": "80125"}}},
{"geometry": {"type": "Point", "coordinates": [-105.0733471547, 39.48339528]}, "type": "Feature", "properties": {"collection_times": [{"days": "Mon-Sat", "time": "3:15pm"}, {"days": "Sun", "time": "Closed"}], "id": "8012500004", "name": "USPS COLLECTION BOX - BLUE BOX", "address": {"city": "LITTLETON", "state": "CO", "street": "8375 N RAMPART RANGE RD", "postcode": "80125"}}},
{"geometry": {"type": "Point", "coordinates": [-104.9457523316, 39.5456571925]}, "type": "Feature", "properties": {"collection_times": [{"days": "Mon-Fri", "time": "3:00pm"}, {"days": "Sat", "time": "4:35pm"}, {"days": "Sun", "time": "Closed"}], "id": "8012600001", "name": "USPS COLLECTION BOX - BLUE BOX", "address": {"city": "HIGHLANDS RANCH", "state": "CO", "street": "9449 S UNIVERSITY BLVD", "postcode": "80126"}}},
{"geometry": {"type": "Point", "coordinates": [-104.940725939, 39.5245674001]}, "type": "Feature", "properties": {"collection_times": [{"days": "Mon-Fri", "time": "12:45pm"}, {"days": "Sat", "time": "1:15pm"}, {"days": "Sun", "time": "Closed"}], "id": "8012600035", "name": "USPS COLLECTION BOX - BLUE BOX", "address": {"city": "HIGHLANDS RANCH", "state": "CO", "street": "4000 RED CEDAR DR", "postcode": "80126"}}},
{"geometry": {"type": "Point", "coordinates": [-104.940725939, 39.5245674001]}, "type": "Feature", "properties": {"collection_times": [{"days": "Mon-Fri", "time": "12:45pm"}, {"days": "Sat", "time": "1:15pm"}, {"days": "Sun", "time": "Closed"}], "id": "8012600036", "name": "USPS COLLECTION BOX - BLUE BOX", "address": {"city": "HIGHLANDS RANCH", "state": "CO", "street": "4000 RED CEDAR DR", "postcode": "80126"}}},
{"geometry": {"type": "Point", "coordinates": [-104.9431391753, 39.5437845684]}, "type": "Feature", "properties": {"collection_times": [{"days": "Mon-Fri", "time": "3:00pm"}, {"days": "Sat", "time": "4:40pm"}, {"days": "Sun", "time": "Closed"}], "id": "8012600038", "name": "USPS COLLECTION BOX - BLUE BOX", "address": {"city": "HIGHLANDS RANCH", "state": "CO", "street": "9551 S UNIVERSITY BLVD", "postcode": "80126"}}},
{"geometry": {"type": "Point", "coordinates": [-105.128801036, 39.6125736323]}, "type": "Feature", "properties": {"collection_times": [{"days": "Mon-Fri", "time": "1:30pm"}, {"days": "Sat", "time": "2:15pm"}, {"days": "Sun", "time": "Closed"}], "id": "8012700000", "name": "USPS COLLECTION BOX - BLUE BOX", "address": {"city": "LITTLETON", "state": "CO", "street": "5707 S SIMMS ST", "postcode": "80127"}}},
{"geometry": {"type": "Point", "coordinates": [-105.1305092287, 39.5808111841]}, "type": "Feature", "properties": {"collection_times": [{"days": "Mon-Fri", "time": "5:00pm"}, {"days": "Sat", "time": "2:30pm"}, {"days": "Sun", "time": "Closed"}], "id": "8012700001", "name": "USPS COLLECTION BOX - BLUE BOX", "address": {"city": "LITTLETON", "state": "CO", "street": "11747 W KEN CARYL AVE", "postcode": "80127"}}},
{"geometry": {"type": "Point", "coordinates": [-105.1118291237, 39.624141788]}, "type": "Feature", "properties": {"collection_times": [{"days": "Mon-Fri", "time": "1:10pm"}, {"days": "Sat", "time": "2:00pm"}, {"days": "Sun", "time": "Closed"}], "id": "8012700002", "name": "USPS COLLECTION BOX - BLUE BOX", "address": {"city": "LITTLETON", "state": "CO", "street": "10184 W BELLEVIEW AVE", "postcode": "80127"}}},
{"geometry": {"type": "Point", "coordinates": [-105.1114233688, 39.5696428685]}, "type": "Feature", "properties": {"collection_times": [{"days": "Mon-Sat", "time": "10:00am"}, {"days": "Sun", "time": "Closed"}], "id": "8012700003", "name": "USPS COLLECTION BOX - BLUE BOX", "address": {"city": "LITTLETON", "state": "CO", "street": "10143 W CHATFIELD AVE", "postcode": "80127"}}},
{"geometry": {"type": "Point", "coordinates": [-105.1100606, 39.6255376796]}, "type": "Feature", "properties": {"collection_times": [{"days": "Mon-Fri", "time": "1:00pm"}, {"days": "Sat", "time": "2:00pm"}, {"days": "Sun", "time": "Closed"}], "id": "8012700005", "name": "USPS COLLECTION BOX - BLUE BOX", "address": {"city": "LITTLETON", "state": "CO", "street": "5035 S KIPLING PKWY", "postcode": "80127"}}},
{"geometry": {"type": "Point", "coordinates": [-105.1097956172, 39.6337415]}, "type": "Feature", "properties": {"collection_times": [{"days": "Mon-Fri", "time": "12:55pm"}, {"days": "Sat", "time": "2:00pm"}, {"days": "Sun", "time": "Closed"}], "id": "8012700006", "name": "USPS COLLECTION BOX - BLUE BOX", "address": {"city": "LITTLETON", "state": "CO", "street": "4550 S KIPLING ST", "postcode": "80127"}}},
{"geometry": {"type": "Point", "coordinates": [-105.1366949211, 39.5802788525]}, "type": "Feature", "properties": {"collection_times": [{"days": "Mon-Fri", "time": "5:15pm"}, {"days": "Sat", "time": "2:45pm"}, {"days": "Sun", "time": "Closed"}], "id": "8012700007", "name": "USPS COLLECTION BOX - BLUE BOX", "address": {"city": "LITTLETON", "state": "CO", "street": "12482 W KEN CARYL AVE", "postcode": "80127"}}},
{"geometry": {"type": "Point", "coordinates": [-105.1245494815, 39.5684315185]}, "type": "Feature", "properties": {"collection_times": [{"days": "Mon-Fri", "time": "5:30pm"}, {"days": "Sat", "time": "5:00pm"}, {"days": "Sun", "time": "Closed"}], "id": "8012700008", "name": "USPS COLLECTION BOX - PO LOBBY", "address": {"city": "LITTLETON", "state": "CO", "street": "8200 SHAFFER PKWY", "postcode": "80127"}}},
{"geometry": {"type": "Point", "coordinates": [-105.1245494815, 39.5684315185]}, "type": "Feature", "properties": {"collection_times": [{"days": "Mon-Fri", "time": "5:30pm"}, {"days": "Sat", "time": "5:00pm"}, {"days": "Sun", "time": "Closed"}], "id": "8012700009", "name": "USPS COLLECTION BOX - PO LOBBY", "address": {"city": "LITTLETON", "state": "CO", "street": "8200 SHAFFER PKWY", "postcode": "80127"}}},
{"geometry": {"type": "Point", "coordinates": [-105.1245494815, 39.5684315185]}, "type": "Feature", "properties": {"collection_times": [{"days": "Mon-Fri", "time": "5:30pm"}, {"days": "Sat", "time": "5:00pm"}, {"days": "Sun", "time": "Closed"}], "id": "8012700010", "name": "USPS COLLECTION BOX - BLUE BOX", "address": {"city": "LITTLETON", "state": "CO", "street": "8200 SHAFFER PKWY", "postcode": "80127"}}},
{"geometry": {"type": "Point", "coordinates": [-105.1245494815, 39.5684315185]}, "type": "Feature", "properties": {"collection_times": [{"days": "Mon-Fri", "time": "5:30pm"}, {"days": "Sat", "time": "5:00pm"}, {"days": "Sun", "time": "Closed"}], "id": "8012700011", "name": "USPS COLLECTION BOX - BLUE BOX", "address": {"city": "LITTLETON", "state": "CO", "street": "8200 SHAFFER PKWY", "postcode": "80127"}}},
{"geometry": {"type": "Point", "coordinates": [-105.1245494815, 39.5684315185]}, "type": "Feature", "properties": {"collection_times": [{"days": "Mon-Fri", "time": "5:30pm"}, {"days": "Sat", "time": "5:00pm"}, {"days": "Sun", "time": "Closed"}], "id": "8012700012", "name": "USPS COLLECTION BOX - BLUE BOX", "address": {"city": "LITTLETON", "state": "CO", "street": "8200 SHAFFER PKWY", "postcode": "80127"}}},
{"geometry": {"type": "Point", "coordinates": [-105.1245494815, 39.5684315185]}, "type": "Feature", "properties": {"collection_times": [{"days": "Mon-Fri", "time": "5:30pm"}, {"days": "Sat", "time": "5:00pm"}, {"days": "Sun", "time": "Closed"}], "id": "8012700013", "name": "USPS COLLECTION BOX - BLUE BOX", "address": {"city": "LITTLETON", "state": "CO", "street": "8200 SHAFFER PKWY", "postcode": "80127"}}},
{"geometry": {"type": "Point", "coordinates": [-105.1311286045, 39.585193666]}, "type": "Feature", "properties": {"collection_times": [{"days": "Mon-Fri", "time": "4:45pm"}, {"days": "Sat", "time": "12:45pm"}, {"days": "Sun", "time": "Closed"}], "id": "8012700014", "name": "USPS COLLECTION BOX - EXPRESS", "address": {"city": "LITTLETON", "state": "CO", "street": "8200 SHAFFER PKWY", "postcode": "80127"}}},
{"geometry": {"type": "Point", "coordinates": [-105.1245494815, 39.5684315185]}, "type": "Feature", "properties": {"collection_times": [{"days": "Mon-Fri", "time": "5:30pm"}, {"days": "Sat", "time": "5:00pm"}, {"days": "Sun", "time": "Closed"}], "id": "8012700015", "name": "USPS COLLECTION BOX - PO LOBBY", "address": {"city": "LITTLETON", "state": "CO", "street": "8200 SHAFFER PKWY", "postcode": "80127"}}},
{"geometry": {"type": "Point", "coordinates": [-105.114500245, 39.5581066526]}, "type": "Feature", "properties": {"collection_times": [{"days": "Mon-Fri", "time": "2:40pm"}, {"days": "Sat", "time": "3:30pm"}, {"days": "Sun", "time": "Closed"}], "id": "8012700017", "name": "USPS COLLECTION BOX - BLUE BOX", "address": {"city": "LITTLETON", "state": "CO", "street": "10100 W UTE AVE", "postcode": "80127"}}},
{"geometry": {"type": "Point", "coordinates": [-105.1509803336, 39.6059490621]}, "type": "Feature", "properties": {"collection_times": [{"days": "Mon-Fri", "time": "1:40pm"}, {"days": "Sat", "time": "2:15pm"}, {"days": "Sun", "time": "Closed"}], "id": "8012700018", "name": "USPS COLLECTION BOX - BLUE BOX", "address": {"city": "LITTLETON", "state": "CO", "street": "13420 W COAL MINE AVE", "postcode": "80127"}}},
{"geometry": {"type": "Point", "coordinates": [-105.1245494815, 39.5684315185]}, "type": "Feature", "properties": {"collection_times": [{"days": "Mon-Fri", "time": "5:30pm"}, {"days": "Sat", "time": "5:00pm"}, {"days": "Sun", "time": "Closed"}], "id": "8012700019", "name": "USPS COLLECTION BOX - APC", "address": {"city": "LITTLETON", "state": "CO", "street": "8200 SHAFFER PKWY", "postcode": "80127"}}},
{"geometry": {"type": "Point", "coordinates": [-105.0478605897, 39.5884353382]}, "type": "Feature", "properties": {"collection_times": [{"days": "Mon-Fri", "time": "12:10pm"}, {"days": "Sat", "time": "1:00pm"}, {"days": "Sun", "time": "Closed"}], "id": "8012800002", "name": "USPS COLLECTION BOX - BLUE BOX", "address": {"city": "LITTLETON", "state": "CO", "street": "7017 S PLATTE CANYON RD", "postcode": "80128"}}},
{"geometry": {"type": "Point", "coordinates": [-105.0727737335, 39.5917689329]}, "type": "Feature", "properties": {"collection_times": [{"days": "Mon-Fri", "time": "4:10pm"}, {"days": "Sat", "time": "1:45pm"}, {"days": "Sun", "time": "Closed"}], "id": "8012800004", "name": "USPS COLLECTION BOX - BLUE BOX", "address": {"city": "LITTLETON", "state": "CO", "street": "6901 S PIERCE ST", "postcode": "80128"}}},
{"geometry": {"type": "Point", "coordinates": [-105.0728316985, 39.584070236]}, "type": "Feature", "properties": {"collection_times": [{"days": "Mon-Fri", "time": "4:15pm"}, {"days": "Sat", "time": "1:30pm"}, {"days": "Sun", "time": "Closed"}], "id": "8012800005", "name": "USPS COLLECTION BOX - BLUE BOX", "address": {"city": "LITTLETON", "state": "CO", "street": "7325 S PIERCE ST", "postcode": "80128"}}},
{"geometry": {"type": "Point", "coordinates": [-105.0728423451, 39.5785884042]}, "type": "Feature", "properties": {"collection_times": [{"days": "Mon-Fri", "time": "4:00pm"}, {"days": "Sat", "time": "1:30pm"}, {"days": "Sun", "time": "Closed"}], "id": "8012800006", "name": "USPS COLLECTION BOX - BLUE BOX", "address": {"city": "LITTLETON", "state": "CO", "street": "7580 S PIERCE ST", "postcode": "80128"}}},
{"geometry": {"type": "Point", "coordinates": [-105.0826325135, 39.5689673989]}, "type": "Feature", "properties": {"collection_times": [{"days": "Mon-Fri", "time": "3:50pm"}, {"days": "Sat", "time": "1:00pm"}, {"days": "Sun", "time": "Closed"}], "id": "8012800007", "name": "USPS COLLECTION BOX - BLUE BOX", "address": {"city": "LITTLETON", "state": "CO", "street": "8126 S WADSWORTH BLVD", "postcode": "80128"}}},
{"geometry": {"type": "Point", "coordinates": [-104.9921821465, 39.5477191142]}, "type": "Feature", "properties": {"collection_times": [{"days": "Mon-Fri", "time": "3:55pm"}, {"days": "Sat", "time": "2:15pm"}, {"days": "Sun", "time": "Closed"}], "id": "8012900000", "name": "USPS COLLECTION BOX - BLUE BOX", "address": {"city": "HIGHLANDS RANCH", "state": "CO", "street": "9249 S BROADWAY", "postcode": "80129"}}},
{"geometry": {"type": "Point", "coordinates": [-104.9921821465, 39.5477191142]}, "type": "Feature", "properties": {"collection_times": [{"days": "Mon-Fri", "time": "3:55pm"}, {"days": "Sat", "time": "2:15pm"}, {"days": "Sun", "time": "Closed"}], "id": "8012900001", "name": "USPS COLLECTION BOX - BLUE BOX", "address": {"city": "HIGHLANDS RANCH", "state": "CO", "street": "9249 S BROADWAY", "postcode": "80129"}}},
{"geometry": {"type": "Point", "coordinates": [-104.9879509183, 39.5598300933]}, "type": "Feature", "properties": {"collection_times": [{"days": "Mon-Fri", "time": "4:15pm"}, {"days": "Sat", "time": "4:10pm"}, {"days": "Sun", "time": "Closed"}], "id": "8012900008", "name": "USPS COLLECTION BOX - BLUE BOX", "address": {"city": "HIGHLANDS RANCH", "state": "CO", "street": "40 SPRINGER DR", "postcode": "80129"}}},
{"geometry": {"type": "Point", "coordinates": [-105.0088558047, 39.5419912763]}, "type": "Feature", "properties": {"collection_times": [{"days": "Mon-Fri", "time": "4:15pm"}, {"days": "Sat-Sun", "time": "Closed"}], "id": "8012900010", "name": "USPS COLLECTION BOX - EXPRESS", "address": {"city": "HIGHLANDS RANCH", "state": "CO", "street": "40 SPRINGER DR", "postcode": "80129"}}},
{"geometry": {"type": "Point", "coordinates": [-105.0144343791, 39.5349240382]}, "type": "Feature", "properties": {"collection_times": [{"days": "Mon-Sat", "time": "10:00am"}, {"days": "Sun", "time": "Closed"}], "id": "8012900013", "name": "USPS COLLECTION BOX - BLUE BOX", "address": {"city": "HIGHLANDS RANCH", "state": "CO", "street": "2205 W WILDCAT RESERVE PKWY", "postcode": "80129"}}},
{"geometry": {"type": "Point", "coordinates": [-105.0098639757, 39.5532837289]}, "type": "Feature", "properties": {"collection_times": [{"days": "Mon-Fri", "time": "3:30pm"}, {"days": "Sat", "time": "4:20pm"}, {"days": "Sun", "time": "Closed"}], "id": "8012900014", "name": "USPS COLLECTION BOX - BLUE BOX", "address": {"city": "HIGHLANDS RANCH", "state": "CO", "street": "1805 SHEA CENTER DR", "postcode": "80129"}}},
{"geometry": {"type": "Point", "coordinates": [-105.0079447793, 39.5564021966]}, "type": "Feature", "properties": {"collection_times": [{"days": "Mon-Fri", "time": "3:40pm"}, {"days": "Sat", "time": "4:20pm"}, {"days": "Sun", "time": "Closed"}], "id": "8012900018", "name": "USPS COLLECTION BOX - BLUE BOX", "address": {"city": "HIGHLANDS RANCH", "state": "CO", "street": "8742 LUCENT BLVD", "postcode": "80129"}}},
{"geometry": {"type": "Point", "coordinates": [-105.0079447793, 39.5564021966]}, "type": "Feature", "properties": {"collection_times": [{"days": "Mon-Fri", "time": "3:40pm"}, {"days": "Sat", "time": "4:20pm"}, {"days": "Sun", "time": "Closed"}], "id": "8012900019", "name": "USPS COLLECTION BOX - BLUE BOX", "address": {"city": "HIGHLANDS RANCH", "state": "CO", "street": "8742 LUCENT BLVD", "postcode": "80129"}}},
{"geometry": {"type": "Point", "coordinates": [-104.9911890504, 39.5660132129]}, "type": "Feature", "properties": {"collection_times": [{"days": "Mon-Fri", "time": "3:10pm"}, {"days": "Sat", "time": "4:05pm"}, {"days": "Sun", "time": "Closed"}], "id": "8012900021", "name": "USPS COLLECTION BOX - BLUE BOX", "address": {"city": "HIGHLANDS RANCH", "state": "CO", "street": "206 W COUNTY LINE RD", "postcode": "80129"}}},
{"geometry": {"type": "Point", "coordinates": [-104.9068199691, 39.5579185622]}, "type": "Feature", "properties": {"collection_times": [{"days": "Mon-Fri", "time": "1:50pm"}, {"days": "Sat", "time": "2:30pm"}, {"days": "Sun", "time": "Closed"}], "id": "8013000000", "name": "USPS COLLECTION BOX - BLUE BOX", "address": {"city": "HIGHLANDS RANCH", "state": "CO", "street": "8673 S QUEBEC ST", "postcode": "80130"}}},
{"geometry": {"type": "Point", "coordinates": [-104.9068199691, 39.5579185622]}, "type": "Feature", "properties": {"collection_times": [{"days": "Mon-Fri", "time": "1:50pm"}, {"days": "Sat", "time": "2:30pm"}, {"days": "Sun", "time": "Closed"}], "id": "8013000001", "name": "USPS COLLECTION BOX - BLUE BOX", "address": {"city": "HIGHLANDS RANCH", "state": "CO", "street": "8673 S QUEBEC ST", "postcode": "80130"}}},
{"geometry": {"type": "Point", "coordinates": [-104.9146712678, 39.5427187224]}, "type": "Feature", "properties": {"collection_times": [{"days": "Mon-Fri", "time": "6:00pm"}, {"days": "Sat", "time": "4:00pm"}, {"days": "Sun", "time": "Closed"}], "id": "8013000008", "name": "USPS COLLECTION BOX - BLUE BOX", "address": {"city": "HIGHLANDS RANCH", "state": "CO", "street": "9609 S UNIVERSITY BLVD", "postcode": "80130"}}},
{"geometry": {"type": "Point", "coordinates": [-104.9180669148, 39.5445026895]}, "type": "Feature", "properties": {"collection_times": [{"days": "Mon-Fri", "time": "5:35pm"}, {"days": "Sat", "time": "4:00pm"}, {"days": "Sun", "time": "Closed"}], "id": "8013000009", "name": "USPS COLLECTION BOX - EXPRESS", "address": {"city": "HIGHLANDS RANCH", "state": "CO", "street": "9609 S UNIVERSITY BLVD", "postcode": "80130"}}},
{"geometry": {"type": "Point", "coordinates": [-104.9146712678, 39.5427187224]}, "type": "Feature", "properties": {"collection_times": [{"days": "Mon-Fri", "time": "6:00pm"}, {"days": "Sat", "time": "4:00pm"}, {"days": "Sun", "time": "Closed"}], "id": "8013000010", "name": "USPS COLLECTION BOX - PO LOBBY", "address": {"city": "HIGHLANDS RANCH", "state": "CO", "street": "9609 S UNIVERSITY BLVD", "postcode": "80130"}}},
{"geometry": {"type": "Point", "coordinates": [-104.9146712678, 39.5427187224]}, "type": "Feature", "properties": {"collection_times": [{"days": "Mon-Fri", "time": "6:00pm"}, {"days": "Sat", "time": "4:00pm"}, {"days": "Sun", "time": "Closed"}], "id": "8013000011", "name": "USPS COLLECTION BOX - PO LOBBY", "address": {"city": "HIGHLANDS RANCH", "state": "CO", "street": "9609 S UNIVERSITY BLVD", "postcode": "80130"}}},
{"geometry": {"type": "Point", "coordinates": [-104.9146712678, 39.5427187224]}, "type": "Feature", "properties": {"collection_times": [{"days": "Mon-Fri", "time": "6:00pm"}, {"days": "Sat", "time": "4:00pm"}, {"days": "Sun", "time": "Closed"}], "id": "8013000012", "name": "USPS COLLECTION BOX - BLUE BOX", "address": {"city": "HIGHLANDS RANCH", "state": "CO", "street": "9609 S UNIVERSITY BLVD", "postcode": "80130"}}},
{"geometry": {"type": "Point", "coordinates": [-104.9146712678, 39.5427187224]}, "type": "Feature", "properties": {"collection_times": [{"days": "Mon-Fri", "time": "6:00pm"}, {"days": "Sat", "time": "4:00pm"}, {"days": "Sun", "time": "Closed"}], "id": "8013000013", "name": "USPS COLLECTION BOX - APC", "address": {"city": "HIGHLANDS RANCH", "state": "CO", "street": "9609 S UNIVERSITY BLVD", "postcode": "80130"}}},
{"geometry": {"type": "Point", "coordinates": [-105.0069024116, 39.477034525]}, "type": "Feature", "properties": {"collection_times": [{"days": "Mon-Fri", "time": "4:30pm"}, {"days": "Sat", "time": "11:30am"}, {"days": "Sun", "time": "Closed"}], "id": "8013100000", "name": "USPS COLLECTION BOX - BLUE BOX", "address": {"city": "LOUVIERS", "state": "CO", "street": "7895 LOUVIERS BLVD", "postcode": "80131"}}},
{"geometry": {"type": "Point", "coordinates": [-105.0069024116, 39.477034525]}, "type": "Feature", "properties": {"collection_times": [{"days": "Mon-Fri", "time": "4:30pm"}, {"days": "Sat", "time": "11:30am"}, {"days": "Sun", "time": "Closed"}], "id": "8013100001", "name": "USPS COLLECTION BOX - PO LOBBY", "address": {"city": "LOUVIERS", "state": "CO", "street": "7895 LOUVIERS BLVD", "postcode": "80131"}}},
{"geometry": {"type": "Point", "coordinates": [-104.8650234439, 39.0935587779]}, "type": "Feature", "properties": {"collection_times": [{"days": "Mon-Fri", "time": "5:00pm"}, {"days": "Sat", "time": "3:00pm"}, {"days": "Sun", "time": "Closed"}], "id": "8013200000", "name": "USPS COLLECTION BOX - BLUE BOX", "address": {"city": "MONUMENT", "state": "CO", "street": "545 3RD ST", "postcode": "80132"}}},
{"geometry": {"type": "Point", "coordinates": [-104.8666999159, 39.0975215796]}, "type": "Feature", "properties": {"collection_times": [{"days": "Mon-Sat", "time": "1:00pm"}, {"days": "Sun", "time": "Closed"}], "id": "8013200001", "name": "USPS COLLECTION BOX - BLUE BOX", "address": {"city": "MONUMENT", "state": "CO", "street": "624 W HIGHWAY 105", "postcode": "80132"}}},
{"geometry": {"type": "Point", "coordinates": [-104.8590684959, 39.0948795837]}, "type": "Feature", "properties": {"collection_times": [{"days": "Mon-Sat", "time": "1:00pm"}, {"days": "Sun", "time": "Closed"}], "id": "8013200002", "name": "USPS COLLECTION BOX - BLUE BOX", "address": {"city": "MONUMENT", "state": "CO", "street": "1730 LAKE WOODMOOR DR", "postcode": "80132"}}},
{"geometry": {"type": "Point", "coordinates": [-104.8650234439, 39.0935587779]}, "type": "Feature", "properties": {"collection_times": [{"days": "Mon-Fri", "time": "5:00pm"}, {"days": "Sat", "time": "3:00pm"}, {"days": "Sun", "time": "Closed"}], "id": "8013200003", "name": "USPS COLLECTION BOX - PO LOBBY", "address": {"city": "MONUMENT", "state": "CO", "street": "545 3RD ST", "postcode": "80132"}}},
{"geometry": {"type": "Point", "coordinates": [-104.8650234439, 39.0935587779]}, "type": "Feature", "properties": {"collection_times": [{"days": "Mon-Fri", "time": "5:00pm"}, {"days": "Sat", "time": "3:00pm"}, {"days": "Sun", "time": "Closed"}], "id": "8013200004", "name": "USPS COLLECTION BOX - PO LOBBY", "address": {"city": "MONUMENT", "state": "CO", "street": "545 3RD ST", "postcode": "80132"}}},
{"geometry": {"type": "Point", "coordinates": [-104.8650234439, 39.0935587779]}, "type": "Feature", "properties": {"collection_times": [{"days": "Mon-Fri", "time": "5:00pm"}, {"days": "Sat", "time": "3:00pm"}, {"days": "Sun", "time": "Closed"}], "id": "8013200005", "name": "USPS COLLECTION BOX - PO LOBBY", "address": {"city": "MONUMENT", "state": "CO", "street": "545 3RD ST", "postcode": "80132"}}},
{"geometry": {"type": "Point", "coordinates": [-104.8650234439, 39.0935587779]}, "type": "Feature", "properties": {"collection_times": [{"days": "Mon-Fri", "time": "5:00pm"}, {"days": "Sat", "time": "3:00pm"}, {"days": "Sun", "time": "Closed"}], "id": "8013200006", "name": "USPS COLLECTION BOX - PO LOBBY", "address": {"city": "MONUMENT", "state": "CO", "street": "545 3RD ST", "postcode": "80132"}}},
{"geometry": {"type": "Point", "coordinates": [-104.8650234439, 39.0935587779]}, "type": "Feature", "properties": {"collection_times": [{"days": "Mon-Fri", "time": "5:00pm"}, {"days": "Sat", "time": "3:00pm"}, {"days": "Sun", "time": "Closed"}], "id": "8013200008", "name": "USPS COLLECTION BOX - APC", "address": {"city": "MONUMENT", "state": "CO", "street": "545 3RD ST", "postcode": "80132"}}},
{"geometry": {"type": "Point", "coordinates": [-104.9147339646, 39.1236365817]}, "type": "Feature", "properties": {"collection_times": [{"days": "Mon-Fri", "time": "3:45pm"}, {"days": "Sat", "time": "11:00am"}, {"days": "Sun", "time": "Closed"}], "id": "8013300000", "name": "USPS COLLECTION BOX - BLUE BOX", "address": {"city": "PALMER LAKE", "state": "CO", "street": "10 PRIMROSE ST", "postcode": "80133"}}},
{"geometry": {"type": "Point", "coordinates": [-104.9147339646, 39.1236365817]}, "type": "Feature", "properties": {"collection_times": [{"days": "Mon-Fri", "time": "3:45pm"}, {"days": "Sat", "time": "11:00am"}, {"days": "Sun", "time": "Closed"}], "id": "8013300001", "name": "USPS COLLECTION BOX - PO LOBBY", "address": {"city": "PALMER LAKE", "state": "CO", "street": "10 PRIMROSE ST", "postcode": "80133"}}},
{"geometry": {"type": "Point", "coordinates": [-104.9147339646, 39.1236365817]}, "type": "Feature", "properties": {"collection_times": [{"days": "Mon-Fri", "time": "3:45pm"}, {"days": "Sat", "time": "11:00am"}, {"days": "Sun", "time": "Closed"}], "id": "8013300002", "name": "USPS COLLECTION BOX - PO LOBBY", "address": {"city": "PALMER LAKE", "state": "CO", "street": "10 PRIMROSE ST", "postcode": "80133"}}},
{"geometry": {"type": "Point", "coordinates": [-104.7711050382, 39.521295343]}, "type": "Feature", "properties": {"collection_times": [{"days": "Mon-Fri", "time": "5:50pm"}, {"days": "Sat", "time": "5:00pm"}, {"days": "Sun", "time": "Closed"}], "id": "8013400001", "name": "USPS COLLECTION BOX - BLUE BOX", "address": {"city": "PARKER", "state": "CO", "street": "18695 PONY EXPRESS DR", "postcode": "80134"}}},
{"geometry": {"type": "Point", "coordinates": [-104.7720561755, 39.5213679272]}, "type": "Feature", "properties": {"collection_times": [{"days": "Mon-Fri", "time": "5:15pm"}, {"days": "Sat", "time": "11:45am"}, {"days": "Sun", "time": "Closed"}], "id": "8013400002", "name": "USPS COLLECTION BOX - EXPRESS", "address": {"city": "PARKER", "state": "CO", "street": "18695 PONY EXPRESS DR", "postcode": "80134"}}},
{"geometry": {"type": "Point", "coordinates": [-104.764674437, 39.5169858161]}, "type": "Feature", "properties": {"collection_times": [{"days": "Mon-Sat", "time": "12:00pm"}, {"days": "Sun", "time": "Closed"}], "id": "8013400003", "name": "USPS COLLECTION BOX - BLUE BOX", "address": {"city": "PARKER", "state": "CO", "street": "10970 S PARKER RD", "postcode": "80134"}}},
{"geometry": {"type": "Point", "coordinates": [-104.7614544227, 39.5183261086]}, "type": "Feature", "properties": {"collection_times": [{"days": "Mon-Sat", "time": "12:00pm"}, {"days": "Sun", "time": "Closed"}], "id": "8013400004", "name": "USPS COLLECTION BOX - BLUE BOX", "address": {"city": "PARKER", "state": "CO", "street": "19565 E MAIN ST", "postcode": "80134"}}},
{"geometry": {"type": "Point", "coordinates": [-104.7796005501, 39.4823232513]}, "type": "Feature", "properties": {"collection_times": [{"days": "Mon-Sat", "time": "12:00pm"}, {"days": "Sun", "time": "Closed"}], "id": "8013400005", "name": "USPS COLLECTION BOX - BLUE BOX", "address": {"city": "PARKER", "state": "CO", "street": "11020 E PIKES PEAK CT", "postcode": "80134"}}},
{"geometry": {"type": "Point", "coordinates": [-104.7696156566, 39.5496863507]}, "type": "Feature", "properties": {"collection_times": [{"days": "Mon-Sat", "time": "12:00pm"}, {"days": "Sun", "time": "Closed"}], "id": "8013400011", "name": "USPS COLLECTION BOX - BLUE BOX", "address": {"city": "PARKER", "state": "CO", "street": "9395 CROWN CREST BLVD", "postcode": "80134"}}},
{"geometry": {"type": "Point", "coordinates": [-104.7646368689, 39.5155747965]}, "type": "Feature", "properties": {"collection_times": [{"days": "Mon-Sat", "time": "12:00pm"}, {"days": "Sun", "time": "Closed"}], "id": "8013400015", "name": "USPS COLLECTION BOX - BLUE BOX", "address": {"city": "PARKER", "state": "CO", "street": "11051 S PARKER RD", "postcode": "80134"}}},
{"geometry": {"type": "Point", "coordinates": [-104.781723552, 39.5580115243]}, "type": "Feature", "properties": {"collection_times": [{"days": "Mon-Sat", "time": "12:00pm"}, {"days": "Sun", "time": "Closed"}], "id": "8013400016", "name": "USPS COLLECTION BOX - BLUE BOX", "address": {"city": "PARKER", "state": "CO", "street": "17761 COTTONWOOD DR", "postcode": "80134"}}},
{"geometry": {"type": "Point", "coordinates": [-104.7718448557, 39.5213883443]}, "type": "Feature", "properties": {"collection_times": [{"days": "Mon-Fri", "time": "5:50pm"}, {"days": "Sat", "time": "5:00pm"}, {"days": "Sun", "time": "Closed"}], "id": "8013400018", "name": "USPS COLLECTION BOX - PO LOBBY", "address": {"city": "PARKER", "state": "CO", "street": "18695 PONY EXPRESS DR", "postcode": "80134"}}},
{"geometry": {"type": "Point", "coordinates": [-104.7711050382, 39.521295343]}, "type": "Feature", "properties": {"collection_times": [{"days": "Mon-Fri", "time": "5:50pm"}, {"days": "Sat", "time": "5:00pm"}, {"days": "Sun", "time": "Closed"}], "id": "8013400020", "name": "USPS COLLECTION BOX - PO LOBBY", "address": {"city": "PARKER", "state": "CO", "street": "18695 PONY EXPRESS DR", "postcode": "80134"}}},
{"geometry": {"type": "Point", "coordinates": [-104.7711050382, 39.521295343]}, "type": "Feature", "properties": {"collection_times": [{"days": "Mon-Fri", "time": "5:50pm"}, {"days": "Sat", "time": "5:00pm"}, {"days": "Sun", "time": "Closed"}], "id": "8013400021", "name": "USPS COLLECTION BOX - PO LOBBY", "address": {"city": "PARKER", "state": "CO", "street": "18695 PONY EXPRESS DR", "postcode": "80134"}}},
{"geometry": {"type": "Point", "coordinates": [-104.7796005501, 39.4823232513]}, "type": "Feature", "properties": {"collection_times": [{"days": "Mon-Sat", "time": "12:00pm"}, {"days": "Sun", "time": "Closed"}], "id": "8013400022", "name": "USPS COLLECTION BOX - BLUE BOX", "address": {"city": "PARKER", "state": "CO", "street": "19201 E MAINSTREET", "postcode": "80134"}}},
{"geometry": {"type": "Point", "coordinates": [-104.7796005501, 39.4823232513]}, "type": "Feature", "properties": {"collection_times": [{"days": "Mon-Sat", "time": "12:00pm"}, {"days": "Sun", "time": "Closed"}], "id": "8013400025", "name": "USPS COLLECTION BOX - BLUE BOX", "address": {"city": "PARKER", "state": "CO", "street": "18801 E MAINSTREET", "postcode": "80134"}}},
{"geometry": {"type": "Point", "coordinates": [-104.7711050382, 39.521295343]}, "type": "Feature", "properties": {"collection_times": [{"days": "Mon-Fri", "time": "5:45pm"}, {"days": "Sat", "time": "5:00pm"}, {"days": "Sun", "time": "Closed"}], "id": "8013400026", "name": "USPS COLLECTION BOX - APC", "address": {"city": "PARKER", "state": "CO", "street": "18695 PONY EXPRESS DR", "postcode": "80134"}}},
{"geometry": {"type": "Point", "coordinates": [-104.7711050382, 39.521295343]}, "type": "Feature", "properties": {"collection_times": [{"days": "Mon-Fri", "time": "5:50pm"}, {"days": "Sat", "time": "5:00pm"}, {"days": "Sun", "time": "Closed"}], "id": "8013400027", "name": "USPS COLLECTION BOX - APC", "address": {"city": "PARKER", "state": "CO", "street": "18695 PONY EXPRESS DR", "postcode": "80134"}}},
{"geometry": {"type": "Point", "coordinates": [-104.7711050382, 39.521295343]}, "type": "Feature", "properties": {"collection_times": [{"days": "Mon-Fri", "time": "5:45pm"}, {"days": "Sat", "time": "5:00pm"}, {"days": "Sun", "time": "Closed"}], "id": "8013400029", "name": "USPS COLLECTION BOX - APC", "address": {"city": "PARKER", "state": "CO", "street": "18695 PONY EXPRESS DR", "postcode": "80134"}}},
{"geometry": {"type": "Point", "coordinates": [-104.7541685781, 39.5180492957]}, "type": "Feature", "properties": {"collection_times": [{"days": "Mon-Sat", "time": "12:00pm"}, {"days": "Sun", "time": "Closed"}], "id": "8013400031", "name": "USPS COLLECTION BOX - BLUE BOX", "address": {"city": "PARKER", "state": "CO", "street": "20120 E MAIN ST", "postcode": "80134"}}},
{"geometry": {"type": "Point", "coordinates": [-104.9636067313, 39.4356739486]}, "type": "Feature", "properties": {"collection_times": [{"days": "Mon-Fri", "time": "5:00pm"}, {"days": "Sat", "time": "12:00pm"}, {"days": "Sun", "time": "Closed"}], "id": "8013500000", "name": "USPS COLLECTION BOX - BLUE BOX", "address": {"city": "SEDALIA", "state": "CO", "street": "4195 DOUGLAS AVE", "postcode": "80135"}}},
{"geometry": {"type": "Point", "coordinates": [-104.9636067313, 39.4356739486]}, "type": "Feature", "properties": {"collection_times": [{"days": "Mon-Fri", "time": "5:00pm"}, {"days": "Sat", "time": "12:00pm"}, {"days": "Sun", "time": "Closed"}], "id": "8013500001", "name": "USPS COLLECTION BOX - PO LOBBY", "address": {"city": "SEDALIA", "state": "CO", "street": "4195 DOUGLAS AVE", "postcode": "80135"}}},
{"geometry": {"type": "Point", "coordinates": [-104.9636067313, 39.4356739486]}, "type": "Feature", "properties": {"collection_times": [{"days": "Mon-Fri", "time": "5:00pm"}, {"days": "Sat", "time": "12:00pm"}, {"days": "Sun", "time": "Closed"}], "id": "8013500004", "name": "USPS COLLECTION BOX - PO LOBBY", "address": {"city": "SEDALIA", "state": "CO", "street": "4195 DOUGLAS AVE", "postcode": "80135"}}},
{"geometry": {"type": "Point", "coordinates": [-104.3240257714, 39.7383777693]}, "type": "Feature", "properties": {"collection_times": [{"days": "Mon-Fri", "time": "4:30pm"}, {"days": "Sat", "time": "12:00pm"}, {"days": "Sun", "time": "Closed"}], "id": "8013600000", "name": "USPS COLLECTION BOX - BLUE BOX", "address": {"city": "STRASBURG", "state": "CO", "street": "56691 E COLFAX AVE", "postcode": "80136"}}},
{"geometry": {"type": "Point", "coordinates": [-104.3240257714, 39.7383777693]}, "type": "Feature", "properties": {"collection_times": [{"days": "Mon-Fri", "time": "4:30pm"}, {"days": "Sat", "time": "12:00pm"}, {"days": "Sun", "time": "Closed"}], "id": "8013600001", "name": "USPS COLLECTION BOX - PO LOBBY", "address": {"city": "STRASBURG", "state": "CO", "street": "56691 E COLFAX AVE", "postcode": "80136"}}},
{"geometry": {"type": "Point", "coordinates": [-104.3240257714, 39.7383777693]}, "type": "Feature", "properties": {"collection_times": [{"days": "Mon-Fri", "time": "4:30pm"}, {"days": "Sat", "time": "12:00pm"}, {"days": "Sun", "time": "Closed"}], "id": "8013600002", "name": "USPS COLLECTION BOX - PO LOBBY", "address": {"city": "STRASBURG", "state": "CO", "street": "56691 E COLFAX AVE", "postcode": "80136"}}},
{"geometry": {"type": "Point", "coordinates": [-104.5995234822, 39.7443795078]}, "type": "Feature", "properties": {"collection_times": [{"days": "Mon-Fri", "time": "4:30pm"}, {"days": "Sat", "time": "11:30am"}, {"days": "Sun", "time": "Closed"}], "id": "8013700000", "name": "USPS COLLECTION BOX - BLUE BOX", "address": {"city": "WATKINS", "state": "CO", "street": "33151 E 16TH DR", "postcode": "80137"}}},
{"geometry": {"type": "Point", "coordinates": [-104.5995234822, 39.7443795078]}, "type": "Feature", "properties": {"collection_times": [{"days": "Mon-Fri", "time": "4:30pm"}, {"days": "Sat", "time": "11:30am"}, {"days": "Sun", "time": "Closed"}], "id": "8013700005", "name": "USPS COLLECTION BOX - PO LOBBY", "address": {"city": "WATKINS", "state": "CO", "street": "33151 E 16TH DR", "postcode": "80137"}}},
{"geometry": {"type": "Point", "coordinates": [-104.5995234822, 39.7443795078]}, "type": "Feature", "properties": {"collection_times": [{"days": "Mon-Fri", "time": "4:30pm"}, {"days": "Sat", "time": "11:30am"}, {"days": "Sun", "time": "Closed"}], "id": "8013700007", "name": "USPS COLLECTION BOX - PO LOBBY", "address": {"city": "WATKINS", "state": "CO", "street": "33151 E 16TH DR", "postcode": "80137"}}},
{"geometry": {"type": "Point", "coordinates": [-104.5995234822, 39.7443795078]}, "type": "Feature", "properties": {"collection_times": [{"days": "Mon-Fri", "time": "4:30pm"}, {"days": "Sat", "time": "11:30am"}, {"days": "Sun", "time": "Closed"}], "id": "8013700008", "name": "USPS COLLECTION BOX - PO LOBBY", "address": {"city": "WATKINS", "state": "CO", "street": "33151 E 16TH DR", "postcode": "80137"}}}
]}
