{"type": "FeatureCollection", "features": [
{"geometry": {"type": "Point", "coordinates": [-105.2254421386, 40.028769772]}, "type": "Feature", "properties": {"collection_times": [{"days": "Mon-Fri", "time": "6:15pm"}, {"days": "Sat", "time": "5:30pm"}, {"days": "Sun", "time": "Closed"}], "id": "8030100004", "name": "USPS COLLECTION BOX - BLUE BOX", "address": {"city": "BOULDER", "state": "CO", "street": "2995 55TH ST", "postcode": "80301"}}},
{"geometry": {"type": "Point", "coordinates": [-105.2207399979, 40.0417016689]}, "type": "Feature", "properties": {"collection_times": [{"days": "Mon-Fri", "time": "5:40pm"}, {"days": "Sat", "time": "2:15pm"}, {"days": "Sun", "time": "Closed"}], "id": "8030100005", "name": "USPS COLLECTION BOX - EXPRESS", "address": {"city": "BOULDER", "state": "CO", "street": "2995 55TH ST", "postcode": "80301"}}},
{"geometry": {"type": "Point", "coordinates": [-105.2254421386, 40.028769772]}, "type": "Feature", "properties": {"collection_times": [{"days": "Mon-Fri", "time": "6:30pm"}, {"days": "Sat", "time": "5:30pm"}, {"days": "Sun", "time": "Closed"}], "id": "8030100006", "name": "USPS COLLECTION BOX - PO LOBBY", "address": {"city": "BOULDER", "state": "CO", "street": "2995 55TH ST", "postcode": "80301"}}},
{"geometry": {"type": "Point", "coordinates": [-105.2254421386, 40.028769772]}, "type": "Feature", "properties": {"collection_times": [{"days": "Mon-Fri", "time": "6:30pm"}, {"days": "Sat", "time": "5:30pm"}, {"days": "Sun", "time": "Closed"}], "id": "8030100007", "name": "USPS COLLECTION BOX - PO LOBBY", "address": {"city": "BOULDER", "state": "CO", "street": "2995 55TH ST", "postcode": "80301"}}},
{"geometry": {"type": "Point", "coordinates": [-105.2254421386, 40.028769772]}, "type": "Feature", "properties": {"collection_times": [{"days": "Mon-Fri", "time": "6:30pm"}, {"days": "Sat", "time": "5:30pm"}, {"days": "Sun", "time": "Closed"}], "id": "8030100008", "name": "USPS COLLECTION BOX - PO LOBBY", "address": {"city": "BOULDER", "state": "CO", "street": "2995 55TH ST", "postcode": "80301"}}},
{"geometry": {"type": "Point", "coordinates": [-105.2254421386, 40.028769772]}, "type": "Feature", "properties": {"collection_times": [{"days": "Mon-Fri", "time": "6:30pm"}, {"days": "Sat", "time": "5:30pm"}, {"days": "Sun", "time": "Closed"}], "id": "8030100009", "name": "USPS COLLECTION BOX - PO LOBBY", "address": {"city": "BOULDER", "state": "CO", "street": "2995 55TH ST", "postcode": "80301"}}},
{"geometry": {"type": "Point", "coordinates": [-105.2254421386, 40.028769772]}, "type": "Feature", "properties": {"collection_times": [{"days": "Mon-Fri", "time": "6:30pm"}, {"days": "Sat", "time": "5:30pm"}, {"days": "Sun", "time": "Closed"}], "id": "8030100010", "name": "USPS COLLECTION BOX - PO LOBBY", "address": {"city": "BOULDER", "state": "CO", "street": "2995 55TH ST", "postcode": "80301"}}},
{"geometry": {"type": "Point", "coordinates": [-105.2254421386, 40.028769772]}, "type": "Feature", "properties": {"collection_times": [{"days": "Mon-Fri", "time": "6:30pm"}, {"days": "Sat", "time": "5:30pm"}, {"days": "Sun", "time": "Closed"}], "id": "8030100011", "name": "USPS COLLECTION BOX - PO LOBBY", "address": {"city": "BOULDER", "state": "CO", "street": "2995 55TH ST", "postcode": "80301"}}},
{"geometry": {"type": "Point", "coordinates": [-105.2535042025, 40.0197525133]}, "type": "Feature", "properties": {"collection_times": [{"days": "Mon-Sat", "time": "2:15pm"}, {"days": "Sun", "time": "Closed"}], "id": "8030100014", "name": "USPS COLLECTION BOX - BLUE BOX", "address": {"city": "BOULDER", "state": "CO", "street": "1880 30TH ST", "postcode": "80301"}}},
{"geometry": {"type": "Point", "coordinates": [-105.2535260852, 40.0158431164]}, "type": "Feature", "properties": {"collection_times": [{"days": "Mon-Sat", "time": "2:15pm"}, {"days": "Sun", "time": "Closed"}], "id": "8030100016", "name": "USPS COLLECTION BOX - BLUE BOX", "address": {"city": "BOULDER", "state": "CO", "street": "1650 30TH ST", "postcode": "80301"}}},
{"geometry": {"type": "Point", "coordinates": [-105.2558307185, 40.0364562204]}, "type": "Feature", "properties": {"collection_times": [{"days": "Mon-Sat", "time": "1:45pm"}, {"days": "Sun", "time": "Closed"}], "id": "8030100018", "name": "USPS COLLECTION BOX - BLUE BOX", "address": {"city": "BOULDER", "state": "CO", "street": "2900 IRIS AVE", "postcode": "80301"}}},
{"geometry": {"type": "Point", "coordinates": [-105.2558307185, 40.0364562204]}, "type": "Feature", "properties": {"collection_times": [{"days": "Mon-Sat", "time": "1:45pm"}, {"days": "Sun", "time": "Closed"}], "id": "8030100019", "name": "USPS COLLECTION BOX - BLUE BOX", "address": {"city": "BOULDER", "state": "CO", "street": "2900 IRIS AVE", "postcode": "80301"}}},
{"geometry": {"type": "Point", "coordinates": [-105.2535260852, 40.0158431164]}, "type": "Feature", "properties": {"collection_times": [{"days": "Mon-Sat", "time": "2:15pm"}, {"days": "Sun", "time": "Closed"}], "id": "8030100020", "name": "USPS COLLECTION BOX - BLUE BOX", "address": {"city": "BOULDER", "state": "CO", "street": "1650 30TH ST", "postcode": "80301"}}},
{"geometry": {"type": "Point", "coordinates": [-105.2243391468, 40.0196525437]}, "type": "Feature", "properties": {"collection_times": [{"days": "Mon-Sat", "time": "2:30pm"}, {"days": "Sun", "time": "Closed"}], "id": "8030100021", "name": "USPS COLLECTION BOX - BLUE BOX", "address": {"city": "BOULDER", "state": "CO", "street": "5541 CENTRAL AVE", "postcode": "80301"}}},
{"geometry": {"type": "Point", "coordinates": [-105.1982927774, 40.0713203871]}, "type": "Feature", "properties": {"collection_times": [{"days": "Mon-Fri", "time": "3:15pm"}, {"days": "Sat", "time": "12:45pm"}, {"days": "Sun", "time": "Closed"}], "id": "8030100024", "name": "USPS COLLECTION BOX - BLUE BOX", "address": {"city": "BOULDER", "state": "CO", "street": "6680 GUNPARK DR", "postcode": "80301"}}},
{"geometry": {"type": "Point", "coordinates": [-105.2356392194, 40.0148665038]}, "type": "Feature", "properties": {"collection_times": [{"days": "Mon-Fri", "time": "4:50pm"}, {"days": "Sat", "time": "2:15pm"}, {"days": "Sun", "time": "Closed"}], "id": "8030100025", "name": "USPS COLLECTION BOX - BLUE BOX", "address": {"city": "BOULDER", "state": "CO", "street": "4747 ARAPAHOE AVE", "postcode": "80301"}}},
{"geometry": {"type": "Point", "coordinates": [-105.2441572794, 40.0161057774]}, "type": "Feature", "properties": {"collection_times": [{"days": "Mon-Fri", "time": "4:50pm"}, {"days": "Sat", "time": "2:15pm"}, {"days": "Sun", "time": "Closed"}], "id": "8030100028", "name": "USPS COLLECTION BOX - BLUE BOX", "address": {"city": "BOULDER", "state": "CO", "street": "1680 38TH ST", "postcode": "80301"}}},
{"geometry": {"type": "Point", "coordinates": [-105.2434380404, 40.0353773619]}, "type": "Feature", "properties": {"collection_times": [{"days": "Mon-Sat", "time": "1:15pm"}, {"days": "Sun", "time": "Closed"}], "id": "8030100032", "name": "USPS COLLECTION BOX - BLUE BOX", "address": {"city": "BOULDER", "state": "CO", "street": "3300 MITCHELL LN", "postcode": "80301"}}},
{"geometry": {"type": "Point", "coordinates": [-105.2207399979, 40.0417016689]}, "type": "Feature", "properties": {"collection_times": [{"days": "Mon-Sat", "time": "1:15pm"}, {"days": "Sun", "time": "Closed"}], "id": "8030100033", "name": "USPS COLLECTION BOX - EXPRESS", "address": {"city": "BOULDER", "state": "CO", "street": "3300 MITCHELL LN", "postcode": "80301"}}},
{"geometry": {"type": "Point", "coordinates": [-105.1791773435, 40.0654363492]}, "type": "Feature", "properties": {"collection_times": [{"days": "Mon-Sat", "time": "12:30pm"}, {"days": "Sun", "time": "Closed"}], "id": "8030100035", "name": "USPS COLLECTION BOX - BLUE BOX", "address": {"city": "BOULDER", "state": "CO", "street": "7490 CLUBHOUSE RD", "postcode": "80301"}}},
{"geometry": {"type": "Point", "coordinates": [-105.2576252673, 40.0401021]}, "type": "Feature", "properties": {"collection_times": [{"days": "Mon-Sat", "time": "1:45pm"}, {"days": "Sun", "time": "Closed"}], "id": "8030100036", "name": "USPS COLLECTION BOX - BLUE BOX", "address": {"city": "BOULDER", "state": "CO", "street": "2800 KALMIA AVE", "postcode": "80301"}}},
{"geometry": {"type": "Point", "coordinates": [-105.2047257083, 40.0566741721]}, "type": "Feature", "properties": {"collection_times": [{"days": "Mon-Sat", "time": "12:45pm"}, {"days": "Sun", "time": "Closed"}], "id": "8030100037", "name": "USPS COLLECTION BOX - BLUE BOX", "address": {"city": "BOULDER", "state": "CO", "street": "6392 TWIN LAKES RD", "postcode": "80301"}}},
{"geometry": {"type": "Point", "coordinates": [-105.2276915347, 40.0299562603]}, "type": "Feature", "properties": {"collection_times": [{"days": "Mon-Sat", "time": "1:15pm"}, {"days": "Sun", "time": "Closed"}], "id": "8030100038", "name": "USPS COLLECTION BOX - BLUE BOX", "address": {"city": "BOULDER", "state": "CO", "street": "3000 STERLING CIR", "postcode": "80301"}}},
{"geometry": {"type": "Point", "coordinates": [-105.2488747091, 40.0365328922]}, "type": "Feature", "properties": {"collection_times": [{"days": "Mon-Sat", "time": "1:45pm"}, {"days": "Sun", "time": "Closed"}], "id": "8030100040", "name": "USPS COLLECTION BOX - BLUE BOX", "address": {"city": "BOULDER", "state": "CO", "street": "3402 34TH ST", "postcode": "80301"}}},
{"geometry": {"type": "Point", "coordinates": [-105.2010277785, 40.0728050006]}, "type": "Feature", "properties": {"collection_times": [{"days": "Mon-Sat", "time": "12:45pm"}, {"days": "Sun", "time": "Closed"}], "id": "8030100041", "name": "USPS COLLECTION BOX - BLUE BOX", "address": {"city": "BOULDER", "state": "CO", "street": "6550 LOOKOUT RD", "postcode": "80301"}}},
{"geometry": {"type": "Point", "coordinates": [-105.2207399979, 40.0417016689]}, "type": "Feature", "properties": {"collection_times": [{"days": "Mon-Sat", "time": "12:45pm"}, {"days": "Sun", "time": "Closed"}], "id": "8030100042", "name": "USPS COLLECTION BOX - EXPRESS", "address": {"city": "BOULDER", "state": "CO", "street": "6550 LOOKOUT RD", "postcode": "80301"}}},
{"geometry": {"type": "Point", "coordinates": [-105.2006522781, 40.0670071566]}, "type": "Feature", "properties": {"collection_times": [{"days": "Mon-Sat", "time": "12:45pm"}, {"days": "Sun", "time": "Closed"}], "id": "8030100046", "name": "USPS COLLECTION BOX - BLUE BOX", "address": {"city": "BOULDER", "state": "CO", "street": "5125 WILLIAMS FORK TRL", "postcode": "80301"}}},
{"geometry": {"type": "Point", "coordinates": [-105.2442034148, 40.0259988632]}, "type": "Feature", "properties": {"collection_times": [{"days": "Mon-Sat", "time": "1:15pm"}, {"days": "Sun", "time": "Closed"}], "id": "8030100050", "name": "USPS COLLECTION BOX - BLUE BOX", "address": {"city": "BOULDER", "state": "CO", "street": "2500 47TH ST", "postcode": "80301"}}},
{"geometry": {"type": "Point", "coordinates": [-105.2210600057, 40.0228971448]}, "type": "Feature", "properties": {"collection_times": [{"days": "Mon-Sat", "time": "2:30pm"}, {"days": "Sun", "time": "Closed"}], "id": "8030100052", "name": "USPS COLLECTION BOX - BLUE BOX", "address": {"city": "BOULDER", "state": "CO", "street": "5700 FLATIRON PKWY", "postcode": "80301"}}},
{"geometry": {"type": "Point", "coordinates": [-105.2475192488, 40.0286084707]}, "type": "Feature", "properties": {"collection_times": [{"days": "Mon-Sat", "time": "1:30pm"}, {"days": "Sun", "time": "Closed"}], "id": "8030100053", "name": "USPS COLLECTION BOX - BLUE BOX", "address": {"city": "BOULDER", "state": "CO", "street": "2995 WILDERNESS PL", "postcode": "80301"}}},
{"geometry": {"type": "Point", "coordinates": [-105.2475192488, 40.0286084707]}, "type": "Feature", "properties": {"collection_times": [{"days": "Mon-Sat", "time": "1:30pm"}, {"days": "Sun", "time": "Closed"}], "id": "8030100054", "name": "USPS COLLECTION BOX - BLUE BOX", "address": {"city": "BOULDER", "state": "CO", "street": "2995 WILDERNESS PL", "postcode": "80301"}}},
{"geometry": {"type": "Point", "coordinates": [-105.2567727899, 40.0436349802]}, "type": "Feature", "properties": {"collection_times": [{"days": "Mon-Sat", "time": "1:45pm"}, {"days": "Sun", "time": "Closed"}], "id": "8030100057", "name": "USPS COLLECTION BOX - BLUE BOX", "address": {"city": "BOULDER", "state": "CO", "street": "3799 PASEO DEL PRADO ST", "postcode": "80301"}}},
{"geometry": {"type": "Point", "coordinates": [-105.2021515896, 40.0717699115]}, "type": "Feature", "properties": {"collection_times": [{"days": "Mon-Fri", "time": "4:00pm"}, {"days": "Sat", "time": "12:00pm"}, {"days": "Sun", "time": "Closed"}], "id": "8030100069", "name": "USPS COLLECTION BOX - BLUE BOX", "address": {"city": "BOULDER", "state": "CO", "street": "5365 SPINE RD", "postcode": "80301"}}},
{"geometry": {"type": "Point", "coordinates": [-105.2501170267, 40.0175194133]}, "type": "Feature", "properties": {"collection_times": [{"days": "Mon-Sat", "time": "2:15pm"}, {"days": "Sun", "time": "Closed"}], "id": "8030100074", "name": "USPS COLLECTION BOX - BLUE BOX", "address": {"city": "BOULDER", "state": "CO", "street": "1750 33RD ST", "postcode": "80301"}}},
{"geometry": {"type": "Point", "coordinates": [-105.2463326187, 40.0474147523]}, "type": "Feature", "properties": {"collection_times": [{"days": "Mon-Sat", "time": "1:00pm"}, {"days": "Sun", "time": "Closed"}], "id": "8030100075", "name": "USPS COLLECTION BOX - BLUE BOX", "address": {"city": "BOULDER", "state": "CO", "street": "4400 SAINT JOHNS AVE", "postcode": "80301"}}},
{"geometry": {"type": "Point", "coordinates": [-105.2585302309, 40.0353489708]}, "type": "Feature", "properties": {"collection_times": [{"days": "Mon-Sat", "time": "2:00pm"}, {"days": "Sun", "time": "Closed"}], "id": "8030100076", "name": "USPS COLLECTION BOX - BLUE BOX", "address": {"city": "BOULDER", "state": "CO", "street": "3325 28TH ST", "postcode": "80301"}}},
{"geometry": {"type": "Point", "coordinates": [-105.2585302309, 40.0353489708]}, "type": "Feature", "properties": {"collection_times": [{"days": "Mon-Sat", "time": "2:00pm"}, {"days": "Sun", "time": "Closed"}], "id": "8030100077", "name": "USPS COLLECTION BOX - BLUE BOX", "address": {"city": "BOULDER", "state": "CO", "street": "3325 28TH ST", "postcode": "80301"}}},
{"geometry": {"type": "Point", "coordinates": [-105.2356392194, 40.0148665038]}, "type": "Feature", "properties": {"collection_times": [{"days": "Mon-Fri", "time": "4:50pm"}, {"days": "Sat", "time": "2:15pm"}, {"days": "Sun", "time": "Closed"}], "id": "8030100084", "name": "USPS COLLECTION BOX - BLUE BOX", "address": {"city": "BOULDER", "state": "CO", "street": "4747 ARAPAHOE AVE", "postcode": "80301"}}},
{"geometry": {"type": "Point", "coordinates": [-105.2254421386, 40.028769772]}, "type": "Feature", "properties": {"collection_times": [{"days": "Mon-Fri", "time": "6:30pm"}, {"days": "Sat", "time": "5:30pm"}, {"days": "Sun", "time": "Closed"}], "id": "8030100085", "name": "USPS COLLECTION BOX - APC", "address": {"city": "BOULDER", "state": "CO", "street": "2995 55TH ST", "postcode": "80301"}}},
{"geometry": {"type": "Point", "coordinates": [-105.2562096591, 40.0182076035]}, "type": "Feature", "properties": {"collection_times": [{"days": "Mon-Sat", "time": "2:15pm"}, {"days": "Sun", "time": "Closed"}], "id": "8030100086", "name": "USPS COLLECTION BOX - BLUE BOX", "address": {"city": "BOULDER", "state": "CO", "street": "1805 29TH ST", "postcode": "80301"}}},
{"geometry": {"type": "Point", "coordinates": [-105.2803820322, 40.0189447043]}, "type": "Feature", "properties": {"collection_times": [{"days": "Mon-Fri", "time": "2:30pm"}, {"days": "Sat", "time": "11:10am"}, {"days": "Sun", "time": "Closed"}], "id": "8030200001", "name": "USPS COLLECTION BOX - BLUE BOX", "address": {"city": "BOULDER", "state": "CO", "street": "1199 SPRUCE ST", "postcode": "80302"}}},
{"geometry": {"type": "Point", "coordinates": [-105.2779366727, 40.0193944033]}, "type": "Feature", "properties": {"collection_times": [{"days": "Mon-Fri", "time": "4:30pm"}, {"days": "Sat", "time": "11:05am"}, {"days": "Sun", "time": "Closed"}], "id": "8030200002", "name": "USPS COLLECTION BOX - BLUE BOX", "address": {"city": "BOULDER", "state": "CO", "street": "1345 SPRUCE ST", "postcode": "80302"}}},
{"geometry": {"type": "Point", "coordinates": [-105.2791066191, 40.0194653808]}, "type": "Feature", "properties": {"collection_times": [{"days": "Mon-Fri", "time": "2:30pm"}, {"days": "Sat", "time": "11:08am"}, {"days": "Sun", "time": "Closed"}], "id": "8030200003", "name": "USPS COLLECTION BOX - BLUE BOX", "address": {"city": "BOULDER", "state": "CO", "street": "2115 13TH ST", "postcode": "80302"}}},
{"geometry": {"type": "Point", "coordinates": [-105.279513557, 40.0165872417]}, "type": "Feature", "properties": {"collection_times": [{"days": "Mon-Fri", "time": "1:00pm"}, {"days": "Sat-Sun", "time": "Closed"}], "id": "8030200004", "name": "USPS COLLECTION BOX - BLUE BOX", "address": {"city": "BOULDER", "state": "CO", "street": "1877 BROADWAY ST", "postcode": "80302"}}},
{"geometry": {"type": "Point", "coordinates": [-105.278491839, 40.0178319291]}, "type": "Feature", "properties": {"collection_times": [{"days": "Mon-Fri", "time": "4:10pm"}, {"days": "Sat", "time": "11:00am"}, {"days": "Sun", "time": "Closed"}], "id": "8030200006", "name": "USPS COLLECTION BOX - BLUE BOX", "address": {"city": "BOULDER", "state": "CO", "street": "1962 13TH ST", "postcode": "80302"}}},
{"geometry": {"type": "Point", "coordinates": [-105.2749567991, 40.0041011098]}, "type": "Feature", "properties": {"collection_times": [{"days": "Mon-Fri", "time": "2:15pm"}, {"days": "Sat", "time": "11:15am"}, {"days": "Sun", "time": "Closed"}], "id": "8030200009", "name": "USPS COLLECTION BOX - BLUE BOX", "address": {"city": "BOULDER", "state": "CO", "street": "909 14TH ST", "postcode": "80302"}}},
{"geometry": {"type": "Point", "coordinates": [-105.2758440183, 40.0054544148]}, "type": "Feature", "properties": {"collection_times": [{"days": "Mon-Fri", "time": "2:15pm"}, {"days": "Sat", "time": "11:15am"}, {"days": "Sun", "time": "Closed"}], "id": "8030200010", "name": "USPS COLLECTION BOX - BLUE BOX", "address": {"city": "BOULDER", "state": "CO", "street": "1305 EUCLID AVE", "postcode": "80302"}}},
{"geometry": {"type": "Point", "coordinates": [-105.2774232685, 40.0039650695]}, "type": "Feature", "properties": {"collection_times": [{"days": "Mon-Fri", "time": "2:00pm"}, {"days": "Sat", "time": "11:05am"}, {"days": "Sun", "time": "Closed"}], "id": "8030200012", "name": "USPS COLLECTION BOX - BLUE BOX", "address": {"city": "BOULDER", "state": "CO", "street": "907 12TH ST", "postcode": "80302"}}},
{"geometry": {"type": "Point", "coordinates": [-105.2806823204, 40.0137091025]}, "type": "Feature", "properties": {"collection_times": [{"days": "Mon-Fri", "time": "4:00pm"}, {"days": "Sat", "time": "10:50am"}, {"days": "Sun", "time": "Closed"}], "id": "8030200013", "name": "USPS COLLECTION BOX - BLUE BOX", "address": {"city": "BOULDER", "state": "CO", "street": "1050 ARAPAHOE AVE", "postcode": "80302"}}},
{"geometry": {"type": "Point", "coordinates": [-105.2696689725, 40.0189283175]}, "type": "Feature", "properties": {"collection_times": [{"days": "Mon-Fri", "time": "4:30pm"}, {"days": "Sat", "time": "12:15pm"}, {"days": "Sun", "time": "Closed"}], "id": "8030200014", "name": "USPS COLLECTION BOX - BLUE BOX", "address": {"city": "BOULDER", "state": "CO", "street": "1940 WALNUT ST", "postcode": "80302"}}},
{"geometry": {"type": "Point", "coordinates": [-105.2657581101, 40.0208068563]}, "type": "Feature", "properties": {"collection_times": [{"days": "Mon-Fri", "time": "4:30pm"}, {"days": "Sat", "time": "12:20pm"}, {"days": "Sun", "time": "Closed"}], "id": "8030200015", "name": "USPS COLLECTION BOX - BLUE BOX", "address": {"city": "BOULDER", "state": "CO", "street": "2299 PEARL ST", "postcode": "80302"}}},
{"geometry": {"type": "Point", "coordinates": [-105.269887341, 40.0125644131]}, "type": "Feature", "properties": {"collection_times": [{"days": "Mon-Fri", "time": "4:30pm"}, {"days": "Sat", "time": "12:10pm"}, {"days": "Sun", "time": "Closed"}], "id": "8030200016", "name": "USPS COLLECTION BOX - BLUE BOX", "address": {"city": "BOULDER", "state": "CO", "street": "1950 ATHENS ST", "postcode": "80302"}}},
{"geometry": {"type": "Point", "coordinates": [-105.2660976194, 40.0146128832]}, "type": "Feature", "properties": {"collection_times": [{"days": "Mon-Fri", "time": "2:30pm"}, {"days": "Sat", "time": "11:40am"}, {"days": "Sun", "time": "Closed"}], "id": "8030200017", "name": "USPS COLLECTION BOX - BLUE BOX", "address": {"city": "BOULDER", "state": "CO", "street": "2205 ARAPAHOE AVE", "postcode": "80302"}}},
{"geometry": {"type": "Point", "coordinates": [-105.264612134, 40.0145584078]}, "type": "Feature", "properties": {"collection_times": [{"days": "Mon-Fri", "time": "2:30pm"}, {"days": "Sat", "time": "11:45am"}, {"days": "Sun", "time": "Closed"}], "id": "8030200018", "name": "USPS COLLECTION BOX - BLUE BOX", "address": {"city": "BOULDER", "state": "CO", "street": "2300 ARAPAHOE AVE", "postcode": "80302"}}},
{"geometry": {"type": "Point", "coordinates": [-105.2596445782, 40.0145549182]}, "type": "Feature", "properties": {"collection_times": [{"days": "Mon-Fri", "time": "4:40pm"}, {"days": "Sat", "time": "12:05pm"}, {"days": "Sun", "time": "Closed"}], "id": "8030200019", "name": "USPS COLLECTION BOX - BLUE BOX", "address": {"city": "BOULDER", "state": "CO", "street": "2798 ARAPAHOE AVE", "postcode": "80302"}}},
{"geometry": {"type": "Point", "coordinates": [-105.3801805827, 40.0392596099]}, "type": "Feature", "properties": {"collection_times": [{"days": "Mon-Fri", "time": "2:00pm"}, {"days": "Sat", "time": "11:10am"}, {"days": "Sun", "time": "Closed"}], "id": "8030200021", "name": "USPS COLLECTION BOX - BLUE BOX", "address": {"city": "BOULDER", "state": "CO", "street": "400 MORNING GLORY DR", "postcode": "80302"}}},
{"geometry": {"type": "Point", "coordinates": [-105.2737998652, 40.0169468612]}, "type": "Feature", "properties": {"collection_times": [{"days": "Mon-Fri", "time": "4:30pm"}, {"days": "Sat", "time": "12:10pm"}, {"days": "Sun", "time": "Closed"}], "id": "8030200022", "name": "USPS COLLECTION BOX - BLUE BOX", "address": {"city": "BOULDER", "state": "CO", "street": "1600 CANYON BLVD", "postcode": "80302"}}},
{"geometry": {"type": "Point", "coordinates": [-105.2736780204, 40.0191909343]}, "type": "Feature", "properties": {"collection_times": [{"days": "Mon-Fri", "time": "2:15pm"}, {"days": "Sat", "time": "10:32am"}, {"days": "Sun", "time": "Closed"}], "id": "8030200023", "name": "USPS COLLECTION BOX - BLUE BOX", "address": {"city": "BOULDER", "state": "CO", "street": "1647 PEARL ST", "postcode": "80302"}}},
{"geometry": {"type": "Point", "coordinates": [-105.289284798, 40.0163589306]}, "type": "Feature", "properties": {"collection_times": [{"days": "Mon-Fri", "time": "3:45pm"}, {"days": "Sat", "time": "10:38am"}, {"days": "Sun", "time": "Closed"}], "id": "8030200024", "name": "USPS COLLECTION BOX - BLUE BOX", "address": {"city": "BOULDER", "state": "CO", "street": "2000 5TH ST", "postcode": "80302"}}},
{"geometry": {"type": "Point", "coordinates": [-105.2823426163, 40.0162653723]}, "type": "Feature", "properties": {"collection_times": [{"days": "Mon-Fri", "time": "4:35pm"}, {"days": "Sat", "time": "10:42am"}, {"days": "Sun", "time": "Closed"}], "id": "8030200025", "name": "USPS COLLECTION BOX - BLUE BOX", "address": {"city": "BOULDER", "state": "CO", "street": "990 WALNUT ST", "postcode": "80302"}}},
{"geometry": {"type": "Point", "coordinates": [-105.2814133891, 40.0165068005]}, "type": "Feature", "properties": {"collection_times": [{"days": "Mon-Fri", "time": "4:00pm"}, {"days": "Sat", "time": "10:45am"}, {"days": "Sun", "time": "Closed"}], "id": "8030200026", "name": "USPS COLLECTION BOX - BLUE BOX", "address": {"city": "BOULDER", "state": "CO", "street": "1050 WALNUT ST", "postcode": "80302"}}},
{"geometry": {"type": "Point", "coordinates": [-105.2617360497, 40.0174862905]}, "type": "Feature", "properties": {"collection_times": [{"days": "Mon-Fri", "time": "2:45pm"}, {"days": "Sat", "time": "12:00pm"}, {"days": "Sun", "time": "Closed"}], "id": "8030200027", "name": "USPS COLLECTION BOX - BLUE BOX", "address": {"city": "BOULDER", "state": "CO", "street": "2425 CANYON BLVD", "postcode": "80302"}}},
{"geometry": {"type": "Point", "coordinates": [-105.2715203854, 40.0145676405]}, "type": "Feature", "properties": {"collection_times": [{"days": "Mon-Fri", "time": "4:30pm"}, {"days": "Sat", "time": "12:10pm"}, {"days": "Sun", "time": "Closed"}], "id": "8030200028", "name": "USPS COLLECTION BOX - BLUE BOX", "address": {"city": "BOULDER", "state": "CO", "street": "1800 ARAPAHOE AVE", "postcode": "80302"}}},
{"geometry": {"type": "Point", "coordinates": [-105.2638665588, 40.0233608647]}, "type": "Feature", "properties": {"collection_times": [{"days": "Mon-Fri", "time": "2:15pm"}, {"days": "Sat", "time": "11:00am"}, {"days": "Sun", "time": "Closed"}], "id": "8030200030", "name": "USPS COLLECTION BOX - BLUE BOX", "address": {"city": "BOULDER", "state": "CO", "street": "2449 PINE ST", "postcode": "80302"}}},
{"geometry": {"type": "Point", "coordinates": [-105.2775995294, 40.0094433525]}, "type": "Feature", "properties": {"collection_times": [{"days": "Mon-Fri", "time": "2:00pm"}, {"days": "Sat", "time": "11:05am"}, {"days": "Sun", "time": "Closed"}], "id": "8030200031", "name": "USPS COLLECTION BOX - BLUE BOX", "address": {"city": "BOULDER", "state": "CO", "street": "1146 PLEASANT ST", "postcode": "80302"}}},
{"geometry": {"type": "Point", "coordinates": [-105.2825170898, 40.0108096701]}, "type": "Feature", "properties": {"collection_times": [{"days": "Mon-Fri", "time": "2:00pm"}, {"days": "Sat", "time": "11:05am"}, {"days": "Sun", "time": "Closed"}], "id": "8030200032", "name": "USPS COLLECTION BOX - BLUE BOX", "address": {"city": "BOULDER", "state": "CO", "street": "1505 9TH ST", "postcode": "80302"}}},
{"geometry": {"type": "Point", "coordinates": [-105.283463457, 40.0171668916]}, "type": "Feature", "properties": {"collection_times": [{"days": "Mon-Fri", "time": "3:45pm"}, {"days": "Sat", "time": "10:36am"}, {"days": "Sun", "time": "Closed"}], "id": "8030200033", "name": "USPS COLLECTION BOX - BLUE BOX", "address": {"city": "BOULDER", "state": "CO", "street": "915 PEARL ST", "postcode": "80302"}}},
{"geometry": {"type": "Point", "coordinates": [-105.2630337556, 40.0206093021]}, "type": "Feature", "properties": {"collection_times": [{"days": "Mon-Fri", "time": "2:45pm"}, {"days": "Sat", "time": "11:45am"}, {"days": "Sun", "time": "Closed"}], "id": "8030200036", "name": "USPS COLLECTION BOX - BLUE BOX", "address": {"city": "BOULDER", "state": "CO", "street": "1900 FOLSOM ST", "postcode": "80302"}}},
{"geometry": {"type": "Point", "coordinates": [-105.2632102093, 40.0137924502]}, "type": "Feature", "properties": {"collection_times": [{"days": "Mon-Fri", "time": "2:45pm"}, {"days": "Sat", "time": "12:05pm"}, {"days": "Sun", "time": "Closed"}], "id": "8030200038", "name": "USPS COLLECTION BOX - BLUE BOX", "address": {"city": "BOULDER", "state": "CO", "street": "1475 FOLSOM ST", "postcode": "80302"}}},
{"geometry": {"type": "Point", "coordinates": [-105.2882961434, 40.0184732695]}, "type": "Feature", "properties": {"collection_times": [{"days": "Mon-Fri", "time": "4:30pm"}, {"days": "Sat-Sun", "time": "Closed"}], "id": "8030200039", "name": "USPS COLLECTION BOX - EXPRESS", "address": {"city": "BOULDER", "state": "CO", "street": "1777 6TH ST", "postcode": "80302"}}},
{"geometry": {"type": "Point", "coordinates": [-105.2872965508, 40.0139405146]}, "type": "Feature", "properties": {"collection_times": [{"days": "Mon-Fri", "time": "4:30pm"}, {"days": "Sat-Sun", "time": "Closed"}], "id": "8030200040", "name": "USPS COLLECTION BOX - BLUE BOX", "address": {"city": "BOULDER", "state": "CO", "street": "1777 6TH ST", "postcode": "80302"}}},
{"geometry": {"type": "Point", "coordinates": [-105.2872965508, 40.0139405146]}, "type": "Feature", "properties": {"collection_times": [{"days": "Mon-Fri", "time": "4:30pm"}, {"days": "Sat-Sun", "time": "Closed"}], "id": "8030200041", "name": "USPS COLLECTION BOX - BLUE BOX", "address": {"city": "BOULDER", "state": "CO", "street": "1777 6TH ST", "postcode": "80302"}}},
{"geometry": {"type": "Point", "coordinates": [-105.283404309, 40.0155888243]}, "type": "Feature", "properties": {"collection_times": [{"days": "Mon-Fri", "time": "3:45pm"}, {"days": "Sat", "time": "10:40am"}, {"days": "Sun", "time": "Closed"}], "id": "8030200042", "name": "USPS COLLECTION BOX - BLUE BOX", "address": {"city": "BOULDER", "state": "CO", "street": "1881 9TH ST", "postcode": "80302"}}},
{"geometry": {"type": "Point", "coordinates": [-105.2791018873, 40.015338037]}, "type": "Feature", "properties": {"collection_times": [{"days": "Mon-Fri", "time": "4:00pm"}, {"days": "Sat-Sun", "time": "Closed"}], "id": "8030200043", "name": "USPS COLLECTION BOX - BLUE BOX", "address": {"city": "BOULDER", "state": "CO", "street": "1777 BROADWAY ST", "postcode": "80302"}}},
{"geometry": {"type": "Point", "coordinates": [-105.2762906735, 40.0104562283]}, "type": "Feature", "properties": {"collection_times": [{"days": "Mon-Fri", "time": "2:30pm"}, {"days": "Sat-Sun", "time": "Closed"}], "id": "8030200044", "name": "USPS COLLECTION BOX - BLUE BOX", "address": {"city": "BOULDER", "state": "CO", "street": "1202 UNIVERSITY AVE", "postcode": "80302"}}},
{"geometry": {"type": "Point", "coordinates": [-105.3801805827, 40.0392596099]}, "type": "Feature", "properties": {"collection_times": [{"days": "Mon-Fri", "time": "3:00pm"}, {"days": "Sat-Sun", "time": "Closed"}], "id": "8030200045", "name": "USPS COLLECTION BOX - BLUE BOX", "address": {"city": "BOULDER", "state": "CO", "street": "125 REGENT DR", "postcode": "80302"}}},
{"geometry": {"type": "Point", "coordinates": [-105.3801805827, 40.0392596099]}, "type": "Feature", "properties": {"collection_times": [{"days": "Mon-Fri", "time": "3:00pm"}, {"days": "Sat-Sun", "time": "Closed"}], "id": "8030200046", "name": "USPS COLLECTION BOX - BLUE BOX", "address": {"city": "BOULDER", "state": "CO", "street": "125 REGENT DR", "postcode": "80302"}}},
{"geometry": {"type": "Point", "coordinates": [-105.2621459815, 40.0082627378]}, "type": "Feature", "properties": {"collection_times": [{"days": "Mon-Fri", "time": "3:00pm"}, {"days": "Sat-Sun", "time": "Closed"}], "id": "8030200047", "name": "USPS COLLECTION BOX - BLUE BOX", "address": {"city": "BOULDER", "state": "CO", "street": "2500 COLORADO AVE", "postcode": "80302"}}},
{"geometry": {"type": "Point", "coordinates": [-105.2646160992, 40.0081854867]}, "type": "Feature", "properties": {"collection_times": [{"days": "Mon-Fri", "time": "3:00pm"}, {"days": "Sat-Sun", "time": "Closed"}], "id": "8030200050", "name": "USPS COLLECTION BOX - BLUE BOX", "address": {"city": "BOULDER", "state": "CO", "street": "2300 COLORADO AVE", "postcode": "80302"}}},
{"geometry": {"type": "Point", "coordinates": [-105.2646160992, 40.0081854867]}, "type": "Feature", "properties": {"collection_times": [{"days": "Mon-Fri", "time": "3:00pm"}, {"days": "Sat-Sun", "time": "Closed"}], "id": "8030200051", "name": "USPS COLLECTION BOX - BLUE BOX", "address": {"city": "BOULDER", "state": "CO", "street": "2300 COLORADO AVE", "postcode": "80302"}}},
{"geometry": {"type": "Point", "coordinates": [-105.275103486, 40.0076807436]}, "type": "Feature", "properties": {"collection_times": [{"days": "Mon-Fri", "time": "2:15pm"}, {"days": "Sat", "time": "11:30am"}, {"days": "Sun", "time": "Closed"}], "id": "8030200053", "name": "USPS COLLECTION BOX - BLUE BOX", "address": {"city": "BOULDER", "state": "CO", "street": "1111 BROADWAY ST", "postcode": "80302"}}},
{"geometry": {"type": "Point", "coordinates": [-105.2882961434, 40.0184732695]}, "type": "Feature", "properties": {"collection_times": [{"days": "Mon-Fri", "time": "5:05pm"}, {"days": "Sat", "time": "11:30am"}, {"days": "Sun", "time": "Closed"}], "id": "8030200055", "name": "USPS COLLECTION BOX - EXPRESS", "address": {"city": "BOULDER", "state": "CO", "street": "1905 15TH ST", "postcode": "80302"}}},
{"geometry": {"type": "Point", "coordinates": [-105.2758073466, 40.0180162561]}, "type": "Feature", "properties": {"collection_times": [{"days": "Mon-Fri", "time": "5:15pm"}, {"days": "Sat", "time": "4:30pm"}, {"days": "Sun", "time": "Closed"}], "id": "8030200056", "name": "USPS COLLECTION BOX - BLUE BOX", "address": {"city": "BOULDER", "state": "CO", "street": "1905 15TH ST", "postcode": "80302"}}},
{"geometry": {"type": "Point", "coordinates": [-105.2758073466, 40.0180162561]}, "type": "Feature", "properties": {"collection_times": [{"days": "Mon-Fri", "time": "5:15pm"}, {"days": "Sat", "time": "4:30pm"}, {"days": "Sun", "time": "Closed"}], "id": "8030200057", "name": "USPS COLLECTION BOX - BLUE BOX", "address": {"city": "BOULDER", "state": "CO", "street": "1905 15TH ST", "postcode": "80302"}}},
{"geometry": {"type": "Point", "coordinates": [-105.2758073466, 40.0180162561]}, "type": "Feature", "properties": {"collection_times": [{"days": "Mon-Fri", "time": "5:15pm"}, {"days": "Sat", "time": "4:30pm"}, {"days": "Sun", "time": "Closed"}], "id": "8030200058", "name": "USPS COLLECTION BOX - BLUE BOX", "address": {"city": "BOULDER", "state": "CO", "street": "1905 15TH ST", "postcode": "80302"}}},
{"geometry": {"type": "Point", "coordinates": [-105.2758073466, 40.0180162561]}, "type": "Feature", "properties": {"collection_times": [{"days": "Mon-Fri", "time": "5:15pm"}, {"days": "Sat", "time": "4:30pm"}, {"days": "Sun", "time": "Closed"}], "id": "8030200060", "name": "USPS COLLECTION BOX - PO LOBBY", "address": {"city": "BOULDER", "state": "CO", "street": "1905 15TH ST", "postcode": "80302"}}},
{"geometry": {"type": "Point", "coordinates": [-105.2758073466, 40.0180162561]}, "type": "Feature", "properties": {"collection_times": [{"days": "Mon-Fri", "time": "5:15pm"}, {"days": "Sat", "time": "4:30pm"}, {"days": "Sun", "time": "Closed"}], "id": "8030200061", "name": "USPS COLLECTION BOX - PO LOBBY", "address": {"city": "BOULDER", "state": "CO", "street": "1905 15TH ST", "postcode": "80302"}}},
{"geometry": {"type": "Point", "coordinates": [-105.2758073466, 40.0180162561]}, "type": "Feature", "properties": {"collection_times": [{"days": "Mon-Fri", "time": "5:15pm"}, {"days": "Sat", "time": "4:30pm"}, {"days": "Sun", "time": "Closed"}], "id": "8030200064", "name": "USPS COLLECTION BOX - BLUE BOX", "address": {"city": "BOULDER", "state": "CO", "street": "1905 15TH ST", "postcode": "80302"}}},
{"geometry": {"type": "Point", "coordinates": [-105.2758073466, 40.0180162561]}, "type": "Feature", "properties": {"collection_times": [{"days": "Mon-Fri", "time": "5:15pm"}, {"days": "Sat", "time": "4:30pm"}, {"days": "Sun", "time": "Closed"}], "id": "8030200065", "name": "USPS COLLECTION BOX - BLUE BOX", "address": {"city": "BOULDER", "state": "CO", "street": "1905 15TH ST", "postcode": "80302"}}},
{"geometry": {"type": "Point", "coordinates": [-105.2758073466, 40.0180162561]}, "type": "Feature", "properties": {"collection_times": [{"days": "Mon-Fri", "time": "5:15pm"}, {"days": "Sat", "time": "4:30pm"}, {"days": "Sun", "time": "Closed"}], "id": "8030200066", "name": "USPS COLLECTION BOX - BLUE BOX", "address": {"city": "BOULDER", "state": "CO", "street": "1905 15TH ST", "postcode": "80302"}}},
{"geometry": {"type": "Point", "coordinates": [-105.2761787957, 40.0005013657]}, "type": "Feature", "properties": {"collection_times": [{"days": "Mon-Fri", "time": "2:15pm"}, {"days": "Sat", "time": "11:10am"}, {"days": "Sun", "time": "Closed"}], "id": "8030200067", "name": "USPS COLLECTION BOX - BLUE BOX", "address": {"city": "BOULDER", "state": "CO", "street": "720 13TH ST", "postcode": "80302"}}},
{"geometry": {"type": "Point", "coordinates": [-105.2617360497, 40.0174862905]}, "type": "Feature", "properties": {"collection_times": [{"days": "Mon-Fri", "time": "2:45pm"}, {"days": "Sat", "time": "12:00pm"}, {"days": "Sun", "time": "Closed"}], "id": "8030200068", "name": "USPS COLLECTION BOX - BLUE BOX", "address": {"city": "BOULDER", "state": "CO", "street": "2425 CANYON BLVD", "postcode": "80302"}}},
{"geometry": {"type": "Point", "coordinates": [-105.2761480686, 40.0086390799]}, "type": "Feature", "properties": {"collection_times": [{"days": "Mon-Fri", "time": "2:30pm"}, {"days": "Sat", "time": "11:35am"}, {"days": "Sun", "time": "Closed"}], "id": "8030200069", "name": "USPS COLLECTION BOX - BLUE BOX", "address": {"city": "BOULDER", "state": "CO", "street": "1198 13TH ST", "postcode": "80302"}}},
{"geometry": {"type": "Point", "coordinates": [-105.2691898741, 40.0201100935]}, "type": "Feature", "properties": {"collection_times": [{"days": "Mon-Fri", "time": "2:15pm"}, {"days": "Sat", "time": "10:30am"}, {"days": "Sun", "time": "Closed"}], "id": "8030200070", "name": "USPS COLLECTION BOX - BLUE BOX", "address": {"city": "BOULDER", "state": "CO", "street": "2014 PEARL ST", "postcode": "80302"}}},
{"geometry": {"type": "Point", "coordinates": [-105.275103486, 40.0076807436]}, "type": "Feature", "properties": {"collection_times": [{"days": "Mon-Fri", "time": "2:15pm"}, {"days": "Sat", "time": "11:30am"}, {"days": "Sun", "time": "Closed"}], "id": "8030200071", "name": "USPS COLLECTION BOX - BLUE BOX", "address": {"city": "BOULDER", "state": "CO", "street": "1111 BROADWAY ST", "postcode": "80302"}}},
{"geometry": {"type": "Point", "coordinates": [-105.2758073466, 40.0180162561]}, "type": "Feature", "properties": {"collection_times": [{"days": "Mon-Fri", "time": "5:15pm"}, {"days": "Sat", "time": "4:30pm"}, {"days": "Sun", "time": "Closed"}], "id": "8030200072", "name": "USPS COLLECTION BOX - PO LOBBY", "address": {"city": "BOULDER", "state": "CO", "street": "1905 15TH ST", "postcode": "80302"}}},
{"geometry": {"type": "Point", "coordinates": [-105.2758073466, 40.0180162561]}, "type": "Feature", "properties": {"collection_times": [{"days": "Mon-Fri", "time": "5:15pm"}, {"days": "Sat", "time": "4:30pm"}, {"days": "Sun", "time": "Closed"}], "id": "8030200073", "name": "USPS COLLECTION BOX - PO LOBBY", "address": {"city": "BOULDER", "state": "CO", "street": "1905 15TH ST", "postcode": "80302"}}},
{"geometry": {"type": "Point", "coordinates": [-105.2758073466, 40.0180162561]}, "type": "Feature", "properties": {"collection_times": [{"days": "Mon-Fri", "time": "5:15pm"}, {"days": "Sat", "time": "4:30pm"}, {"days": "Sun", "time": "Closed"}], "id": "8030200074", "name": "USPS COLLECTION BOX - PO LOBBY", "address": {"city": "BOULDER", "state": "CO", "street": "1905 15TH ST", "postcode": "80302"}}},
{"geometry": {"type": "Point", "coordinates": [-105.2758073466, 40.0180162561]}, "type": "Feature", "properties": {"collection_times": [{"days": "Mon-Fri", "time": "5:15pm"}, {"days": "Sat", "time": "4:30pm"}, {"days": "Sun", "time": "Closed"}], "id": "8030200075", "name": "USPS COLLECTION BOX - APC", "address": {"city": "BOULDER", "state": "CO", "street": "1905 15TH ST", "postcode": "80302"}}},
{"geometry": {"type": "Point", "coordinates": [-105.2942366643, 40.0148920615]}, "type": "Feature", "properties": {"collection_times": [{"days": "Mon-Fri", "time": "3:45pm"}, {"days": "Sat-Sun", "time": "Closed"}], "id": "8030200076", "name": "USPS COLLECTION BOX - BLUE BOX", "address": {"city": "BOULDER", "state": "CO", "street": "208 PEARL ST", "postcode": "80302"}}},
{"geometry": {"type": "Point", "coordinates": [-105.2775380155, 40.0161755719]}, "type": "Feature", "properties": {"collection_times": [{"days": "Mon-Fri", "time": "4:40pm"}, {"days": "Sat-Sun", "time": "Closed"}], "id": "8030200077", "name": "USPS COLLECTION BOX - BLUE BOX", "address": {"city": "BOULDER", "state": "CO", "street": "1300 CANYON BLVD", "postcode": "80302"}}},
{"geometry": {"type": "Point", "coordinates": [-105.2578812348, 40.0087381963]}, "type": "Feature", "properties": {"collection_times": [{"days": "Mon-Sat", "time": "10:00am"}, {"days": "Sun", "time": "Closed"}], "id": "8030300000", "name": "USPS COLLECTION BOX - BLUE BOX", "address": {"city": "BOULDER", "state": "CO", "street": "2801 PENNSYLVANIA AVE", "postcode": "80303"}}},
{"geometry": {"type": "Point", "coordinates": [-105.2531203001, 40.0001866208]}, "type": "Feature", "properties": {"collection_times": [{"days": "Mon-Fri", "time": "12:25pm"}, {"days": "Sat", "time": "10:20am"}, {"days": "Sun", "time": "Closed"}], "id": "8030300001", "name": "USPS COLLECTION BOX - BLUE BOX", "address": {"city": "BOULDER", "state": "CO", "street": "645 30TH ST", "postcode": "80303"}}},
{"geometry": {"type": "Point", "coordinates": [-105.2534324469, 40.0093018687]}, "type": "Feature", "properties": {"collection_times": [{"days": "Mon-Fri", "time": "12:35pm"}, {"days": "Sat", "time": "10:25am"}, {"days": "Sun", "time": "Closed"}], "id": "8030300002", "name": "USPS COLLECTION BOX - BLUE BOX", "address": {"city": "BOULDER", "state": "CO", "street": "1300 30TH ST", "postcode": "80303"}}},
{"geometry": {"type": "Point", "coordinates": [-105.2536554063, 40.0132838247]}, "type": "Feature", "properties": {"collection_times": [{"days": "Mon-Fri", "time": "12:45pm"}, {"days": "Sat", "time": "10:25am"}, {"days": "Sun", "time": "Closed"}], "id": "8030300003", "name": "USPS COLLECTION BOX - BLUE BOX", "address": {"city": "BOULDER", "state": "CO", "street": "1560 30TH ST", "postcode": "80303"}}},
{"geometry": {"type": "Point", "coordinates": [-105.2202579595, 40.0147098858]}, "type": "Feature", "properties": {"collection_times": [{"days": "Mon-Sat", "time": "2:00pm"}, {"days": "Sun", "time": "Closed"}], "id": "8030300005", "name": "USPS COLLECTION BOX - BLUE BOX", "address": {"city": "BOULDER", "state": "CO", "street": "5721 ARAPAHOE AVE", "postcode": "80303"}}},
{"geometry": {"type": "Point", "coordinates": [-105.1786414631, 40.0145667478]}, "type": "Feature", "properties": {"collection_times": [{"days": "Mon-Fri", "time": "12:30pm"}, {"days": "Sat", "time": "11:00am"}, {"days": "Sun", "time": "Closed"}], "id": "8030300006", "name": "USPS COLLECTION BOX - BLUE BOX", "address": {"city": "BOULDER", "state": "CO", "street": "7498 ARAPAHOE RD", "postcode": "80303"}}},
{"geometry": {"type": "Point", "coordinates": [-105.2342499981, 40.0000175354]}, "type": "Feature", "properties": {"collection_times": [{"days": "Mon-Fri", "time": "11:46am"}, {"days": "Sat", "time": "10:01am"}, {"days": "Sun", "time": "Closed"}], "id": "8030300007", "name": "USPS COLLECTION BOX - BLUE BOX", "address": {"city": "BOULDER", "state": "CO", "street": "4800 BASELINE RD", "postcode": "80303"}}},
{"geometry": {"type": "Point", "coordinates": [-105.2319645214, 40.0136759797]}, "type": "Feature", "properties": {"collection_times": [{"days": "Mon-Sat", "time": "2:00pm"}, {"days": "Sun", "time": "Closed"}], "id": "8030300010", "name": "USPS COLLECTION BOX - BLUE BOX", "address": {"city": "BOULDER", "state": "CO", "street": "1590 EISENHOWER DR", "postcode": "80303"}}},
{"geometry": {"type": "Point", "coordinates": [-105.2290970289, 39.9854955312]}, "type": "Feature", "properties": {"collection_times": [{"days": "Mon-Fri", "time": "11:00am"}, {"days": "Sat", "time": "10:15am"}, {"days": "Sun", "time": "Closed"}], "id": "8030300011", "name": "USPS COLLECTION BOX - BLUE BOX", "address": {"city": "BOULDER", "state": "CO", "street": "5200 MANHATTAN CIR", "postcode": "80303"}}},
{"geometry": {"type": "Point", "coordinates": [-105.229351365, 39.9991516095]}, "type": "Feature", "properties": {"collection_times": [{"days": "Mon-Fri", "time": "12:00pm"}, {"days": "Sat", "time": "10:05am"}, {"days": "Sun", "time": "Closed"}], "id": "8030300012", "name": "USPS COLLECTION BOX - BLUE BOX", "address": {"city": "BOULDER", "state": "CO", "street": "665 MANHATTAN DR", "postcode": "80303"}}},
{"geometry": {"type": "Point", "coordinates": [-105.2610401324, 40.036500471]}, "type": "Feature", "properties": {"collection_times": [{"days": "Mon-Sat", "time": "10:00am"}, {"days": "Sun", "time": "Closed"}], "id": "8030400000", "name": "USPS COLLECTION BOX - BLUE BOX", "address": {"city": "BOULDER", "state": "CO", "street": "2709 IRIS AVE", "postcode": "80304"}}},
{"geometry": {"type": "Point", "coordinates": [-105.2820864927, 40.0475216186]}, "type": "Feature", "properties": {"collection_times": [{"days": "Mon-Fri", "time": "2:35pm"}, {"days": "Sat", "time": "11:30am"}, {"days": "Sun", "time": "Closed"}], "id": "8030400001", "name": "USPS COLLECTION BOX - BLUE BOX", "address": {"city": "BOULDER", "state": "CO", "street": "3960 BROADWAY ST", "postcode": "80304"}}},
{"geometry": {"type": "Point", "coordinates": [-105.261698195, 40.0505393469]}, "type": "Feature", "properties": {"collection_times": [{"days": "Mon-Fri", "time": "3:00pm"}, {"days": "Sat", "time": "11:35am"}, {"days": "Sun", "time": "Closed"}], "id": "8030400002", "name": "USPS COLLECTION BOX - BLUE BOX", "address": {"city": "BOULDER", "state": "CO", "street": "4192 AMBER PL", "postcode": "80304"}}},
{"geometry": {"type": "Point", "coordinates": [-105.2859831596, 40.0255173989]}, "type": "Feature", "properties": {"collection_times": [{"days": "Mon-Fri", "time": "2:00pm"}, {"days": "Sat", "time": "11:20am"}, {"days": "Sun", "time": "Closed"}], "id": "8030400003", "name": "USPS COLLECTION BOX - BLUE BOX", "address": {"city": "BOULDER", "state": "CO", "street": "880 ALPINE AVE", "postcode": "80304"}}},
{"geometry": {"type": "Point", "coordinates": [-105.2660053486, 40.029320612]}, "type": "Feature", "properties": {"collection_times": [{"days": "Mon-Sat", "time": "11:00am"}, {"days": "Sun", "time": "Closed"}], "id": "8030400004", "name": "USPS COLLECTION BOX - BLUE BOX", "address": {"city": "BOULDER", "state": "CO", "street": "2987 23RD ST", "postcode": "80304"}}},
{"geometry": {"type": "Point", "coordinates": [-105.280462769, 40.0364732647]}, "type": "Feature", "properties": {"collection_times": [{"days": "Mon-Sat", "time": "10:00am"}, {"days": "Sun", "time": "Closed"}], "id": "8030400005", "name": "USPS COLLECTION BOX - BLUE BOX", "address": {"city": "BOULDER", "state": "CO", "street": "1333 IRIS AVE", "postcode": "80304"}}},
{"geometry": {"type": "Point", "coordinates": [-105.2610156277, 40.0250264709]}, "type": "Feature", "properties": {"collection_times": [{"days": "Mon-Sat", "time": "10:00am"}, {"days": "Sun", "time": "Closed"}], "id": "8030400006", "name": "USPS COLLECTION BOX - BLUE BOX", "address": {"city": "BOULDER", "state": "CO", "street": "2635 MAPLETON AVE", "postcode": "80304"}}},
{"geometry": {"type": "Point", "coordinates": [-105.2727292873, 40.0547069114]}, "type": "Feature", "properties": {"collection_times": [{"days": "Mon-Sat", "time": "10:00am"}, {"days": "Sun", "time": "Closed"}], "id": "8030400007", "name": "USPS COLLECTION BOX - BLUE BOX", "address": {"city": "BOULDER", "state": "CO", "street": "4500 19TH ST", "postcode": "80304"}}},
{"geometry": {"type": "Point", "coordinates": [-105.2821907391, 40.0561682552]}, "type": "Feature", "properties": {"collection_times": [{"days": "Mon-Fri", "time": "2:40pm"}, {"days": "Sat", "time": "11:30am"}, {"days": "Sun", "time": "Closed"}], "id": "8030400008", "name": "USPS COLLECTION BOX - BLUE BOX", "address": {"city": "BOULDER", "state": "CO", "street": "4483 BROADWAY ST", "postcode": "80304"}}},
{"geometry": {"type": "Point", "coordinates": [-105.2821917427, 40.0638270805]}, "type": "Feature", "properties": {"collection_times": [{"days": "Mon-Fri", "time": "2:45pm"}, {"days": "Sat", "time": "11:35am"}, {"days": "Sun", "time": "Closed"}], "id": "8030400009", "name": "USPS COLLECTION BOX - BLUE BOX", "address": {"city": "BOULDER", "state": "CO", "street": "4949 BROADWAY ST", "postcode": "80304"}}},
{"geometry": {"type": "Point", "coordinates": [-105.2946270407, 40.0206731819]}, "type": "Feature", "properties": {"collection_times": [{"days": "Mon-Fri", "time": "2:00pm"}, {"days": "Sat", "time": "11:15am"}, {"days": "Sun", "time": "Closed"}], "id": "8030400010", "name": "USPS COLLECTION BOX - BLUE BOX", "address": {"city": "BOULDER", "state": "CO", "street": "311 MAPLETON AVE", "postcode": "80304"}}},
{"geometry": {"type": "Point", "coordinates": [-105.2839117984, 40.0267216511]}, "type": "Feature", "properties": {"collection_times": [{"days": "Mon-Fri", "time": "5:00pm"}, {"days": "Sat", "time": "1:45pm"}, {"days": "Sun", "time": "Closed"}], "id": "8030400011", "name": "USPS COLLECTION BOX - BLUE BOX", "address": {"city": "BOULDER", "state": "CO", "street": "1100 BALSAM AVE", "postcode": "80304"}}},
{"geometry": {"type": "Point", "coordinates": [-105.2819867092, 40.0254091947]}, "type": "Feature", "properties": {"collection_times": [{"days": "Mon-Fri", "time": "1:45pm"}, {"days": "Sat", "time": "11:25am"}, {"days": "Sun", "time": "Closed"}], "id": "8030400013", "name": "USPS COLLECTION BOX - BLUE BOX", "address": {"city": "BOULDER", "state": "CO", "street": "2690 BROADWAY ST", "postcode": "80304"}}},
{"geometry": {"type": "Point", "coordinates": [-105.2820687484, 40.0258533592]}, "type": "Feature", "properties": {"collection_times": [{"days": "Mon-Fri", "time": "5:00pm"}, {"days": "Sat", "time": "1:45pm"}, {"days": "Sun", "time": "Closed"}], "id": "8030400015", "name": "USPS COLLECTION BOX - BLUE BOX", "address": {"city": "BOULDER", "state": "CO", "street": "2700 BROADWAY ST", "postcode": "80304"}}},
{"geometry": {"type": "Point", "coordinates": [-105.2820687484, 40.0258533592]}, "type": "Feature", "properties": {"collection_times": [{"days": "Mon-Fri", "time": "5:00pm"}, {"days": "Sat", "time": "1:45pm"}, {"days": "Sun", "time": "Closed"}], "id": "8030400016", "name": "USPS COLLECTION BOX - BLUE BOX", "address": {"city": "BOULDER", "state": "CO", "street": "2700 BROADWAY ST", "postcode": "80304"}}},
{"geometry": {"type": "Point", "coordinates": [-105.248572867, 39.9838467655]}, "type": "Feature", "properties": {"collection_times": [{"days": "Mon-Fri", "time": "3:45pm"}, {"days": "Sat", "time": "1:05pm"}, {"days": "Sun", "time": "Closed"}], "id": "8030500006", "name": "USPS COLLECTION BOX - BLUE BOX", "address": {"city": "BOULDER", "state": "CO", "street": "657 S BROADWAY ST", "postcode": "80305"}}},
{"geometry": {"type": "Point", "coordinates": [-105.2520961171, 39.9840949078]}, "type": "Feature", "properties": {"collection_times": [{"days": "Mon-Fri", "time": "3:45pm"}, {"days": "Sat", "time": "1:05pm"}, {"days": "Sun", "time": "Closed"}], "id": "8030500007", "name": "USPS COLLECTION BOX - BLUE BOX", "address": {"city": "BOULDER", "state": "CO", "street": "3600 TABLE MESA DR", "postcode": "80305"}}},
{"geometry": {"type": "Point", "coordinates": [-105.2520961171, 39.9840949078]}, "type": "Feature", "properties": {"collection_times": [{"days": "Mon-Fri", "time": "3:45pm"}, {"days": "Sat", "time": "1:05pm"}, {"days": "Sun", "time": "Closed"}], "id": "8030500008", "name": "USPS COLLECTION BOX - BLUE BOX", "address": {"city": "BOULDER", "state": "CO", "street": "3600 TABLE MESA DR", "postcode": "80305"}}},
{"geometry": {"type": "Point", "coordinates": [-105.2507770209, 39.9811540172]}, "type": "Feature", "properties": {"collection_times": [{"days": "Mon-Fri", "time": "4:50pm"}, {"days": "Sat", "time": "12:45pm"}, {"days": "Sun", "time": "Closed"}], "id": "8030500014", "name": "USPS COLLECTION BOX - EXPRESS", "address": {"city": "BOULDER", "state": "CO", "street": "4985 MOORHEAD AVE", "postcode": "80305"}}},
{"geometry": {"type": "Point", "coordinates": [-105.2376805791, 39.9866406355]}, "type": "Feature", "properties": {"collection_times": [{"days": "Mon-Fri", "time": "5:00pm"}, {"days": "Sat", "time": "3:00pm"}, {"days": "Sun", "time": "Closed"}], "id": "8030500015", "name": "USPS COLLECTION BOX - BLUE BOX", "address": {"city": "BOULDER", "state": "CO", "street": "4985 MOORHEAD AVE", "postcode": "80305"}}},
{"geometry": {"type": "Point", "coordinates": [-105.2376805791, 39.9866406355]}, "type": "Feature", "properties": {"collection_times": [{"days": "Mon-Fri", "time": "5:00pm"}, {"days": "Sat", "time": "3:00pm"}, {"days": "Sun", "time": "Closed"}], "id": "8030500016", "name": "USPS COLLECTION BOX - BLUE BOX", "address": {"city": "BOULDER", "state": "CO", "street": "4985 MOORHEAD AVE", "postcode": "80305"}}},
{"geometry": {"type": "Point", "coordinates": [-105.2376805791, 39.9866406355]}, "type": "Feature", "properties": {"collection_times": [{"days": "Mon-Fri", "time": "5:00pm"}, {"days": "Sat", "time": "3:00pm"}, {"days": "Sun", "time": "Closed"}], "id": "8030500017", "name": "USPS COLLECTION BOX - BLUE BOX", "address": {"city": "BOULDER", "state": "CO", "street": "4985 MOORHEAD AVE", "postcode": "80305"}}},
{"geometry": {"type": "Point", "coordinates": [-105.2376805791, 39.9866406355]}, "type": "Feature", "properties": {"collection_times": [{"days": "Mon-Fri", "time": "5:00pm"}, {"days": "Sat", "time": "3:00pm"}, {"days": "Sun", "time": "Closed"}], "id": "8030500018", "name": "USPS COLLECTION BOX - BLUE BOX", "address": {"city": "BOULDER", "state": "CO", "street": "4985 MOORHEAD AVE", "postcode": "80305"}}},
{"geometry": {"type": "Point", "coordinates": [-105.2376805791, 39.9866406355]}, "type": "Feature", "properties": {"collection_times": [{"days": "Mon-Fri", "time": "5:00pm"}, {"days": "Sat", "time": "3:00pm"}, {"days": "Sun", "time": "Closed"}], "id": "8030500019", "name": "USPS COLLECTION BOX - BLUE BOX", "address": {"city": "BOULDER", "state": "CO", "street": "4985 MOORHEAD AVE", "postcode": "80305"}}},
{"geometry": {"type": "Point", "coordinates": [-105.2376805791, 39.9866406355]}, "type": "Feature", "properties": {"collection_times": [{"days": "Mon-Fri", "time": "5:00pm"}, {"days": "Sat", "time": "2:00pm"}, {"days": "Sun", "time": "Closed"}], "id": "8030500020", "name": "USPS COLLECTION BOX - PO LOBBY", "address": {"city": "BOULDER", "state": "CO", "street": "4985 MOORHEAD AVE", "postcode": "80305"}}},
{"geometry": {"type": "Point", "coordinates": [-105.2376805791, 39.9866406355]}, "type": "Feature", "properties": {"collection_times": [{"days": "Mon-Fri", "time": "5:00pm"}, {"days": "Sat", "time": "2:00pm"}, {"days": "Sun", "time": "Closed"}], "id": "8030500021", "name": "USPS COLLECTION BOX - PO LOBBY", "address": {"city": "BOULDER", "state": "CO", "street": "4985 MOORHEAD AVE", "postcode": "80305"}}},
{"geometry": {"type": "Point", "coordinates": [-105.2613480919, 40.0002106771]}, "type": "Feature", "properties": {"collection_times": [{"days": "Mon-Fri", "time": "4:05pm"}, {"days": "Sat", "time": "1:15pm"}, {"days": "Sun", "time": "Closed"}], "id": "8030500023", "name": "USPS COLLECTION BOX - BLUE BOX", "address": {"city": "BOULDER", "state": "CO", "street": "2600 BASELINE RD", "postcode": "80305"}}},
{"geometry": {"type": "Point", "coordinates": [-105.248572867, 39.9838467655]}, "type": "Feature", "properties": {"collection_times": [{"days": "Mon-Fri", "time": "3:45pm"}, {"days": "Sat", "time": "1:05pm"}, {"days": "Sun", "time": "Closed"}], "id": "8030500025", "name": "USPS COLLECTION BOX - BLUE BOX", "address": {"city": "BOULDER", "state": "CO", "street": "657 S BROADWAY ST", "postcode": "80305"}}},
{"geometry": {"type": "Point", "coordinates": [-105.2613480919, 40.0002106771]}, "type": "Feature", "properties": {"collection_times": [{"days": "Mon-Fri", "time": "4:05pm"}, {"days": "Sat", "time": "1:15pm"}, {"days": "Sun", "time": "Closed"}], "id": "8030500026", "name": "USPS COLLECTION BOX - BLUE BOX", "address": {"city": "BOULDER", "state": "CO", "street": "2600 BASELINE RD", "postcode": "80305"}}},
{"geometry": {"type": "Point", "coordinates": [-105.2393499218, 39.9851165851]}, "type": "Feature", "properties": {"collection_times": [{"days": "Mon-Fri", "time": "4:00pm"}, {"days": "Sat", "time": "1:10pm"}, {"days": "Sun", "time": "Closed"}], "id": "8030500027", "name": "USPS COLLECTION BOX - BLUE BOX", "address": {"city": "BOULDER", "state": "CO", "street": "550 S TANTRA DR", "postcode": "80305"}}},
{"geometry": {"type": "Point", "coordinates": [-105.2607648404, 39.9961362471]}, "type": "Feature", "properties": {"collection_times": [{"days": "Mon-Fri", "time": "4:00pm"}, {"days": "Sat", "time": "1:15pm"}, {"days": "Sun", "time": "Closed"}], "id": "8030500028", "name": "USPS COLLECTION BOX - BLUE BOX", "address": {"city": "BOULDER", "state": "CO", "street": "350 BROADWAY ST", "postcode": "80305"}}},
{"geometry": {"type": "Point", "coordinates": [-105.2585089376, 39.9926536159]}, "type": "Feature", "properties": {"collection_times": [{"days": "Mon-Fri", "time": "3:45pm"}, {"days": "Sat", "time": "1:00pm"}, {"days": "Sun", "time": "Closed"}], "id": "8030500029", "name": "USPS COLLECTION BOX - BLUE BOX", "address": {"city": "BOULDER", "state": "CO", "street": "325 BROADWAY ST", "postcode": "80305"}}}
]}
