{"type": "FeatureCollection", "features": [
{"geometry": {"type": "Point", "coordinates": [-105.2012489919, 39.7349578349]}, "type": "Feature", "properties": {"collection_times": [{"days": "Mon-Fri", "time": "6:00pm"}, {"days": "Sat", "time": "5:00pm"}, {"days": "Sun", "time": "Closed"}], "id": "8040100000", "name": "USPS COLLECTION BOX - BLUE BOX", "address": {"city": "LAKEWOOD", "state": "CO", "street": "1100 JOHNSON RD", "postcode": "80401"}}},
{"geometry": {"type": "Point", "coordinates": [-105.2508523163, 39.7031735563]}, "type": "Feature", "properties": {"collection_times": [{"days": "Mon-Fri", "time": "3:40pm"}, {"days": "Sat", "time": "10:00am"}, {"days": "Sun", "time": "Closed"}], "id": "8040100002", "name": "USPS COLLECTION BOX - BLUE BOX", "address": {"city": "LAKEWOOD", "state": "CO", "street": "800 S GRAPEVINE RD", "postcode": "80401"}}},
{"geometry": {"type": "Point", "coordinates": [-105.2904182163, 39.7068161622]}, "type": "Feature", "properties": {"collection_times": [{"days": "Mon-Fri", "time": "3:35pm"}, {"days": "Sat", "time": "12:25pm"}, {"days": "Sun", "time": "Closed"}], "id": "8040100003", "name": "USPS COLLECTION BOX - BLUE BOX", "address": {"city": "LAKEWOOD", "state": "CO", "street": "603 PARK POINT DR", "postcode": "80401"}}},
{"geometry": {"type": "Point", "coordinates": [-105.1959473969, 39.7326631985]}, "type": "Feature", "properties": {"collection_times": [{"days": "Mon-Fri", "time": "3:10pm"}, {"days": "Sat", "time": "1:35pm"}, {"days": "Sun", "time": "Closed"}], "id": "8040100005", "name": "USPS COLLECTION BOX - BLUE BOX", "address": {"city": "LAKEWOOD", "state": "CO", "street": "200 JEFFERSON COUNTY PKWY", "postcode": "80401"}}},
{"geometry": {"type": "Point", "coordinates": [-105.1636391775, 39.717342393]}, "type": "Feature", "properties": {"collection_times": [{"days": "Mon-Fri", "time": "4:30pm"}, {"days": "Sat", "time": "2:15pm"}, {"days": "Sun", "time": "Closed"}], "id": "8040100007", "name": "USPS COLLECTION BOX - BLUE BOX", "address": {"city": "LAKEWOOD", "state": "CO", "street": "12 S HOLMAN WAY", "postcode": "80401"}}},
{"geometry": {"type": "Point", "coordinates": [-105.1942512413, 39.7208784573]}, "type": "Feature", "properties": {"collection_times": [{"days": "Mon-Fri", "time": "3:55pm"}, {"days": "Sat", "time": "1:50pm"}, {"days": "Sun", "time": "Closed"}], "id": "8040100010", "name": "USPS COLLECTION BOX - BLUE BOX", "address": {"city": "LAKEWOOD", "state": "CO", "street": "331 CORPORATE CIR", "postcode": "80401"}}},
{"geometry": {"type": "Point", "coordinates": [-105.2199219991, 39.7561789358]}, "type": "Feature", "properties": {"collection_times": [{"days": "Mon-Fri", "time": "5:00pm"}, {"days": "Sat", "time": "4:05pm"}, {"days": "Sun", "time": "Closed"}], "id": "8040100011", "name": "USPS COLLECTION BOX - BLUE BOX", "address": {"city": "LAKEWOOD", "state": "CO", "street": "619 12TH ST", "postcode": "80401"}}},
{"geometry": {"type": "Point", "coordinates": [-105.2199219991, 39.7561789358]}, "type": "Feature", "properties": {"collection_times": [{"days": "Mon-Fri", "time": "5:00pm"}, {"days": "Sat", "time": "4:05pm"}, {"days": "Sun", "time": "Closed"}], "id": "8040100012", "name": "USPS COLLECTION BOX - BLUE BOX", "address": {"city": "LAKEWOOD", "state": "CO", "street": "619 12TH ST", "postcode": "80401"}}},
{"geometry": {"type": "Point", "coordinates": [-105.1957779413, 39.7327717778]}, "type": "Feature", "properties": {"collection_times": [{"days": "Mon-Fri", "time": "5:00pm"}, {"days": "Sat", "time": "12:45pm"}, {"days": "Sun", "time": "Closed"}], "id": "8040100013", "name": "USPS COLLECTION BOX - EXPRESS", "address": {"city": "LAKEWOOD", "state": "CO", "street": "619 12TH ST", "postcode": "80401"}}},
{"geometry": {"type": "Point", "coordinates": [-105.2243190576, 39.7569348466]}, "type": "Feature", "properties": {"collection_times": [{"days": "Mon-Fri", "time": "5:50pm"}, {"days": "Sat", "time": "3:20pm"}, {"days": "Sun", "time": "Closed"}], "id": "8040100016", "name": "USPS COLLECTION BOX - BLUE BOX", "address": {"city": "LAKEWOOD", "state": "CO", "street": "911 10TH ST", "postcode": "80401"}}},
{"geometry": {"type": "Point", "coordinates": [-105.2207500704, 39.754761751]}, "type": "Feature", "properties": {"collection_times": [{"days": "Mon-Fri", "time": "5:55pm"}, {"days": "Sat", "time": "3:25pm"}, {"days": "Sun", "time": "Closed"}], "id": "8040100018", "name": "USPS COLLECTION BOX - BLUE BOX", "address": {"city": "LAKEWOOD", "state": "CO", "street": "1224 WASHINGTON AVE", "postcode": "80401"}}},
{"geometry": {"type": "Point", "coordinates": [-105.2229929606, 39.7520042736]}, "type": "Feature", "properties": {"collection_times": [{"days": "Mon-Fri", "time": "5:55pm"}, {"days": "Sat", "time": "3:40pm"}, {"days": "Sun", "time": "Closed"}], "id": "8040100019", "name": "USPS COLLECTION BOX - BLUE BOX", "address": {"city": "LAKEWOOD", "state": "CO", "street": "1400 ILLINOIS ST", "postcode": "80401"}}},
{"geometry": {"type": "Point", "coordinates": [-105.2253707081, 39.7445220582]}, "type": "Feature", "properties": {"collection_times": [{"days": "Mon-Fri", "time": "5:40pm"}, {"days": "Sat", "time": "3:45pm"}, {"days": "Sun", "time": "Closed"}], "id": "8040100021", "name": "USPS COLLECTION BOX - BLUE BOX", "address": {"city": "LAKEWOOD", "state": "CO", "street": "1809 19TH ST", "postcode": "80401"}}},
{"geometry": {"type": "Point", "coordinates": [-105.2168451229, 39.7523142089]}, "type": "Feature", "properties": {"collection_times": [{"days": "Mon-Fri", "time": "4:40pm"}, {"days": "Sat", "time": "4:15pm"}, {"days": "Sun", "time": "Closed"}], "id": "8040100024", "name": "USPS COLLECTION BOX - BLUE BOX", "address": {"city": "LAKEWOOD", "state": "CO", "street": "1600 JACKSON ST", "postcode": "80401"}}},
{"geometry": {"type": "Point", "coordinates": [-105.1957779413, 39.7327717778]}, "type": "Feature", "properties": {"collection_times": [{"days": "Mon-Fri", "time": "4:15pm"}, {"days": "Sat", "time": "12:45pm"}, {"days": "Sun", "time": "Closed"}], "id": "8040100025", "name": "USPS COLLECTION BOX - EXPRESS", "address": {"city": "LAKEWOOD", "state": "CO", "street": "1100 JOHNSON RD", "postcode": "80401"}}},
{"geometry": {"type": "Point", "coordinates": [-105.2012489919, 39.7349578349]}, "type": "Feature", "properties": {"collection_times": [{"days": "Mon-Fri", "time": "6:00pm"}, {"days": "Sat", "time": "5:00pm"}, {"days": "Sun", "time": "Closed"}], "id": "8040100026", "name": "USPS COLLECTION BOX - BLUE BOX", "address": {"city": "LAKEWOOD", "state": "CO", "street": "1100 JOHNSON RD", "postcode": "80401"}}},
{"geometry": {"type": "Point", "coordinates": [-105.2012489919, 39.7349578349]}, "type": "Feature", "properties": {"collection_times": [{"days": "Mon-Fri", "time": "6:00pm"}, {"days": "Sat", "time": "5:00pm"}, {"days": "Sun", "time": "Closed"}], "id": "8040100027", "name": "USPS COLLECTION BOX - BLUE BOX", "address": {"city": "LAKEWOOD", "state": "CO", "street": "1100 JOHNSON RD", "postcode": "80401"}}},
{"geometry": {"type": "Point", "coordinates": [-105.1974173878, 39.7232571878]}, "type": "Feature", "properties": {"collection_times": [{"days": "Mon-Fri", "time": "3:55pm"}, {"days": "Sat", "time": "1:45pm"}, {"days": "Sun", "time": "Closed"}], "id": "8040100031", "name": "USPS COLLECTION BOX - BLUE BOX", "address": {"city": "LAKEWOOD", "state": "CO", "street": "400 VIOLET ST", "postcode": "80401"}}},
{"geometry": {"type": "Point", "coordinates": [-105.2154259874, 39.7524368109]}, "type": "Feature", "properties": {"collection_times": [{"days": "Mon-Fri", "time": "4:10pm"}, {"days": "Sat", "time": "3:55pm"}, {"days": "Sun", "time": "Closed"}], "id": "8040100032", "name": "USPS COLLECTION BOX - BLUE BOX", "address": {"city": "LAKEWOOD", "state": "CO", "street": "1701 JACKSON ST", "postcode": "80401"}}},
{"geometry": {"type": "Point", "coordinates": [-105.2154259874, 39.7524368109]}, "type": "Feature", "properties": {"collection_times": [{"days": "Mon-Fri", "time": "4:10pm"}, {"days": "Sat", "time": "3:55pm"}, {"days": "Sun", "time": "Closed"}], "id": "8040100033", "name": "USPS COLLECTION BOX - BLUE BOX", "address": {"city": "LAKEWOOD", "state": "CO", "street": "1701 JACKSON ST", "postcode": "80401"}}},
{"geometry": {"type": "Point", "coordinates": [-105.1652686518, 39.726605483]}, "type": "Feature", "properties": {"collection_times": [{"days": "Mon-Fri", "time": "4:20pm"}, {"days": "Sat", "time": "2:05pm"}, {"days": "Sun", "time": "Closed"}], "id": "8040100035", "name": "USPS COLLECTION BOX - BLUE BOX", "address": {"city": "LAKEWOOD", "state": "CO", "street": "15000 W 6TH AVE", "postcode": "80401"}}},
{"geometry": {"type": "Point", "coordinates": [-105.1643374788, 39.7242821796]}, "type": "Feature", "properties": {"collection_times": [{"days": "Mon-Fri", "time": "4:30pm"}, {"days": "Sat", "time": "2:15pm"}, {"days": "Sun", "time": "Closed"}], "id": "8040100037", "name": "USPS COLLECTION BOX - BLUE BOX", "address": {"city": "LAKEWOOD", "state": "CO", "street": "14777 W 6TH AVE", "postcode": "80401"}}},
{"geometry": {"type": "Point", "coordinates": [-105.2937019668, 39.7079520647]}, "type": "Feature", "properties": {"collection_times": [{"days": "Mon-Fri", "time": "3:30pm"}, {"days": "Sat", "time": "12:20pm"}, {"days": "Sun", "time": "Closed"}], "id": "8040100043", "name": "USPS COLLECTION BOX - BLUE BOX", "address": {"city": "LAKEWOOD", "state": "CO", "street": "25958 GENESEE TRAIL RD", "postcode": "80401"}}},
{"geometry": {"type": "Point", "coordinates": [-105.1536048841, 39.7392650039]}, "type": "Feature", "properties": {"collection_times": [{"days": "Mon-Fri", "time": "5:10pm"}, {"days": "Sat", "time": "2:35pm"}, {"days": "Sun", "time": "Closed"}], "id": "8040100049", "name": "USPS COLLECTION BOX - BLUE BOX", "address": {"city": "LAKEWOOD", "state": "CO", "street": "1526 COLE BLVD", "postcode": "80401"}}},
{"geometry": {"type": "Point", "coordinates": [-105.1536048841, 39.7392650039]}, "type": "Feature", "properties": {"collection_times": [{"days": "Mon-Fri", "time": "5:10pm"}, {"days": "Sat", "time": "2:35pm"}, {"days": "Sun", "time": "Closed"}], "id": "8040100050", "name": "USPS COLLECTION BOX - BLUE BOX", "address": {"city": "LAKEWOOD", "state": "CO", "street": "1526 COLE BLVD", "postcode": "80401"}}},
{"geometry": {"type": "Point", "coordinates": [-105.1536048841, 39.7392650039]}, "type": "Feature", "properties": {"collection_times": [{"days": "Mon-Fri", "time": "5:10pm"}, {"days": "Sat", "time": "2:35pm"}, {"days": "Sun", "time": "Closed"}], "id": "8040100051", "name": "USPS COLLECTION BOX - BLUE BOX", "address": {"city": "LAKEWOOD", "state": "CO", "street": "1526 COLE BLVD", "postcode": "80401"}}},
{"geometry": {"type": "Point", "coordinates": [-105.1568466271, 39.7436265582]}, "type": "Feature", "properties": {"collection_times": [{"days": "Mon-Fri", "time": "5:15pm"}, {"days": "Sat", "time": "2:30pm"}, {"days": "Sun", "time": "Closed"}], "id": "8040100058", "name": "USPS COLLECTION BOX - BLUE BOX", "address": {"city": "LAKEWOOD", "state": "CO", "street": "14033 DENVER WEST PKWY", "postcode": "80401"}}},
{"geometry": {"type": "Point", "coordinates": [-105.1568466271, 39.7436265582]}, "type": "Feature", "properties": {"collection_times": [{"days": "Mon-Fri", "time": "5:15pm"}, {"days": "Sat", "time": "2:30pm"}, {"days": "Sun", "time": "Closed"}], "id": "8040100059", "name": "USPS COLLECTION BOX - BLUE BOX", "address": {"city": "LAKEWOOD", "state": "CO", "street": "14033 DENVER WEST PKWY", "postcode": "80401"}}},
{"geometry": {"type": "Point", "coordinates": [-105.1423825878, 39.745708566]}, "type": "Feature", "properties": {"collection_times": [{"days": "Mon-Fri", "time": "5:15pm"}, {"days": "Sat", "time": "2:25pm"}, {"days": "Sun", "time": "Closed"}], "id": "8040100062", "name": "USPS COLLECTION BOX - BLUE BOX", "address": {"city": "LAKEWOOD", "state": "CO", "street": "1901 YOUNGFIELD ST", "postcode": "80401"}}},
{"geometry": {"type": "Point", "coordinates": [-105.1424275403, 39.7565267258]}, "type": "Feature", "properties": {"collection_times": [{"days": "Mon-Fri", "time": "5:20pm"}, {"days": "Sat", "time": "2:45pm"}, {"days": "Sun", "time": "Closed"}], "id": "8040100065", "name": "USPS COLLECTION BOX - BLUE BOX", "address": {"city": "LAKEWOOD", "state": "CO", "street": "2801 YOUNGFIELD ST", "postcode": "80401"}}},
{"geometry": {"type": "Point", "coordinates": [-105.2199219991, 39.7561789358]}, "type": "Feature", "properties": {"collection_times": [{"days": "Mon-Fri", "time": "5:00pm"}, {"days": "Sat", "time": "4:05pm"}, {"days": "Sun", "time": "Closed"}], "id": "8040100070", "name": "USPS COLLECTION BOX - PO LOBBY", "address": {"city": "LAKEWOOD", "state": "CO", "street": "619 12TH ST", "postcode": "80401"}}},
{"geometry": {"type": "Point", "coordinates": [-105.2199219991, 39.7561789358]}, "type": "Feature", "properties": {"collection_times": [{"days": "Mon-Fri", "time": "5:00pm"}, {"days": "Sat", "time": "4:05pm"}, {"days": "Sun", "time": "Closed"}], "id": "8040100071", "name": "USPS COLLECTION BOX - PO LOBBY", "address": {"city": "LAKEWOOD", "state": "CO", "street": "619 12TH ST", "postcode": "80401"}}},
{"geometry": {"type": "Point", "coordinates": [-105.2199219991, 39.7561789358]}, "type": "Feature", "properties": {"collection_times": [{"days": "Mon-Fri", "time": "5:00pm"}, {"days": "Sat", "time": "4:05pm"}, {"days": "Sun", "time": "Closed"}], "id": "8040100072", "name": "USPS COLLECTION BOX - PO LOBBY", "address": {"city": "LAKEWOOD", "state": "CO", "street": "619 12TH ST", "postcode": "80401"}}},
{"geometry": {"type": "Point", "coordinates": [-105.2199219991, 39.7561789358]}, "type": "Feature", "properties": {"collection_times": [{"days": "Mon-Fri", "time": "5:00pm"}, {"days": "Sat", "time": "4:05pm"}, {"days": "Sun", "time": "Closed"}], "id": "8040100073", "name": "USPS COLLECTION BOX - PO LOBBY", "address": {"city": "LAKEWOOD", "state": "CO", "street": "619 12TH ST", "postcode": "80401"}}},
{"geometry": {"type": "Point", "coordinates": [-105.1580094758, 39.7381234331]}, "type": "Feature", "properties": {"collection_times": [{"days": "Mon-Fri", "time": "5:00pm"}, {"days": "Sat", "time": "2:35pm"}, {"days": "Sun", "time": "Closed"}], "id": "8040100074", "name": "USPS COLLECTION BOX - BLUE BOX", "address": {"city": "LAKEWOOD", "state": "CO", "street": "1726 COLE BLVD", "postcode": "80401"}}},
{"geometry": {"type": "Point", "coordinates": [-105.1580094758, 39.7381234331]}, "type": "Feature", "properties": {"collection_times": [{"days": "Mon-Fri", "time": "5:00pm"}, {"days": "Sat", "time": "2:35pm"}, {"days": "Sun", "time": "Closed"}], "id": "8040100075", "name": "USPS COLLECTION BOX - BLUE BOX", "address": {"city": "LAKEWOOD", "state": "CO", "street": "1726 COLE BLVD", "postcode": "80401"}}},
{"geometry": {"type": "Point", "coordinates": [-105.1580094758, 39.7381234331]}, "type": "Feature", "properties": {"collection_times": [{"days": "Mon-Fri", "time": "5:00pm"}, {"days": "Sat", "time": "2:35pm"}, {"days": "Sun", "time": "Closed"}], "id": "8040100076", "name": "USPS COLLECTION BOX - BLUE BOX", "address": {"city": "LAKEWOOD", "state": "CO", "street": "1726 COLE BLVD", "postcode": "80401"}}},
{"geometry": {"type": "Point", "coordinates": [-105.2555797821, 39.7152485523]}, "type": "Feature", "properties": {"collection_times": [{"days": "Mon-Sat", "time": "10:00am"}, {"days": "Sun", "time": "Closed"}], "id": "8040100078", "name": "USPS COLLECTION BOX - BLUE BOX", "address": {"city": "LAKEWOOD", "state": "CO", "street": "50 S LOOKOUT MOUNTAIN RD", "postcode": "80401"}}},
{"geometry": {"type": "Point", "coordinates": [-105.2368333205, 39.7166376948]}, "type": "Feature", "properties": {"collection_times": [{"days": "Mon-Fri", "time": "3:45pm"}, {"days": "Sat", "time": "3:15pm"}, {"days": "Sun", "time": "Closed"}], "id": "8040100081", "name": "USPS COLLECTION BOX - BLUE BOX", "address": {"city": "LAKEWOOD", "state": "CO", "street": "102 RUBEY DR", "postcode": "80401"}}},
{"geometry": {"type": "Point", "coordinates": [-105.2012489919, 39.7349578349]}, "type": "Feature", "properties": {"collection_times": [{"days": "Mon-Fri", "time": "6:00pm"}, {"days": "Sat", "time": "5:00pm"}, {"days": "Sun", "time": "Closed"}], "id": "8040100082", "name": "USPS COLLECTION BOX - PO LOBBY", "address": {"city": "LAKEWOOD", "state": "CO", "street": "1100 JOHNSON RD", "postcode": "80401"}}},
{"geometry": {"type": "Point", "coordinates": [-105.2012489919, 39.7349578349]}, "type": "Feature", "properties": {"collection_times": [{"days": "Mon-Fri", "time": "6:00pm"}, {"days": "Sat", "time": "5:00pm"}, {"days": "Sun", "time": "Closed"}], "id": "8040100083", "name": "USPS COLLECTION BOX - PO LOBBY", "address": {"city": "LAKEWOOD", "state": "CO", "street": "1100 JOHNSON RD", "postcode": "80401"}}},
{"geometry": {"type": "Point", "coordinates": [-105.2012489919, 39.7349578349]}, "type": "Feature", "properties": {"collection_times": [{"days": "Mon-Fri", "time": "6:00pm"}, {"days": "Sat", "time": "5:00pm"}, {"days": "Sun", "time": "Closed"}], "id": "8040100084", "name": "USPS COLLECTION BOX - PO LOBBY", "address": {"city": "LAKEWOOD", "state": "CO", "street": "1100 JOHNSON RD", "postcode": "80401"}}},
{"geometry": {"type": "Point", "coordinates": [-105.2012489919, 39.7349578349]}, "type": "Feature", "properties": {"collection_times": [{"days": "Mon-Fri", "time": "6:00pm"}, {"days": "Sat", "time": "5:00pm"}, {"days": "Sun", "time": "Closed"}], "id": "8040100085", "name": "USPS COLLECTION BOX - PO LOBBY", "address": {"city": "LAKEWOOD", "state": "CO", "street": "1100 JOHNSON RD", "postcode": "80401"}}},
{"geometry": {"type": "Point", "coordinates": [-105.2368333205, 39.7166376948]}, "type": "Feature", "properties": {"collection_times": [{"days": "Mon-Fri", "time": "4:00pm"}, {"days": "Sat", "time": "4:20pm"}, {"days": "Sun", "time": "Closed"}], "id": "8040100086", "name": "USPS COLLECTION BOX - BLUE BOX", "address": {"city": "LAKEWOOD", "state": "CO", "street": "17171 W S GOLDEN RD W", "postcode": "80401"}}},
{"geometry": {"type": "Point", "coordinates": [-105.2508523163, 39.7031735563]}, "type": "Feature", "properties": {"collection_times": [{"days": "Mon-Fri", "time": "3:40pm"}, {"days": "Sat", "time": "10:00am"}, {"days": "Sun", "time": "Closed"}], "id": "8040100092", "name": "USPS COLLECTION BOX - BLUE BOX", "address": {"city": "LAKEWOOD", "state": "CO", "street": "800 S GRAPEVINE RD", "postcode": "80401"}}},
{"geometry": {"type": "Point", "coordinates": [-105.2012489919, 39.7349578349]}, "type": "Feature", "properties": {"collection_times": [{"days": "Mon-Fri", "time": "6:00pm"}, {"days": "Sat", "time": "5:00pm"}, {"days": "Sun", "time": "10:30am"}], "id": "8040200001", "name": "USPS COLLECTION BOX - APC", "address": {"city": "GOLDEN", "state": "CO", "street": "1100 JOHNSON RD", "postcode": "80402"}}},
{"geometry": {"type": "Point", "coordinates": [-105.1673044106, 39.8119620063]}, "type": "Feature", "properties": {"collection_times": [{"days": "Mon-Fri", "time": "5:35pm"}, {"days": "Sat", "time": "3:05pm"}, {"days": "Sun", "time": "Closed"}], "id": "8040300001", "name": "USPS COLLECTION BOX - BLUE BOX", "address": {"city": "GOLDEN", "state": "CO", "street": "6390 JOYCE DR", "postcode": "80403"}}},
{"geometry": {"type": "Point", "coordinates": [-105.1673044106, 39.8119620063]}, "type": "Feature", "properties": {"collection_times": [{"days": "Mon-Fri", "time": "5:35pm"}, {"days": "Sat", "time": "3:05pm"}, {"days": "Sun", "time": "Closed"}], "id": "8040300002", "name": "USPS COLLECTION BOX - BLUE BOX", "address": {"city": "GOLDEN", "state": "CO", "street": "6390 JOYCE DR", "postcode": "80403"}}},
{"geometry": {"type": "Point", "coordinates": [-105.2052710523, 39.8033269483]}, "type": "Feature", "properties": {"collection_times": [{"days": "Mon-Fri", "time": "5:40pm"}, {"days": "Sat", "time": "3:10pm"}, {"days": "Sun", "time": "Closed"}], "id": "8040300003", "name": "USPS COLLECTION BOX - BLUE BOX", "address": {"city": "GOLDEN", "state": "CO", "street": "18268 W 58TH PL", "postcode": "80403"}}},
{"geometry": {"type": "Point", "coordinates": [-105.1745981598, 39.7785148503]}, "type": "Feature", "properties": {"collection_times": [{"days": "Mon-Fri", "time": "5:25pm"}, {"days": "Sat", "time": "2:55pm"}, {"days": "Sun", "time": "Closed"}], "id": "8040300005", "name": "USPS COLLECTION BOX - BLUE BOX", "address": {"city": "GOLDEN", "state": "CO", "street": "4420 MCINTYRE ST", "postcode": "80403"}}},
{"geometry": {"type": "Point", "coordinates": [-105.167840879, 39.7762665687]}, "type": "Feature", "properties": {"collection_times": [{"days": "Mon-Fri", "time": "5:30pm"}, {"days": "Sat", "time": "2:55pm"}, {"days": "Sun", "time": "Closed"}], "id": "8040300006", "name": "USPS COLLECTION BOX - BLUE BOX", "address": {"city": "GOLDEN", "state": "CO", "street": "15001 W 44TH AVE", "postcode": "80403"}}},
{"geometry": {"type": "Point", "coordinates": [-105.3469883534, 39.9048236446]}, "type": "Feature", "properties": {"collection_times": [{"days": "Mon-Fri", "time": "10:00am"}, {"days": "Sat", "time": "9:45am"}, {"days": "Sun", "time": "Closed"}], "id": "8040300008", "name": "USPS COLLECTION BOX - BLUE BOX", "address": {"city": "GOLDEN", "state": "CO", "street": "30520 HIGHWAY 72", "postcode": "80403"}}},
{"geometry": {"type": "Point", "coordinates": [-105.1843548083, 39.7757504543]}, "type": "Feature", "properties": {"collection_times": [{"days": "Mon-Fri", "time": "4:35pm"}, {"days": "Sat", "time": "2:55pm"}, {"days": "Sun", "time": "Closed"}], "id": "8040300010", "name": "USPS COLLECTION BOX - BLUE BOX", "address": {"city": "GOLDEN", "state": "CO", "street": "16600 TABLE MOUNTAIN PKWY", "postcode": "80403"}}},
{"geometry": {"type": "Point", "coordinates": [-105.2774, 39.87308]}, "type": "Feature", "properties": {"collection_times": [{"days": "Mon-Sat", "time": "10:30am"}, {"days": "Sun", "time": "Closed"}], "id": "8040300011", "name": "USPS COLLECTION BOX - BLUE BOX", "address": {"city": "GOLDEN", "state": "CO", "street": "9775 BLUE MOUNTAIN DR", "postcode": "80403"}}},
{"geometry": {"type": "Point", "coordinates": [-106.0625992529, 39.2836918234]}, "type": "Feature", "properties": {"collection_times": [{"days": "Mon-Fri", "time": "3:30pm"}, {"days": "Sat", "time": "12:00pm"}, {"days": "Sun", "time": "Closed"}], "id": "8042000000", "name": "USPS COLLECTION BOX - PO LOBBY", "address": {"city": "ALMA", "state": "CO", "street": "30 E BUCKSKIN RD", "postcode": "80420"}}},
{"geometry": {"type": "Point", "coordinates": [-106.0625992529, 39.2836918234]}, "type": "Feature", "properties": {"collection_times": [{"days": "Mon-Fri", "time": "3:30pm"}, {"days": "Sat", "time": "12:00pm"}, {"days": "Sun", "time": "Closed"}], "id": "8042000001", "name": "USPS COLLECTION BOX - BLUE BOX", "address": {"city": "ALMA", "state": "CO", "street": "30 E BUCKSKIN RD", "postcode": "80420"}}},
{"geometry": {"type": "Point", "coordinates": [-105.4781615261, 39.4059512278]}, "type": "Feature", "properties": {"collection_times": [{"days": "Mon-Fri", "time": "4:30pm"}, {"days": "Sat", "time": "12:00pm"}, {"days": "Sun", "time": "Closed"}], "id": "8042100000", "name": "USPS COLLECTION BOX - BLUE BOX", "address": {"city": "BAILEY", "state": "CO", "street": "24 RIVER DR", "postcode": "80421"}}},
{"geometry": {"type": "Point", "coordinates": [-105.4622027608, 39.4340256684]}, "type": "Feature", "properties": {"collection_times": [{"days": "Mon-Sat", "time": "11:30am"}, {"days": "Sun", "time": "Closed"}], "id": "8042100001", "name": "USPS COLLECTION BOX - BLUE BOX", "address": {"city": "BAILEY", "state": "CO", "street": "1 DELWOOD DR", "postcode": "80421"}}},
{"geometry": {"type": "Point", "coordinates": [-105.5851359247, 39.4399085563]}, "type": "Feature", "properties": {"collection_times": [{"days": "Mon-Sat", "time": "11:00am"}, {"days": "Sun", "time": "Closed"}], "id": "8042100002", "name": "USPS COLLECTION BOX - BLUE BOX", "address": {"city": "BAILEY", "state": "CO", "street": "3900 PARK COUNTY RD 43", "postcode": "80421"}}},
{"geometry": {"type": "Point", "coordinates": [-105.5078213041, 39.5164317904]}, "type": "Feature", "properties": {"collection_times": [{"days": "Mon-Sat", "time": "11:30am"}, {"days": "Sun", "time": "Closed"}], "id": "8042100003", "name": "USPS COLLECTION BOX - BLUE BOX", "address": {"city": "BAILEY", "state": "CO", "street": "2090 SHELTON DR", "postcode": "80421"}}},
{"geometry": {"type": "Point", "coordinates": [-105.4381642759, 39.453802754]}, "type": "Feature", "properties": {"collection_times": [{"days": "Mon-Sat", "time": "12:00pm"}, {"days": "Sun", "time": "Closed"}], "id": "8042100005", "name": "USPS COLLECTION BOX - BLUE BOX", "address": {"city": "BAILEY", "state": "CO", "street": "22 ROLAND DR", "postcode": "80421"}}},
{"geometry": {"type": "Point", "coordinates": [-105.4112434751, 39.4578248025]}, "type": "Feature", "properties": {"collection_times": [{"days": "Mon-Sat", "time": "11:00am"}, {"days": "Sun", "time": "Closed"}], "id": "8042100006", "name": "USPS COLLECTION BOX - BLUE BOX", "address": {"city": "BAILEY", "state": "CO", "street": "1 WISP CREEK DR", "postcode": "80421"}}},
{"geometry": {"type": "Point", "coordinates": [-105.5851359247, 39.4399085563]}, "type": "Feature", "properties": {"collection_times": [{"days": "Mon-Sat", "time": "11:00am"}, {"days": "Sun", "time": "Closed"}], "id": "8042100007", "name": "USPS COLLECTION BOX - BLUE BOX", "address": {"city": "BAILEY", "state": "CO", "street": "400 PARK COUNTY RD 72", "postcode": "80421"}}},
{"geometry": {"type": "Point", "coordinates": [-105.4781615261, 39.4059512278]}, "type": "Feature", "properties": {"collection_times": [{"days": "Mon-Fri", "time": "4:30pm"}, {"days": "Sat", "time": "12:00pm"}, {"days": "Sun", "time": "Closed"}], "id": "8042100008", "name": "USPS COLLECTION BOX - PO LOBBY", "address": {"city": "BAILEY", "state": "CO", "street": "24 RIVER DR", "postcode": "80421"}}},
{"geometry": {"type": "Point", "coordinates": [-105.4959832536, 39.8042262971]}, "type": "Feature", "properties": {"collection_times": [{"days": "Mon-Fri", "time": "4:45pm"}, {"days": "Sat", "time": "1:45pm"}, {"days": "Sun", "time": "Closed"}], "id": "8042200000", "name": "USPS COLLECTION BOX - BLUE BOX", "address": {"city": "BLACKHAWK", "state": "CO", "street": "145 CLEAR CRK", "postcode": "80422"}}},
{"geometry": {"type": "Point", "coordinates": [-105.4959832536, 39.8042262971]}, "type": "Feature", "properties": {"collection_times": [{"days": "Mon-Fri", "time": "4:45pm"}, {"days": "Sat", "time": "1:45pm"}, {"days": "Sun", "time": "Closed"}], "id": "8042200001", "name": "USPS COLLECTION BOX - BLUE BOX", "address": {"city": "BLACKHAWK", "state": "CO", "street": "145 CLEAR CRK", "postcode": "80422"}}},
{"geometry": {"type": "Point", "coordinates": [-105.4959832536, 39.8042262971]}, "type": "Feature", "properties": {"collection_times": [{"days": "Mon-Fri", "time": "5:00pm"}, {"days": "Sat", "time": "1:45pm"}, {"days": "Sun", "time": "Closed"}], "id": "8042200002", "name": "USPS COLLECTION BOX - PO LOBBY", "address": {"city": "BLACKHAWK", "state": "CO", "street": "145 CLEAR CRK", "postcode": "80422"}}},
{"geometry": {"type": "Point", "coordinates": [-105.4959832536, 39.8042262971]}, "type": "Feature", "properties": {"collection_times": [{"days": "Mon-Fri", "time": "5:00pm"}, {"days": "Sat", "time": "1:45pm"}, {"days": "Sun", "time": "Closed"}], "id": "8042200003", "name": "USPS COLLECTION BOX - PO LOBBY", "address": {"city": "BLACKHAWK", "state": "CO", "street": "145 CLEAR CRK", "postcode": "80422"}}},
{"geometry": {"type": "Point", "coordinates": [-105.5022103867, 39.7974391592]}, "type": "Feature", "properties": {"collection_times": [{"days": "Mon-Sat", "time": "11:00am"}, {"days": "Sun", "time": "Closed"}], "id": "8042200004", "name": "USPS COLLECTION BOX - BLUE BOX", "address": {"city": "BLACKHAWK", "state": "CO", "street": "2960 DORY HILL RD", "postcode": "80422"}}},
{"geometry": {"type": "Point", "coordinates": [-105.5022103867, 39.7974391592]}, "type": "Feature", "properties": {"collection_times": [{"days": "Mon-Sat", "time": "11:00am"}, {"days": "Sun", "time": "Closed"}], "id": "8042200005", "name": "USPS COLLECTION BOX - BLUE BOX", "address": {"city": "BLACKHAWK", "state": "CO", "street": "14396 HWY 119", "postcode": "80422"}}},
{"geometry": {"type": "Point", "coordinates": [-106.7146181587, 39.9036299567]}, "type": "Feature", "properties": {"collection_times": [{"days": "Mon-Fri", "time": "1:30pm"}, {"days": "Sat", "time": "10:30am"}, {"days": "Sun", "time": "Closed"}], "id": "8042300000", "name": "USPS COLLECTION BOX - BLUE BOX", "address": {"city": "BOND", "state": "CO", "street": "16711 HIGHWAY 131", "postcode": "80423"}}},
{"geometry": {"type": "Point", "coordinates": [-106.0441249988, 39.4830230642]}, "type": "Feature", "properties": {"collection_times": [{"days": "Mon-Fri", "time": "4:30pm"}, {"days": "Sat", "time": "12:00pm"}, {"days": "Sun", "time": "Closed"}], "id": "8042400000", "name": "USPS COLLECTION BOX - BLUE BOX", "address": {"city": "BRECKENRIDGE", "state": "CO", "street": "108 N FRENCH ST", "postcode": "80424"}}},
{"geometry": {"type": "Point", "coordinates": [-106.0430130174, 39.478098406]}, "type": "Feature", "properties": {"collection_times": [{"days": "Mon-Fri", "time": "4:15pm"}, {"days": "Sat", "time": "11:45am"}, {"days": "Sun", "time": "Closed"}], "id": "8042400001", "name": "USPS COLLECTION BOX - BLUE BOX", "address": {"city": "BRECKENRIDGE", "state": "CO", "street": "410 S FRENCH", "postcode": "80424"}}},
{"geometry": {"type": "Point", "coordinates": [-106.0480015553, 39.4822411283]}, "type": "Feature", "properties": {"collection_times": [{"days": "Mon-Fri", "time": "4:15pm"}, {"days": "Sat", "time": "11:45am"}, {"days": "Sun", "time": "Closed"}], "id": "8042400002", "name": "USPS COLLECTION BOX - BLUE BOX", "address": {"city": "BRECKENRIDGE", "state": "CO", "street": "150 W SKI HILL RD", "postcode": "80424"}}},
{"geometry": {"type": "Point", "coordinates": [-106.0480015553, 39.4822411283]}, "type": "Feature", "properties": {"collection_times": [{"days": "Mon-Fri", "time": "4:15pm"}, {"days": "Sat", "time": "11:45am"}, {"days": "Sun", "time": "Closed"}], "id": "8042400003", "name": "USPS COLLECTION BOX - BLUE BOX", "address": {"city": "BRECKENRIDGE", "state": "CO", "street": "150 W SKI HILL RD", "postcode": "80424"}}},
{"geometry": {"type": "Point", "coordinates": [-106.0474294343, 39.4902900559]}, "type": "Feature", "properties": {"collection_times": [{"days": "Mon-Fri", "time": "2:30pm"}, {"days": "Sat", "time": "12:30pm"}, {"days": "Sun", "time": "Closed"}], "id": "8042400005", "name": "USPS COLLECTION BOX - EXPRESS", "address": {"city": "BRECKENRIDGE", "state": "CO", "street": "305 S RIDGE ST", "postcode": "80424"}}},
{"geometry": {"type": "Point", "coordinates": [-106.0443107234, 39.4795262375]}, "type": "Feature", "properties": {"collection_times": [{"days": "Mon-Fri", "time": "4:30pm"}, {"days": "Sat", "time": "12:30pm"}, {"days": "Sun", "time": "Closed"}], "id": "8042400006", "name": "USPS COLLECTION BOX - BLUE BOX", "address": {"city": "BRECKENRIDGE", "state": "CO", "street": "305 S RIDGE ST", "postcode": "80424"}}},
{"geometry": {"type": "Point", "coordinates": [-106.0443107234, 39.4795262375]}, "type": "Feature", "properties": {"collection_times": [{"days": "Mon-Fri", "time": "4:30pm"}, {"days": "Sat", "time": "12:30pm"}, {"days": "Sun", "time": "Closed"}], "id": "8042400007", "name": "USPS COLLECTION BOX - BLUE BOX", "address": {"city": "BRECKENRIDGE", "state": "CO", "street": "305 S RIDGE ST", "postcode": "80424"}}},
{"geometry": {"type": "Point", "coordinates": [-106.0443107234, 39.4795262375]}, "type": "Feature", "properties": {"collection_times": [{"days": "Mon-Fri", "time": "4:30pm"}, {"days": "Sat", "time": "12:30pm"}, {"days": "Sun", "time": "Closed"}], "id": "8042400008", "name": "USPS COLLECTION BOX - BLUE BOX", "address": {"city": "BRECKENRIDGE", "state": "CO", "street": "305 S RIDGE ST", "postcode": "80424"}}},
{"geometry": {"type": "Point", "coordinates": [-106.0443107234, 39.4795262375]}, "type": "Feature", "properties": {"collection_times": [{"days": "Mon-Fri", "time": "4:45pm"}, {"days": "Sat", "time": "1:00pm"}, {"days": "Sun", "time": "Closed"}], "id": "8042400011", "name": "USPS COLLECTION BOX - PO LOBBY", "address": {"city": "BRECKENRIDGE", "state": "CO", "street": "305 S RIDGE ST", "postcode": "80424"}}},
{"geometry": {"type": "Point", "coordinates": [-106.0443107234, 39.4795262375]}, "type": "Feature", "properties": {"collection_times": [{"days": "Mon-Fri", "time": "4:45pm"}, {"days": "Sat", "time": "1:00pm"}, {"days": "Sun", "time": "Closed"}], "id": "8042400012", "name": "USPS COLLECTION BOX - PO LOBBY", "address": {"city": "BRECKENRIDGE", "state": "CO", "street": "305 S RIDGE ST", "postcode": "80424"}}},
{"geometry": {"type": "Point", "coordinates": [-106.0443107234, 39.4795262375]}, "type": "Feature", "properties": {"collection_times": [{"days": "Mon-Fri", "time": "4:45pm"}, {"days": "Sat", "time": "1:00pm"}, {"days": "Sun", "time": "Closed"}], "id": "8042400014", "name": "USPS COLLECTION BOX - PO LOBBY", "address": {"city": "BRECKENRIDGE", "state": "CO", "street": "305 S RIDGE ST", "postcode": "80424"}}},
{"geometry": {"type": "Point", "coordinates": [-106.0443107234, 39.4795262375]}, "type": "Feature", "properties": {"collection_times": [{"days": "Mon-Fri", "time": "4:45pm"}, {"days": "Sat", "time": "1:00pm"}, {"days": "Sun", "time": "Closed"}], "id": "8042400015", "name": "USPS COLLECTION BOX - PO LOBBY", "address": {"city": "BRECKENRIDGE", "state": "CO", "street": "305 S RIDGE ST", "postcode": "80424"}}},
{"geometry": {"type": "Point", "coordinates": [-106.0443107234, 39.4795262375]}, "type": "Feature", "properties": {"collection_times": [{"days": "Mon-Fri", "time": "4:45pm"}, {"days": "Sat", "time": "1:00pm"}, {"days": "Sun", "time": "Closed"}], "id": "8042400016", "name": "USPS COLLECTION BOX - PO LOBBY", "address": {"city": "BRECKENRIDGE", "state": "CO", "street": "305 S RIDGE ST", "postcode": "80424"}}},
{"geometry": {"type": "Point", "coordinates": [-106.0443107234, 39.4795262375]}, "type": "Feature", "properties": {"collection_times": [{"days": "Mon-Fri", "time": "4:45pm"}, {"days": "Sat", "time": "1:00pm"}, {"days": "Sun", "time": "Closed"}], "id": "8042400017", "name": "USPS COLLECTION BOX - PO LOBBY", "address": {"city": "BRECKENRIDGE", "state": "CO", "street": "305 S RIDGE ST", "postcode": "80424"}}},
{"geometry": {"type": "Point", "coordinates": [-106.0443107234, 39.4795262375]}, "type": "Feature", "properties": {"collection_times": [{"days": "Mon-Fri", "time": "4:45pm"}, {"days": "Sat", "time": "1:00pm"}, {"days": "Sun", "time": "Closed"}], "id": "8042400018", "name": "USPS COLLECTION BOX - PO LOBBY", "address": {"city": "BRECKENRIDGE", "state": "CO", "street": "305 S RIDGE ST", "postcode": "80424"}}},
{"geometry": {"type": "Point", "coordinates": [-106.0443107234, 39.4795262375]}, "type": "Feature", "properties": {"collection_times": [{"days": "Mon-Fri", "time": "4:45pm"}, {"days": "Sat", "time": "1:00pm"}, {"days": "Sun", "time": "Closed"}], "id": "8042400019", "name": "USPS COLLECTION BOX - PO LOBBY", "address": {"city": "BRECKENRIDGE", "state": "CO", "street": "305 S RIDGE ST", "postcode": "80424"}}},
{"geometry": {"type": "Point", "coordinates": [-106.0430130174, 39.478098406]}, "type": "Feature", "properties": {"collection_times": [{"days": "Mon-Fri", "time": "11:30am"}, {"days": "Sat", "time": "11:00am"}, {"days": "Sun", "time": "Closed"}], "id": "8042400020", "name": "USPS COLLECTION BOX - PO LOBBY", "address": {"city": "BRECKENRIDGE", "state": "CO", "street": "410 S FRENCH", "postcode": "80424"}}},
{"geometry": {"type": "Point", "coordinates": [-105.3973209331, 39.4667443437]}, "type": "Feature", "properties": {"collection_times": [{"days": "Mon-Fri", "time": "3:15pm"}, {"days": "Sat", "time": "1:15pm"}, {"days": "Sun", "time": "Closed"}], "id": "8042500000", "name": "USPS COLLECTION BOX - BLUE BOX", "address": {"city": "BUFFALO CREEK", "state": "CO", "street": "17706 COUNTY ROAD 96", "postcode": "80425"}}},
{"geometry": {"type": "Point", "coordinates": [-106.8917196587, 39.8763325094]}, "type": "Feature", "properties": {"collection_times": [{"days": "Mon-Sat", "time": "12:30pm"}, {"days": "Sun", "time": "Closed"}], "id": "8042600000", "name": "USPS COLLECTION BOX - PO LOBBY", "address": {"city": "BURNS", "state": "CO", "street": "23414 COLORADO RIVER RD", "postcode": "80426"}}},
{"geometry": {"type": "Point", "coordinates": [-105.5082998436, 39.7999060586]}, "type": "Feature", "properties": {"collection_times": [{"days": "Mon-Fri", "time": "4:30pm"}, {"days": "Sat", "time": "12:15pm"}, {"days": "Sun", "time": "Closed"}], "id": "8042700000", "name": "USPS COLLECTION BOX - PO LOBBY", "address": {"city": "CENTRAL CITY", "state": "CO", "street": "149 GREGORY ST", "postcode": "80427"}}},
{"geometry": {"type": "Point", "coordinates": [-105.5082998436, 39.7999060586]}, "type": "Feature", "properties": {"collection_times": [{"days": "Mon-Fri", "time": "4:30pm"}, {"days": "Sat", "time": "12:15pm"}, {"days": "Sun", "time": "Closed"}], "id": "8042700001", "name": "USPS COLLECTION BOX - BLUE BOX", "address": {"city": "CENTRAL CITY", "state": "CO", "street": "149 GREGORY ST", "postcode": "80427"}}},
{"geometry": {"type": "Point", "coordinates": [-105.5082998436, 39.7999060586]}, "type": "Feature", "properties": {"collection_times": [{"days": "Mon-Fri", "time": "4:30pm"}, {"days": "Sat", "time": "12:15pm"}, {"days": "Sun", "time": "Closed"}], "id": "8042700002", "name": "USPS COLLECTION BOX - BLUE BOX", "address": {"city": "CENTRAL CITY", "state": "CO", "street": "149 GREGORY ST", "postcode": "80427"}}},
{"geometry": {"type": "Point", "coordinates": [-105.5082998436, 39.7999060586]}, "type": "Feature", "properties": {"collection_times": [{"days": "Mon-Fri", "time": "4:45pm"}, {"days": "Sat", "time": "12:15pm"}, {"days": "Sun", "time": "Closed"}], "id": "8042700003", "name": "USPS COLLECTION BOX - PO LOBBY", "address": {"city": "CENTRAL CITY", "state": "CO", "street": "149 GREGORY ST", "postcode": "80427"}}},
{"geometry": {"type": "Point", "coordinates": [-106.9179826191, 40.7085696844]}, "type": "Feature", "properties": {"collection_times": [{"days": "Mon-Sat", "time": "11:30am"}, {"days": "Sun", "time": "Closed"}], "id": "8042800000", "name": "USPS COLLECTION BOX - PO LOBBY", "address": {"city": "CLARK", "state": "CO", "street": "54185 COUNTY ROAD 129", "postcode": "80428"}}},
{"geometry": {"type": "Point", "coordinates": [-106.9179826191, 40.7085696844]}, "type": "Feature", "properties": {"collection_times": [{"days": "Mon-Sat", "time": "11:20am"}, {"days": "Sun", "time": "Closed"}], "id": "8042800001", "name": "USPS COLLECTION BOX - BLUE BOX", "address": {"city": "CLARK", "state": "CO", "street": "54185 COUNTY ROAD 129", "postcode": "80428"}}},
{"geometry": {"type": "Point", "coordinates": [-105.2959271126, 39.5436213201]}, "type": "Feature", "properties": {"collection_times": [{"days": "Mon-Fri", "time": "5:00pm"}, {"days": "Sat", "time": "2:00pm"}, {"days": "Sun", "time": "Closed"}], "id": "8043300001", "name": "USPS COLLECTION BOX - BLUE BOX", "address": {"city": "CONIFER", "state": "CO", "street": "9546 S DALLMAN DR", "postcode": "80433"}}},
{"geometry": {"type": "Point", "coordinates": [-105.2959271126, 39.5436213201]}, "type": "Feature", "properties": {"collection_times": [{"days": "Mon-Fri", "time": "5:00pm"}, {"days": "Sat", "time": "2:00pm"}, {"days": "Sun", "time": "Closed"}], "id": "8043300003", "name": "USPS COLLECTION BOX - PO LOBBY", "address": {"city": "CONIFER", "state": "CO", "street": "9546 S DALLMAN DR", "postcode": "80433"}}},
{"geometry": {"type": "Point", "coordinates": [-105.3049901559, 39.5278214806]}, "type": "Feature", "properties": {"collection_times": [{"days": "Mon-Sat", "time": "12:30pm"}, {"days": "Sun", "time": "Closed"}], "id": "8043300008", "name": "USPS COLLECTION BOX - BLUE BOX", "address": {"city": "CONIFER", "state": "CO", "street": "27152 MAIN ST", "postcode": "80433"}}},
{"geometry": {"type": "Point", "coordinates": [-106.3131220118, 40.859734539]}, "type": "Feature", "properties": {"collection_times": [{"days": "Mon-Fri", "time": "2:00pm"}, {"days": "Sat", "time": "11:45am"}, {"days": "Sun", "time": "Closed"}], "id": "8043400001", "name": "USPS COLLECTION BOX - PO LOBBY", "address": {"city": "COWDREY", "state": "CO", "street": "27 COUNTY ROAD 6W", "postcode": "80434"}}},
{"geometry": {"type": "Point", "coordinates": [-106.315866065, 40.8597767191]}, "type": "Feature", "properties": {"collection_times": [{"days": "Mon-Fri", "time": "2:00pm"}, {"days": "Sat", "time": "11:45am"}, {"days": "Sun", "time": "Closed"}], "id": "8043400002", "name": "USPS COLLECTION BOX - BLUE BOX", "address": {"city": "COWDREY", "state": "CO", "street": "27 COUNTY ROAD 6W", "postcode": "80434"}}},
{"geometry": {"type": "Point", "coordinates": [-106.0471229299, 39.6282601454]}, "type": "Feature", "properties": {"collection_times": [{"days": "Mon-Fri", "time": "5:00pm"}, {"days": "Sat", "time": "1:00pm"}, {"days": "Sun", "time": "Closed"}], "id": "8043500000", "name": "USPS COLLECTION BOX - BLUE BOX", "address": {"city": "DILLON", "state": "CO", "street": "500 LAKE DILLON DR", "postcode": "80435"}}},
{"geometry": {"type": "Point", "coordinates": [-106.0471229299, 39.6282601454]}, "type": "Feature", "properties": {"collection_times": [{"days": "Mon-Fri", "time": "5:00pm"}, {"days": "Sat", "time": "1:00pm"}, {"days": "Sun", "time": "Closed"}], "id": "8043500001", "name": "USPS COLLECTION BOX - PO LOBBY", "address": {"city": "DILLON", "state": "CO", "street": "500 LAKE DILLON DR", "postcode": "80435"}}},
{"geometry": {"type": "Point", "coordinates": [-106.0471229299, 39.6282601454]}, "type": "Feature", "properties": {"collection_times": [{"days": "Mon-Fri", "time": "5:00pm"}, {"days": "Sat", "time": "1:00pm"}, {"days": "Sun", "time": "Closed"}], "id": "8043500004", "name": "USPS COLLECTION BOX - BLUE BOX", "address": {"city": "DILLON", "state": "CO", "street": "500 LAKE DILLON DR", "postcode": "80435"}}},
{"geometry": {"type": "Point", "coordinates": [-105.6001980182, 39.7646423932]}, "type": "Feature", "properties": {"collection_times": [{"days": "Mon-Fri", "time": "4:15pm"}, {"days": "Sat", "time": "11:45am"}, {"days": "Sun", "time": "Closed"}], "id": "8043600000", "name": "USPS COLLECTION BOX - PO LOBBY", "address": {"city": "DUMONT", "state": "CO", "street": "307 COUNTY ROAD 308", "postcode": "80436"}}},
{"geometry": {"type": "Point", "coordinates": [-105.6001980182, 39.7646423932]}, "type": "Feature", "properties": {"collection_times": [{"days": "Mon-Fri", "time": "4:45pm"}, {"days": "Sat", "time": "11:45am"}, {"days": "Sun", "time": "Closed"}], "id": "8043600001", "name": "USPS COLLECTION BOX - BLUE BOX", "address": {"city": "DUMONT", "state": "CO", "street": "307 COUNTY ROAD 308", "postcode": "80436"}}},
{"geometry": {"type": "Point", "coordinates": [-105.685626596, 39.761351203]}, "type": "Feature", "properties": {"collection_times": [{"days": "Mon-Fri", "time": "4:45pm"}, {"days": "Sat", "time": "11:45am"}, {"days": "Sun", "time": "Closed"}], "id": "8043800000", "name": "USPS COLLECTION BOX - BLUE BOX", "address": {"city": "EMPIRE", "state": "CO", "street": "215 W PARK AVE", "postcode": "80438"}}},
{"geometry": {"type": "Point", "coordinates": [-105.685626596, 39.761351203]}, "type": "Feature", "properties": {"collection_times": [{"days": "Mon-Fri", "time": "4:15pm"}, {"days": "Sat", "time": "11:15am"}, {"days": "Sun", "time": "Closed"}], "id": "8043800001", "name": "USPS COLLECTION BOX - PO LOBBY", "address": {"city": "EMPIRE", "state": "CO", "street": "215 W PARK AVE", "postcode": "80438"}}},
{"geometry": {"type": "Point", "coordinates": [-105.3497562462, 39.6384503984]}, "type": "Feature", "properties": {"collection_times": [{"days": "Mon-Fri", "time": "4:00pm"}, {"days": "Sat", "time": "1:00pm"}, {"days": "Sun", "time": "Closed"}], "id": "8043900000", "name": "USPS COLLECTION BOX - EXPRESS", "address": {"city": "EVERGREEN", "state": "CO", "street": "2922 HIGHWAY 74", "postcode": "80439"}}},
{"geometry": {"type": "Point", "coordinates": [-105.3433328899, 39.6501866088]}, "type": "Feature", "properties": {"collection_times": [{"days": "Mon-Fri", "time": "5:15pm"}, {"days": "Sat", "time": "2:30pm"}, {"days": "Sun", "time": "Closed"}], "id": "8043900001", "name": "USPS COLLECTION BOX - BLUE BOX", "address": {"city": "EVERGREEN", "state": "CO", "street": "3649 HIGHWAY 74", "postcode": "80439"}}},
{"geometry": {"type": "Point", "coordinates": [-105.3292151769, 39.6334960969]}, "type": "Feature", "properties": {"collection_times": [{"days": "Mon-Fri", "time": "3:30pm"}, {"days": "Sat", "time": "2:00pm"}, {"days": "Sun", "time": "Closed"}], "id": "8043900003", "name": "USPS COLLECTION BOX - BLUE BOX", "address": {"city": "EVERGREEN", "state": "CO", "street": "29021 UPPER BEAR CREEK RD", "postcode": "80439"}}},
{"geometry": {"type": "Point", "coordinates": [-105.35195857, 39.6592277199]}, "type": "Feature", "properties": {"collection_times": [{"days": "Mon-Fri", "time": "4:00pm"}, {"days": "Sat", "time": "1:00pm"}, {"days": "Sun", "time": "Closed"}], "id": "8043900004", "name": "USPS COLLECTION BOX - BLUE BOX", "address": {"city": "EVERGREEN", "state": "CO", "street": "2922 HIGHWAY 74", "postcode": "80439"}}},
{"geometry": {"type": "Point", "coordinates": [-105.35195857, 39.6592277199]}, "type": "Feature", "properties": {"collection_times": [{"days": "Mon-Fri", "time": "4:00pm"}, {"days": "Sat", "time": "1:00pm"}, {"days": "Sun", "time": "Closed"}], "id": "8043900005", "name": "USPS COLLECTION BOX - BLUE BOX", "address": {"city": "EVERGREEN", "state": "CO", "street": "2922 HIGHWAY 74", "postcode": "80439"}}},
{"geometry": {"type": "Point", "coordinates": [-105.3451050827, 39.6535868196]}, "type": "Feature", "properties": {"collection_times": [{"days": "Mon-Fri", "time": "3:30pm"}, {"days": "Sat", "time": "1:00pm"}, {"days": "Sun", "time": "Closed"}], "id": "8043900006", "name": "USPS COLLECTION BOX - BLUE BOX", "address": {"city": "EVERGREEN", "state": "CO", "street": "30440 STAGECOACH BLVD", "postcode": "80439"}}},
{"geometry": {"type": "Point", "coordinates": [-105.3246895769, 39.6247439141]}, "type": "Feature", "properties": {"collection_times": [{"days": "Mon-Fri", "time": "4:00pm"}, {"days": "Sat", "time": "2:00pm"}, {"days": "Sun", "time": "Closed"}], "id": "8043900007", "name": "USPS COLLECTION BOX - BLUE BOX", "address": {"city": "EVERGREEN", "state": "CO", "street": "5000 HIGHWAY 73", "postcode": "80439"}}},
{"geometry": {"type": "Point", "coordinates": [-105.3517209974, 39.6589689017]}, "type": "Feature", "properties": {"collection_times": [{"days": "Mon-Fri", "time": "3:30pm"}, {"days": "Sat", "time": "1:00pm"}, {"days": "Sun", "time": "Closed"}], "id": "8043900008", "name": "USPS COLLECTION BOX - BLUE BOX", "address": {"city": "EVERGREEN", "state": "CO", "street": "3092 HIGHWAY 74", "postcode": "80439"}}},
{"geometry": {"type": "Point", "coordinates": [-105.3394426245, 39.6467029157]}, "type": "Feature", "properties": {"collection_times": [{"days": "Mon-Fri", "time": "3:30pm"}, {"days": "Sat", "time": "2:00pm"}, {"days": "Sun", "time": "Closed"}], "id": "8043900009", "name": "USPS COLLECTION BOX - BLUE BOX", "address": {"city": "EVERGREEN", "state": "CO", "street": "3847 HWY 74", "postcode": "80439"}}},
{"geometry": {"type": "Point", "coordinates": [-105.3193343217, 39.6328661104]}, "type": "Feature", "properties": {"collection_times": [{"days": "Mon-Fri", "time": "4:00pm"}, {"days": "Sat", "time": "2:30pm"}, {"days": "Sun", "time": "Closed"}], "id": "8043900010", "name": "USPS COLLECTION BOX - BLUE BOX", "address": {"city": "EVERGREEN", "state": "CO", "street": "28186 HIGHWAY 74", "postcode": "80439"}}},
{"geometry": {"type": "Point", "coordinates": [-105.3433328899, 39.6501866088]}, "type": "Feature", "properties": {"collection_times": [{"days": "Mon-Fri", "time": "5:15pm"}, {"days": "Sat", "time": "2:30pm"}, {"days": "Sun", "time": "Closed"}], "id": "8043900011", "name": "USPS COLLECTION BOX - BLUE BOX", "address": {"city": "EVERGREEN", "state": "CO", "street": "3649 HIGHWAY 74", "postcode": "80439"}}},
{"geometry": {"type": "Point", "coordinates": [-105.3563526566, 39.6933484363]}, "type": "Feature", "properties": {"collection_times": [{"days": "Mon-Fri", "time": "4:00pm"}, {"days": "Sat", "time": "1:00pm"}, {"days": "Sun", "time": "Closed"}], "id": "8043900012", "name": "USPS COLLECTION BOX - BLUE BOX", "address": {"city": "EVERGREEN", "state": "CO", "street": "1202 BERGEN PKWY", "postcode": "80439"}}},
{"geometry": {"type": "Point", "coordinates": [-105.3577166082, 39.6924801444]}, "type": "Feature", "properties": {"collection_times": [{"days": "Mon-Fri", "time": "4:00pm"}, {"days": "Sat", "time": "1:00pm"}, {"days": "Sun", "time": "Closed"}], "id": "8043900013", "name": "USPS COLLECTION BOX - BLUE BOX", "address": {"city": "EVERGREEN", "state": "CO", "street": "1173 BERGEN PKWY", "postcode": "80439"}}},
{"geometry": {"type": "Point", "coordinates": [-105.3577166082, 39.6924801444]}, "type": "Feature", "properties": {"collection_times": [{"days": "Mon-Fri", "time": "4:00pm"}, {"days": "Sat", "time": "1:00pm"}, {"days": "Sun", "time": "Closed"}], "id": "8043900014", "name": "USPS COLLECTION BOX - BLUE BOX", "address": {"city": "EVERGREEN", "state": "CO", "street": "1173 BERGEN PKWY", "postcode": "80439"}}},
{"geometry": {"type": "Point", "coordinates": [-105.3596803201, 39.6914332257]}, "type": "Feature", "properties": {"collection_times": [{"days": "Mon-Fri", "time": "4:00pm"}, {"days": "Sat", "time": "1:00pm"}, {"days": "Sun", "time": "Closed"}], "id": "8043900015", "name": "USPS COLLECTION BOX - BLUE BOX", "address": {"city": "EVERGREEN", "state": "CO", "street": "1250 BERGEN PKWY", "postcode": "80439"}}},
{"geometry": {"type": "Point", "coordinates": [-105.3163438014, 39.6376559112]}, "type": "Feature", "properties": {"collection_times": [{"days": "Mon-Fri", "time": "4:00pm"}, {"days": "Sat", "time": "2:30pm"}, {"days": "Sun", "time": "Closed"}], "id": "8043900016", "name": "USPS COLLECTION BOX - BLUE BOX", "address": {"city": "EVERGREEN", "state": "CO", "street": "27905 MEADOW DR", "postcode": "80439"}}},
{"geometry": {"type": "Point", "coordinates": [-105.3497562462, 39.6384503984]}, "type": "Feature", "properties": {"collection_times": [{"days": "Mon-Fri", "time": "4:30pm"}, {"days": "Sat", "time": "1:45pm"}, {"days": "Sun", "time": "Closed"}], "id": "8043900017", "name": "USPS COLLECTION BOX - EXPRESS", "address": {"city": "EVERGREEN", "state": "CO", "street": "3649 HIGHWAY 74", "postcode": "80439"}}},
{"geometry": {"type": "Point", "coordinates": [-105.3433328899, 39.6501866088]}, "type": "Feature", "properties": {"collection_times": [{"days": "Mon-Fri", "time": "5:15pm"}, {"days": "Sat", "time": "2:30pm"}, {"days": "Sun", "time": "Closed"}], "id": "8043900018", "name": "USPS COLLECTION BOX - BLUE BOX", "address": {"city": "EVERGREEN", "state": "CO", "street": "3649 HIGHWAY 74", "postcode": "80439"}}},
{"geometry": {"type": "Point", "coordinates": [-105.3193343217, 39.6328661104]}, "type": "Feature", "properties": {"collection_times": [{"days": "Mon-Fri", "time": "4:00pm"}, {"days": "Sat", "time": "2:30pm"}, {"days": "Sun", "time": "Closed"}], "id": "8043900019", "name": "USPS COLLECTION BOX - BLUE BOX", "address": {"city": "EVERGREEN", "state": "CO", "street": "28186 HIGHWAY 74", "postcode": "80439"}}},
{"geometry": {"type": "Point", "coordinates": [-105.3476247853, 39.6519933739]}, "type": "Feature", "properties": {"collection_times": [{"days": "Mon-Fri", "time": "3:30pm"}, {"days": "Sat", "time": "2:00pm"}, {"days": "Sun", "time": "Closed"}], "id": "8043900020", "name": "USPS COLLECTION BOX - BLUE BOX", "address": {"city": "EVERGREEN", "state": "CO", "street": "30931 STAGECOACH BLVD", "postcode": "80439"}}},
{"geometry": {"type": "Point", "coordinates": [-105.3496961465, 39.6521081209]}, "type": "Feature", "properties": {"collection_times": [{"days": "Mon-Fri", "time": "3:30pm"}, {"days": "Sat", "time": "2:00pm"}, {"days": "Sun", "time": "Closed"}], "id": "8043900021", "name": "USPS COLLECTION BOX - BLUE BOX", "address": {"city": "EVERGREEN", "state": "CO", "street": "30960 STAGECOACH BLVD", "postcode": "80439"}}},
{"geometry": {"type": "Point", "coordinates": [-105.3658920377, 39.6840574766]}, "type": "Feature", "properties": {"collection_times": [{"days": "Mon-Fri", "time": "3:30pm"}, {"days": "Sat", "time": "1:00pm"}, {"days": "Sun", "time": "Closed"}], "id": "8043900024", "name": "USPS COLLECTION BOX - BLUE BOX", "address": {"city": "EVERGREEN", "state": "CO", "street": "32214 ELLINGWOOD TRL", "postcode": "80439"}}},
{"geometry": {"type": "Point", "coordinates": [-105.3428681073, 39.6498167294]}, "type": "Feature", "properties": {"collection_times": [{"days": "Mon-Fri", "time": "5:15pm"}, {"days": "Sat", "time": "2:30pm"}, {"days": "Sun", "time": "Closed"}], "id": "8043900026", "name": "USPS COLLECTION BOX - BLUE BOX", "address": {"city": "EVERGREEN", "state": "CO", "street": "3649 EVERGREEN PKWY", "postcode": "80439"}}},
{"geometry": {"type": "Point", "coordinates": [-105.310359212, 39.5904735929]}, "type": "Feature", "properties": {"collection_times": [{"days": "Mon-Fri", "time": "4:00pm"}, {"days": "Sat", "time": "2:00pm"}, {"days": "Sun", "time": "Closed"}], "id": "8043900027", "name": "USPS COLLECTION BOX - BLUE BOX", "address": {"city": "EVERGREEN", "state": "CO", "street": "6949 HIGHWAY 73", "postcode": "80439"}}},
{"geometry": {"type": "Point", "coordinates": [-105.3428681073, 39.6498167294]}, "type": "Feature", "properties": {"collection_times": [{"days": "Mon-Fri", "time": "5:15pm"}, {"days": "Sat", "time": "2:30pm"}, {"days": "Sun", "time": "Closed"}], "id": "8043900028", "name": "USPS COLLECTION BOX - APC", "address": {"city": "EVERGREEN", "state": "CO", "street": "3649 EVERGREEN PKWY", "postcode": "80439"}}},
{"geometry": {"type": "Point", "coordinates": [-105.3433328899, 39.6501866088]}, "type": "Feature", "properties": {"collection_times": [{"days": "Mon-Fri", "time": "5:15pm"}, {"days": "Sat", "time": "2:30pm"}, {"days": "Sun", "time": "Closed"}], "id": "8043900029", "name": "USPS COLLECTION BOX - PO LOBBY", "address": {"city": "EVERGREEN", "state": "CO", "street": "3649 US HIGHWAY 74", "postcode": "80439"}}},
{"geometry": {"type": "Point", "coordinates": [-105.3433328899, 39.6501866088]}, "type": "Feature", "properties": {"collection_times": [{"days": "Mon-Fri", "time": "5:15pm"}, {"days": "Sat", "time": "2:30pm"}, {"days": "Sun", "time": "Closed"}], "id": "8043900030", "name": "USPS COLLECTION BOX - PO LOBBY", "address": {"city": "EVERGREEN", "state": "CO", "street": "3649 US HIGHWAY 74", "postcode": "80439"}}},
{"geometry": {"type": "Point", "coordinates": [-105.3639567168, 39.681537774]}, "type": "Feature", "properties": {"collection_times": [{"days": "Mon-Fri", "time": "4:00pm"}, {"days": "Sat", "time": "1:00pm"}, {"days": "Sun", "time": "Closed"}], "id": "8043900031", "name": "USPS COLLECTION BOX - BLUE BOX", "address": {"city": "EVERGREEN", "state": "CO", "street": "32156 CASTLE CT", "postcode": "80439"}}},
{"geometry": {"type": "Point", "coordinates": [-105.3925669865, 39.6433550246]}, "type": "Feature", "properties": {"collection_times": [{"days": "Mon-Sat", "time": "11:00am"}, {"days": "Sun", "time": "Closed"}], "id": "8043900032", "name": "USPS COLLECTION BOX - BLUE BOX", "address": {"city": "EVERGREEN", "state": "CO", "street": "952 SWEDE GULCH RD", "postcode": "80439"}}},
{"geometry": {"type": "Point", "coordinates": [-106.0011507674, 39.2251619512]}, "type": "Feature", "properties": {"collection_times": [{"days": "Mon-Fri", "time": "3:30pm"}, {"days": "Sat", "time": "1:00pm"}, {"days": "Sun", "time": "Closed"}], "id": "8044000000", "name": "USPS COLLECTION BOX - BLUE BOX", "address": {"city": "FAIRPLAY", "state": "CO", "street": "517 HATHAWAY ST", "postcode": "80440"}}},
{"geometry": {"type": "Point", "coordinates": [-106.0011507674, 39.2251619512]}, "type": "Feature", "properties": {"collection_times": [{"days": "Mon-Fri", "time": "4:00pm"}, {"days": "Sat", "time": "1:00pm"}, {"days": "Sun", "time": "Closed"}], "id": "8044000001", "name": "USPS COLLECTION BOX - PO LOBBY", "address": {"city": "FAIRPLAY", "state": "CO", "street": "517 HATHAWAY ST", "postcode": "80440"}}},
{"geometry": {"type": "Point", "coordinates": [-106.0011507674, 39.2251619512]}, "type": "Feature", "properties": {"collection_times": [{"days": "Mon-Fri", "time": "4:00pm"}, {"days": "Sat", "time": "1:00pm"}, {"days": "Sun", "time": "Closed"}], "id": "8044000002", "name": "USPS COLLECTION BOX - PO LOBBY", "address": {"city": "FAIRPLAY", "state": "CO", "street": "517 HATHAWAY ST", "postcode": "80440"}}},
{"geometry": {"type": "Point", "coordinates": [-106.0011507674, 39.2251619512]}, "type": "Feature", "properties": {"collection_times": [{"days": "Mon-Fri", "time": "4:00pm"}, {"days": "Sat", "time": "1:00pm"}, {"days": "Sun", "time": "Closed"}], "id": "8044000003", "name": "USPS COLLECTION BOX - PO LOBBY", "address": {"city": "FAIRPLAY", "state": "CO", "street": "517 HATHAWAY ST", "postcode": "80440"}}},
{"geometry": {"type": "Point", "coordinates": [-106.0011507674, 39.2251619512]}, "type": "Feature", "properties": {"collection_times": [{"days": "Mon-Fri", "time": "4:00pm"}, {"days": "Sat", "time": "1:00pm"}, {"days": "Sun", "time": "Closed"}], "id": "8044000004", "name": "USPS COLLECTION BOX - PO LOBBY", "address": {"city": "FAIRPLAY", "state": "CO", "street": "517 HATHAWAY ST", "postcode": "80440"}}},
{"geometry": {"type": "Point", "coordinates": [-105.8167506137, 39.9486629632]}, "type": "Feature", "properties": {"collection_times": [{"days": "Mon-Fri", "time": "4:15pm"}, {"days": "Sat", "time": "12:00pm"}, {"days": "Sun", "time": "Closed"}], "id": "8044200000", "name": "USPS COLLECTION BOX - BLUE BOX", "address": {"city": "FRASER", "state": "CO", "street": "520 ZEREX", "postcode": "80442"}}},
{"geometry": {"type": "Point", "coordinates": [-105.8167506137, 39.9486629632]}, "type": "Feature", "properties": {"collection_times": [{"days": "Mon-Fri", "time": "4:30pm"}, {"days": "Sat", "time": "12:00pm"}, {"days": "Sun", "time": "Closed"}], "id": "8044200001", "name": "USPS COLLECTION BOX - PO LOBBY", "address": {"city": "FRASER", "state": "CO", "street": "520 ZEREX", "postcode": "80442"}}},
{"geometry": {"type": "Point", "coordinates": [-106.0963497562, 39.5761565715]}, "type": "Feature", "properties": {"collection_times": [{"days": "Mon-Fri", "time": "3:45pm"}, {"days": "Sat", "time": "10:15am"}, {"days": "Sun", "time": "Closed"}], "id": "8044300000", "name": "USPS COLLECTION BOX - BLUE BOX", "address": {"city": "FRISCO", "state": "CO", "street": "501 E MAIN ST", "postcode": "80443"}}},
{"geometry": {"type": "Point", "coordinates": [-106.0939490767, 39.5847189949]}, "type": "Feature", "properties": {"collection_times": [{"days": "Mon-Fri", "time": "4:00pm"}, {"days": "Sat", "time": "10:16am"}, {"days": "Sun", "time": "Closed"}], "id": "8044300001", "name": "USPS COLLECTION BOX - BLUE BOX", "address": {"city": "FRISCO", "state": "CO", "street": "715 N SUMMIT BLVD", "postcode": "80443"}}},
{"geometry": {"type": "Point", "coordinates": [-106.103710244, 39.5752474729]}, "type": "Feature", "properties": {"collection_times": [{"days": "Mon-Fri", "time": "5:00pm"}, {"days": "Sat", "time": "12:30pm"}, {"days": "Sun", "time": "Closed"}], "id": "8044300002", "name": "USPS COLLECTION BOX - BLUE BOX", "address": {"city": "FRISCO", "state": "CO", "street": "35 W MAIN ST", "postcode": "80443"}}},
{"geometry": {"type": "Point", "coordinates": [-106.1037153737, 39.5752217029]}, "type": "Feature", "properties": {"collection_times": [{"days": "Mon-Fri", "time": "5:00pm"}, {"days": "Sat", "time": "12:30pm"}, {"days": "Sun", "time": "Closed"}], "id": "8044300003", "name": "USPS COLLECTION BOX - PO LOBBY", "address": {"city": "FRISCO", "state": "CO", "street": "35 W MAIN ST", "postcode": "80443"}}},
{"geometry": {"type": "Point", "coordinates": [-106.1037153737, 39.5752217029]}, "type": "Feature", "properties": {"collection_times": [{"days": "Mon-Fri", "time": "5:00pm"}, {"days": "Sat", "time": "12:30pm"}, {"days": "Sun", "time": "Closed"}], "id": "8044300008", "name": "USPS COLLECTION BOX - PO LOBBY", "address": {"city": "FRISCO", "state": "CO", "street": "35 W MAIN ST", "postcode": "80443"}}},
{"geometry": {"type": "Point", "coordinates": [-106.0796366356, 39.5692643444]}, "type": "Feature", "properties": {"collection_times": [{"days": "Mon-Fri", "time": "2:25pm"}, {"days": "Sat", "time": "10:20am"}, {"days": "Sun", "time": "Closed"}], "id": "8044300011", "name": "USPS COLLECTION BOX - BLUE BOX", "address": {"city": "FRISCO", "state": "CO", "street": "340 PEAK ONE DR", "postcode": "80443"}}},
{"geometry": {"type": "Point", "coordinates": [-105.6978521323, 39.7065140252]}, "type": "Feature", "properties": {"collection_times": [{"days": "Mon-Fri", "time": "4:45pm"}, {"days": "Sat", "time": "12:00pm"}, {"days": "Sun", "time": "Closed"}], "id": "8044400001", "name": "USPS COLLECTION BOX - BLUE BOX", "address": {"city": "GEORGETOWN", "state": "CO", "street": "700 6TH ST", "postcode": "80444"}}},
{"geometry": {"type": "Point", "coordinates": [-105.6978521323, 39.7065140252]}, "type": "Feature", "properties": {"collection_times": [{"days": "Mon-Fri", "time": "4:45pm"}, {"days": "Sat", "time": "12:00pm"}, {"days": "Sun", "time": "Closed"}], "id": "8044400002", "name": "USPS COLLECTION BOX - PO LOBBY", "address": {"city": "GEORGETOWN", "state": "CO", "street": "700 6TH ST", "postcode": "80444"}}},
{"geometry": {"type": "Point", "coordinates": [-105.9413277265, 40.0865612067]}, "type": "Feature", "properties": {"collection_times": [{"days": "Mon-Fri", "time": "4:00pm"}, {"days": "Sat", "time": "11:30am"}, {"days": "Sun", "time": "Closed"}], "id": "8044600000", "name": "USPS COLLECTION BOX - BLUE BOX", "address": {"city": "GRANBY", "state": "CO", "street": "54 N JASPER ST", "postcode": "80446"}}},
{"geometry": {"type": "Point", "coordinates": [-105.9413277265, 40.0865612067]}, "type": "Feature", "properties": {"collection_times": [{"days": "Mon-Fri", "time": "4:30pm"}, {"days": "Sat", "time": "11:30am"}, {"days": "Sun", "time": "Closed"}], "id": "8044600003", "name": "USPS COLLECTION BOX - PO LOBBY", "address": {"city": "GRANBY", "state": "CO", "street": "54 JASPER ST", "postcode": "80446"}}},
{"geometry": {"type": "Point", "coordinates": [-105.9386670178, 40.0078858353]}, "type": "Feature", "properties": {"collection_times": [{"days": "Mon-Sat", "time": "1:30pm"}, {"days": "Sun", "time": "Closed"}], "id": "8044600004", "name": "USPS COLLECTION BOX - BLUE BOX", "address": {"city": "GRANBY", "state": "CO", "street": "1001 THOMPSON RD", "postcode": "80446"}}},
{"geometry": {"type": "Point", "coordinates": [-105.8315635706, 40.2520680869]}, "type": "Feature", "properties": {"collection_times": [{"days": "Mon-Fri", "time": "4:00pm"}, {"days": "Sat", "time": "11:15am"}, {"days": "Sun", "time": "Closed"}], "id": "8044700000", "name": "USPS COLLECTION BOX - PO LOBBY", "address": {"city": "GRAND LAKE", "state": "CO", "street": "520 CENTER DR", "postcode": "80447"}}},
{"geometry": {"type": "Point", "coordinates": [-105.8315635706, 40.2520680869]}, "type": "Feature", "properties": {"collection_times": [{"days": "Mon-Fri", "time": "4:00pm"}, {"days": "Sat", "time": "11:15am"}, {"days": "Sun", "time": "Closed"}], "id": "8044700001", "name": "USPS COLLECTION BOX - BLUE BOX", "address": {"city": "GRAND LAKE", "state": "CO", "street": "520 CENTER DR", "postcode": "80447"}}},
{"geometry": {"type": "Point", "coordinates": [-105.8196347442, 40.2516490994]}, "type": "Feature", "properties": {"collection_times": [{"days": "Mon-Fri", "time": "4:00pm"}, {"days": "Sat", "time": "10:30am"}, {"days": "Sun", "time": "Closed"}], "id": "8044700002", "name": "USPS COLLECTION BOX - BLUE BOX", "address": {"city": "GRAND LAKE", "state": "CO", "street": "1001 GRAND AVE", "postcode": "80447"}}},
{"geometry": {"type": "Point", "coordinates": [-105.8315635706, 40.2520680869]}, "type": "Feature", "properties": {"collection_times": [{"days": "Mon-Fri", "time": "4:00pm"}, {"days": "Sat", "time": "11:15am"}, {"days": "Sun", "time": "Closed"}], "id": "8044700003", "name": "USPS COLLECTION BOX - PO LOBBY", "address": {"city": "GRAND LAKE", "state": "CO", "street": "520 CENTER DR", "postcode": "80447"}}},
{"geometry": {"type": "Point", "coordinates": [-105.8315635706, 40.2520680869]}, "type": "Feature", "properties": {"collection_times": [{"days": "Mon-Fri", "time": "4:00pm"}, {"days": "Sat", "time": "11:15am"}, {"days": "Sun", "time": "Closed"}], "id": "8044700004", "name": "USPS COLLECTION BOX - PO LOBBY", "address": {"city": "GRAND LAKE", "state": "CO", "street": "520 CENTER DR", "postcode": "80447"}}},
{"geometry": {"type": "Point", "coordinates": [-105.8315635706, 40.2520680869]}, "type": "Feature", "properties": {"collection_times": [{"days": "Mon-Fri", "time": "4:00pm"}, {"days": "Sat", "time": "11:15am"}, {"days": "Sun", "time": "Closed"}], "id": "8044700005", "name": "USPS COLLECTION BOX - PO LOBBY", "address": {"city": "GRAND LAKE", "state": "CO", "street": "520 CENTER DR", "postcode": "80447"}}},
{"geometry": {"type": "Point", "coordinates": [-105.6611497554, 39.4593623067]}, "type": "Feature", "properties": {"collection_times": [{"days": "Mon-Sat", "time": "11:00am"}, {"days": "Sun", "time": "Closed"}], "id": "8044800002", "name": "USPS COLLECTION BOX - BLUE BOX", "address": {"city": "GRANT", "state": "CO", "street": "50455 US HIGHWAY 285", "postcode": "80448"}}},
{"geometry": {"type": "Point", "coordinates": [-105.7976247953, 39.0223599596]}, "type": "Feature", "properties": {"collection_times": [{"days": "Mon-Fri", "time": "2:55pm"}, {"days": "Sat", "time": "1:25pm"}, {"days": "Sun", "time": "Closed"}], "id": "8044900000", "name": "USPS COLLECTION BOX - PO LOBBY", "address": {"city": "HARTSEL", "state": "CO", "street": "88 MARIPOSA ST", "postcode": "80449"}}},
{"geometry": {"type": "Point", "coordinates": [-106.0956977888, 40.0737577916]}, "type": "Feature", "properties": {"collection_times": [{"days": "Mon-Fri", "time": "3:45pm"}, {"days": "Sat", "time": "11:45am"}, {"days": "Sun", "time": "Closed"}], "id": "8045100000", "name": "USPS COLLECTION BOX - BLUE BOX", "address": {"city": "HOT SLPHR SPR", "state": "CO", "street": "506 GRAND AVE", "postcode": "80451"}}},
{"geometry": {"type": "Point", "coordinates": [-106.0956977888, 40.0737577916]}, "type": "Feature", "properties": {"collection_times": [{"days": "Mon-Fri", "time": "3:45pm"}, {"days": "Sat", "time": "11:45am"}, {"days": "Sun", "time": "Closed"}], "id": "8045100001", "name": "USPS COLLECTION BOX - PO LOBBY", "address": {"city": "HOT SLPHR SPR", "state": "CO", "street": "506 GRAND AVE", "postcode": "80451"}}},
{"geometry": {"type": "Point", "coordinates": [-105.5054377183, 39.7415342259]}, "type": "Feature", "properties": {"collection_times": [{"days": "Mon-Fri", "time": "4:50pm"}, {"days": "Sat", "time": "11:50am"}, {"days": "Sun", "time": "Closed"}], "id": "8045200002", "name": "USPS COLLECTION BOX - BLUE BOX", "address": {"city": "IDAHO SPRINGS", "state": "CO", "street": "2420 COLORADO BLVD", "postcode": "80452"}}},
{"geometry": {"type": "Point", "coordinates": [-105.5054377183, 39.7415342259]}, "type": "Feature", "properties": {"collection_times": [{"days": "Mon-Fri", "time": "4:50pm"}, {"days": "Sat", "time": "11:50am"}, {"days": "Sun", "time": "Closed"}], "id": "8045200003", "name": "USPS COLLECTION BOX - PO LOBBY", "address": {"city": "IDAHO SPRINGS", "state": "CO", "street": "2420 COLORADO BLVD", "postcode": "80452"}}},
{"geometry": {"type": "Point", "coordinates": [-105.5054377183, 39.7415342259]}, "type": "Feature", "properties": {"collection_times": [{"days": "Mon-Fri", "time": "4:50pm"}, {"days": "Sat", "time": "11:50am"}, {"days": "Sun", "time": "Closed"}], "id": "8045200004", "name": "USPS COLLECTION BOX - PO LOBBY", "address": {"city": "IDAHO SPRINGS", "state": "CO", "street": "2420 COLORADO BLVD", "postcode": "80452"}}},
{"geometry": {"type": "Point", "coordinates": [-105.243016907, 39.6656908557]}, "type": "Feature", "properties": {"collection_times": [{"days": "Mon-Fri", "time": "4:45pm"}, {"days": "Sat", "time": "11:45am"}, {"days": "Sun", "time": "Closed"}], "id": "8045300000", "name": "USPS COLLECTION BOX - BLUE BOX", "address": {"city": "IDLEDALE", "state": "CO", "street": "21659 HIGHWAY 74", "postcode": "80453"}}},
{"geometry": {"type": "Point", "coordinates": [-105.243016907, 39.6656908557]}, "type": "Feature", "properties": {"collection_times": [{"days": "Mon-Fri", "time": "12:45pm"}, {"days": "Sat", "time": "11:45am"}, {"days": "Sun", "time": "Closed"}], "id": "8045300001", "name": "USPS COLLECTION BOX - PO LOBBY", "address": {"city": "IDLEDALE", "state": "CO", "street": "21659 HIGHWAY 74", "postcode": "80453"}}},
{"geometry": {"type": "Point", "coordinates": [-105.243016907, 39.6656908557]}, "type": "Feature", "properties": {"collection_times": [{"days": "Mon-Fri", "time": "12:45pm"}, {"days": "Sat", "time": "11:45am"}, {"days": "Sun", "time": "Closed"}], "id": "8045300002", "name": "USPS COLLECTION BOX - PO LOBBY", "address": {"city": "IDLEDALE", "state": "CO", "street": "21659 HIGHWAY 74", "postcode": "80453"}}},
{"geometry": {"type": "Point", "coordinates": [-105.2367441158, 39.6173994089]}, "type": "Feature", "properties": {"collection_times": [{"days": "Mon-Fri", "time": "4:45pm"}, {"days": "Sat", "time": "11:45am"}, {"days": "Sun", "time": "Closed"}], "id": "8045400000", "name": "USPS COLLECTION BOX - BLUE BOX", "address": {"city": "INDIAN HILLS", "state": "CO", "street": "5491 S PARMALEE GULCH RD", "postcode": "80454"}}},
{"geometry": {"type": "Point", "coordinates": [-105.2367441158, 39.6173994089]}, "type": "Feature", "properties": {"collection_times": [{"days": "Mon-Fri", "time": "4:45pm"}, {"days": "Sat", "time": "11:45am"}, {"days": "Sun", "time": "Closed"}], "id": "8045400001", "name": "USPS COLLECTION BOX - PO LOBBY", "address": {"city": "INDIAN HILLS", "state": "CO", "street": "5491 S PARMALEE GULCH RD", "postcode": "80454"}}},
{"geometry": {"type": "Point", "coordinates": [-105.3891495596, 40.1159635221]}, "type": "Feature", "properties": {"collection_times": [{"days": "Mon-Fri", "time": "2:45pm"}, {"days": "Sat", "time": "11:50am"}, {"days": "Sun", "time": "Closed"}], "id": "8045500000", "name": "USPS COLLECTION BOX - BLUE BOX", "address": {"city": "JAMESTOWN", "state": "CO", "street": "133 MAIN ST", "postcode": "80455"}}},
{"geometry": {"type": "Point", "coordinates": [-105.4226871637, 40.0870722627]}, "type": "Feature", "properties": {"collection_times": [{"days": "Mon-Fri", "time": "2:45pm"}, {"days": "Sat", "time": "11:50am"}, {"days": "Sun", "time": "Closed"}], "id": "8045500001", "name": "USPS COLLECTION BOX - PO LOBBY", "address": {"city": "JAMESTOWN", "state": "CO", "street": "133 MAIN ST", "postcode": "80455"}}},
{"geometry": {"type": "Point", "coordinates": [-105.4226871637, 40.0870722627]}, "type": "Feature", "properties": {"collection_times": [{"days": "Mon-Fri", "time": "2:45pm"}, {"days": "Sat", "time": "11:50am"}, {"days": "Sun", "time": "Closed"}], "id": "8045500002", "name": "USPS COLLECTION BOX - PO LOBBY", "address": {"city": "JAMESTOWN", "state": "CO", "street": "133 MAIN ST", "postcode": "80455"}}},
{"geometry": {"type": "Point", "coordinates": [-105.4226871637, 40.0870722627]}, "type": "Feature", "properties": {"collection_times": [{"days": "Mon-Fri", "time": "2:45pm"}, {"days": "Sat", "time": "11:50am"}, {"days": "Sun", "time": "Closed"}], "id": "8045500003", "name": "USPS COLLECTION BOX - PO LOBBY", "address": {"city": "JAMESTOWN", "state": "CO", "street": "133 MAIN ST", "postcode": "80455"}}},
{"geometry": {"type": "Point", "coordinates": [-105.3008874662, 39.6565634778]}, "type": "Feature", "properties": {"collection_times": [{"days": "Mon-Fri", "time": "4:30pm"}, {"days": "Sat", "time": "10:30am"}, {"days": "Sun", "time": "Closed"}], "id": "8045700001", "name": "USPS COLLECTION BOX - PO LOBBY", "address": {"city": "KITTREDGE", "state": "CO", "street": "26300 HILLTOP DR", "postcode": "80457"}}},
{"geometry": {"type": "Point", "coordinates": [-105.3008874662, 39.6565634778]}, "type": "Feature", "properties": {"collection_times": [{"days": "Mon-Fri", "time": "4:30pm"}, {"days": "Sat", "time": "10:30am"}, {"days": "Sun", "time": "Closed"}], "id": "8045700002", "name": "USPS COLLECTION BOX - PO LOBBY", "address": {"city": "KITTREDGE", "state": "CO", "street": "26300 HILLTOP DR", "postcode": "80457"}}},
{"geometry": {"type": "Point", "coordinates": [-105.3008874662, 39.6565634778]}, "type": "Feature", "properties": {"collection_times": [{"days": "Mon-Fri", "time": "4:30pm"}, {"days": "Sat", "time": "10:30am"}, {"days": "Sun", "time": "Closed"}], "id": "8045700003", "name": "USPS COLLECTION BOX - BLUE BOX", "address": {"city": "KITTREDGE", "state": "CO", "street": "26300 HILLTOP DR", "postcode": "80457"}}},
{"geometry": {"type": "Point", "coordinates": [-106.3874402163, 40.0589014762]}, "type": "Feature", "properties": {"collection_times": [{"days": "Mon-Fri", "time": "4:30pm"}, {"days": "Sat", "time": "12:00pm"}, {"days": "Sun", "time": "Closed"}], "id": "8045900000", "name": "USPS COLLECTION BOX - BLUE BOX", "address": {"city": "KREMMLING", "state": "CO", "street": "701 PARK ST", "postcode": "80459"}}},
{"geometry": {"type": "Point", "coordinates": [-106.3874402163, 40.0589014762]}, "type": "Feature", "properties": {"collection_times": [{"days": "Mon-Fri", "time": "4:45pm"}, {"days": "Sat", "time": "12:00pm"}, {"days": "Sun", "time": "Closed"}], "id": "8045900001", "name": "USPS COLLECTION BOX - PO LOBBY", "address": {"city": "KREMMLING", "state": "CO", "street": "701 PARK ST", "postcode": "80459"}}},
{"geometry": {"type": "Point", "coordinates": [-106.2919367745, 39.2603384207]}, "type": "Feature", "properties": {"collection_times": [{"days": "Mon-Sat", "time": "2:30pm"}, {"days": "Sun", "time": "Closed"}], "id": "8046100000", "name": "USPS COLLECTION BOX - BLUE BOX", "address": {"city": "LEADVILLE", "state": "CO", "street": "1900 N POPLAR ST", "postcode": "80461"}}},
{"geometry": {"type": "Point", "coordinates": [-106.2923246669, 39.247796087]}, "type": "Feature", "properties": {"collection_times": [{"days": "Mon-Fri", "time": "4:30pm"}, {"days": "Sat", "time": "3:15pm"}, {"days": "Sun", "time": "Closed"}], "id": "8046100001", "name": "USPS COLLECTION BOX - BLUE BOX", "address": {"city": "LEADVILLE", "state": "CO", "street": "130 W 5TH ST", "postcode": "80461"}}},
{"geometry": {"type": "Point", "coordinates": [-106.2923246669, 39.247796087]}, "type": "Feature", "properties": {"collection_times": [{"days": "Mon-Fri", "time": "4:30pm"}, {"days": "Sat", "time": "3:15pm"}, {"days": "Sun", "time": "Closed"}], "id": "8046100002", "name": "USPS COLLECTION BOX - BLUE BOX", "address": {"city": "LEADVILLE", "state": "CO", "street": "130 W 5TH ST", "postcode": "80461"}}},
{"geometry": {"type": "Point", "coordinates": [-106.2923246669, 39.247796087]}, "type": "Feature", "properties": {"collection_times": [{"days": "Mon-Fri", "time": "4:30pm"}, {"days": "Sat", "time": "3:15pm"}, {"days": "Sun", "time": "Closed"}], "id": "8046100004", "name": "USPS COLLECTION BOX - PO LOBBY", "address": {"city": "LEADVILLE", "state": "CO", "street": "130 W 5TH ST", "postcode": "80461"}}},
{"geometry": {"type": "Point", "coordinates": [-106.2923246669, 39.247796087]}, "type": "Feature", "properties": {"collection_times": [{"days": "Mon-Fri", "time": "4:30pm"}, {"days": "Sat", "time": "3:15pm"}, {"days": "Sun", "time": "Closed"}], "id": "8046100005", "name": "USPS COLLECTION BOX - PO LOBBY", "address": {"city": "LEADVILLE", "state": "CO", "street": "130 W 5TH ST", "postcode": "80461"}}},
{"geometry": {"type": "Point", "coordinates": [-106.7281123831, 39.9169103501]}, "type": "Feature", "properties": {"collection_times": [{"days": "Mon-Fri", "time": "11:15am"}, {"days": "Sat", "time": "10:30am"}, {"days": "Sun", "time": "Closed"}], "id": "8046300000", "name": "USPS COLLECTION BOX - PO LOBBY", "address": {"city": "MCCOY", "state": "CO", "street": "63 MCCOY RD", "postcode": "80463"}}},
{"geometry": {"type": "Point", "coordinates": [-105.1575528536, 39.6350025342]}, "type": "Feature", "properties": {"collection_times": [{"days": "Mon-Sat", "time": "12:00pm"}, {"days": "Sun", "time": "Closed"}], "id": "8046500000", "name": "USPS COLLECTION BOX - BLUE BOX", "address": {"city": "MORRISON", "state": "CO", "street": "14011 W QUINCY AVE", "postcode": "80465"}}},
{"geometry": {"type": "Point", "coordinates": [-105.1287572865, 39.6275243193]}, "type": "Feature", "properties": {"collection_times": [{"days": "Mon-Sat", "time": "11:00am"}, {"days": "Sun", "time": "Closed"}], "id": "8046500001", "name": "USPS COLLECTION BOX - BLUE BOX", "address": {"city": "MORRISON", "state": "CO", "street": "11600 CHENANGEO DR", "postcode": "80465"}}},
{"geometry": {"type": "Point", "coordinates": [-105.1429240952, 39.6350178658]}, "type": "Feature", "properties": {"collection_times": [{"days": "Mon-Sat", "time": "10:00am"}, {"days": "Sun", "time": "Closed"}], "id": "8046500002", "name": "USPS COLLECTION BOX - BLUE BOX", "address": {"city": "MORRISON", "state": "CO", "street": "4501 S YOUNGFIELD ST", "postcode": "80465"}}},
{"geometry": {"type": "Point", "coordinates": [-105.1299957493, 39.6380888694]}, "type": "Feature", "properties": {"collection_times": [{"days": "Mon-Sat", "time": "10:00am"}, {"days": "Sun", "time": "Closed"}], "id": "8046500003", "name": "USPS COLLECTION BOX - BLUE BOX", "address": {"city": "MORRISON", "state": "CO", "street": "11700 W QUINCY PL", "postcode": "80465"}}},
{"geometry": {"type": "Point", "coordinates": [-105.1930250611, 39.651875078]}, "type": "Feature", "properties": {"collection_times": [{"days": "Mon-Fri", "time": "4:30pm"}, {"days": "Sat", "time": "2:00pm"}, {"days": "Sun", "time": "Closed"}], "id": "8046500004", "name": "USPS COLLECTION BOX - BLUE BOX", "address": {"city": "MORRISON", "state": "CO", "street": "151 SUMMER ST", "postcode": "80465"}}},
{"geometry": {"type": "Point", "coordinates": [-105.1930250611, 39.651875078]}, "type": "Feature", "properties": {"collection_times": [{"days": "Mon-Fri", "time": "5:00pm"}, {"days": "Sat", "time": "2:00pm"}, {"days": "Sun", "time": "Closed"}], "id": "8046500005", "name": "USPS COLLECTION BOX - PO LOBBY", "address": {"city": "MORRISON", "state": "CO", "street": "151 SUMMER ST", "postcode": "80465"}}},
{"geometry": {"type": "Point", "coordinates": [-105.1930250611, 39.651875078]}, "type": "Feature", "properties": {"collection_times": [{"days": "Mon-Fri", "time": "5:00pm"}, {"days": "Sat", "time": "2:00pm"}, {"days": "Sun", "time": "Closed"}], "id": "8046500006", "name": "USPS COLLECTION BOX - PO LOBBY", "address": {"city": "MORRISON", "state": "CO", "street": "151 SUMMER ST", "postcode": "80465"}}},
{"geometry": {"type": "Point", "coordinates": [-105.1930250611, 39.651875078]}, "type": "Feature", "properties": {"collection_times": [{"days": "Mon-Fri", "time": "5:00pm"}, {"days": "Sat", "time": "2:00pm"}, {"days": "Sun", "time": "Closed"}], "id": "8046500007", "name": "USPS COLLECTION BOX - PO LOBBY", "address": {"city": "MORRISON", "state": "CO", "street": "151 SUMMER ST", "postcode": "80465"}}},
{"geometry": {"type": "Point", "coordinates": [-105.190640286, 39.6202559483]}, "type": "Feature", "properties": {"collection_times": [{"days": "Mon-Sat", "time": "11:00am"}, {"days": "Sun", "time": "Closed"}], "id": "8046500010", "name": "USPS COLLECTION BOX - BLUE BOX", "address": {"city": "MORRISON", "state": "CO", "street": "5202 WILLOW SPRINGS RD", "postcode": "80465"}}},
{"geometry": {"type": "Point", "coordinates": [-105.5045319484, 39.9638199993]}, "type": "Feature", "properties": {"collection_times": [{"days": "Mon-Fri", "time": "3:30pm"}, {"days": "Sat", "time": "12:00pm"}, {"days": "Sun", "time": "Closed"}], "id": "8046600001", "name": "USPS COLLECTION BOX - BLUE BOX", "address": {"city": "NEDERLAND", "state": "CO", "street": "350 EAST ST", "postcode": "80466"}}},
{"geometry": {"type": "Point", "coordinates": [-105.5045319484, 39.9638199993]}, "type": "Feature", "properties": {"collection_times": [{"days": "Mon-Fri", "time": "4:00pm"}, {"days": "Sat", "time": "12:00pm"}, {"days": "Sun", "time": "Closed"}], "id": "8046600002", "name": "USPS COLLECTION BOX - PO LOBBY", "address": {"city": "NEDERLAND", "state": "CO", "street": "350 EAST ST", "postcode": "80466"}}},
{"geometry": {"type": "Point", "coordinates": [-106.9557195001, 40.2758642077]}, "type": "Feature", "properties": {"collection_times": [{"days": "Mon-Fri", "time": "3:30pm"}, {"days": "Sat", "time": "11:00am"}, {"days": "Sun", "time": "Closed"}], "id": "8046700000", "name": "USPS COLLECTION BOX - BLUE BOX", "address": {"city": "OAK CREEK", "state": "CO", "street": "129 W MAIN ST", "postcode": "80467"}}},
{"geometry": {"type": "Point", "coordinates": [-106.9557195001, 40.2758642077]}, "type": "Feature", "properties": {"collection_times": [{"days": "Mon-Fri", "time": "3:30pm"}, {"days": "Sat", "time": "11:00am"}, {"days": "Sun", "time": "Closed"}], "id": "8046700002", "name": "USPS COLLECTION BOX - PO LOBBY", "address": {"city": "OAK CREEK", "state": "CO", "street": "129 W MAIN ST", "postcode": "80467"}}},
{"geometry": {"type": "Point", "coordinates": [-106.1765184129, 40.0567503603]}, "type": "Feature", "properties": {"collection_times": [{"days": "Mon-Fri", "time": "4:00pm"}, {"days": "Sat", "time": "9:45am"}, {"days": "Sun", "time": "Closed"}], "id": "8046800000", "name": "USPS COLLECTION BOX - BLUE BOX", "address": {"city": "PARSHALL", "state": "CO", "street": "225 MAIN ST", "postcode": "80468"}}},
{"geometry": {"type": "Point", "coordinates": [-106.1765184129, 40.0567503603]}, "type": "Feature", "properties": {"collection_times": [{"days": "Mon-Fri", "time": "11:15am"}, {"days": "Sat", "time": "9:45am"}, {"days": "Sun", "time": "Closed"}], "id": "8046800001", "name": "USPS COLLECTION BOX - PO LOBBY", "address": {"city": "PARSHALL", "state": "CO", "street": "225 MAIN ST", "postcode": "80468"}}},
{"geometry": {"type": "Point", "coordinates": [-106.9436308807, 40.2307288606]}, "type": "Feature", "properties": {"collection_times": [{"days": "Mon-Fri", "time": "3:30pm"}, {"days": "Sat", "time": "9:30am"}, {"days": "Sun", "time": "Closed"}], "id": "8046900000", "name": "USPS COLLECTION BOX - BLUE BOX", "address": {"city": "PHIPPSBURG", "state": "CO", "street": "21595 SECOND AVE", "postcode": "80469"}}},
{"geometry": {"type": "Point", "coordinates": [-106.9436308807, 40.2307288606]}, "type": "Feature", "properties": {"collection_times": [{"days": "Mon-Fri", "time": "12:30pm"}, {"days": "Sat", "time": "9:30am"}, {"days": "Sun", "time": "Closed"}], "id": "8046900001", "name": "USPS COLLECTION BOX - PO LOBBY", "address": {"city": "PHIPPSBURG", "state": "CO", "street": "21595 SECOND AVE", "postcode": "80469"}}},
{"geometry": {"type": "Point", "coordinates": [-105.3978387969, 39.4668382603]}, "type": "Feature", "properties": {"collection_times": [{"days": "Mon-Fri", "time": "4:00pm"}, {"days": "Sat", "time": "11:30am"}, {"days": "Sun", "time": "Closed"}], "id": "8047000000", "name": "USPS COLLECTION BOX - BLUE BOX", "address": {"city": "PINE", "state": "CO", "street": "187 MOUNT EVANS BLVD", "postcode": "80470"}}},
{"geometry": {"type": "Point", "coordinates": [-105.3219740518, 39.4092552242]}, "type": "Feature", "properties": {"collection_times": [{"days": "Mon-Sat", "time": "12:00pm"}, {"days": "Sun", "time": "Closed"}], "id": "8047000001", "name": "USPS COLLECTION BOX - BLUE BOX", "address": {"city": "PINE", "state": "CO", "street": "16936 S ELK CREEK RD", "postcode": "80470"}}},
{"geometry": {"type": "Point", "coordinates": [-105.3978387969, 39.4668382603]}, "type": "Feature", "properties": {"collection_times": [{"days": "Mon-Fri", "time": "4:00pm"}, {"days": "Sat", "time": "11:30am"}, {"days": "Sun", "time": "Closed"}], "id": "8047000002", "name": "USPS COLLECTION BOX - BLUE BOX", "address": {"city": "PINE", "state": "CO", "street": "187 MOUNT EVANS BLVD", "postcode": "80470"}}},
{"geometry": {"type": "Point", "coordinates": [-105.3978387969, 39.4668382603]}, "type": "Feature", "properties": {"collection_times": [{"days": "Mon-Fri", "time": "4:45pm"}, {"days": "Sat", "time": "11:30am"}, {"days": "Sun", "time": "Closed"}], "id": "8047000003", "name": "USPS COLLECTION BOX - PO LOBBY", "address": {"city": "PINE", "state": "CO", "street": "187 MOUNT EVANS BLVD", "postcode": "80470"}}},
{"geometry": {"type": "Point", "coordinates": [-105.4308614049, 39.9323412754]}, "type": "Feature", "properties": {"collection_times": [{"days": "Mon-Fri", "time": "1:30pm"}, {"days": "Sat", "time": "3:00pm"}, {"days": "Sun", "time": "Closed"}], "id": "8047100000", "name": "USPS COLLECTION BOX - BLUE BOX", "address": {"city": "PINECLIFFE", "state": "CO", "street": "114 PINECLIFF RD", "postcode": "80471"}}},
{"geometry": {"type": "Point", "coordinates": [-105.4308614049, 39.9323412754]}, "type": "Feature", "properties": {"collection_times": [{"days": "Mon-Fri", "time": "1:30pm"}, {"days": "Sat", "time": "3:00pm"}, {"days": "Sun", "time": "Closed"}], "id": "8047100001", "name": "USPS COLLECTION BOX - PO LOBBY", "address": {"city": "PINECLIFFE", "state": "CO", "street": "114 PINECLIFF RD", "postcode": "80471"}}},
{"geometry": {"type": "Point", "coordinates": [-106.1910538466, 40.4553393424]}, "type": "Feature", "properties": {"collection_times": [{"days": "Mon-Sat", "time": "10:45am"}, {"days": "Sun", "time": "Closed"}], "id": "8047300000", "name": "USPS COLLECTION BOX - PO LOBBY", "address": {"city": "RAND", "state": "CO", "street": "9786 HIGHWAY 125", "postcode": "80473"}}},
{"geometry": {"type": "Point", "coordinates": [-106.1910538466, 40.4553393424]}, "type": "Feature", "properties": {"collection_times": [{"days": "Mon-Fri", "time": "2:45pm"}, {"days": "Sat", "time": "10:45am"}, {"days": "Sun", "time": "Closed"}], "id": "8047300001", "name": "USPS COLLECTION BOX - BLUE BOX", "address": {"city": "RAND", "state": "CO", "street": "9786 HIGHWAY 125", "postcode": "80473"}}},
{"geometry": {"type": "Point", "coordinates": [-105.5010618036, 39.9164928955]}, "type": "Feature", "properties": {"collection_times": [{"days": "Mon-Fri", "time": "4:15pm"}, {"days": "Sat", "time": "12:00pm"}, {"days": "Sun", "time": "Closed"}], "id": "8047400001", "name": "USPS COLLECTION BOX - BLUE BOX", "address": {"city": "ROLLINSVILLE", "state": "CO", "street": "143 MAIN ST", "postcode": "80474"}}},
{"geometry": {"type": "Point", "coordinates": [-105.5010618036, 39.9164928955]}, "type": "Feature", "properties": {"collection_times": [{"days": "Mon-Fri", "time": "4:30pm"}, {"days": "Sat", "time": "12:00pm"}, {"days": "Sun", "time": "Closed"}], "id": "8047400002", "name": "USPS COLLECTION BOX - PO LOBBY", "address": {"city": "ROLLINSVILLE", "state": "CO", "street": "143 MAIN ST", "postcode": "80474"}}},
{"geometry": {"type": "Point", "coordinates": [-105.5547353878, 39.4222894014]}, "type": "Feature", "properties": {"collection_times": [{"days": "Mon-Fri", "time": "4:00pm"}, {"days": "Sat", "time": "11:00am"}, {"days": "Sun", "time": "Closed"}], "id": "8047500000", "name": "USPS COLLECTION BOX - BLUE BOX", "address": {"city": "SHAWNEE", "state": "CO", "street": "56052 S HIGHWAY 285", "postcode": "80475"}}},
{"geometry": {"type": "Point", "coordinates": [-105.5547353878, 39.4222894014]}, "type": "Feature", "properties": {"collection_times": [{"days": "Mon-Fri", "time": "4:00pm"}, {"days": "Sat", "time": "10:30am"}, {"days": "Sun", "time": "Closed"}], "id": "8047500001", "name": "USPS COLLECTION BOX - PO LOBBY", "address": {"city": "SHAWNEE", "state": "CO", "street": "56052 S HIGHWAY 285", "postcode": "80475"}}},
{"geometry": {"type": "Point", "coordinates": [-105.7250161383, 39.6967750787]}, "type": "Feature", "properties": {"collection_times": [{"days": "Mon-Sat", "time": "11:30am"}, {"days": "Sun", "time": "Closed"}], "id": "8047600000", "name": "USPS COLLECTION BOX - PO LOBBY", "address": {"city": "SILVER PLUME", "state": "CO", "street": "850 MAIN ST", "postcode": "80476"}}},
{"geometry": {"type": "Point", "coordinates": [-105.846739268, 39.99316661]}, "type": "Feature", "properties": {"collection_times": [{"days": "Mon-Fri", "time": "4:00pm"}, {"days": "Sat", "time": "10:00am"}, {"days": "Sun", "time": "Closed"}], "id": "8047800000", "name": "USPS COLLECTION BOX - BLUE BOX", "address": {"city": "TABERNASH", "state": "CO", "street": "72147 HIGHWAY 40", "postcode": "80478"}}},
{"geometry": {"type": "Point", "coordinates": [-105.846739268, 39.99316661]}, "type": "Feature", "properties": {"collection_times": [{"days": "Mon-Fri", "time": "4:15pm"}, {"days": "Sat", "time": "10:00am"}, {"days": "Sun", "time": "Closed"}], "id": "8047800001", "name": "USPS COLLECTION BOX - PO LOBBY", "address": {"city": "TABERNASH", "state": "CO", "street": "72147 HIGHWAY 40", "postcode": "80478"}}},
{"geometry": {"type": "Point", "coordinates": [-106.796751527, 40.0582504273]}, "type": "Feature", "properties": {"collection_times": [{"days": "Mon-Fri", "time": "12:00pm"}, {"days": "Sat", "time": "10:00am"}, {"days": "Sun", "time": "Closed"}], "id": "8047900000", "name": "USPS COLLECTION BOX - BLUE BOX", "address": {"city": "TOPONAS", "state": "CO", "street": "33650 COUNTY ROAD 5", "postcode": "80479"}}},
{"geometry": {"type": "Point", "coordinates": [-106.796751527, 40.0582504273]}, "type": "Feature", "properties": {"collection_times": [{"days": "Mon-Sat", "time": "10:00am"}, {"days": "Sun", "time": "Closed"}], "id": "8047900001", "name": "USPS COLLECTION BOX - PO LOBBY", "address": {"city": "TOPONAS", "state": "CO", "street": "33650 COUNTY ROAD 5", "postcode": "80479"}}},
{"geometry": {"type": "Point", "coordinates": [-106.2820094965, 40.7299754048]}, "type": "Feature", "properties": {"collection_times": [{"days": "Mon-Fri", "time": "2:45pm"}, {"days": "Sat", "time": "11:45am"}, {"days": "Sun", "time": "Closed"}], "id": "8048000000", "name": "USPS COLLECTION BOX - BLUE BOX", "address": {"city": "WALDEN", "state": "CO", "street": "485 MAIN ST", "postcode": "80480"}}},
{"geometry": {"type": "Point", "coordinates": [-106.2820094965, 40.7299754048]}, "type": "Feature", "properties": {"collection_times": [{"days": "Mon-Fri", "time": "2:45pm"}, {"days": "Sat", "time": "11:45am"}, {"days": "Sun", "time": "Closed"}], "id": "8048000001", "name": "USPS COLLECTION BOX - PO LOBBY", "address": {"city": "WALDEN", "state": "CO", "street": "485 MAIN ST", "postcode": "80480"}}},
{"geometry": {"type": "Point", "coordinates": [-105.5071283831, 40.0725502747]}, "type": "Feature", "properties": {"collection_times": [{"days": "Mon-Fri", "time": "3:00pm"}, {"days": "Sat", "time": "1:30pm"}, {"days": "Sun", "time": "Closed"}], "id": "8048100000", "name": "USPS COLLECTION BOX - PO LOBBY", "address": {"city": "WARD", "state": "CO", "street": "1 COLUMBIA ST", "postcode": "80481"}}},
{"geometry": {"type": "Point", "coordinates": [-105.7685237502, 39.8863959297]}, "type": "Feature", "properties": {"collection_times": [{"days": "Mon-Fri", "time": "4:15pm"}, {"days": "Sat", "time": "11:15am"}, {"days": "Sun", "time": "Closed"}], "id": "8048200000", "name": "USPS COLLECTION BOX - PO LOBBY", "address": {"city": "WINTER PARK", "state": "CO", "street": "78490 US HIGHWAY 40", "postcode": "80482"}}},
{"geometry": {"type": "Point", "coordinates": [-105.7685237502, 39.8863959297]}, "type": "Feature", "properties": {"collection_times": [{"days": "Mon-Fri", "time": "4:15pm"}, {"days": "Sat", "time": "11:15am"}, {"days": "Sun", "time": "Closed"}], "id": "8048200001", "name": "USPS COLLECTION BOX - PO LOBBY", "address": {"city": "WINTER PARK", "state": "CO", "street": "78490 US HIGHWAY 40", "postcode": "80482"}}},
{"geometry": {"type": "Point", "coordinates": [-105.7685237502, 39.8863959297]}, "type": "Feature", "properties": {"collection_times": [{"days": "Mon-Fri", "time": "4:15pm"}, {"days": "Sat", "time": "11:15am"}, {"days": "Sun", "time": "Closed"}], "id": "8048200002", "name": "USPS COLLECTION BOX - PO LOBBY", "address": {"city": "WINTER PARK", "state": "CO", "street": "78490 US HIGHWAY 40", "postcode": "80482"}}},
{"geometry": {"type": "Point", "coordinates": [-105.7685237502, 39.8863959297]}, "type": "Feature", "properties": {"collection_times": [{"days": "Mon-Fri", "time": "4:15pm"}, {"days": "Sat", "time": "11:15am"}, {"days": "Sun", "time": "Closed"}], "id": "8048200003", "name": "USPS COLLECTION BOX - PO LOBBY", "address": {"city": "WINTER PARK", "state": "CO", "street": "78490 US HIGHWAY 40", "postcode": "80482"}}},
{"geometry": {"type": "Point", "coordinates": [-105.7685237502, 39.8863959297]}, "type": "Feature", "properties": {"collection_times": [{"days": "Mon-Fri", "time": "4:15pm"}, {"days": "Sat", "time": "11:15am"}, {"days": "Sun", "time": "Closed"}], "id": "8048200007", "name": "USPS COLLECTION BOX - PO LOBBY", "address": {"city": "WINTER PARK", "state": "CO", "street": "78490 US HIGHWAY 40", "postcode": "80482"}}},
{"geometry": {"type": "Point", "coordinates": [-105.7685237502, 39.8863959297]}, "type": "Feature", "properties": {"collection_times": [{"days": "Mon-Fri", "time": "4:15pm"}, {"days": "Sat", "time": "11:15am"}, {"days": "Sun", "time": "Closed"}], "id": "8048200008", "name": "USPS COLLECTION BOX - PO LOBBY", "address": {"city": "WINTER PARK", "state": "CO", "street": "78490 US HIGHWAY 40", "postcode": "80482"}}},
{"geometry": {"type": "Point", "coordinates": [-105.7685237502, 39.8863959297]}, "type": "Feature", "properties": {"collection_times": [{"days": "Mon-Fri", "time": "4:15pm"}, {"days": "Sat", "time": "11:15am"}, {"days": "Sun", "time": "Closed"}], "id": "8048200009", "name": "USPS COLLECTION BOX - BLUE BOX", "address": {"city": "WINTER PARK", "state": "CO", "street": "78490 US HIGHWAY 40", "postcode": "80482"}}},
{"geometry": {"type": "Point", "coordinates": [-105.7685237502, 39.8863959297]}, "type": "Feature", "properties": {"collection_times": [{"days": "Mon-Fri", "time": "4:15pm"}, {"days": "Sat", "time": "11:15am"}, {"days": "Sun", "time": "Closed"}], "id": "8048200010", "name": "USPS COLLECTION BOX - BLUE BOX", "address": {"city": "WINTER PARK", "state": "CO", "street": "78490 US HIGHWAY 40", "postcode": "80482"}}},
{"geometry": {"type": "Point", "coordinates": [-105.7869376646, 39.9237521496]}, "type": "Feature", "properties": {"collection_times": [{"days": "Mon-Fri", "time": "2:35pm"}, {"days": "Sat", "time": "11:15am"}, {"days": "Sun", "time": "Closed"}], "id": "8048200011", "name": "USPS COLLECTION BOX - EXPRESS", "address": {"city": "WINTER PARK", "state": "CO", "street": "78490 US HIGHWAY 40", "postcode": "80482"}}},
{"geometry": {"type": "Point", "coordinates": [-106.9092501873, 40.1498944141]}, "type": "Feature", "properties": {"collection_times": [{"days": "Mon-Fri", "time": "3:30pm"}, {"days": "Sat", "time": "9:50am"}, {"days": "Sun", "time": "Closed"}], "id": "8048300002", "name": "USPS COLLECTION BOX - PO LOBBY", "address": {"city": "YAMPA", "state": "CO", "street": "261 MOFFAT AVE", "postcode": "80483"}}},
{"geometry": {"type": "Point", "coordinates": [-106.9092501873, 40.1498944141]}, "type": "Feature", "properties": {"collection_times": [{"days": "Mon-Fri", "time": "3:30pm"}, {"days": "Sat", "time": "9:30am"}, {"days": "Sun", "time": "Closed"}], "id": "8048300003", "name": "USPS COLLECTION BOX - BLUE BOX", "address": {"city": "YAMPA", "state": "CO", "street": "261 MOFFAT AVE", "postcode": "80483"}}},
{"geometry": {"type": "Point", "coordinates": [-106.8326638522, 40.4864077268]}, "type": "Feature", "properties": {"collection_times": [{"days": "Mon-Fri", "time": "3:00pm"}, {"days": "Sat", "time": "12:30pm"}, {"days": "Sun", "time": "Closed"}], "id": "8048700000", "name": "USPS COLLECTION BOX - BLUE BOX", "address": {"city": "STEAMBOAT SPR", "state": "CO", "street": "700 OAK ST", "postcode": "80487"}}},
{"geometry": {"type": "Point", "coordinates": [-106.8402366329, 40.489363844]}, "type": "Feature", "properties": {"collection_times": [{"days": "Mon-Fri", "time": "3:00pm"}, {"days": "Sat", "time": "12:30pm"}, {"days": "Sun", "time": "Closed"}], "id": "8048700002", "name": "USPS COLLECTION BOX - BLUE BOX", "address": {"city": "STEAMBOAT SPR", "state": "CO", "street": "1289 LINCOLN AVE", "postcode": "80487"}}},
{"geometry": {"type": "Point", "coordinates": [-106.8067953687, 40.4557964339]}, "type": "Feature", "properties": {"collection_times": [{"days": "Mon-Fri", "time": "3:00pm"}, {"days": "Sat", "time": "12:45pm"}, {"days": "Sun", "time": "Closed"}], "id": "8048700003", "name": "USPS COLLECTION BOX - BLUE BOX", "address": {"city": "STEAMBOAT SPR", "state": "CO", "street": "2305 MOUNT WERNER CIR", "postcode": "80487"}}},
{"geometry": {"type": "Point", "coordinates": [-106.8211486925, 40.4619948681]}, "type": "Feature", "properties": {"collection_times": [{"days": "Mon-Fri", "time": "3:15pm"}, {"days": "Sat", "time": "12:30pm"}, {"days": "Sun", "time": "Closed"}], "id": "8048700004", "name": "USPS COLLECTION BOX - BLUE BOX", "address": {"city": "STEAMBOAT SPR", "state": "CO", "street": "1825 CENTRAL PARK DR", "postcode": "80487"}}},
{"geometry": {"type": "Point", "coordinates": [-106.815765513, 40.442255562]}, "type": "Feature", "properties": {"collection_times": [{"days": "Mon-Fri", "time": "3:00pm"}, {"days": "Sat", "time": "12:45pm"}, {"days": "Sun", "time": "Closed"}], "id": "8048700005", "name": "USPS COLLECTION BOX - BLUE BOX", "address": {"city": "STEAMBOAT SPR", "state": "CO", "street": "37500 E US HIGHWAY 40", "postcode": "80487"}}},
{"geometry": {"type": "Point", "coordinates": [-106.8396752691, 40.4940406892]}, "type": "Feature", "properties": {"collection_times": [{"days": "Mon-Sat", "time": "11:30am"}, {"days": "Sun", "time": "Closed"}], "id": "8048700007", "name": "USPS COLLECTION BOX - BLUE BOX", "address": {"city": "STEAMBOAT SPR", "state": "CO", "street": "1330 BOB ADAMS DR", "postcode": "80487"}}},
{"geometry": {"type": "Point", "coordinates": [-106.8077899685, 40.4744111367]}, "type": "Feature", "properties": {"collection_times": [{"days": "Mon-Sat", "time": "10:45am"}, {"days": "Sun", "time": "Closed"}], "id": "8048700008", "name": "USPS COLLECTION BOX - BLUE BOX", "address": {"city": "STEAMBOAT SPR", "state": "CO", "street": "HC 66", "postcode": "80487"}}},
{"geometry": {"type": "Point", "coordinates": [-106.8281261607, 40.4822974466]}, "type": "Feature", "properties": {"collection_times": [{"days": "Mon-Sat", "time": "4:00pm"}, {"days": "Sun", "time": "Closed"}], "id": "8048700013", "name": "USPS COLLECTION BOX - PO LOBBY", "address": {"city": "STEAMBOAT SPR", "state": "CO", "street": "200 LINCOLN AVE", "postcode": "80487"}}},
{"geometry": {"type": "Point", "coordinates": [-106.8281261607, 40.4822974466]}, "type": "Feature", "properties": {"collection_times": [{"days": "Mon-Sat", "time": "4:00pm"}, {"days": "Sun", "time": "Closed"}], "id": "8048700014", "name": "USPS COLLECTION BOX - PO LOBBY", "address": {"city": "STEAMBOAT SPR", "state": "CO", "street": "200 LINCOLN AVE", "postcode": "80487"}}},
{"geometry": {"type": "Point", "coordinates": [-106.8281261607, 40.4822974466]}, "type": "Feature", "properties": {"collection_times": [{"days": "Mon-Sat", "time": "4:00pm"}, {"days": "Sun", "time": "Closed"}], "id": "8048700015", "name": "USPS COLLECTION BOX - PO LOBBY", "address": {"city": "STEAMBOAT SPR", "state": "CO", "street": "200 LINCOLN AVE", "postcode": "80487"}}},
{"geometry": {"type": "Point", "coordinates": [-106.8281261607, 40.4822974466]}, "type": "Feature", "properties": {"collection_times": [{"days": "Mon-Sat", "time": "4:00pm"}, {"days": "Sun", "time": "Closed"}], "id": "8048700016", "name": "USPS COLLECTION BOX - PO LOBBY", "address": {"city": "STEAMBOAT SPR", "state": "CO", "street": "200 LINCOLN AVE", "postcode": "80487"}}},
{"geometry": {"type": "Point", "coordinates": [-106.8281261607, 40.4822974466]}, "type": "Feature", "properties": {"collection_times": [{"days": "Mon-Sat", "time": "4:00pm"}, {"days": "Sun", "time": "Closed"}], "id": "8048700017", "name": "USPS COLLECTION BOX - PO LOBBY", "address": {"city": "STEAMBOAT SPR", "state": "CO", "street": "200 LINCOLN AVE", "postcode": "80487"}}},
{"geometry": {"type": "Point", "coordinates": [-106.8281261607, 40.4822974466]}, "type": "Feature", "properties": {"collection_times": [{"days": "Mon-Sat", "time": "4:00pm"}, {"days": "Sun", "time": "Closed"}], "id": "8048700019", "name": "USPS COLLECTION BOX - BLUE BOX", "address": {"city": "STEAMBOAT SPR", "state": "CO", "street": "200 LINCOLN AVE", "postcode": "80487"}}},
{"geometry": {"type": "Point", "coordinates": [-106.8281261607, 40.4822974466]}, "type": "Feature", "properties": {"collection_times": [{"days": "Mon-Sat", "time": "4:00pm"}, {"days": "Sun", "time": "Closed"}], "id": "8048700020", "name": "USPS COLLECTION BOX - BLUE BOX", "address": {"city": "STEAMBOAT SPR", "state": "CO", "street": "200 LINCOLN AVE", "postcode": "80487"}}},
{"geometry": {"type": "Point", "coordinates": [-106.8580619911, 40.4998169696]}, "type": "Feature", "properties": {"collection_times": [{"days": "Mon-Fri", "time": "3:00pm"}, {"days": "Sat", "time": "12:30pm"}, {"days": "Sun", "time": "Closed"}], "id": "8048700022", "name": "USPS COLLECTION BOX - BLUE BOX", "address": {"city": "STEAMBOAT SPR", "state": "CO", "street": "2107 CURVE CT", "postcode": "80487"}}},
{"geometry": {"type": "Point", "coordinates": [-106.828255, 40.482338]}, "type": "Feature", "properties": {"collection_times": [{"days": "Mon-Sat", "time": "4:00pm"}, {"days": "Sun", "time": "Closed"}], "id": "8048700024", "name": "USPS COLLECTION BOX - APC", "address": {"city": "STEAMBOAT SPR", "state": "CO", "street": "200 LINCOLN AVE", "postcode": "80487"}}},
{"geometry": {"type": "Point", "coordinates": [-106.0625419951, 39.6280396796]}, "type": "Feature", "properties": {"collection_times": [{"days": "Mon-Sat", "time": "8:00am"}, {"days": "Sun", "time": "Closed"}], "id": "8049800001", "name": "USPS COLLECTION BOX - BLUE BOX", "address": {"city": "SILVERTHORNE", "state": "CO", "street": "221 SUMMIT PL", "postcode": "80498"}}},
{"geometry": {"type": "Point", "coordinates": [-106.0779883821, 39.6335664221]}, "type": "Feature", "properties": {"collection_times": [{"days": "Mon-Fri", "time": "5:00pm"}, {"days": "Sat", "time": "1:00pm"}, {"days": "Sun", "time": "Closed"}], "id": "8049800002", "name": "USPS COLLECTION BOX - BLUE BOX", "address": {"city": "SILVERTHORNE", "state": "CO", "street": "518 BRIAN AVE", "postcode": "80498"}}},
{"geometry": {"type": "Point", "coordinates": [-106.0708941514, 39.6269445296]}, "type": "Feature", "properties": {"collection_times": [{"days": "Mon-Sat", "time": "8:00am"}, {"days": "Sun", "time": "Closed"}], "id": "8049800004", "name": "USPS COLLECTION BOX - BLUE BOX", "address": {"city": "SILVERTHORNE", "state": "CO", "street": "135 STEPHENS WAY", "postcode": "80498"}}},
{"geometry": {"type": "Point", "coordinates": [-106.2339189305, 39.7854903573]}, "type": "Feature", "properties": {"collection_times": [{"days": "Mon-Sat", "time": "8:00am"}, {"days": "Sun", "time": "Closed"}], "id": "8049800005", "name": "USPS COLLECTION BOX - BLUE BOX", "address": {"city": "SILVERTHORNE", "state": "CO", "street": "300 US HWY 6", "postcode": "80498"}}}
]}
