{"type": "FeatureCollection", "features": [
{"geometry": {"type": "Point", "coordinates": [-105.10383587, 40.1624401673]}, "type": "Feature", "properties": {"collection_times": [{"days": "Mon-Sat", "time": "6:15pm"}, {"days": "Sun", "time": "Closed"}], "id": "8050100000", "name": "USPS COLLECTION BOX - BLUE BOX", "address": {"city": "LONGMONT", "state": "CO", "street": "201 COFFMAN ST", "postcode": "80501"}}},
{"geometry": {"type": "Point", "coordinates": [-105.1060480032, 40.1548266434]}, "type": "Feature", "properties": {"collection_times": [{"days": "Mon-Sat", "time": "4:00pm"}, {"days": "Sun", "time": "Closed"}], "id": "8050100001", "name": "USPS COLLECTION BOX - BLUE BOX", "address": {"city": "LONGMONT", "state": "CO", "street": "825 DELAWARE AVE", "postcode": "80501"}}},
{"geometry": {"type": "Point", "coordinates": [-105.1219008363, 40.1458053983]}, "type": "Feature", "properties": {"collection_times": [{"days": "Mon-Sat", "time": "4:00pm"}, {"days": "Sun", "time": "Closed"}], "id": "8050100002", "name": "USPS COLLECTION BOX - BLUE BOX", "address": {"city": "LONGMONT", "state": "CO", "street": "1800 SUNSET PL", "postcode": "80501"}}},
{"geometry": {"type": "Point", "coordinates": [-105.0980946445, 40.1397198613]}, "type": "Feature", "properties": {"collection_times": [{"days": "Mon-Fri", "time": "2:00pm"}, {"days": "Sat", "time": "4:00pm"}, {"days": "Sun", "time": "Closed"}], "id": "8050100004", "name": "USPS COLLECTION BOX - BLUE BOX", "address": {"city": "LONGMONT", "state": "CO", "street": "1400 S COLLYER ST", "postcode": "80501"}}},
{"geometry": {"type": "Point", "coordinates": [-105.1065554926, 40.1455912827]}, "type": "Feature", "properties": {"collection_times": [{"days": "Mon-Fri", "time": "2:00pm"}, {"days": "Sat", "time": "4:00pm"}, {"days": "Sun", "time": "Closed"}], "id": "8050100005", "name": "USPS COLLECTION BOX - BLUE BOX", "address": {"city": "LONGMONT", "state": "CO", "street": "1116 S PRATT PKWY", "postcode": "80501"}}},
{"geometry": {"type": "Point", "coordinates": [-105.1257265256, 40.139932007]}, "type": "Feature", "properties": {"collection_times": [{"days": "Mon-Sat", "time": "4:00pm"}, {"days": "Sun", "time": "Closed"}], "id": "8050100006", "name": "USPS COLLECTION BOX - BLUE BOX", "address": {"city": "LONGMONT", "state": "CO", "street": "1921 MILLER DR", "postcode": "80501"}}},
{"geometry": {"type": "Point", "coordinates": [-105.1085867159, 40.1731815353]}, "type": "Feature", "properties": {"collection_times": [{"days": "Mon-Sat", "time": "4:00pm"}, {"days": "Sun", "time": "Closed"}], "id": "8050100007", "name": "USPS COLLECTION BOX - EXPRESS", "address": {"city": "LONGMONT", "state": "CO", "street": "1921 MILLER DR", "postcode": "80501"}}},
{"geometry": {"type": "Point", "coordinates": [-105.1166046319, 40.1782184176]}, "type": "Feature", "properties": {"collection_times": [{"days": "Mon-Sat", "time": "4:00pm"}, {"days": "Sun", "time": "Closed"}], "id": "8050100008", "name": "USPS COLLECTION BOX - BLUE BOX", "address": {"city": "LONGMONT", "state": "CO", "street": "1131 FRANCIS ST", "postcode": "80501"}}},
{"geometry": {"type": "Point", "coordinates": [-105.1085867159, 40.1731815353]}, "type": "Feature", "properties": {"collection_times": [{"days": "Mon-Sat", "time": "4:00pm"}, {"days": "Sun", "time": "Closed"}], "id": "8050100009", "name": "USPS COLLECTION BOX - EXPRESS", "address": {"city": "LONGMONT", "state": "CO", "street": "1950 MOUNTAIN VIEW AVE", "postcode": "80501"}}},
{"geometry": {"type": "Point", "coordinates": [-105.1257336234, 40.1813237412]}, "type": "Feature", "properties": {"collection_times": [{"days": "Mon-Sat", "time": "4:00pm"}, {"days": "Sun", "time": "Closed"}], "id": "8050100010", "name": "USPS COLLECTION BOX - BLUE BOX", "address": {"city": "LONGMONT", "state": "CO", "street": "1950 MOUNTAIN VIEW AVE", "postcode": "80501"}}},
{"geometry": {"type": "Point", "coordinates": [-105.1257336234, 40.1813237412]}, "type": "Feature", "properties": {"collection_times": [{"days": "Mon-Sat", "time": "4:00pm"}, {"days": "Sun", "time": "Closed"}], "id": "8050100011", "name": "USPS COLLECTION BOX - BLUE BOX", "address": {"city": "LONGMONT", "state": "CO", "street": "1950 MOUNTAIN VIEW AVE", "postcode": "80501"}}},
{"geometry": {"type": "Point", "coordinates": [-105.1257336234, 40.1813237412]}, "type": "Feature", "properties": {"collection_times": [{"days": "Mon-Sat", "time": "4:00pm"}, {"days": "Sun", "time": "Closed"}], "id": "8050100012", "name": "USPS COLLECTION BOX - BLUE BOX", "address": {"city": "LONGMONT", "state": "CO", "street": "1950 MOUNTAIN VIEW AVE", "postcode": "80501"}}},
{"geometry": {"type": "Point", "coordinates": [-105.1038228574, 40.1720942954]}, "type": "Feature", "properties": {"collection_times": [{"days": "Mon-Fri", "time": "2:00pm"}, {"days": "Sat", "time": "4:00pm"}, {"days": "Sun", "time": "Closed"}], "id": "8050100027", "name": "USPS COLLECTION BOX - BLUE BOX", "address": {"city": "LONGMONT", "state": "CO", "street": "738 COFFMAN ST", "postcode": "80501"}}},
{"geometry": {"type": "Point", "coordinates": [-105.1037440043, 40.1690779151]}, "type": "Feature", "properties": {"collection_times": [{"days": "Mon-Fri", "time": "2:00pm"}, {"days": "Sat", "time": "4:00pm"}, {"days": "Sun", "time": "Closed"}], "id": "8050100028", "name": "USPS COLLECTION BOX - BLUE BOX", "address": {"city": "LONGMONT", "state": "CO", "street": "600 COFFMAN ST", "postcode": "80501"}}},
{"geometry": {"type": "Point", "coordinates": [-105.1050931374, 40.1663820686]}, "type": "Feature", "properties": {"collection_times": [{"days": "Mon-Fri", "time": "2:00pm"}, {"days": "Sat", "time": "4:00pm"}, {"days": "Sun", "time": "Closed"}], "id": "8050100029", "name": "USPS COLLECTION BOX - BLUE BOX", "address": {"city": "LONGMONT", "state": "CO", "street": "438 TERRY ST", "postcode": "80501"}}},
{"geometry": {"type": "Point", "coordinates": [-105.1068429517, 40.1695308233]}, "type": "Feature", "properties": {"collection_times": [{"days": "Mon-Fri", "time": "2:00pm"}, {"days": "Sat", "time": "4:00pm"}, {"days": "Sun", "time": "Closed"}], "id": "8050100030", "name": "USPS COLLECTION BOX - BLUE BOX", "address": {"city": "LONGMONT", "state": "CO", "street": "606 PRATT ST", "postcode": "80501"}}},
{"geometry": {"type": "Point", "coordinates": [-105.1309208984, 40.1879696047]}, "type": "Feature", "properties": {"collection_times": [{"days": "Mon-Sat", "time": "4:00pm"}, {"days": "Sun", "time": "Closed"}], "id": "8050100032", "name": "USPS COLLECTION BOX - BLUE BOX", "address": {"city": "LONGMONT", "state": "CO", "street": "1632 HOVER ST", "postcode": "80501"}}},
{"geometry": {"type": "Point", "coordinates": [-105.1024328806, 40.1980590617]}, "type": "Feature", "properties": {"collection_times": [{"days": "Mon-Sat", "time": "4:00pm"}, {"days": "Sun", "time": "Closed"}], "id": "8050100034", "name": "USPS COLLECTION BOX - BLUE BOX", "address": {"city": "LONGMONT", "state": "CO", "street": "2255 MAIN ST", "postcode": "80501"}}},
{"geometry": {"type": "Point", "coordinates": [-105.1022512541, 40.1888655093]}, "type": "Feature", "properties": {"collection_times": [{"days": "Mon-Fri", "time": "5:00pm"}, {"days": "Sat", "time": "4:00pm"}, {"days": "Sun", "time": "Closed"}], "id": "8050100035", "name": "USPS COLLECTION BOX - BLUE BOX", "address": {"city": "LONGMONT", "state": "CO", "street": "1710 MAIN ST", "postcode": "80501"}}},
{"geometry": {"type": "Point", "coordinates": [-105.1085867159, 40.1731815353]}, "type": "Feature", "properties": {"collection_times": [{"days": "Mon-Fri", "time": "5:00pm"}, {"days": "Sat", "time": "4:00pm"}, {"days": "Sun", "time": "Closed"}], "id": "8050100036", "name": "USPS COLLECTION BOX - EXPRESS", "address": {"city": "LONGMONT", "state": "CO", "street": "1710 MAIN ST", "postcode": "80501"}}},
{"geometry": {"type": "Point", "coordinates": [-105.1024991263, 40.172019769]}, "type": "Feature", "properties": {"collection_times": [{"days": "Mon-Fri", "time": "5:00pm"}, {"days": "Sat", "time": "4:00pm"}, {"days": "Sun", "time": "Closed"}], "id": "8050100039", "name": "USPS COLLECTION BOX - BLUE BOX", "address": {"city": "LONGMONT", "state": "CO", "street": "736 MAIN ST", "postcode": "80501"}}},
{"geometry": {"type": "Point", "coordinates": [-105.1085867159, 40.1731815353]}, "type": "Feature", "properties": {"collection_times": [{"days": "Mon-Fri", "time": "5:00pm"}, {"days": "Sat", "time": "4:00pm"}, {"days": "Sun", "time": "Closed"}], "id": "8050100040", "name": "USPS COLLECTION BOX - EXPRESS", "address": {"city": "LONGMONT", "state": "CO", "street": "736 MAIN ST", "postcode": "80501"}}},
{"geometry": {"type": "Point", "coordinates": [-105.1025145048, 40.1654933843]}, "type": "Feature", "properties": {"collection_times": [{"days": "Mon-Fri", "time": "5:00pm"}, {"days": "Sat", "time": "4:00pm"}, {"days": "Sun", "time": "Closed"}], "id": "8050100041", "name": "USPS COLLECTION BOX - BLUE BOX", "address": {"city": "LONGMONT", "state": "CO", "street": "381 MAIN ST", "postcode": "80501"}}},
{"geometry": {"type": "Point", "coordinates": [-105.1025074071, 40.1672063089]}, "type": "Feature", "properties": {"collection_times": [{"days": "Mon-Fri", "time": "5:00pm"}, {"days": "Sat", "time": "4:00pm"}, {"days": "Sun", "time": "Closed"}], "id": "8050100042", "name": "USPS COLLECTION BOX - BLUE BOX", "address": {"city": "LONGMONT", "state": "CO", "street": "477 MAIN ST", "postcode": "80501"}}},
{"geometry": {"type": "Point", "coordinates": [-105.1012629869, 40.1648516537]}, "type": "Feature", "properties": {"collection_times": [{"days": "Mon-Fri", "time": "5:00pm"}, {"days": "Sat", "time": "4:00pm"}, {"days": "Sun", "time": "Closed"}], "id": "8050100044", "name": "USPS COLLECTION BOX - BLUE BOX", "address": {"city": "LONGMONT", "state": "CO", "street": "351 KIMBARK ST", "postcode": "80501"}}},
{"geometry": {"type": "Point", "coordinates": [-105.0883024358, 40.1734759914]}, "type": "Feature", "properties": {"collection_times": [{"days": "Mon-Fri", "time": "2:00pm"}, {"days": "Sat", "time": "4:00pm"}, {"days": "Sun", "time": "Closed"}], "id": "8050100049", "name": "USPS COLLECTION BOX - BLUE BOX", "address": {"city": "LONGMONT", "state": "CO", "street": "830 LASHLEY ST", "postcode": "80501"}}},
{"geometry": {"type": "Point", "coordinates": [-105.1085867159, 40.1731815353]}, "type": "Feature", "properties": {"collection_times": [{"days": "Mon-Fri", "time": "5:00pm"}, {"days": "Sat", "time": "4:00pm"}, {"days": "Sun", "time": "Closed"}], "id": "8050100054", "name": "USPS COLLECTION BOX - EXPRESS", "address": {"city": "LONGMONT", "state": "CO", "street": "381 MAIN ST", "postcode": "80501"}}},
{"geometry": {"type": "Point", "coordinates": [-105.10383587, 40.1624401673]}, "type": "Feature", "properties": {"collection_times": [{"days": "Mon-Sat", "time": "6:15pm"}, {"days": "Sun", "time": "Closed"}], "id": "8050100055", "name": "USPS COLLECTION BOX - BLUE BOX", "address": {"city": "LONGMONT", "state": "CO", "street": "201 COFFMAN ST", "postcode": "80501"}}},
{"geometry": {"type": "Point", "coordinates": [-105.10383587, 40.1624401673]}, "type": "Feature", "properties": {"collection_times": [{"days": "Mon-Sat", "time": "6:15pm"}, {"days": "Sun", "time": "Closed"}], "id": "8050100056", "name": "USPS COLLECTION BOX - BLUE BOX", "address": {"city": "LONGMONT", "state": "CO", "street": "201 COFFMAN ST", "postcode": "80501"}}},
{"geometry": {"type": "Point", "coordinates": [-105.10383587, 40.1624401673]}, "type": "Feature", "properties": {"collection_times": [{"days": "Mon-Sat", "time": "6:15pm"}, {"days": "Sun", "time": "Closed"}], "id": "8050100057", "name": "USPS COLLECTION BOX - BLUE BOX", "address": {"city": "LONGMONT", "state": "CO", "street": "201 COFFMAN ST", "postcode": "80501"}}},
{"geometry": {"type": "Point", "coordinates": [-105.1085867159, 40.1731815353]}, "type": "Feature", "properties": {"collection_times": [{"days": "Mon-Sat", "time": "5:15pm"}, {"days": "Sun", "time": "Closed"}], "id": "8050100058", "name": "USPS COLLECTION BOX - EXPRESS", "address": {"city": "LONGMONT", "state": "CO", "street": "201 COFFMAN ST", "postcode": "80501"}}},
{"geometry": {"type": "Point", "coordinates": [-105.1104202196, 40.1523258681]}, "type": "Feature", "properties": {"collection_times": [{"days": "Mon-Sat", "time": "4:00pm"}, {"days": "Sun", "time": "Closed"}], "id": "8050100061", "name": "USPS COLLECTION BOX - BLUE BOX", "address": {"city": "LONGMONT", "state": "CO", "street": "1050 KEN PRATT BLVD", "postcode": "80501"}}},
{"geometry": {"type": "Point", "coordinates": [-105.10383587, 40.1624401673]}, "type": "Feature", "properties": {"collection_times": [{"days": "Mon-Fri", "time": "6:15pm"}, {"days": "Sat", "time": "5:15pm"}, {"days": "Sun", "time": "Closed"}], "id": "8050100062", "name": "USPS COLLECTION BOX - PO LOBBY", "address": {"city": "LONGMONT", "state": "CO", "street": "201 COFFMAN ST", "postcode": "80501"}}},
{"geometry": {"type": "Point", "coordinates": [-105.10383587, 40.1624401673]}, "type": "Feature", "properties": {"collection_times": [{"days": "Mon-Sat", "time": "6:15pm"}, {"days": "Sun", "time": "Closed"}], "id": "8050100063", "name": "USPS COLLECTION BOX - PO LOBBY", "address": {"city": "LONGMONT", "state": "CO", "street": "201 COFFMAN ST", "postcode": "80501"}}},
{"geometry": {"type": "Point", "coordinates": [-105.10383587, 40.1624401673]}, "type": "Feature", "properties": {"collection_times": [{"days": "Mon-Sat", "time": "6:15pm"}, {"days": "Sun", "time": "Closed"}], "id": "8050100064", "name": "USPS COLLECTION BOX - PO LOBBY", "address": {"city": "LONGMONT", "state": "CO", "street": "201 COFFMAN ST", "postcode": "80501"}}},
{"geometry": {"type": "Point", "coordinates": [-105.1307730286, 40.1504224871]}, "type": "Feature", "properties": {"collection_times": [{"days": "Mon-Sat", "time": "4:00pm"}, {"days": "Sun", "time": "Closed"}], "id": "8050100071", "name": "USPS COLLECTION BOX - BLUE BOX", "address": {"city": "LONGMONT", "state": "CO", "street": "995 S HOVER ST", "postcode": "80501"}}},
{"geometry": {"type": "Point", "coordinates": [-105.0741223067, 40.1873379046]}, "type": "Feature", "properties": {"collection_times": [{"days": "Mon-Sat", "time": "4:00pm"}, {"days": "Sun", "time": "Closed"}], "id": "8050100072", "name": "USPS COLLECTION BOX - BLUE BOX", "address": {"city": "LONGMONT", "state": "CO", "street": "1630 PACE ST", "postcode": "80501"}}},
{"geometry": {"type": "Point", "coordinates": [-105.1257336234, 40.1813237412]}, "type": "Feature", "properties": {"collection_times": [{"days": "Mon-Sat", "time": "4:00pm"}, {"days": "Sun", "time": "Closed"}], "id": "8050100073", "name": "USPS COLLECTION BOX - BLUE BOX", "address": {"city": "LONGMONT", "state": "CO", "street": "1950 MOUNTAIN VIEW AVE", "postcode": "80501"}}},
{"geometry": {"type": "Point", "coordinates": [-105.1012820166, 40.17645032]}, "type": "Feature", "properties": {"collection_times": [{"days": "Mon-Sat", "time": "4:00pm"}, {"days": "Sun", "time": "Closed"}], "id": "8050100074", "name": "USPS COLLECTION BOX - BLUE BOX", "address": {"city": "LONGMONT", "state": "CO", "street": "1035 KIMBARK ST", "postcode": "80501"}}},
{"geometry": {"type": "Point", "coordinates": [-105.1012820166, 40.17645032]}, "type": "Feature", "properties": {"collection_times": [{"days": "Mon-Sat", "time": "4:00pm"}, {"days": "Sun", "time": "Closed"}], "id": "8050100075", "name": "USPS COLLECTION BOX - BLUE BOX", "address": {"city": "LONGMONT", "state": "CO", "street": "1035 KIMBARK ST", "postcode": "80501"}}},
{"geometry": {"type": "Point", "coordinates": [-105.1006217705, 40.1390838254]}, "type": "Feature", "properties": {"collection_times": [{"days": "Mon-Fri", "time": "5:00pm"}, {"days": "Sat", "time": "12:00pm"}, {"days": "Sun", "time": "Closed"}], "id": "8050100076", "name": "USPS COLLECTION BOX - BLUE BOX", "address": {"city": "LONGMONT", "state": "CO", "street": "1551 PROFESSIONAL LN", "postcode": "80501"}}},
{"geometry": {"type": "Point", "coordinates": [-105.061670317, 40.1583230782]}, "type": "Feature", "properties": {"collection_times": [{"days": "Mon-Sat", "time": "12:00pm"}, {"days": "Sun", "time": "Closed"}], "id": "8050100077", "name": "USPS COLLECTION BOX - BLUE BOX", "address": {"city": "LONGMONT", "state": "CO", "street": "1700 KYLIE DR", "postcode": "80501"}}},
{"geometry": {"type": "Point", "coordinates": [-105.10383587, 40.1624401673]}, "type": "Feature", "properties": {"collection_times": [{"days": "Mon-Sat", "time": "6:15pm"}, {"days": "Sun", "time": "Closed"}], "id": "8050100078", "name": "USPS COLLECTION BOX - APC", "address": {"city": "LONGMONT", "state": "CO", "street": "201 COFFMAN ST", "postcode": "80501"}}},
{"geometry": {"type": "Point", "coordinates": [-105.1461872704, 40.2020938305]}, "type": "Feature", "properties": {"collection_times": [{"days": "Mon-Sat", "time": "12:00pm"}, {"days": "Sun", "time": "Closed"}], "id": "8050300001", "name": "USPS COLLECTION BOX - BLUE BOX", "address": {"city": "NIWOT", "state": "CO", "street": "3226 LAKE PARK WAY", "postcode": "80503"}}},
{"geometry": {"type": "Point", "coordinates": [-105.2552167628, 40.2156461126]}, "type": "Feature", "properties": {"collection_times": [{"days": "Mon-Sat", "time": "12:00pm"}, {"days": "Sun", "time": "Closed"}], "id": "8050300002", "name": "USPS COLLECTION BOX - BLUE BOX", "address": {"city": "NIWOT", "state": "CO", "street": "4206 UTE HWY", "postcode": "80503"}}},
{"geometry": {"type": "Point", "coordinates": [-105.1681474341, 40.1016124173]}, "type": "Feature", "properties": {"collection_times": [{"days": "Mon-Sat", "time": "12:00pm"}, {"days": "Sun", "time": "Closed"}], "id": "8050300004", "name": "USPS COLLECTION BOX - BLUE BOX", "address": {"city": "NIWOT", "state": "CO", "street": "7960 NIWOT RD", "postcode": "80503"}}},
{"geometry": {"type": "Point", "coordinates": [-105.2465587832, 40.0970410966]}, "type": "Feature", "properties": {"collection_times": [{"days": "Mon-Sat", "time": "12:00pm"}, {"days": "Sun", "time": "Closed"}], "id": "8050300005", "name": "USPS COLLECTION BOX - BLUE BOX", "address": {"city": "NIWOT", "state": "CO", "street": "6900 GOLF CLUB DR", "postcode": "80503"}}},
{"geometry": {"type": "Point", "coordinates": [-105.2009755483, 40.1701565331]}, "type": "Feature", "properties": {"collection_times": [{"days": "Mon-Sat", "time": "12:00pm"}, {"days": "Sun", "time": "Closed"}], "id": "8050300006", "name": "USPS COLLECTION BOX - BLUE BOX", "address": {"city": "NIWOT", "state": "CO", "street": "620 GRANDVIEW MDWS DR", "postcode": "80503"}}},
{"geometry": {"type": "Point", "coordinates": [-105.1545351253, 40.1518538675]}, "type": "Feature", "properties": {"collection_times": [{"days": "Mon-Sat", "time": "4:00pm"}, {"days": "Sun", "time": "Closed"}], "id": "8050300007", "name": "USPS COLLECTION BOX - BLUE BOX", "address": {"city": "NIWOT", "state": "CO", "street": "600 S AIRPORT RD", "postcode": "80503"}}},
{"geometry": {"type": "Point", "coordinates": [-105.0377457463, 40.1643133791]}, "type": "Feature", "properties": {"collection_times": [{"days": "Mon-Sat", "time": "5:00pm"}, {"days": "Sun", "time": "Closed"}], "id": "8050400006", "name": "USPS COLLECTION BOX - EXPRESS", "address": {"city": "FIRESTONE", "state": "CO", "street": "1845 SKYWAY DR", "postcode": "80504"}}},
{"geometry": {"type": "Point", "coordinates": [-105.0208385613, 40.1585359215]}, "type": "Feature", "properties": {"collection_times": [{"days": "Mon-Sat", "time": "5:00pm"}, {"days": "Sun", "time": "Closed"}], "id": "8050400007", "name": "USPS COLLECTION BOX - BLUE BOX", "address": {"city": "FIRESTONE", "state": "CO", "street": "1845 SKYWAY DR", "postcode": "80504"}}},
{"geometry": {"type": "Point", "coordinates": [-105.0208385613, 40.1585359215]}, "type": "Feature", "properties": {"collection_times": [{"days": "Mon-Sat", "time": "5:00pm"}, {"days": "Sun", "time": "Closed"}], "id": "8050400008", "name": "USPS COLLECTION BOX - BLUE BOX", "address": {"city": "FIRESTONE", "state": "CO", "street": "1845 SKYWAY DR", "postcode": "80504"}}},
{"geometry": {"type": "Point", "coordinates": [-105.0165548121, 40.153034653]}, "type": "Feature", "properties": {"collection_times": [{"days": "Mon-Sat", "time": "12:00pm"}, {"days": "Sun", "time": "Closed"}], "id": "8050400009", "name": "USPS COLLECTION BOX - BLUE BOX", "address": {"city": "FIRESTONE", "state": "CO", "street": "8134 WELD COUNTY RD 13", "postcode": "80504"}}},
{"geometry": {"type": "Point", "coordinates": [-105.0165548121, 40.153034653]}, "type": "Feature", "properties": {"collection_times": [{"days": "Mon-Sat", "time": "12:00pm"}, {"days": "Sun", "time": "Closed"}], "id": "8050400010", "name": "USPS COLLECTION BOX - BLUE BOX", "address": {"city": "FIRESTONE", "state": "CO", "street": "8134 WELD COUNTY RD 13", "postcode": "80504"}}},
{"geometry": {"type": "Point", "coordinates": [-104.9737825443, 40.2043453056]}, "type": "Feature", "properties": {"collection_times": [{"days": "Mon-Sat", "time": "12:00pm"}, {"days": "Sun", "time": "Closed"}], "id": "8050400011", "name": "USPS COLLECTION BOX - BLUE BOX", "address": {"city": "FIRESTONE", "state": "CO", "street": "4301 STATE HIGHWAY 66", "postcode": "80504"}}},
{"geometry": {"type": "Point", "coordinates": [-105.52662, 40.19461]}, "type": "Feature", "properties": {"collection_times": [{"days": "Mon-Fri", "time": "4:00pm"}, {"days": "Sat", "time": "1:30pm"}, {"days": "Sun", "time": "Closed"}], "id": "8051000000", "name": "USPS COLLECTION BOX - BLUE BOX", "address": {"city": "ALLENSPARK", "state": "CO", "street": "7 WASHINGTON ST", "postcode": "80510"}}},
{"geometry": {"type": "Point", "coordinates": [-105.52662, 40.19461]}, "type": "Feature", "properties": {"collection_times": [{"days": "Mon-Fri", "time": "4:00pm"}, {"days": "Sat", "time": "1:30pm"}, {"days": "Sun", "time": "Closed"}], "id": "8051000001", "name": "USPS COLLECTION BOX - PO LOBBY", "address": {"city": "ALLENSPARK", "state": "CO", "street": "7 WASHINGTON ST", "postcode": "80510"}}},
{"geometry": {"type": "Point", "coordinates": [-105.1678393429, 40.6298056131]}, "type": "Feature", "properties": {"collection_times": [{"days": "Mon-Fri", "time": "2:15pm"}, {"days": "Sat", "time": "12:00pm"}, {"days": "Sun", "time": "Closed"}], "id": "8051200002", "name": "USPS COLLECTION BOX - PO LOBBY", "address": {"city": "BELLVUE", "state": "CO", "street": "5301 RIST CANYON RD", "postcode": "80512"}}},
{"geometry": {"type": "Point", "coordinates": [-105.1678393429, 40.6298056131]}, "type": "Feature", "properties": {"collection_times": [{"days": "Mon-Fri", "time": "2:15pm"}, {"days": "Sat", "time": "12:00pm"}, {"days": "Sun", "time": "Closed"}], "id": "8051200003", "name": "USPS COLLECTION BOX - PO LOBBY", "address": {"city": "BELLVUE", "state": "CO", "street": "5301 RIST CANYON RD", "postcode": "80512"}}},
{"geometry": {"type": "Point", "coordinates": [-105.1678393429, 40.6298056131]}, "type": "Feature", "properties": {"collection_times": [{"days": "Mon-Fri", "time": "2:15pm"}, {"days": "Sat", "time": "12:00pm"}, {"days": "Sun", "time": "Closed"}], "id": "8051200004", "name": "USPS COLLECTION BOX - BLUE BOX", "address": {"city": "BELLVUE", "state": "CO", "street": "5301 RIST CANYON RD", "postcode": "80512"}}},
{"geometry": {"type": "Point", "coordinates": [-105.0784483141, 40.3043873936]}, "type": "Feature", "properties": {"collection_times": [{"days": "Mon-Fri", "time": "4:15pm"}, {"days": "Sat", "time": "2:00pm"}, {"days": "Sun", "time": "Closed"}], "id": "8051300000", "name": "USPS COLLECTION BOX - BLUE BOX", "address": {"city": "BERTHOUD", "state": "CO", "street": "425 3RD ST", "postcode": "80513"}}},
{"geometry": {"type": "Point", "coordinates": [-105.0784483141, 40.3043873936]}, "type": "Feature", "properties": {"collection_times": [{"days": "Mon-Fri", "time": "4:15pm"}, {"days": "Sat", "time": "2:00pm"}, {"days": "Sun", "time": "Closed"}], "id": "8051300001", "name": "USPS COLLECTION BOX - BLUE BOX", "address": {"city": "BERTHOUD", "state": "CO", "street": "425 3RD ST", "postcode": "80513"}}},
{"geometry": {"type": "Point", "coordinates": [-104.9302165316, 40.0863569785]}, "type": "Feature", "properties": {"collection_times": [{"days": "Mon-Fri", "time": "4:45pm"}, {"days": "Sat", "time": "11:45am"}, {"days": "Sun", "time": "Closed"}], "id": "8051400000", "name": "USPS COLLECTION BOX - BLUE BOX", "address": {"city": "DACONO", "state": "CO", "street": "650 GLEN CREIGHTON DR", "postcode": "80514"}}},
{"geometry": {"type": "Point", "coordinates": [-104.9302165316, 40.0863569785]}, "type": "Feature", "properties": {"collection_times": [{"days": "Mon-Fri", "time": "4:45pm"}, {"days": "Sat", "time": "11:45am"}, {"days": "Sun", "time": "Closed"}], "id": "8051400001", "name": "USPS COLLECTION BOX - PO LOBBY", "address": {"city": "DACONO", "state": "CO", "street": "650 GLEN CREIGHTON DR", "postcode": "80514"}}},
{"geometry": {"type": "Point", "coordinates": [-104.9302165316, 40.0863569785]}, "type": "Feature", "properties": {"collection_times": [{"days": "Mon-Fri", "time": "4:45pm"}, {"days": "Sat", "time": "11:45am"}, {"days": "Sun", "time": "Closed"}], "id": "8051400002", "name": "USPS COLLECTION BOX - PO LOBBY", "address": {"city": "DACONO", "state": "CO", "street": "650 GLEN CREIGHTON DR", "postcode": "80514"}}},
{"geometry": {"type": "Point", "coordinates": [-105.4340580432, 40.3923827642]}, "type": "Feature", "properties": {"collection_times": [{"days": "Mon-Fri", "time": "3:30pm"}, {"days": "Sat", "time": "11:30am"}, {"days": "Sun", "time": "Closed"}], "id": "8051500000", "name": "USPS COLLECTION BOX - BLUE BOX", "address": {"city": "DRAKE", "state": "CO", "street": "1601 US HIGHWAY 34", "postcode": "80515"}}},
{"geometry": {"type": "Point", "coordinates": [-105.4340580432, 40.3923827642]}, "type": "Feature", "properties": {"collection_times": [{"days": "Mon-Fri", "time": "3:30pm"}, {"days": "Sat", "time": "11:30am"}, {"days": "Sun", "time": "Closed"}], "id": "8051500001", "name": "USPS COLLECTION BOX - PO LOBBY", "address": {"city": "DRAKE", "state": "CO", "street": "1601 US HIGHWAY 34", "postcode": "80515"}}},
{"geometry": {"type": "Point", "coordinates": [-105.0470597544, 40.0502601686]}, "type": "Feature", "properties": {"collection_times": [{"days": "Mon-Fri", "time": "4:45pm"}, {"days": "Sat", "time": "11:45am"}, {"days": "Sun", "time": "Closed"}], "id": "8051600001", "name": "USPS COLLECTION BOX - BLUE BOX", "address": {"city": "ERIE", "state": "CO", "street": "150 WELLS ST", "postcode": "80516"}}},
{"geometry": {"type": "Point", "coordinates": [-105.0470597544, 40.0502601686]}, "type": "Feature", "properties": {"collection_times": [{"days": "Mon-Fri", "time": "4:45pm"}, {"days": "Sat", "time": "11:45am"}, {"days": "Sun", "time": "Closed"}], "id": "8051600003", "name": "USPS COLLECTION BOX - PO LOBBY", "address": {"city": "ERIE", "state": "CO", "street": "150 WELLS ST", "postcode": "80516"}}},
{"geometry": {"type": "Point", "coordinates": [-105.0470597544, 40.0502601686]}, "type": "Feature", "properties": {"collection_times": [{"days": "Mon-Fri", "time": "4:45pm"}, {"days": "Sat", "time": "11:45am"}, {"days": "Sun", "time": "Closed"}], "id": "8051600004", "name": "USPS COLLECTION BOX - PO LOBBY", "address": {"city": "ERIE", "state": "CO", "street": "150 WELLS ST", "postcode": "80516"}}},
{"geometry": {"type": "Point", "coordinates": [-105.5227606771, 40.3745589052]}, "type": "Feature", "properties": {"collection_times": [{"days": "Mon-Fri", "time": "4:00pm"}, {"days": "Sat", "time": "2:00pm"}, {"days": "Sun", "time": "Closed"}], "id": "8051700000", "name": "USPS COLLECTION BOX - BLUE BOX", "address": {"city": "ESTES PARK", "state": "CO", "street": "215 W RIVERSIDE DR", "postcode": "80517"}}},
{"geometry": {"type": "Point", "coordinates": [-105.5138497239, 40.3647528278]}, "type": "Feature", "properties": {"collection_times": [{"days": "Mon-Sat", "time": "11:30am"}, {"days": "Sun", "time": "Closed"}], "id": "8051700003", "name": "USPS COLLECTION BOX - BLUE BOX", "address": {"city": "ESTES PARK", "state": "CO", "street": "451 E WONDER VIEW AVE", "postcode": "80517"}}},
{"geometry": {"type": "Point", "coordinates": [-105.5418281564, 40.3646709239]}, "type": "Feature", "properties": {"collection_times": [{"days": "Mon-Sat", "time": "2:30pm"}, {"days": "Sun", "time": "Closed"}], "id": "8051700005", "name": "USPS COLLECTION BOX - BLUE BOX", "address": {"city": "ESTES PARK", "state": "CO", "street": "900 MORAINE AVE", "postcode": "80517"}}},
{"geometry": {"type": "Point", "coordinates": [-105.5082750427, 40.3753473754]}, "type": "Feature", "properties": {"collection_times": [{"days": "Mon-Sat", "time": "11:30am"}, {"days": "Sun", "time": "Closed"}], "id": "8051700006", "name": "USPS COLLECTION BOX - BLUE BOX", "address": {"city": "ESTES PARK", "state": "CO", "street": "158 1ST ST", "postcode": "80517"}}},
{"geometry": {"type": "Point", "coordinates": [-105.5164302331, 40.3781785538]}, "type": "Feature", "properties": {"collection_times": [{"days": "Mon-Sat", "time": "11:30am"}, {"days": "Sun", "time": "Closed"}], "id": "8051700008", "name": "USPS COLLECTION BOX - BLUE BOX", "address": {"city": "ESTES PARK", "state": "CO", "street": "500 BIG THOMPSON AVE", "postcode": "80517"}}},
{"geometry": {"type": "Point", "coordinates": [-105.5267117601, 40.3763782961]}, "type": "Feature", "properties": {"collection_times": [{"days": "Mon-Sat", "time": "12:30pm"}, {"days": "Sun", "time": "Closed"}], "id": "8051700009", "name": "USPS COLLECTION BOX - BLUE BOX", "address": {"city": "ESTES PARK", "state": "CO", "street": "238 W ELKHORN AVE", "postcode": "80517"}}},
{"geometry": {"type": "Point", "coordinates": [-105.5227606771, 40.3745589052]}, "type": "Feature", "properties": {"collection_times": [{"days": "Mon-Fri", "time": "4:30pm"}, {"days": "Sat", "time": "2:30pm"}, {"days": "Sun", "time": "Closed"}], "id": "8051700010", "name": "USPS COLLECTION BOX - PO LOBBY", "address": {"city": "ESTES PARK", "state": "CO", "street": "215 W RIVERSIDE DR", "postcode": "80517"}}},
{"geometry": {"type": "Point", "coordinates": [-105.5227606771, 40.3745589052]}, "type": "Feature", "properties": {"collection_times": [{"days": "Mon-Fri", "time": "4:30pm"}, {"days": "Sat", "time": "2:30pm"}, {"days": "Sun", "time": "Closed"}], "id": "8051700011", "name": "USPS COLLECTION BOX - PO LOBBY", "address": {"city": "ESTES PARK", "state": "CO", "street": "215 W RIVERSIDE DR", "postcode": "80517"}}},
{"geometry": {"type": "Point", "coordinates": [-105.5227606771, 40.3745589052]}, "type": "Feature", "properties": {"collection_times": [{"days": "Mon-Fri", "time": "4:30pm"}, {"days": "Sat", "time": "2:30pm"}, {"days": "Sun", "time": "Closed"}], "id": "8051700012", "name": "USPS COLLECTION BOX - PO LOBBY", "address": {"city": "ESTES PARK", "state": "CO", "street": "215 W RIVERSIDE DR", "postcode": "80517"}}},
{"geometry": {"type": "Point", "coordinates": [-105.5227606771, 40.3745589052]}, "type": "Feature", "properties": {"collection_times": [{"days": "Mon-Fri", "time": "4:30pm"}, {"days": "Sat", "time": "2:30pm"}, {"days": "Sun", "time": "Closed"}], "id": "8051700013", "name": "USPS COLLECTION BOX - PO LOBBY", "address": {"city": "ESTES PARK", "state": "CO", "street": "215 W RIVERSIDE DR", "postcode": "80517"}}},
{"geometry": {"type": "Point", "coordinates": [-105.5044650338, 40.3706527747]}, "type": "Feature", "properties": {"collection_times": [{"days": "Mon-Sat", "time": "12:30pm"}, {"days": "Sun", "time": "Closed"}], "id": "8051700014", "name": "USPS COLLECTION BOX - BLUE BOX", "address": {"city": "ESTES PARK", "state": "CO", "street": "1110 WOODSTOCK DR", "postcode": "80517"}}},
{"geometry": {"type": "Point", "coordinates": [-105.5212524228, 40.3774422851]}, "type": "Feature", "properties": {"collection_times": [{"days": "Mon-Fri", "time": "4:00pm"}, {"days": "Sat", "time": "12:00pm"}, {"days": "Sun", "time": "Closed"}], "id": "8051700015", "name": "USPS COLLECTION BOX - BLUE BOX", "address": {"city": "ESTES PARK", "state": "CO", "street": "256 PARK LN", "postcode": "80517"}}},
{"geometry": {"type": "Point", "coordinates": [-105.5227606771, 40.3745589052]}, "type": "Feature", "properties": {"collection_times": [{"days": "Mon-Fri", "time": "4:00pm"}, {"days": "Sat", "time": "12:00pm"}, {"days": "Sun", "time": "Closed"}], "id": "8051700016", "name": "USPS COLLECTION BOX - BLUE BOX", "address": {"city": "ESTES PARK", "state": "CO", "street": "215 W RIVERSIDE DR", "postcode": "80517"}}},
{"geometry": {"type": "Point", "coordinates": [-105.5227606771, 40.3745589052]}, "type": "Feature", "properties": {"collection_times": [{"days": "Mon-Fri", "time": "4:00pm"}, {"days": "Sat", "time": "12:00pm"}, {"days": "Sun", "time": "Closed"}], "id": "8051700017", "name": "USPS COLLECTION BOX - BLUE BOX", "address": {"city": "ESTES PARK", "state": "CO", "street": "215 W RIVERSIDE DR", "postcode": "80517"}}},
{"geometry": {"type": "Point", "coordinates": [-104.9391925305, 40.1129726106]}, "type": "Feature", "properties": {"collection_times": [{"days": "Mon-Fri", "time": "4:45pm"}, {"days": "Sat", "time": "11:00am"}, {"days": "Sun", "time": "Closed"}], "id": "8052000000", "name": "USPS COLLECTION BOX - BLUE BOX", "address": {"city": "FIRESTONE", "state": "CO", "street": "478 1ST ST", "postcode": "80520"}}},
{"geometry": {"type": "Point", "coordinates": [-104.9391925305, 40.1129726106]}, "type": "Feature", "properties": {"collection_times": [{"days": "Mon-Fri", "time": "4:45pm"}, {"days": "Sat", "time": "11:00am"}, {"days": "Sun", "time": "Closed"}], "id": "8052000001", "name": "USPS COLLECTION BOX - PO LOBBY", "address": {"city": "FIRESTONE", "state": "CO", "street": "478 1ST ST", "postcode": "80520"}}},
{"geometry": {"type": "Point", "coordinates": [-105.0749361825, 40.5856046993]}, "type": "Feature", "properties": {"collection_times": [{"days": "Mon-Fri", "time": "3:00pm"}, {"days": "Sat", "time": "2:45pm"}, {"days": "Sun", "time": "Closed"}], "id": "8052100000", "name": "USPS COLLECTION BOX - BLUE BOX", "address": {"city": "FORT COLLINS", "state": "CO", "street": "215 W OAK ST", "postcode": "80521"}}},
{"geometry": {"type": "Point", "coordinates": [-105.0962471882, 40.5872087917]}, "type": "Feature", "properties": {"collection_times": [{"days": "Mon-Fri", "time": "12:45pm"}, {"days": "Sat", "time": "1:30pm"}, {"days": "Sun", "time": "Closed"}], "id": "8052100002", "name": "USPS COLLECTION BOX - BLUE BOX", "address": {"city": "FORT COLLINS", "state": "CO", "street": "1100 W MOUNTAIN AVE", "postcode": "80521"}}},
{"geometry": {"type": "Point", "coordinates": [-105.0966185314, 40.574591387]}, "type": "Feature", "properties": {"collection_times": [{"days": "Mon-Fri", "time": "11:30am"}, {"days": "Sat", "time": "3:00pm"}, {"days": "Sun", "time": "Closed"}], "id": "8052100003", "name": "USPS COLLECTION BOX - BLUE BOX", "address": {"city": "FORT COLLINS", "state": "CO", "street": "1129 W ELIZABETH ST", "postcode": "80521"}}},
{"geometry": {"type": "Point", "coordinates": [-105.1150885274, 40.5742328463]}, "type": "Feature", "properties": {"collection_times": [{"days": "Mon-Fri", "time": "3:00pm"}, {"days": "Sat", "time": "2:00pm"}, {"days": "Sun", "time": "Closed"}], "id": "8052100005", "name": "USPS COLLECTION BOX - BLUE BOX", "address": {"city": "FORT COLLINS", "state": "CO", "street": "1015 S TAFT HILL RD", "postcode": "80521"}}},
{"geometry": {"type": "Point", "coordinates": [-105.1066184284, 40.5830111441]}, "type": "Feature", "properties": {"collection_times": [{"days": "Mon-Fri", "time": "3:45pm"}, {"days": "Sat", "time": "1:45pm"}, {"days": "Sun", "time": "Closed"}], "id": "8052100006", "name": "USPS COLLECTION BOX - EXPRESS", "address": {"city": "FORT COLLINS", "state": "CO", "street": "301 S HOWES ST", "postcode": "80521"}}},
{"geometry": {"type": "Point", "coordinates": [-105.0806782653, 40.5835593633]}, "type": "Feature", "properties": {"collection_times": [{"days": "Mon-Sat", "time": "5:30pm"}, {"days": "Sun", "time": "Closed"}], "id": "8052100008", "name": "USPS COLLECTION BOX - BLUE BOX", "address": {"city": "FORT COLLINS", "state": "CO", "street": "301 S HOWES ST", "postcode": "80521"}}},
{"geometry": {"type": "Point", "coordinates": [-105.0806782653, 40.5835593633]}, "type": "Feature", "properties": {"collection_times": [{"days": "Mon-Sat", "time": "5:30pm"}, {"days": "Sun", "time": "Closed"}], "id": "8052100009", "name": "USPS COLLECTION BOX - BLUE BOX", "address": {"city": "FORT COLLINS", "state": "CO", "street": "301 S HOWES ST", "postcode": "80521"}}},
{"geometry": {"type": "Point", "coordinates": [-105.0806782653, 40.5835593633]}, "type": "Feature", "properties": {"collection_times": [{"days": "Mon-Sat", "time": "5:30pm"}, {"days": "Sun", "time": "Closed"}], "id": "8052100010", "name": "USPS COLLECTION BOX - BLUE BOX", "address": {"city": "FORT COLLINS", "state": "CO", "street": "301 S HOWES ST", "postcode": "80521"}}},
{"geometry": {"type": "Point", "coordinates": [-105.0806782653, 40.5835593633]}, "type": "Feature", "properties": {"collection_times": [{"days": "Mon-Fri", "time": "3:45pm"}, {"days": "Sat", "time": "1:45pm"}, {"days": "Sun", "time": "Closed"}], "id": "8052100011", "name": "USPS COLLECTION BOX - PO LOBBY", "address": {"city": "FORT COLLINS", "state": "CO", "street": "301 S HOWES ST", "postcode": "80521"}}},
{"geometry": {"type": "Point", "coordinates": [-105.0806782653, 40.5835593633]}, "type": "Feature", "properties": {"collection_times": [{"days": "Mon-Fri", "time": "5:30pm"}, {"days": "Sat", "time": "1:45pm"}, {"days": "Sun", "time": "Closed"}], "id": "8052100012", "name": "USPS COLLECTION BOX - PO LOBBY", "address": {"city": "FORT COLLINS", "state": "CO", "street": "301 S HOWES ST", "postcode": "80521"}}},
{"geometry": {"type": "Point", "coordinates": [-105.0806782653, 40.5835593633]}, "type": "Feature", "properties": {"collection_times": [{"days": "Mon-Sat", "time": "5:30pm"}, {"days": "Sun", "time": "Closed"}], "id": "8052100016", "name": "USPS COLLECTION BOX - PO LOBBY", "address": {"city": "FORT COLLINS", "state": "CO", "street": "301 S HOWES ST", "postcode": "80521"}}},
{"geometry": {"type": "Point", "coordinates": [-105.0806782653, 40.5835593633]}, "type": "Feature", "properties": {"collection_times": [{"days": "Mon-Sat", "time": "5:30pm"}, {"days": "Sun", "time": "Closed"}], "id": "8052100017", "name": "USPS COLLECTION BOX - PO LOBBY", "address": {"city": "FORT COLLINS", "state": "CO", "street": "301 S HOWES ST", "postcode": "80521"}}},
{"geometry": {"type": "Point", "coordinates": [-105.0806782653, 40.5835593633]}, "type": "Feature", "properties": {"collection_times": [{"days": "Mon-Sat", "time": "5:30pm"}, {"days": "Sun", "time": "Closed"}], "id": "8052100018", "name": "USPS COLLECTION BOX - PO LOBBY", "address": {"city": "FORT COLLINS", "state": "CO", "street": "301 S HOWES ST", "postcode": "80521"}}},
{"geometry": {"type": "Point", "coordinates": [-105.0806782653, 40.5835593633]}, "type": "Feature", "properties": {"collection_times": [{"days": "Mon-Sat", "time": "5:30pm"}, {"days": "Sun", "time": "Closed"}], "id": "8052100019", "name": "USPS COLLECTION BOX - PO LOBBY", "address": {"city": "FORT COLLINS", "state": "CO", "street": "301 S HOWES ST", "postcode": "80521"}}},
{"geometry": {"type": "Point", "coordinates": [-105.0806782653, 40.5835593633]}, "type": "Feature", "properties": {"collection_times": [{"days": "Mon-Sat", "time": "5:30pm"}, {"days": "Sun", "time": "Closed"}], "id": "8052100020", "name": "USPS COLLECTION BOX - PO LOBBY", "address": {"city": "FORT COLLINS", "state": "CO", "street": "301 S HOWES ST", "postcode": "80521"}}},
{"geometry": {"type": "Point", "coordinates": [-105.0806782653, 40.5835593633]}, "type": "Feature", "properties": {"collection_times": [{"days": "Mon-Sat", "time": "5:30pm"}, {"days": "Sun", "time": "Closed"}], "id": "8052100021", "name": "USPS COLLECTION BOX - PO LOBBY", "address": {"city": "FORT COLLINS", "state": "CO", "street": "301 S HOWES ST", "postcode": "80521"}}},
{"geometry": {"type": "Point", "coordinates": [-105.0814436397, 40.5850640871]}, "type": "Feature", "properties": {"collection_times": [{"days": "Mon-Fri", "time": "3:20pm"}, {"days": "Sat", "time": "2:45pm"}, {"days": "Sun", "time": "Closed"}], "id": "8052100022", "name": "USPS COLLECTION BOX - BLUE BOX", "address": {"city": "FORT COLLINS", "state": "CO", "street": "211 CANYON AVE", "postcode": "80521"}}},
{"geometry": {"type": "Point", "coordinates": [-105.0749361825, 40.5856046993]}, "type": "Feature", "properties": {"collection_times": [{"days": "Mon-Fri", "time": "3:00pm"}, {"days": "Sat", "time": "2:45pm"}, {"days": "Sun", "time": "Closed"}], "id": "8052100026", "name": "USPS COLLECTION BOX - BLUE BOX", "address": {"city": "FORT COLLINS", "state": "CO", "street": "215 W OAK ST", "postcode": "80521"}}},
{"geometry": {"type": "Point", "coordinates": [-105.0806782653, 40.5835593633]}, "type": "Feature", "properties": {"collection_times": [{"days": "Mon-Sat", "time": "5:30pm"}, {"days": "Sun", "time": "Closed"}], "id": "8052100027", "name": "USPS COLLECTION BOX - APC", "address": {"city": "FORT COLLINS", "state": "CO", "street": "301 S HOWES ST", "postcode": "80521"}}},
{"geometry": {"type": "Point", "coordinates": [-105.0770371176, 40.5667956518]}, "type": "Feature", "properties": {"collection_times": [{"days": "Mon-Sat", "time": "12:30pm"}, {"days": "Sun", "time": "Closed"}], "id": "8052400002", "name": "USPS COLLECTION BOX - BLUE BOX", "address": {"city": "FORT COLLINS", "state": "CO", "street": "1601 N COLLEGE AVE", "postcode": "80524"}}},
{"geometry": {"type": "Point", "coordinates": [-105.0717019726, 40.6101073284]}, "type": "Feature", "properties": {"collection_times": [{"days": "Mon-Fri", "time": "1:30pm"}, {"days": "Sat", "time": "2:30pm"}, {"days": "Sun", "time": "Closed"}], "id": "8052400003", "name": "USPS COLLECTION BOX - BLUE BOX", "address": {"city": "FORT COLLINS", "state": "CO", "street": "1635 BLUE SPRUCE DR", "postcode": "80524"}}},
{"geometry": {"type": "Point", "coordinates": [-105.0769223706, 40.5867178637]}, "type": "Feature", "properties": {"collection_times": [{"days": "Mon-Fri", "time": "4:15pm"}, {"days": "Sat", "time": "2:35pm"}, {"days": "Sun", "time": "Closed"}], "id": "8052400005", "name": "USPS COLLECTION BOX - BLUE BOX", "address": {"city": "FORT COLLINS", "state": "CO", "street": "100 S COLLEGE AVE", "postcode": "80524"}}},
{"geometry": {"type": "Point", "coordinates": [-105.0770087266, 40.5750952919]}, "type": "Feature", "properties": {"collection_times": [{"days": "Mon-Sat", "time": "2:30pm"}, {"days": "Sun", "time": "Closed"}], "id": "8052400006", "name": "USPS COLLECTION BOX - BLUE BOX", "address": {"city": "FORT COLLINS", "state": "CO", "street": "900 S COLLEGE AVE", "postcode": "80524"}}},
{"geometry": {"type": "Point", "coordinates": [-105.0095036854, 40.5809789674]}, "type": "Feature", "properties": {"collection_times": [{"days": "Mon-Fri", "time": "2:00pm"}, {"days": "Sat", "time": "11:00am"}, {"days": "Sun", "time": "Closed"}], "id": "8052400007", "name": "USPS COLLECTION BOX - BLUE BOX", "address": {"city": "FORT COLLINS", "state": "CO", "street": "3809 E MULBERRY ST", "postcode": "80524"}}},
{"geometry": {"type": "Point", "coordinates": [-105.0501626558, 40.5835321552]}, "type": "Feature", "properties": {"collection_times": [{"days": "Mon-Fri", "time": "4:00pm"}, {"days": "Sat", "time": "2:20pm"}, {"days": "Sun", "time": "Closed"}], "id": "8052400008", "name": "USPS COLLECTION BOX - BLUE BOX", "address": {"city": "FORT COLLINS", "state": "CO", "street": "328 S LINK LN", "postcode": "80524"}}},
{"geometry": {"type": "Point", "coordinates": [-105.0579081995, 40.5773239431]}, "type": "Feature", "properties": {"collection_times": [{"days": "Mon-Fri", "time": "4:15pm"}, {"days": "Sat", "time": "2:45pm"}, {"days": "Sun", "time": "Closed"}], "id": "8052400010", "name": "USPS COLLECTION BOX - BLUE BOX", "address": {"city": "FORT COLLINS", "state": "CO", "street": "743 S LEMAY AVE", "postcode": "80524"}}},
{"geometry": {"type": "Point", "coordinates": [-105.0579290035, 40.5737947113]}, "type": "Feature", "properties": {"collection_times": [{"days": "Mon-Fri", "time": "4:15pm"}, {"days": "Sat", "time": "3:00pm"}, {"days": "Sun", "time": "Closed"}], "id": "8052400011", "name": "USPS COLLECTION BOX - BLUE BOX", "address": {"city": "FORT COLLINS", "state": "CO", "street": "1021 S LEMAY AVE", "postcode": "80524"}}},
{"geometry": {"type": "Point", "coordinates": [-105.0579290035, 40.5737947113]}, "type": "Feature", "properties": {"collection_times": [{"days": "Mon-Fri", "time": "4:15pm"}, {"days": "Sat", "time": "3:00pm"}, {"days": "Sun", "time": "Closed"}], "id": "8052400012", "name": "USPS COLLECTION BOX - BLUE BOX", "address": {"city": "FORT COLLINS", "state": "CO", "street": "1021 S LEMAY AVE", "postcode": "80524"}}},
{"geometry": {"type": "Point", "coordinates": [-105.0501626558, 40.5835321552]}, "type": "Feature", "properties": {"collection_times": [{"days": "Mon-Fri", "time": "4:00pm"}, {"days": "Sat", "time": "2:20pm"}, {"days": "Sun", "time": "Closed"}], "id": "8052400013", "name": "USPS COLLECTION BOX - BLUE BOX", "address": {"city": "FORT COLLINS", "state": "CO", "street": "328 S LINK LN", "postcode": "80524"}}},
{"geometry": {"type": "Point", "coordinates": [-105.042138507, 40.607083363]}, "type": "Feature", "properties": {"collection_times": [{"days": "Mon-Sat", "time": "11:00am"}, {"days": "Sun", "time": "Closed"}], "id": "8052400016", "name": "USPS COLLECTION BOX - BLUE BOX", "address": {"city": "FORT COLLINS", "state": "CO", "street": "1386 ADRIEL DR", "postcode": "80524"}}},
{"geometry": {"type": "Point", "coordinates": [-105.0579938442, 40.6039228189]}, "type": "Feature", "properties": {"collection_times": [{"days": "Mon-Fri", "time": "1:30pm"}, {"days": "Sat", "time": "2:30pm"}, {"days": "Sun", "time": "Closed"}], "id": "8052400020", "name": "USPS COLLECTION BOX - BLUE BOX", "address": {"city": "FORT COLLINS", "state": "CO", "street": "1037 CONIFER ST", "postcode": "80524"}}},
{"geometry": {"type": "Point", "coordinates": [-105.0507764175, 40.6057312237]}, "type": "Feature", "properties": {"collection_times": [{"days": "Mon-Fri", "time": "4:00pm"}, {"days": "Sat", "time": "2:30pm"}, {"days": "Sun", "time": "Closed"}], "id": "8052400022", "name": "USPS COLLECTION BOX - BLUE BOX", "address": {"city": "FORT COLLINS", "state": "CO", "street": "300 E MOUNTAIN AVE", "postcode": "80524"}}},
{"geometry": {"type": "Point", "coordinates": [-105.0313983902, 40.5796555836]}, "type": "Feature", "properties": {"collection_times": [{"days": "Mon-Fri", "time": "2:00pm"}, {"days": "Sat", "time": "1:00pm"}, {"days": "Sun", "time": "Closed"}], "id": "8052400023", "name": "USPS COLLECTION BOX - BLUE BOX", "address": {"city": "FORT COLLINS", "state": "CO", "street": "604 COUNTRYSIDE DR", "postcode": "80524"}}},
{"geometry": {"type": "Point", "coordinates": [-105.0322208593, 40.5879607717]}, "type": "Feature", "properties": {"collection_times": [{"days": "Mon-Fri", "time": "1:45pm"}, {"days": "Sat-Sun", "time": "Closed"}], "id": "8052400024", "name": "USPS COLLECTION BOX - BLUE BOX", "address": {"city": "FORT COLLINS", "state": "CO", "street": "2485 INTERNATIONAL BLVD", "postcode": "80524"}}},
{"geometry": {"type": "Point", "coordinates": [-105.0770761552, 40.5853065937]}, "type": "Feature", "properties": {"collection_times": [{"days": "Mon-Fri", "time": "3:30pm"}, {"days": "Sat", "time": "2:30pm"}, {"days": "Sun", "time": "Closed"}], "id": "8052400025", "name": "USPS COLLECTION BOX - BLUE BOX", "address": {"city": "FORT COLLINS", "state": "CO", "street": "201 S COLLEGE AVE", "postcode": "80524"}}},
{"geometry": {"type": "Point", "coordinates": [-105.0771705528, 40.5591502131]}, "type": "Feature", "properties": {"collection_times": [{"days": "Mon-Fri", "time": "3:15pm"}, {"days": "Sat", "time": "12:15pm"}, {"days": "Sun", "time": "Closed"}], "id": "8052500001", "name": "USPS COLLECTION BOX - BLUE BOX", "address": {"city": "FORT COLLINS", "state": "CO", "street": "2211 S COLLEGE AVE", "postcode": "80525"}}},
{"geometry": {"type": "Point", "coordinates": [-105.0741915854, 40.5321836182]}, "type": "Feature", "properties": {"collection_times": [{"days": "Mon-Sat", "time": "5:45pm"}, {"days": "Sun", "time": "Closed"}], "id": "8052500002", "name": "USPS COLLECTION BOX - BLUE BOX", "address": {"city": "FORT COLLINS", "state": "CO", "street": "301 BOARDWALK DR", "postcode": "80525"}}},
{"geometry": {"type": "Point", "coordinates": [-105.0719338326, 40.5380308216]}, "type": "Feature", "properties": {"collection_times": [{"days": "Mon-Fri", "time": "3:10pm"}, {"days": "Sat", "time": "1:00pm"}, {"days": "Sun", "time": "Closed"}], "id": "8052500003", "name": "USPS COLLECTION BOX - BLUE BOX", "address": {"city": "FORT COLLINS", "state": "CO", "street": "375 E HORSETOOTH RD", "postcode": "80525"}}},
{"geometry": {"type": "Point", "coordinates": [-105.0719338326, 40.5380308216]}, "type": "Feature", "properties": {"collection_times": [{"days": "Mon-Fri", "time": "3:10pm"}, {"days": "Sat", "time": "1:00pm"}, {"days": "Sun", "time": "Closed"}], "id": "8052500004", "name": "USPS COLLECTION BOX - BLUE BOX", "address": {"city": "FORT COLLINS", "state": "CO", "street": "375 E HORSETOOTH RD", "postcode": "80525"}}},
{"geometry": {"type": "Point", "coordinates": [-105.0567768704, 40.5296501315]}, "type": "Feature", "properties": {"collection_times": [{"days": "Mon-Fri", "time": "3:10pm"}, {"days": "Sat-Sun", "time": "Closed"}], "id": "8052500005", "name": "USPS COLLECTION BOX - EXPRESS", "address": {"city": "FORT COLLINS", "state": "CO", "street": "375 E HORSETOOTH RD", "postcode": "80525"}}},
{"geometry": {"type": "Point", "coordinates": [-105.0584942358, 40.5235904415]}, "type": "Feature", "properties": {"collection_times": [{"days": "Mon-Fri", "time": "12:00pm"}, {"days": "Sat", "time": "11:15am"}, {"days": "Sun", "time": "Closed"}], "id": "8052500006", "name": "USPS COLLECTION BOX - BLUE BOX", "address": {"city": "FORT COLLINS", "state": "CO", "street": "1001 E HARMONY RD", "postcode": "80525"}}},
{"geometry": {"type": "Point", "coordinates": [-105.0567768704, 40.5296501315]}, "type": "Feature", "properties": {"collection_times": [{"days": "Mon-Fri", "time": "12:00pm"}, {"days": "Sat-Sun", "time": "Closed"}], "id": "8052500007", "name": "USPS COLLECTION BOX - EXPRESS", "address": {"city": "FORT COLLINS", "state": "CO", "street": "1001 E HARMONY RD", "postcode": "80525"}}},
{"geometry": {"type": "Point", "coordinates": [-105.0584942358, 40.5235904415]}, "type": "Feature", "properties": {"collection_times": [{"days": "Mon-Fri", "time": "12:00pm"}, {"days": "Sat", "time": "11:15am"}, {"days": "Sun", "time": "Closed"}], "id": "8052500008", "name": "USPS COLLECTION BOX - BLUE BOX", "address": {"city": "FORT COLLINS", "state": "CO", "street": "1001 E HARMONY RD", "postcode": "80525"}}},
{"geometry": {"type": "Point", "coordinates": [-105.0584942358, 40.5235904415]}, "type": "Feature", "properties": {"collection_times": [{"days": "Mon-Fri", "time": "12:00pm"}, {"days": "Sat", "time": "11:15am"}, {"days": "Sun", "time": "Closed"}], "id": "8052500009", "name": "USPS COLLECTION BOX - BLUE BOX", "address": {"city": "FORT COLLINS", "state": "CO", "street": "1001 E HARMONY RD", "postcode": "80525"}}},
{"geometry": {"type": "Point", "coordinates": [-105.0584942358, 40.5235904415]}, "type": "Feature", "properties": {"collection_times": [{"days": "Mon-Fri", "time": "12:00pm"}, {"days": "Sat", "time": "11:15am"}, {"days": "Sun", "time": "Closed"}], "id": "8052500010", "name": "USPS COLLECTION BOX - BLUE BOX", "address": {"city": "FORT COLLINS", "state": "CO", "street": "1001 E HARMONY RD", "postcode": "80525"}}},
{"geometry": {"type": "Point", "coordinates": [-105.0567768704, 40.5296501315]}, "type": "Feature", "properties": {"collection_times": [{"days": "Mon-Fri", "time": "3:10pm"}, {"days": "Sat", "time": "12:45pm"}, {"days": "Sun", "time": "Closed"}], "id": "8052500011", "name": "USPS COLLECTION BOX - EXPRESS", "address": {"city": "FORT COLLINS", "state": "CO", "street": "301 BOARDWALK DR", "postcode": "80525"}}},
{"geometry": {"type": "Point", "coordinates": [-105.0726601569, 40.5316482908]}, "type": "Feature", "properties": {"collection_times": [{"days": "Mon-Sat", "time": "5:45pm"}, {"days": "Sun", "time": "Closed"}], "id": "8052500014", "name": "USPS COLLECTION BOX - BLUE BOX", "address": {"city": "FORT COLLINS", "state": "CO", "street": "301 BOARDWALK DR", "postcode": "80525"}}},
{"geometry": {"type": "Point", "coordinates": [-105.0726601569, 40.5316482908]}, "type": "Feature", "properties": {"collection_times": [{"days": "Mon-Sat", "time": "5:45pm"}, {"days": "Sun", "time": "Closed"}], "id": "8052500015", "name": "USPS COLLECTION BOX - BLUE BOX", "address": {"city": "FORT COLLINS", "state": "CO", "street": "301 BOARDWALK DR", "postcode": "80525"}}},
{"geometry": {"type": "Point", "coordinates": [-105.0772311142, 40.53764851]}, "type": "Feature", "properties": {"collection_times": [{"days": "Mon-Fri", "time": "3:05pm"}, {"days": "Sat", "time": "1:00pm"}, {"days": "Sun", "time": "Closed"}], "id": "8052500017", "name": "USPS COLLECTION BOX - BLUE BOX", "address": {"city": "FORT COLLINS", "state": "CO", "street": "3641 S COLLEGE AVE", "postcode": "80525"}}},
{"geometry": {"type": "Point", "coordinates": [-105.0567768704, 40.5296501315]}, "type": "Feature", "properties": {"collection_times": [{"days": "Mon-Fri", "time": "2:15pm"}, {"days": "Sat-Sun", "time": "Closed"}], "id": "8052500018", "name": "USPS COLLECTION BOX - EXPRESS", "address": {"city": "FORT COLLINS", "state": "CO", "street": "2400 E PROSPECT RD", "postcode": "80525"}}},
{"geometry": {"type": "Point", "coordinates": [-105.0334429381, 40.5673922007]}, "type": "Feature", "properties": {"collection_times": [{"days": "Mon-Fri", "time": "2:15pm"}, {"days": "Sat", "time": "3:00pm"}, {"days": "Sun", "time": "Closed"}], "id": "8052500019", "name": "USPS COLLECTION BOX - BLUE BOX", "address": {"city": "FORT COLLINS", "state": "CO", "street": "2400 E PROSPECT RD", "postcode": "80525"}}},
{"geometry": {"type": "Point", "coordinates": [-105.0334429381, 40.5673922007]}, "type": "Feature", "properties": {"collection_times": [{"days": "Mon-Fri", "time": "2:15pm"}, {"days": "Sat", "time": "3:00pm"}, {"days": "Sun", "time": "Closed"}], "id": "8052500020", "name": "USPS COLLECTION BOX - BLUE BOX", "address": {"city": "FORT COLLINS", "state": "CO", "street": "2400 E PROSPECT RD", "postcode": "80525"}}},
{"geometry": {"type": "Point", "coordinates": [-105.0334429381, 40.5673922007]}, "type": "Feature", "properties": {"collection_times": [{"days": "Mon-Fri", "time": "2:15pm"}, {"days": "Sat", "time": "3:00pm"}, {"days": "Sun", "time": "Closed"}], "id": "8052500021", "name": "USPS COLLECTION BOX - BLUE BOX", "address": {"city": "FORT COLLINS", "state": "CO", "street": "2400 E PROSPECT RD", "postcode": "80525"}}},
{"geometry": {"type": "Point", "coordinates": [-105.0769531275, 40.546551675]}, "type": "Feature", "properties": {"collection_times": [{"days": "Mon-Fri", "time": "12:15pm"}, {"days": "Sat", "time": "3:15pm"}, {"days": "Sun", "time": "Closed"}], "id": "8052500022", "name": "USPS COLLECTION BOX - BLUE BOX", "address": {"city": "FORT COLLINS", "state": "CO", "street": "3000 S COLLEGE AVE", "postcode": "80525"}}},
{"geometry": {"type": "Point", "coordinates": [-105.0769531275, 40.546551675]}, "type": "Feature", "properties": {"collection_times": [{"days": "Mon-Fri", "time": "12:15pm"}, {"days": "Sat", "time": "3:15pm"}, {"days": "Sun", "time": "Closed"}], "id": "8052500023", "name": "USPS COLLECTION BOX - BLUE BOX", "address": {"city": "FORT COLLINS", "state": "CO", "street": "3000 S COLLEGE AVE", "postcode": "80525"}}},
{"geometry": {"type": "Point", "coordinates": [-105.0567768704, 40.5296501315]}, "type": "Feature", "properties": {"collection_times": [{"days": "Mon-Fri", "time": "12:15pm"}, {"days": "Sat-Sun", "time": "Closed"}], "id": "8052500024", "name": "USPS COLLECTION BOX - EXPRESS", "address": {"city": "FORT COLLINS", "state": "CO", "street": "3000 S COLLEGE AVE", "postcode": "80525"}}},
{"geometry": {"type": "Point", "coordinates": [-105.0726601569, 40.5316482908]}, "type": "Feature", "properties": {"collection_times": [{"days": "Mon-Sat", "time": "5:45pm"}, {"days": "Sun", "time": "Closed"}], "id": "8052500025", "name": "USPS COLLECTION BOX - PO LOBBY", "address": {"city": "FORT COLLINS", "state": "CO", "street": "301 BOARDWALK DR", "postcode": "80525"}}},
{"geometry": {"type": "Point", "coordinates": [-105.0726601569, 40.5316482908]}, "type": "Feature", "properties": {"collection_times": [{"days": "Mon-Sat", "time": "5:45pm"}, {"days": "Sun", "time": "Closed"}], "id": "8052500026", "name": "USPS COLLECTION BOX - PO LOBBY", "address": {"city": "FORT COLLINS", "state": "CO", "street": "301 BOARDWALK DR", "postcode": "80525"}}},
{"geometry": {"type": "Point", "coordinates": [-105.0726601569, 40.5316482908]}, "type": "Feature", "properties": {"collection_times": [{"days": "Mon-Sat", "time": "5:45pm"}, {"days": "Sun", "time": "Closed"}], "id": "8052500029", "name": "USPS COLLECTION BOX - PO LOBBY", "address": {"city": "FORT COLLINS", "state": "CO", "street": "301 BOARDWALK DR", "postcode": "80525"}}},
{"geometry": {"type": "Point", "coordinates": [-105.0319017687, 40.5234161877]}, "type": "Feature", "properties": {"collection_times": [{"days": "Mon-Fri", "time": "12:00pm"}, {"days": "Sat", "time": "11:45am"}, {"days": "Sun", "time": "Closed"}], "id": "8052500034", "name": "USPS COLLECTION BOX - BLUE BOX", "address": {"city": "FORT COLLINS", "state": "CO", "street": "2500 E HARMONY RD", "postcode": "80525"}}},
{"geometry": {"type": "Point", "coordinates": [-105.0726601569, 40.5316482908]}, "type": "Feature", "properties": {"collection_times": [{"days": "Mon-Sat", "time": "5:45pm"}, {"days": "Sun", "time": "Closed"}], "id": "8052500037", "name": "USPS COLLECTION BOX - BLUE BOX", "address": {"city": "FORT COLLINS", "state": "CO", "street": "301 BOARDWALK DR", "postcode": "80525"}}},
{"geometry": {"type": "Point", "coordinates": [-105.0569694017, 40.5634395972]}, "type": "Feature", "properties": {"collection_times": [{"days": "Mon-Fri", "time": "2:00pm"}, {"days": "Sat", "time": "3:00pm"}, {"days": "Sun", "time": "Closed"}], "id": "8052500038", "name": "USPS COLLECTION BOX - BLUE BOX", "address": {"city": "FORT COLLINS", "state": "CO", "street": "1136 E STUART ST", "postcode": "80525"}}},
{"geometry": {"type": "Point", "coordinates": [-105.0567768704, 40.5296501315]}, "type": "Feature", "properties": {"collection_times": [{"days": "Mon-Fri", "time": "2:00pm"}, {"days": "Sat-Sun", "time": "Closed"}], "id": "8052500039", "name": "USPS COLLECTION BOX - EXPRESS", "address": {"city": "FORT COLLINS", "state": "CO", "street": "1136 E STUART ST", "postcode": "80525"}}},
{"geometry": {"type": "Point", "coordinates": [-105.0726601569, 40.5316482908]}, "type": "Feature", "properties": {"collection_times": [{"days": "Mon-Fri", "time": "5:45pm"}, {"days": "Sat", "time": "12:45pm"}, {"days": "Sun", "time": "Closed"}], "id": "8052500040", "name": "USPS COLLECTION BOX - PO LOBBY", "address": {"city": "FORT COLLINS", "state": "CO", "street": "301 BOARDWALK DR", "postcode": "80525"}}},
{"geometry": {"type": "Point", "coordinates": [-105.0508511379, 40.5380249068]}, "type": "Feature", "properties": {"collection_times": [{"days": "Mon-Fri", "time": "11:45am"}, {"days": "Sat", "time": "12:00pm"}, {"days": "Sun", "time": "Closed"}], "id": "8052500041", "name": "USPS COLLECTION BOX - BLUE BOX", "address": {"city": "FORT COLLINS", "state": "CO", "street": "1424 E HORSETOOTH RD", "postcode": "80525"}}},
{"geometry": {"type": "Point", "coordinates": [-105.0567768704, 40.5296501315]}, "type": "Feature", "properties": {"collection_times": [{"days": "Mon-Fri", "time": "12:00pm"}, {"days": "Sat-Sun", "time": "Closed"}], "id": "8052500042", "name": "USPS COLLECTION BOX - EXPRESS", "address": {"city": "FORT COLLINS", "state": "CO", "street": "1426 E HARMONY RD", "postcode": "80525"}}},
{"geometry": {"type": "Point", "coordinates": [-105.0515632792, 40.52372175]}, "type": "Feature", "properties": {"collection_times": [{"days": "Mon-Fri", "time": "12:00pm"}, {"days": "Sat", "time": "11:45am"}, {"days": "Sun", "time": "Closed"}], "id": "8052500043", "name": "USPS COLLECTION BOX - BLUE BOX", "address": {"city": "FORT COLLINS", "state": "CO", "street": "1426 E HARMONY RD", "postcode": "80525"}}},
{"geometry": {"type": "Point", "coordinates": [-105.0726601569, 40.5316482908]}, "type": "Feature", "properties": {"collection_times": [{"days": "Mon-Sat", "time": "5:45pm"}, {"days": "Sun", "time": "Closed"}], "id": "8052500044", "name": "USPS COLLECTION BOX - BLUE BOX", "address": {"city": "FORT COLLINS", "state": "CO", "street": "301 BOARDWALK DR", "postcode": "80525"}}},
{"geometry": {"type": "Point", "coordinates": [-105.0726601569, 40.5316482908]}, "type": "Feature", "properties": {"collection_times": [{"days": "Mon-Sat", "time": "5:45pm"}, {"days": "Sun", "time": "Closed"}], "id": "8052500045", "name": "USPS COLLECTION BOX - BLUE BOX", "address": {"city": "FORT COLLINS", "state": "CO", "street": "301 BOARDWALK DR", "postcode": "80525"}}},
{"geometry": {"type": "Point", "coordinates": [-105.0726601569, 40.5316482908]}, "type": "Feature", "properties": {"collection_times": [{"days": "Mon-Sat", "time": "5:45pm"}, {"days": "Sun", "time": "Closed"}], "id": "8052500046", "name": "USPS COLLECTION BOX - BLUE BOX", "address": {"city": "FORT COLLINS", "state": "CO", "street": "301 BOARDWALK DR", "postcode": "80525"}}},
{"geometry": {"type": "Point", "coordinates": [-105.0726601569, 40.5316482908]}, "type": "Feature", "properties": {"collection_times": [{"days": "Mon-Sat", "time": "5:45pm"}, {"days": "Sun", "time": "Closed"}], "id": "8052500047", "name": "USPS COLLECTION BOX - PO LOBBY", "address": {"city": "FORT COLLINS", "state": "CO", "street": "301 BOARDWALK DR", "postcode": "80525"}}},
{"geometry": {"type": "Point", "coordinates": [-105.0726601569, 40.5316482908]}, "type": "Feature", "properties": {"collection_times": [{"days": "Mon-Sat", "time": "5:45pm"}, {"days": "Sun", "time": "Closed"}], "id": "8052500048", "name": "USPS COLLECTION BOX - PO LOBBY", "address": {"city": "FORT COLLINS", "state": "CO", "street": "301 BOARDWALK DR", "postcode": "80525"}}},
{"geometry": {"type": "Point", "coordinates": [-105.0726601569, 40.5316482908]}, "type": "Feature", "properties": {"collection_times": [{"days": "Mon-Sat", "time": "5:45pm"}, {"days": "Sun", "time": "Closed"}], "id": "8052500049", "name": "USPS COLLECTION BOX - PO LOBBY", "address": {"city": "FORT COLLINS", "state": "CO", "street": "301 BOARDWALK DR", "postcode": "80525"}}},
{"geometry": {"type": "Point", "coordinates": [-105.0726601569, 40.5316482908]}, "type": "Feature", "properties": {"collection_times": [{"days": "Mon-Sat", "time": "5:45pm"}, {"days": "Sun", "time": "Closed"}], "id": "8052500050", "name": "USPS COLLECTION BOX - PO LOBBY", "address": {"city": "FORT COLLINS", "state": "CO", "street": "301 BOARDWALK DR", "postcode": "80525"}}},
{"geometry": {"type": "Point", "coordinates": [-105.0790204125, 40.5229929897]}, "type": "Feature", "properties": {"collection_times": [{"days": "Mon-Fri", "time": "12:00pm"}, {"days": "Sat", "time": "11:30am"}, {"days": "Sun", "time": "Closed"}], "id": "8052500051", "name": "USPS COLLECTION BOX - BLUE BOX", "address": {"city": "FORT COLLINS", "state": "CO", "street": "4619 S MASON ST", "postcode": "80525"}}},
{"geometry": {"type": "Point", "coordinates": [-105.0726601569, 40.5316482908]}, "type": "Feature", "properties": {"collection_times": [{"days": "Mon-Sat", "time": "5:45pm"}, {"days": "Sun", "time": "Closed"}], "id": "8052500052", "name": "USPS COLLECTION BOX - PO LOBBY", "address": {"city": "FORT COLLINS", "state": "CO", "street": "301 BOARDWALK DR", "postcode": "80525"}}},
{"geometry": {"type": "Point", "coordinates": [-105.0726601569, 40.5316482908]}, "type": "Feature", "properties": {"collection_times": [{"days": "Mon-Sat", "time": "5:45pm"}, {"days": "Sun", "time": "Closed"}], "id": "8052500053", "name": "USPS COLLECTION BOX - APC", "address": {"city": "FORT COLLINS", "state": "CO", "street": "301 BOARDWALK DR", "postcode": "80525"}}},
{"geometry": {"type": "Point", "coordinates": [-105.0390481336, 40.5527127294]}, "type": "Feature", "properties": {"collection_times": [{"days": "Mon-Fri", "time": "4:15pm"}, {"days": "Sat", "time": "2:50pm"}, {"days": "Sun", "time": "Closed"}], "id": "8052500054", "name": "USPS COLLECTION BOX - BLUE BOX", "address": {"city": "FORT COLLINS", "state": "CO", "street": "2614 S TIMBERLINE RD", "postcode": "80525"}}},
{"geometry": {"type": "Point", "coordinates": [-105.0396398151, 40.5353316789]}, "type": "Feature", "properties": {"collection_times": [{"days": "Mon-Fri", "time": "2:15pm"}, {"days": "Sat-Sun", "time": "Closed"}], "id": "8052500055", "name": "USPS COLLECTION BOX - BLUE BOX", "address": {"city": "FORT COLLINS", "state": "CO", "street": "2105 BIGHORN RD", "postcode": "80525"}}},
{"geometry": {"type": "Point", "coordinates": [-105.0807764509, 40.5506317005]}, "type": "Feature", "properties": {"collection_times": [{"days": "Mon-Fri", "time": "1:45pm"}, {"days": "Sat", "time": "2:25pm"}, {"days": "Sun", "time": "Closed"}], "id": "8052600001", "name": "USPS COLLECTION BOX - BLUE BOX", "address": {"city": "FORT COLLINS", "state": "CO", "street": "2627 REDWING RD", "postcode": "80526"}}},
{"geometry": {"type": "Point", "coordinates": [-105.1095382721, 40.5428502582]}, "type": "Feature", "properties": {"collection_times": [{"days": "Mon-Fri", "time": "1:45pm"}, {"days": "Sat-Sun", "time": "Closed"}], "id": "8052600002", "name": "USPS COLLECTION BOX - EXPRESS", "address": {"city": "FORT COLLINS", "state": "CO", "street": "2627 REDWING RD", "postcode": "80526"}}},
{"geometry": {"type": "Point", "coordinates": [-105.0966488433, 40.5525995753]}, "type": "Feature", "properties": {"collection_times": [{"days": "Mon-Fri", "time": "12:30pm"}, {"days": "Sat", "time": "1:30pm"}, {"days": "Sun", "time": "Closed"}], "id": "8052600005", "name": "USPS COLLECTION BOX - BLUE BOX", "address": {"city": "FORT COLLINS", "state": "CO", "street": "1119 W DRAKE RD", "postcode": "80526"}}},
{"geometry": {"type": "Point", "coordinates": [-105.1137845549, 40.6449300914]}, "type": "Feature", "properties": {"collection_times": [{"days": "Mon-Fri", "time": "12:45pm"}, {"days": "Sat", "time": "11:00am"}, {"days": "Sun", "time": "Closed"}], "id": "8052600007", "name": "USPS COLLECTION BOX - BLUE BOX", "address": {"city": "FORT COLLINS", "state": "CO", "street": "4015 S TAFT HILL RD", "postcode": "80526"}}},
{"geometry": {"type": "Point", "coordinates": [-105.0907154221, 40.5559273587]}, "type": "Feature", "properties": {"collection_times": [{"days": "Mon-Fri", "time": "1:45pm"}, {"days": "Sat", "time": "2:35pm"}, {"days": "Sun", "time": "Closed"}], "id": "8052600008", "name": "USPS COLLECTION BOX - BLUE BOX", "address": {"city": "FORT COLLINS", "state": "CO", "street": "803 CENTRE AVE", "postcode": "80526"}}},
{"geometry": {"type": "Point", "coordinates": [-105.0907154221, 40.5559273587]}, "type": "Feature", "properties": {"collection_times": [{"days": "Mon-Fri", "time": "1:45pm"}, {"days": "Sat", "time": "2:35pm"}, {"days": "Sun", "time": "Closed"}], "id": "8052600009", "name": "USPS COLLECTION BOX - BLUE BOX", "address": {"city": "FORT COLLINS", "state": "CO", "street": "803 CENTRE AVE", "postcode": "80526"}}},
{"geometry": {"type": "Point", "coordinates": [-105.0907154221, 40.5559273587]}, "type": "Feature", "properties": {"collection_times": [{"days": "Mon-Fri", "time": "1:45pm"}, {"days": "Sat", "time": "2:35pm"}, {"days": "Sun", "time": "Closed"}], "id": "8052600010", "name": "USPS COLLECTION BOX - BLUE BOX", "address": {"city": "FORT COLLINS", "state": "CO", "street": "803 CENTRE AVE", "postcode": "80526"}}},
{"geometry": {"type": "Point", "coordinates": [-105.1095382721, 40.5428502582]}, "type": "Feature", "properties": {"collection_times": [{"days": "Mon-Fri", "time": "1:45pm"}, {"days": "Sat-Sun", "time": "Closed"}], "id": "8052600011", "name": "USPS COLLECTION BOX - EXPRESS", "address": {"city": "FORT COLLINS", "state": "CO", "street": "803 CENTRE AVE", "postcode": "80526"}}},
{"geometry": {"type": "Point", "coordinates": [-105.0966505772, 40.5672368955]}, "type": "Feature", "properties": {"collection_times": [{"days": "Mon-Fri", "time": "1:30pm"}, {"days": "Sat", "time": "2:10pm"}, {"days": "Sun", "time": "Closed"}], "id": "8052600012", "name": "USPS COLLECTION BOX - BLUE BOX", "address": {"city": "FORT COLLINS", "state": "CO", "street": "1103 W PROSPECT RD", "postcode": "80526"}}},
{"geometry": {"type": "Point", "coordinates": [-105.1095382721, 40.5428502582]}, "type": "Feature", "properties": {"collection_times": [{"days": "Mon-Fri", "time": "12:45pm"}, {"days": "Sat-Sun", "time": "Closed"}], "id": "8052600014", "name": "USPS COLLECTION BOX - EXPRESS", "address": {"city": "FORT COLLINS", "state": "CO", "street": "4617 STARFLOWER DR", "postcode": "80526"}}},
{"geometry": {"type": "Point", "coordinates": [-105.1305060325, 40.5222583165]}, "type": "Feature", "properties": {"collection_times": [{"days": "Mon-Fri", "time": "12:45pm"}, {"days": "Sat", "time": "11:00am"}, {"days": "Sun", "time": "Closed"}], "id": "8052600015", "name": "USPS COLLECTION BOX - BLUE BOX", "address": {"city": "FORT COLLINS", "state": "CO", "street": "4617 STARFLOWER DR", "postcode": "80526"}}},
{"geometry": {"type": "Point", "coordinates": [-105.1164485785, 40.5528793225]}, "type": "Feature", "properties": {"collection_times": [{"days": "Mon-Fri", "time": "12:45pm"}, {"days": "Sat", "time": "2:00pm"}, {"days": "Sun", "time": "Closed"}], "id": "8052600016", "name": "USPS COLLECTION BOX - BLUE BOX", "address": {"city": "FORT COLLINS", "state": "CO", "street": "2160 W DRAKE RD", "postcode": "80526"}}},
{"geometry": {"type": "Point", "coordinates": [-105.1164485785, 40.5528793225]}, "type": "Feature", "properties": {"collection_times": [{"days": "Mon-Fri", "time": "12:45pm"}, {"days": "Sat", "time": "2:00pm"}, {"days": "Sun", "time": "Closed"}], "id": "8052600017", "name": "USPS COLLECTION BOX - BLUE BOX", "address": {"city": "FORT COLLINS", "state": "CO", "street": "2160 W DRAKE RD", "postcode": "80526"}}},
{"geometry": {"type": "Point", "coordinates": [-105.0879425188, 40.557228145]}, "type": "Feature", "properties": {"collection_times": [{"days": "Mon-Fri", "time": "3:45pm"}, {"days": "Sat-Sun", "time": "Closed"}], "id": "8052600018", "name": "USPS COLLECTION BOX - BLUE BOX", "address": {"city": "FORT COLLINS", "state": "CO", "street": "2150 CENTRE AVE", "postcode": "80526"}}},
{"geometry": {"type": "Point", "coordinates": [-105.0948903343, 40.5380887866]}, "type": "Feature", "properties": {"collection_times": [{"days": "Mon-Fri", "time": "3:30pm"}, {"days": "Sat", "time": "11:00am"}, {"days": "Sun", "time": "Closed"}], "id": "8052600019", "name": "USPS COLLECTION BOX - BLUE BOX", "address": {"city": "FORT COLLINS", "state": "CO", "street": "1003 W HORSETOOTH RD", "postcode": "80526"}}},
{"geometry": {"type": "Point", "coordinates": [-105.0807764509, 40.5506317005]}, "type": "Feature", "properties": {"collection_times": [{"days": "Mon-Fri", "time": "4:00pm"}, {"days": "Sat", "time": "2:25pm"}, {"days": "Sun", "time": "Closed"}], "id": "8052600020", "name": "USPS COLLECTION BOX - BLUE BOX", "address": {"city": "FORT COLLINS", "state": "CO", "street": "2627 REDWING RD", "postcode": "80526"}}},
{"geometry": {"type": "Point", "coordinates": [-105.0352207997, 40.5231408683]}, "type": "Feature", "properties": {"collection_times": [{"days": "Mon-Fri", "time": "4:15pm"}, {"days": "Sat-Sun", "time": "Closed"}], "id": "8052800001", "name": "USPS COLLECTION BOX - BLUE BOX", "address": {"city": "FORT COLLINS", "state": "CO", "street": "2315 E HARMONY RD", "postcode": "80528"}}},
{"geometry": {"type": "Point", "coordinates": [-105.0170982801, 40.5028805526]}, "type": "Feature", "properties": {"collection_times": [{"days": "Mon-Fri", "time": "4:00pm"}, {"days": "Sat-Sun", "time": "Closed"}], "id": "8052800002", "name": "USPS COLLECTION BOX - EXPRESS", "address": {"city": "FORT COLLINS", "state": "CO", "street": "3003 E HARMONY RD", "postcode": "80528"}}},
{"geometry": {"type": "Point", "coordinates": [-105.0221257965, 40.5230812316]}, "type": "Feature", "properties": {"collection_times": [{"days": "Mon-Fri", "time": "4:00pm"}, {"days": "Sat-Sun", "time": "Closed"}], "id": "8052800003", "name": "USPS COLLECTION BOX - BLUE BOX", "address": {"city": "FORT COLLINS", "state": "CO", "street": "3003 E HARMONY RD", "postcode": "80528"}}},
{"geometry": {"type": "Point", "coordinates": [-104.9382133342, 40.0992879029]}, "type": "Feature", "properties": {"collection_times": [{"days": "Mon-Fri", "time": "4:30pm"}, {"days": "Sat", "time": "11:00am"}, {"days": "Sun", "time": "Closed"}], "id": "8053000000", "name": "USPS COLLECTION BOX - BLUE BOX", "address": {"city": "FREDERICK", "state": "CO", "street": "411 OAK ST", "postcode": "80530"}}},
{"geometry": {"type": "Point", "coordinates": [-104.9382133342, 40.0992879029]}, "type": "Feature", "properties": {"collection_times": [{"days": "Mon-Fri", "time": "4:30pm"}, {"days": "Sat", "time": "11:00am"}, {"days": "Sun", "time": "Closed"}], "id": "8053000001", "name": "USPS COLLECTION BOX - PO LOBBY", "address": {"city": "FREDERICK", "state": "CO", "street": "411 OAK ST", "postcode": "80530"}}},
{"geometry": {"type": "Point", "coordinates": [-104.9382133342, 40.0992879029]}, "type": "Feature", "properties": {"collection_times": [{"days": "Mon-Fri", "time": "4:30pm"}, {"days": "Sat", "time": "11:00am"}, {"days": "Sun", "time": "Closed"}], "id": "8053000002", "name": "USPS COLLECTION BOX - PO LOBBY", "address": {"city": "FREDERICK", "state": "CO", "street": "411 OAK ST", "postcode": "80530"}}},
{"geometry": {"type": "Point", "coordinates": [-105.4500693877, 40.4522308693]}, "type": "Feature", "properties": {"collection_times": [{"days": "Mon-Fri", "time": "3:10pm"}, {"days": "Sat", "time": "11:00am"}, {"days": "Sun", "time": "Closed"}], "id": "8053200000", "name": "USPS COLLECTION BOX - PO LOBBY", "address": {"city": "GLEN HAVEN", "state": "CO", "street": "7420 COUNTY ROAD 43", "postcode": "80532"}}},
{"geometry": {"type": "Point", "coordinates": [-105.4500693877, 40.4522308693]}, "type": "Feature", "properties": {"collection_times": [{"days": "Mon-Fri", "time": "3:10pm"}, {"days": "Sat", "time": "11:00am"}, {"days": "Sun", "time": "Closed"}], "id": "8053200001", "name": "USPS COLLECTION BOX - BLUE BOX", "address": {"city": "GLEN HAVEN", "state": "CO", "street": "7420 COUNTY ROAD 43", "postcode": "80532"}}},
{"geometry": {"type": "Point", "coordinates": [-105.4500693877, 40.4522308693]}, "type": "Feature", "properties": {"collection_times": [{"days": "Mon-Fri", "time": "3:10pm"}, {"days": "Sat", "time": "11:00am"}, {"days": "Sun", "time": "Closed"}], "id": "8053200002", "name": "USPS COLLECTION BOX - PO LOBBY", "address": {"city": "GLEN HAVEN", "state": "CO", "street": "7420 COUNTY ROAD 43", "postcode": "80532"}}},
{"geometry": {"type": "Point", "coordinates": [-105.178144954, 40.1895189913]}, "type": "Feature", "properties": {"collection_times": [{"days": "Mon-Fri", "time": "4:15pm"}, {"days": "Sat", "time": "11:45am"}, {"days": "Sun", "time": "Closed"}], "id": "8053300001", "name": "USPS COLLECTION BOX - PO LOBBY", "address": {"city": "HYGIENE", "state": "CO", "street": "11830 N 75TH ST", "postcode": "80533"}}},
{"geometry": {"type": "Point", "coordinates": [-105.1780590089, 40.1892928157]}, "type": "Feature", "properties": {"collection_times": [{"days": "Mon-Fri", "time": "4:15pm"}, {"days": "Sat", "time": "11:45am"}, {"days": "Sun", "time": "Closed"}], "id": "8053300002", "name": "USPS COLLECTION BOX - BLUE BOX", "address": {"city": "HYGIENE", "state": "CO", "street": "11830 N 75TH ST", "postcode": "80533"}}},
{"geometry": {"type": "Point", "coordinates": [-104.9074658647, 40.3327543183]}, "type": "Feature", "properties": {"collection_times": [{"days": "Mon-Fri", "time": "4:30pm"}, {"days": "Sat", "time": "12:00pm"}, {"days": "Sun", "time": "Closed"}], "id": "8053400000", "name": "USPS COLLECTION BOX - BLUE BOX", "address": {"city": "JOHNSTOWN", "state": "CO", "street": "121 CASTLE PINES AVE", "postcode": "80534"}}},
{"geometry": {"type": "Point", "coordinates": [-104.9074658647, 40.3327543183]}, "type": "Feature", "properties": {"collection_times": [{"days": "Mon-Fri", "time": "4:30pm"}, {"days": "Sat", "time": "12:00pm"}, {"days": "Sun", "time": "Closed"}], "id": "8053400001", "name": "USPS COLLECTION BOX - BLUE BOX", "address": {"city": "JOHNSTOWN", "state": "CO", "street": "121 CASTLE PINES AVE", "postcode": "80534"}}},
{"geometry": {"type": "Point", "coordinates": [-104.9074658647, 40.3327543183]}, "type": "Feature", "properties": {"collection_times": [{"days": "Mon-Fri", "time": "4:30pm"}, {"days": "Sat", "time": "12:00pm"}, {"days": "Sun", "time": "Closed"}], "id": "8053400002", "name": "USPS COLLECTION BOX - BLUE BOX", "address": {"city": "JOHNSTOWN", "state": "CO", "street": "121 CASTLE PINES AVE", "postcode": "80534"}}},
{"geometry": {"type": "Point", "coordinates": [-104.9074658647, 40.3327543183]}, "type": "Feature", "properties": {"collection_times": [{"days": "Mon-Fri", "time": "4:30pm"}, {"days": "Sat", "time": "12:00pm"}, {"days": "Sun", "time": "Closed"}], "id": "8053400003", "name": "USPS COLLECTION BOX - PO LOBBY", "address": {"city": "JOHNSTOWN", "state": "CO", "street": "121 CASTLE PINES AVE", "postcode": "80534"}}},
{"geometry": {"type": "Point", "coordinates": [-104.9074658647, 40.3327543183]}, "type": "Feature", "properties": {"collection_times": [{"days": "Mon-Fri", "time": "4:30pm"}, {"days": "Sat", "time": "12:00pm"}, {"days": "Sun", "time": "Closed"}], "id": "8053400004", "name": "USPS COLLECTION BOX - PO LOBBY", "address": {"city": "JOHNSTOWN", "state": "CO", "street": "121 CASTLE PINES AVE", "postcode": "80534"}}},
{"geometry": {"type": "Point", "coordinates": [-105.1379453088, 40.6264782975]}, "type": "Feature", "properties": {"collection_times": [{"days": "Mon-Fri", "time": "3:15pm"}, {"days": "Sat", "time": "12:00pm"}, {"days": "Sun", "time": "Closed"}], "id": "8053500000", "name": "USPS COLLECTION BOX - BLUE BOX", "address": {"city": "LAPORTE", "state": "CO", "street": "2724 N OVERLAND TRL", "postcode": "80535"}}},
{"geometry": {"type": "Point", "coordinates": [-105.1379453088, 40.6264782975]}, "type": "Feature", "properties": {"collection_times": [{"days": "Mon-Fri", "time": "3:15pm"}, {"days": "Sat", "time": "12:00pm"}, {"days": "Sun", "time": "Closed"}], "id": "8053500001", "name": "USPS COLLECTION BOX - PO LOBBY", "address": {"city": "LAPORTE", "state": "CO", "street": "2724 N OVERLAND TRL", "postcode": "80535"}}},
{"geometry": {"type": "Point", "coordinates": [-105.216833199, 40.7939339068]}, "type": "Feature", "properties": {"collection_times": [{"days": "Mon-Fri", "time": "2:45pm"}, {"days": "Sat", "time": "11:00am"}, {"days": "Sun", "time": "Closed"}], "id": "8053600000", "name": "USPS COLLECTION BOX - BLUE BOX", "address": {"city": "LIVERMORE", "state": "CO", "street": "55 W COUNTY ROAD 74E", "postcode": "80536"}}},
{"geometry": {"type": "Point", "coordinates": [-105.216833199, 40.7939339068]}, "type": "Feature", "properties": {"collection_times": [{"days": "Mon-Fri", "time": "2:45pm"}, {"days": "Sat", "time": "11:00am"}, {"days": "Sun", "time": "Closed"}], "id": "8053600001", "name": "USPS COLLECTION BOX - PO LOBBY", "address": {"city": "LIVERMORE", "state": "CO", "street": "55 W COUNTY ROAD 74E", "postcode": "80536"}}},
{"geometry": {"type": "Point", "coordinates": [-105.4143601148, 40.7460627573]}, "type": "Feature", "properties": {"collection_times": [{"days": "Mon-Sat", "time": "11:45am"}, {"days": "Sun", "time": "Closed"}], "id": "8053600002", "name": "USPS COLLECTION BOX - BLUE BOX", "address": {"city": "LIVERMORE", "state": "CO", "street": "13300 RED FEATHER LAKES RD", "postcode": "80536"}}},
{"geometry": {"type": "Point", "coordinates": [-105.1095259026, 40.4073233196]}, "type": "Feature", "properties": {"collection_times": [{"days": "Mon-Sat", "time": "3:00pm"}, {"days": "Sun", "time": "Closed"}], "id": "8053700002", "name": "USPS COLLECTION BOX - BLUE BOX", "address": {"city": "LOVELAND", "state": "CO", "street": "2321 W EISENHOWER BLVD", "postcode": "80537"}}},
{"geometry": {"type": "Point", "coordinates": [-105.0980724323, 40.4073250606]}, "type": "Feature", "properties": {"collection_times": [{"days": "Mon-Sat", "time": "2:45pm"}, {"days": "Sun", "time": "Closed"}], "id": "8053700007", "name": "USPS COLLECTION BOX - BLUE BOX", "address": {"city": "LOVELAND", "state": "CO", "street": "1467 W EISENHOWER BLVD", "postcode": "80537"}}},
{"geometry": {"type": "Point", "coordinates": [-105.097808694, 40.3800300904]}, "type": "Feature", "properties": {"collection_times": [{"days": "Mon-Fri", "time": "4:00pm"}, {"days": "Sat", "time": "3:00pm"}, {"days": "Sun", "time": "Closed"}], "id": "8053700015", "name": "USPS COLLECTION BOX - BLUE BOX", "address": {"city": "LOVELAND", "state": "CO", "street": "1275 EAGLE DR", "postcode": "80537"}}},
{"geometry": {"type": "Point", "coordinates": [-105.0745543019, 40.3976051585]}, "type": "Feature", "properties": {"collection_times": [{"days": "Mon-Fri", "time": "5:00pm"}, {"days": "Sat", "time": "4:00pm"}, {"days": "Sun", "time": "Closed"}], "id": "8053700020", "name": "USPS COLLECTION BOX - BLUE BOX", "address": {"city": "LOVELAND", "state": "CO", "street": "601 CLEVELAND AVE", "postcode": "80537"}}},
{"geometry": {"type": "Point", "coordinates": [-105.0745543019, 40.3976051585]}, "type": "Feature", "properties": {"collection_times": [{"days": "Mon-Fri", "time": "5:00pm"}, {"days": "Sat", "time": "4:00pm"}, {"days": "Sun", "time": "Closed"}], "id": "8053700021", "name": "USPS COLLECTION BOX - BLUE BOX", "address": {"city": "LOVELAND", "state": "CO", "street": "601 CLEVELAND AVE", "postcode": "80537"}}},
{"geometry": {"type": "Point", "coordinates": [-105.0745543019, 40.3976051585]}, "type": "Feature", "properties": {"collection_times": [{"days": "Mon-Fri", "time": "5:00pm"}, {"days": "Sat", "time": "4:00pm"}, {"days": "Sun", "time": "Closed"}], "id": "8053700022", "name": "USPS COLLECTION BOX - BLUE BOX", "address": {"city": "LOVELAND", "state": "CO", "street": "601 CLEVELAND AVE", "postcode": "80537"}}},
{"geometry": {"type": "Point", "coordinates": [-105.0745543019, 40.3976051585]}, "type": "Feature", "properties": {"collection_times": [{"days": "Mon-Fri", "time": "5:00pm"}, {"days": "Sat", "time": "4:00pm"}, {"days": "Sun", "time": "Closed"}], "id": "8053700023", "name": "USPS COLLECTION BOX - BLUE BOX", "address": {"city": "LOVELAND", "state": "CO", "street": "601 CLEVELAND AVE", "postcode": "80537"}}},
{"geometry": {"type": "Point", "coordinates": [-105.0745543019, 40.3976051585]}, "type": "Feature", "properties": {"collection_times": [{"days": "Mon-Fri", "time": "5:00pm"}, {"days": "Sat", "time": "4:00pm"}, {"days": "Sun", "time": "Closed"}], "id": "8053700031", "name": "USPS COLLECTION BOX - BLUE BOX", "address": {"city": "LOVELAND", "state": "CO", "street": "601 CLEVELAND AVE", "postcode": "80537"}}},
{"geometry": {"type": "Point", "coordinates": [-105.0745543019, 40.3976051585]}, "type": "Feature", "properties": {"collection_times": [{"days": "Mon-Fri", "time": "5:00pm"}, {"days": "Sat", "time": "4:00pm"}, {"days": "Sun", "time": "Closed"}], "id": "8053700033", "name": "USPS COLLECTION BOX - PO LOBBY", "address": {"city": "LOVELAND", "state": "CO", "street": "601 CLEVELAND AVE", "postcode": "80537"}}},
{"geometry": {"type": "Point", "coordinates": [-105.0745543019, 40.3976051585]}, "type": "Feature", "properties": {"collection_times": [{"days": "Mon-Fri", "time": "5:00pm"}, {"days": "Sat", "time": "4:00pm"}, {"days": "Sun", "time": "Closed"}], "id": "8053700034", "name": "USPS COLLECTION BOX - PO LOBBY", "address": {"city": "LOVELAND", "state": "CO", "street": "601 CLEVELAND AVE", "postcode": "80537"}}},
{"geometry": {"type": "Point", "coordinates": [-105.0745543019, 40.3976051585]}, "type": "Feature", "properties": {"collection_times": [{"days": "Mon-Fri", "time": "5:00pm"}, {"days": "Sat", "time": "4:00pm"}, {"days": "Sun", "time": "Closed"}], "id": "8053700035", "name": "USPS COLLECTION BOX - PO LOBBY", "address": {"city": "LOVELAND", "state": "CO", "street": "601 CLEVELAND AVE", "postcode": "80537"}}},
{"geometry": {"type": "Point", "coordinates": [-105.0745543019, 40.3976051585]}, "type": "Feature", "properties": {"collection_times": [{"days": "Mon-Fri", "time": "5:00pm"}, {"days": "Sat", "time": "4:00pm"}, {"days": "Sun", "time": "Closed"}], "id": "8053700036", "name": "USPS COLLECTION BOX - PO LOBBY", "address": {"city": "LOVELAND", "state": "CO", "street": "601 CLEVELAND AVE", "postcode": "80537"}}},
{"geometry": {"type": "Point", "coordinates": [-105.0744388939, 40.3985317715]}, "type": "Feature", "properties": {"collection_times": [{"days": "Mon-Fri", "time": "4:00pm"}, {"days": "Sat", "time": "3:00pm"}, {"days": "Sun", "time": "Closed"}], "id": "8053700038", "name": "USPS COLLECTION BOX - BLUE BOX", "address": {"city": "LOVELAND", "state": "CO", "street": "200 E 7TH ST", "postcode": "80537"}}},
{"geometry": {"type": "Point", "coordinates": [-105.044698094, 40.4059260982]}, "type": "Feature", "properties": {"collection_times": [{"days": "Mon-Fri", "time": "3:00pm"}, {"days": "Sat", "time": "2:00pm"}, {"days": "Sun", "time": "Closed"}], "id": "8053700040", "name": "USPS COLLECTION BOX - BLUE BOX", "address": {"city": "LOVELAND", "state": "CO", "street": "1325 DENVER AVE", "postcode": "80537"}}},
{"geometry": {"type": "Point", "coordinates": [-105.07057781, 40.4216265487]}, "type": "Feature", "properties": {"collection_times": [{"days": "Mon-Fri", "time": "5:30pm"}, {"days": "Sat", "time": "5:00pm"}, {"days": "Sun", "time": "Closed"}], "id": "8053800002", "name": "USPS COLLECTION BOX - BLUE BOX", "address": {"city": "LOVELAND", "state": "CO", "street": "446 E 29TH ST", "postcode": "80538"}}},
{"geometry": {"type": "Point", "coordinates": [-105.07057781, 40.4216265487]}, "type": "Feature", "properties": {"collection_times": [{"days": "Mon-Fri", "time": "5:30pm"}, {"days": "Sat", "time": "5:00pm"}, {"days": "Sun", "time": "Closed"}], "id": "8053800003", "name": "USPS COLLECTION BOX - BLUE BOX", "address": {"city": "LOVELAND", "state": "CO", "street": "446 E 29TH ST", "postcode": "80538"}}},
{"geometry": {"type": "Point", "coordinates": [-105.07057781, 40.4216265487]}, "type": "Feature", "properties": {"collection_times": [{"days": "Mon-Fri", "time": "5:30pm"}, {"days": "Sat", "time": "5:00pm"}, {"days": "Sun", "time": "Closed"}], "id": "8053800005", "name": "USPS COLLECTION BOX - BLUE BOX", "address": {"city": "LOVELAND", "state": "CO", "street": "446 E 29TH ST", "postcode": "80538"}}},
{"geometry": {"type": "Point", "coordinates": [-105.07057781, 40.4216265487]}, "type": "Feature", "properties": {"collection_times": [{"days": "Mon-Fri", "time": "5:30pm"}, {"days": "Sat", "time": "5:00pm"}, {"days": "Sun", "time": "Closed"}], "id": "8053800006", "name": "USPS COLLECTION BOX - BLUE BOX", "address": {"city": "LOVELAND", "state": "CO", "street": "446 E 29TH ST", "postcode": "80538"}}},
{"geometry": {"type": "Point", "coordinates": [-105.07057781, 40.4216265487]}, "type": "Feature", "properties": {"collection_times": [{"days": "Mon-Fri", "time": "5:30pm"}, {"days": "Sat", "time": "5:00pm"}, {"days": "Sun", "time": "Closed"}], "id": "8053800007", "name": "USPS COLLECTION BOX - PO LOBBY", "address": {"city": "LOVELAND", "state": "CO", "street": "446 E 29TH ST", "postcode": "80538"}}},
{"geometry": {"type": "Point", "coordinates": [-105.07057781, 40.4216265487]}, "type": "Feature", "properties": {"collection_times": [{"days": "Mon-Fri", "time": "5:30pm"}, {"days": "Sat", "time": "5:00pm"}, {"days": "Sun", "time": "Closed"}], "id": "8053800008", "name": "USPS COLLECTION BOX - PO LOBBY", "address": {"city": "LOVELAND", "state": "CO", "street": "446 E 29TH ST", "postcode": "80538"}}},
{"geometry": {"type": "Point", "coordinates": [-105.0772301756, 40.4305394798]}, "type": "Feature", "properties": {"collection_times": [{"days": "Mon-Fri", "time": "3:00pm"}, {"days": "Sat", "time": "1:00pm"}, {"days": "Sun", "time": "Closed"}], "id": "8053800009", "name": "USPS COLLECTION BOX - BLUE BOX", "address": {"city": "LOVELAND", "state": "CO", "street": "117 E 37TH ST", "postcode": "80538"}}},
{"geometry": {"type": "Point", "coordinates": [-105.0974739167, 40.4216950881]}, "type": "Feature", "properties": {"collection_times": [{"days": "Mon-Sat", "time": "2:45pm"}, {"days": "Sun", "time": "Closed"}], "id": "8053800023", "name": "USPS COLLECTION BOX - BLUE BOX", "address": {"city": "LOVELAND", "state": "CO", "street": "1401 W 29TH ST", "postcode": "80538"}}},
{"geometry": {"type": "Point", "coordinates": [-105.0010448804, 40.4154927701]}, "type": "Feature", "properties": {"collection_times": [{"days": "Mon-Fri", "time": "1:00pm"}, {"days": "Sat-Sun", "time": "Closed"}], "id": "8053800027", "name": "USPS COLLECTION BOX - BLUE BOX", "address": {"city": "LOVELAND", "state": "CO", "street": "2500 ROCKY MOUNTAIN AVE", "postcode": "80538"}}},
{"geometry": {"type": "Point", "coordinates": [-105.07057781, 40.4216265487]}, "type": "Feature", "properties": {"collection_times": [{"days": "Mon-Fri", "time": "5:30pm"}, {"days": "Sat", "time": "5:00pm"}, {"days": "Sun", "time": "Closed"}], "id": "8053800029", "name": "USPS COLLECTION BOX - APC", "address": {"city": "LOVELAND", "state": "CO", "street": "446 E 29TH ST", "postcode": "80538"}}},
{"geometry": {"type": "Point", "coordinates": [-105.334309752, 40.2473942752]}, "type": "Feature", "properties": {"collection_times": [{"days": "Mon-Fri", "time": "4:30pm"}, {"days": "Sat", "time": "11:45am"}, {"days": "Sun", "time": "Closed"}], "id": "8054000000", "name": "USPS COLLECTION BOX - BLUE BOX", "address": {"city": "LYONS", "state": "CO", "street": "305 RAILROAD AVE", "postcode": "80540"}}},
{"geometry": {"type": "Point", "coordinates": [-105.334309752, 40.2473942752]}, "type": "Feature", "properties": {"collection_times": [{"days": "Mon-Fri", "time": "4:30pm"}, {"days": "Sat", "time": "11:45am"}, {"days": "Sun", "time": "Closed"}], "id": "8054000001", "name": "USPS COLLECTION BOX - BLUE BOX", "address": {"city": "LYONS", "state": "CO", "street": "305 RAILROAD AVE", "postcode": "80540"}}},
{"geometry": {"type": "Point", "coordinates": [-105.334309752, 40.2473942752]}, "type": "Feature", "properties": {"collection_times": [{"days": "Mon-Fri", "time": "4:30pm"}, {"days": "Sat", "time": "11:45am"}, {"days": "Sun", "time": "Closed"}], "id": "8054000003", "name": "USPS COLLECTION BOX - PO LOBBY", "address": {"city": "LYONS", "state": "CO", "street": "305 RAILROAD AVE", "postcode": "80540"}}},
{"geometry": {"type": "Point", "coordinates": [-105.334309752, 40.2473942752]}, "type": "Feature", "properties": {"collection_times": [{"days": "Mon-Fri", "time": "4:30pm"}, {"days": "Sat", "time": "11:45am"}, {"days": "Sun", "time": "Closed"}], "id": "8054000004", "name": "USPS COLLECTION BOX - PO LOBBY", "address": {"city": "LYONS", "state": "CO", "street": "305 RAILROAD AVE", "postcode": "80540"}}},
{"geometry": {"type": "Point", "coordinates": [-105.2102, 40.487503]}, "type": "Feature", "properties": {"collection_times": [{"days": "Mon-Fri", "time": "3:15pm"}, {"days": "Sat", "time": "11:00am"}, {"days": "Sun", "time": "Closed"}], "id": "8054100000", "name": "USPS COLLECTION BOX - BLUE BOX", "address": {"city": "MASONVILLE", "state": "CO", "street": "8669 N COUNTY ROAD 27", "postcode": "80541"}}},
{"geometry": {"type": "Point", "coordinates": [-105.2102, 40.487503]}, "type": "Feature", "properties": {"collection_times": [{"days": "Mon-Fri", "time": "3:15pm"}, {"days": "Sat", "time": "11:00am"}, {"days": "Sun", "time": "Closed"}], "id": "8054100001", "name": "USPS COLLECTION BOX - PO LOBBY", "address": {"city": "MASONVILLE", "state": "CO", "street": "8669 N COUNTY ROAD 27", "postcode": "80541"}}},
{"geometry": {"type": "Point", "coordinates": [-104.9991868857, 40.2331878493]}, "type": "Feature", "properties": {"collection_times": [{"days": "Mon-Fri", "time": "4:45pm"}, {"days": "Sat", "time": "9:45am"}, {"days": "Sun", "time": "Closed"}], "id": "8054200000", "name": "USPS COLLECTION BOX - BLUE BOX", "address": {"city": "MEAD", "state": "CO", "street": "350 WELKER AVE", "postcode": "80542"}}},
{"geometry": {"type": "Point", "coordinates": [-104.9991868857, 40.2331878493]}, "type": "Feature", "properties": {"collection_times": [{"days": "Mon-Fri", "time": "4:45pm"}, {"days": "Sat", "time": "9:45am"}, {"days": "Sun", "time": "Closed"}], "id": "8054200001", "name": "USPS COLLECTION BOX - PO LOBBY", "address": {"city": "MEAD", "state": "CO", "street": "350 WELKER AVE", "postcode": "80542"}}},
{"geometry": {"type": "Point", "coordinates": [-104.9991868857, 40.2331878493]}, "type": "Feature", "properties": {"collection_times": [{"days": "Mon-Fri", "time": "4:45pm"}, {"days": "Sat", "time": "9:45am"}, {"days": "Sun", "time": "Closed"}], "id": "8054200002", "name": "USPS COLLECTION BOX - PO LOBBY", "address": {"city": "MEAD", "state": "CO", "street": "350 WELKER AVE", "postcode": "80542"}}},
{"geometry": {"type": "Point", "coordinates": [-104.9339690822, 40.2059759624]}, "type": "Feature", "properties": {"collection_times": [{"days": "Mon-Sat", "time": "10:00am"}, {"days": "Sun", "time": "Closed"}], "id": "8054200003", "name": "USPS COLLECTION BOX - BLUE BOX", "address": {"city": "MEAD", "state": "CO", "street": "234 GRANDVIEW AVE", "postcode": "80542"}}},
{"geometry": {"type": "Point", "coordinates": [-104.8561822277, 40.3301541745]}, "type": "Feature", "properties": {"collection_times": [{"days": "Mon-Fri", "time": "4:30pm"}, {"days": "Sat", "time": "10:45am"}, {"days": "Sun", "time": "Closed"}], "id": "8054300000", "name": "USPS COLLECTION BOX - BLUE BOX", "address": {"city": "MILLIKEN", "state": "CO", "street": "1009 BROAD ST", "postcode": "80543"}}},
{"geometry": {"type": "Point", "coordinates": [-104.8561822277, 40.3301541745]}, "type": "Feature", "properties": {"collection_times": [{"days": "Mon-Fri", "time": "4:30pm"}, {"days": "Sat", "time": "10:45am"}, {"days": "Sun", "time": "Closed"}], "id": "8054300001", "name": "USPS COLLECTION BOX - PO LOBBY", "address": {"city": "MILLIKEN", "state": "CO", "street": "1009 BROAD ST", "postcode": "80543"}}},
{"geometry": {"type": "Point", "coordinates": [-105.1732004874, 40.1032000334]}, "type": "Feature", "properties": {"collection_times": [{"days": "Mon-Fri", "time": "4:30pm"}, {"days": "Sat", "time": "11:30am"}, {"days": "Sun", "time": "Closed"}], "id": "8054400000", "name": "USPS COLLECTION BOX - BLUE BOX", "address": {"city": "NIWOT", "state": "CO", "street": "150 MURRAY ST", "postcode": "80544"}}},
{"geometry": {"type": "Point", "coordinates": [-105.1732004874, 40.1032000334]}, "type": "Feature", "properties": {"collection_times": [{"days": "Mon-Fri", "time": "5:00pm"}, {"days": "Sat", "time": "11:30am"}, {"days": "Sun", "time": "Closed"}], "id": "8054400001", "name": "USPS COLLECTION BOX - PO LOBBY", "address": {"city": "NIWOT", "state": "CO", "street": "150 MURRAY ST", "postcode": "80544"}}},
{"geometry": {"type": "Point", "coordinates": [-105.1732918313, 40.1032864303]}, "type": "Feature", "properties": {"collection_times": [{"days": "Mon-Fri", "time": "4:30pm"}, {"days": "Sat", "time": "11:30am"}, {"days": "Sun", "time": "Closed"}], "id": "8054400002", "name": "USPS COLLECTION BOX - BLUE BOX", "address": {"city": "NIWOT", "state": "CO", "street": "153 W MURRAY ST", "postcode": "80544"}}},
{"geometry": {"type": "Point", "coordinates": [-105.5903472293, 40.8014408504]}, "type": "Feature", "properties": {"collection_times": [{"days": "Mon-Fri", "time": "2:30pm"}, {"days": "Sat", "time": "12:00pm"}, {"days": "Sun", "time": "Closed"}], "id": "8054500000", "name": "USPS COLLECTION BOX - BLUE BOX", "address": {"city": "RED FE LKS", "state": "CO", "street": "17 MAIN ST", "postcode": "80545"}}},
{"geometry": {"type": "Point", "coordinates": [-104.8510820112, 40.52414382]}, "type": "Feature", "properties": {"collection_times": [{"days": "Mon-Fri", "time": "4:00pm"}, {"days": "Sat", "time": "11:30am"}, {"days": "Sun", "time": "Closed"}], "id": "8054600000", "name": "USPS COLLECTION BOX - BLUE BOX", "address": {"city": "SEVERANCE", "state": "CO", "street": "320 1ST ST", "postcode": "80546"}}},
{"geometry": {"type": "Point", "coordinates": [-104.8510820112, 40.52414382]}, "type": "Feature", "properties": {"collection_times": [{"days": "Mon-Sat", "time": "11:30am"}, {"days": "Sun", "time": "Closed"}], "id": "8054600001", "name": "USPS COLLECTION BOX - PO LOBBY", "address": {"city": "SEVERANCE", "state": "CO", "street": "320 1ST ST", "postcode": "80546"}}},
{"geometry": {"type": "Point", "coordinates": [-104.9821980558, 40.5298943641]}, "type": "Feature", "properties": {"collection_times": [{"days": "Mon-Fri", "time": "4:15pm"}, {"days": "Sat", "time": "11:30am"}, {"days": "Sun", "time": "Closed"}], "id": "8054700000", "name": "USPS COLLECTION BOX - BLUE BOX", "address": {"city": "TIMNATH", "state": "CO", "street": "4128 MAIN ST", "postcode": "80547"}}},
{"geometry": {"type": "Point", "coordinates": [-104.9821980558, 40.5298943641]}, "type": "Feature", "properties": {"collection_times": [{"days": "Mon-Fri", "time": "4:30pm"}, {"days": "Sat", "time": "11:30am"}, {"days": "Sun", "time": "Closed"}], "id": "8054700001", "name": "USPS COLLECTION BOX - PO LOBBY", "address": {"city": "TIMNATH", "state": "CO", "street": "4128 MAIN ST", "postcode": "80547"}}},
{"geometry": {"type": "Point", "coordinates": [-105.0045153755, 40.7038979114]}, "type": "Feature", "properties": {"collection_times": [{"days": "Mon-Fri", "time": "3:15pm"}, {"days": "Sat", "time": "12:00pm"}, {"days": "Sun", "time": "Closed"}], "id": "8054900000", "name": "USPS COLLECTION BOX - PO LOBBY", "address": {"city": "WELLINGTON", "state": "CO", "street": "3829 W CLEVELAND AVE", "postcode": "80549"}}},
{"geometry": {"type": "Point", "coordinates": [-105.0045153755, 40.7038979114]}, "type": "Feature", "properties": {"collection_times": [{"days": "Mon-Fri", "time": "3:15pm"}, {"days": "Sat", "time": "12:00pm"}, {"days": "Sun", "time": "Closed"}], "id": "8054900002", "name": "USPS COLLECTION BOX - BLUE BOX", "address": {"city": "WELLINGTON", "state": "CO", "street": "3829 W CLEVELAND AVE", "postcode": "80549"}}},
{"geometry": {"type": "Point", "coordinates": [-105.0045153755, 40.7038979114]}, "type": "Feature", "properties": {"collection_times": [{"days": "Mon-Fri", "time": "3:15pm"}, {"days": "Sat", "time": "12:00pm"}, {"days": "Sun", "time": "Closed"}], "id": "8054900004", "name": "USPS COLLECTION BOX - BLUE BOX", "address": {"city": "WELLINGTON", "state": "CO", "street": "3829 W CLEVELAND AVE", "postcode": "80549"}}},
{"geometry": {"type": "Point", "coordinates": [-104.9057659527, 40.4831202324]}, "type": "Feature", "properties": {"collection_times": [{"days": "Mon-Fri", "time": "5:00pm"}, {"days": "Sat", "time": "2:15pm"}, {"days": "Sun", "time": "Closed"}], "id": "8055000002", "name": "USPS COLLECTION BOX - BLUE BOX", "address": {"city": "WINDSOR", "state": "CO", "street": "215 6TH ST", "postcode": "80550"}}},
{"geometry": {"type": "Point", "coordinates": [-104.9057659527, 40.4831202324]}, "type": "Feature", "properties": {"collection_times": [{"days": "Mon-Fri", "time": "5:00pm"}, {"days": "Sat", "time": "2:15pm"}, {"days": "Sun", "time": "Closed"}], "id": "8055000003", "name": "USPS COLLECTION BOX - BLUE BOX", "address": {"city": "WINDSOR", "state": "CO", "street": "215 6TH ST", "postcode": "80550"}}},
{"geometry": {"type": "Point", "coordinates": [-104.9057659527, 40.4831202324]}, "type": "Feature", "properties": {"collection_times": [{"days": "Mon-Fri", "time": "5:00pm"}, {"days": "Sat", "time": "2:15pm"}, {"days": "Sun", "time": "Closed"}], "id": "8055000004", "name": "USPS COLLECTION BOX - BLUE BOX", "address": {"city": "WINDSOR", "state": "CO", "street": "215 6TH ST", "postcode": "80550"}}},
{"geometry": {"type": "Point", "coordinates": [-104.9057659527, 40.4831202324]}, "type": "Feature", "properties": {"collection_times": [{"days": "Mon-Fri", "time": "5:00pm"}, {"days": "Sat", "time": "2:15pm"}, {"days": "Sun", "time": "Closed"}], "id": "8055000007", "name": "USPS COLLECTION BOX - PO LOBBY", "address": {"city": "WINDSOR", "state": "CO", "street": "215 6TH ST", "postcode": "80550"}}}
]}
