{"type": "FeatureCollection", "features": [
{"geometry": {"type": "Point", "coordinates": [-104.8209998963, 39.9868567382]}, "type": "Feature", "properties": {"collection_times": [{"days": "Mon-Fri", "time": "3:49pm"}, {"days": "Sat", "time": "1:00pm"}, {"days": "Sun", "time": "Closed"}], "id": "8060100000", "name": "USPS COLLECTION BOX - BLUE BOX", "address": {"city": "BRIGHTON", "state": "CO", "street": "169 E BRIDGE ST", "postcode": "80601"}}},
{"geometry": {"type": "Point", "coordinates": [-104.8013650922, 39.9867601143]}, "type": "Feature", "properties": {"collection_times": [{"days": "Mon-Fri", "time": "3:39pm"}, {"days": "Sat", "time": "1:00pm"}, {"days": "Sun", "time": "Closed"}], "id": "8060100002", "name": "USPS COLLECTION BOX - BLUE BOX", "address": {"city": "BRIGHTON", "state": "CO", "street": "1605 E BRIDGE ST", "postcode": "80601"}}},
{"geometry": {"type": "Point", "coordinates": [-104.7904304616, 39.9821976892]}, "type": "Feature", "properties": {"collection_times": [{"days": "Mon-Fri", "time": "3:35pm"}, {"days": "Sat", "time": "1:00pm"}, {"days": "Sun", "time": "Closed"}], "id": "8060100003", "name": "USPS COLLECTION BOX - BLUE BOX", "address": {"city": "BRIGHTON", "state": "CO", "street": "2699 SKEEL ST", "postcode": "80601"}}},
{"geometry": {"type": "Point", "coordinates": [-104.7916832992, 39.9867324721]}, "type": "Feature", "properties": {"collection_times": [{"days": "Mon-Fri", "time": "3:35pm"}, {"days": "Sat", "time": "1:00pm"}, {"days": "Sun", "time": "Closed"}], "id": "8060100004", "name": "USPS COLLECTION BOX - BLUE BOX", "address": {"city": "BRIGHTON", "state": "CO", "street": "2400 E BRIDGE ST", "postcode": "80601"}}},
{"geometry": {"type": "Point", "coordinates": [-104.763252859, 39.9672941992]}, "type": "Feature", "properties": {"collection_times": [{"days": "Mon-Fri", "time": "3:00pm"}, {"days": "Sat", "time": "1:00pm"}, {"days": "Sun", "time": "Closed"}], "id": "8060100005", "name": "USPS COLLECTION BOX - BLUE BOX", "address": {"city": "BRIGHTON", "state": "CO", "street": "1000 JUDICIAL CENTER DR", "postcode": "80601"}}},
{"geometry": {"type": "Point", "coordinates": [-104.7859617835, 39.9868488362]}, "type": "Feature", "properties": {"collection_times": [{"days": "Mon-Fri", "time": "3:33pm"}, {"days": "Sat", "time": "1:00pm"}, {"days": "Sun", "time": "Closed"}], "id": "8060100008", "name": "USPS COLLECTION BOX - BLUE BOX", "address": {"city": "BRIGHTON", "state": "CO", "street": "3060 E BRIDGE ST", "postcode": "80601"}}},
{"geometry": {"type": "Point", "coordinates": [-104.8113954013, 40.0017221793]}, "type": "Feature", "properties": {"collection_times": [{"days": "Mon-Fri", "time": "3:43pm"}, {"days": "Sat", "time": "1:00pm"}, {"days": "Sun", "time": "Closed"}], "id": "8060100012", "name": "USPS COLLECTION BOX - BLUE BOX", "address": {"city": "BRIGHTON", "state": "CO", "street": "760 N 9TH AVE", "postcode": "80601"}}},
{"geometry": {"type": "Point", "coordinates": [-104.8082677293, 39.9614901007]}, "type": "Feature", "properties": {"collection_times": [{"days": "Mon-Fri", "time": "3:25pm"}, {"days": "Sat", "time": "1:00pm"}, {"days": "Sun", "time": "Closed"}], "id": "8060100014", "name": "USPS COLLECTION BOX - BLUE BOX", "address": {"city": "BRIGHTON", "state": "CO", "street": "100 COUNTY ROAD 37", "postcode": "80601"}}},
{"geometry": {"type": "Point", "coordinates": [-104.8011167467, 39.979363875]}, "type": "Feature", "properties": {"collection_times": [{"days": "Mon-Fri", "time": "3:00pm"}, {"days": "Sat", "time": "1:00pm"}, {"days": "Sun", "time": "Closed"}], "id": "8060100016", "name": "USPS COLLECTION BOX - BLUE BOX", "address": {"city": "BRIGHTON", "state": "CO", "street": "500 S 4TH AVE", "postcode": "80601"}}},
{"geometry": {"type": "Point", "coordinates": [-104.8180797704, 39.9885126634]}, "type": "Feature", "properties": {"collection_times": [{"days": "Mon-Fri", "time": "5:30pm"}, {"days": "Sat", "time": "4:00pm"}, {"days": "Sun", "time": "Closed"}], "id": "8060100017", "name": "USPS COLLECTION BOX - BLUE BOX", "address": {"city": "BRIGHTON", "state": "CO", "street": "90 N 4TH AVE", "postcode": "80601"}}},
{"geometry": {"type": "Point", "coordinates": [-104.8180797704, 39.9885126634]}, "type": "Feature", "properties": {"collection_times": [{"days": "Mon-Fri", "time": "5:30pm"}, {"days": "Sat", "time": "4:00pm"}, {"days": "Sun", "time": "Closed"}], "id": "8060100018", "name": "USPS COLLECTION BOX - PO LOBBY", "address": {"city": "BRIGHTON", "state": "CO", "street": "90 N 4TH AVE", "postcode": "80601"}}},
{"geometry": {"type": "Point", "coordinates": [-104.8180797704, 39.9885126634]}, "type": "Feature", "properties": {"collection_times": [{"days": "Mon-Fri", "time": "5:30pm"}, {"days": "Sat", "time": "4:00pm"}, {"days": "Sun", "time": "Closed"}], "id": "8060100019", "name": "USPS COLLECTION BOX - PO LOBBY", "address": {"city": "BRIGHTON", "state": "CO", "street": "90 N 4TH AVE", "postcode": "80601"}}},
{"geometry": {"type": "Point", "coordinates": [-104.8185097336, 39.9161252069]}, "type": "Feature", "properties": {"collection_times": [{"days": "Mon-Fri", "time": "4:15pm"}, {"days": "Sat", "time": "2:00pm"}, {"days": "Sun", "time": "Closed"}], "id": "8060100020", "name": "USPS COLLECTION BOX - BLUE BOX", "address": {"city": "BRIGHTON", "state": "CO", "street": "12060 SABLE BLVD", "postcode": "80601"}}},
{"geometry": {"type": "Point", "coordinates": [-104.8005689608, 39.9850519216]}, "type": "Feature", "properties": {"collection_times": [{"days": "Mon-Fri", "time": "3:33pm"}, {"days": "Sat", "time": "1:00pm"}, {"days": "Sun", "time": "Closed"}], "id": "8060100021", "name": "USPS COLLECTION BOX - BLUE BOX", "address": {"city": "BRIGHTON", "state": "CO", "street": "90 S 18TH AVE", "postcode": "80601"}}},
{"geometry": {"type": "Point", "coordinates": [-104.82426008, 39.9722463908]}, "type": "Feature", "properties": {"collection_times": [{"days": "Mon-Fri", "time": "3:55pm"}, {"days": "Sat", "time": "2:00pm"}, {"days": "Sun", "time": "Closed"}], "id": "8060100022", "name": "USPS COLLECTION BOX - BLUE BOX", "address": {"city": "BRIGHTON", "state": "CO", "street": "60 W BROMLEY LN", "postcode": "80601"}}},
{"geometry": {"type": "Point", "coordinates": [-104.8164714782, 39.9721801451]}, "type": "Feature", "properties": {"collection_times": [{"days": "Mon-Fri", "time": "4:30pm"}, {"days": "Sat", "time": "2:00pm"}, {"days": "Sun", "time": "Closed"}], "id": "8060100023", "name": "USPS COLLECTION BOX - BLUE BOX", "address": {"city": "BRIGHTON", "state": "CO", "street": "500 E BROMLEY LN", "postcode": "80601"}}},
{"geometry": {"type": "Point", "coordinates": [-104.8180797704, 39.9885126634]}, "type": "Feature", "properties": {"collection_times": [{"days": "Mon-Fri", "time": "5:30pm"}, {"days": "Sat", "time": "4:00pm"}, {"days": "Sun", "time": "Closed"}], "id": "8060100024", "name": "USPS COLLECTION BOX - BLUE BOX", "address": {"city": "BRIGHTON", "state": "CO", "street": "90 N 4TH AVE", "postcode": "80601"}}},
{"geometry": {"type": "Point", "coordinates": [-104.8082677293, 39.9614901007]}, "type": "Feature", "properties": {"collection_times": [{"days": "Mon-Fri", "time": "4:00pm"}, {"days": "Sat", "time": "2:00pm"}, {"days": "Sun", "time": "Closed"}], "id": "8060100026", "name": "USPS COLLECTION BOX - BLUE BOX", "address": {"city": "BRIGHTON", "state": "CO", "street": "4430 S ADAMS PKWY", "postcode": "80601"}}},
{"geometry": {"type": "Point", "coordinates": [-104.8180797704, 39.9885126634]}, "type": "Feature", "properties": {"collection_times": [{"days": "Mon-Fri", "time": "5:30pm"}, {"days": "Sat", "time": "4:00pm"}, {"days": "Sun", "time": "Closed"}], "id": "8060100027", "name": "USPS COLLECTION BOX - APC", "address": {"city": "BRIGHTON", "state": "CO", "street": "90 N 4TH AVE", "postcode": "80601"}}},
{"geometry": {"type": "Point", "coordinates": [-104.9401734972, 39.9446645196]}, "type": "Feature", "properties": {"collection_times": [{"days": "Mon-Sat", "time": "10:00am"}, {"days": "Sun", "time": "Closed"}], "id": "8060200001", "name": "USPS COLLECTION BOX - BLUE BOX", "address": {"city": "THORNTON", "state": "CO", "street": "13700 COLORADO BLVD", "postcode": "80602"}}},
{"geometry": {"type": "Point", "coordinates": [-104.7344439206, 40.5831618891]}, "type": "Feature", "properties": {"collection_times": [{"days": "Mon-Fri", "time": "4:15pm"}, {"days": "Sat", "time": "11:45am"}, {"days": "Sun", "time": "Closed"}], "id": "8061000000", "name": "USPS COLLECTION BOX - PO LOBBY", "address": {"city": "AULT", "state": "CO", "street": "122 1ST AVE", "postcode": "80610"}}},
{"geometry": {"type": "Point", "coordinates": [-104.7344439206, 40.5831618891]}, "type": "Feature", "properties": {"collection_times": [{"days": "Mon-Fri", "time": "4:15pm"}, {"days": "Sat", "time": "11:45am"}, {"days": "Sun", "time": "Closed"}], "id": "8061000001", "name": "USPS COLLECTION BOX - BLUE BOX", "address": {"city": "AULT", "state": "CO", "street": "122 1ST AVE", "postcode": "80610"}}},
{"geometry": {"type": "Point", "coordinates": [-104.327966349, 40.6344179151]}, "type": "Feature", "properties": {"collection_times": [{"days": "Mon-Fri", "time": "3:45pm"}, {"days": "Sat", "time": "12:00pm"}, {"days": "Sun", "time": "Closed"}], "id": "8061100000", "name": "USPS COLLECTION BOX - BLUE BOX", "address": {"city": "BRIGGSDALE", "state": "CO", "street": "302 MAIN ST", "postcode": "80611"}}},
{"geometry": {"type": "Point", "coordinates": [-104.327966349, 40.6344179151]}, "type": "Feature", "properties": {"collection_times": [{"days": "Mon-Fri", "time": "1:00pm"}, {"days": "Sat", "time": "12:10pm"}, {"days": "Sun", "time": "Closed"}], "id": "8061100001", "name": "USPS COLLECTION BOX - PO LOBBY", "address": {"city": "BRIGGSDALE", "state": "CO", "street": "302 MAIN ST", "postcode": "80611"}}},
{"geometry": {"type": "Point", "coordinates": [-104.875343797, 40.8960001192]}, "type": "Feature", "properties": {"collection_times": [{"days": "Mon-Fri", "time": "3:30pm"}, {"days": "Sat", "time": "10:15am"}, {"days": "Sun", "time": "Closed"}], "id": "8061200000", "name": "USPS COLLECTION BOX - BLUE BOX", "address": {"city": "CARR", "state": "CO", "street": "9604 WARNER AVE", "postcode": "80612"}}},
{"geometry": {"type": "Point", "coordinates": [-104.875343797, 40.8960001192]}, "type": "Feature", "properties": {"collection_times": [{"days": "Mon-Fri", "time": "11:45am"}, {"days": "Sat", "time": "10:45am"}, {"days": "Sun", "time": "Closed"}], "id": "8061200001", "name": "USPS COLLECTION BOX - PO LOBBY", "address": {"city": "CARR", "state": "CO", "street": "9604 WARNER AVE", "postcode": "80612"}}},
{"geometry": {"type": "Point", "coordinates": [-104.9608912969, 39.9239543815]}, "type": "Feature", "properties": {"collection_times": [{"days": "Mon-Fri", "time": "4:00pm"}, {"days": "Sat", "time": "12:00pm"}, {"days": "Sun", "time": "Closed"}], "id": "8061400000", "name": "USPS COLLECTION BOX - BLUE BOX", "address": {"city": "EASTLAKE", "state": "CO", "street": "12470 YORK ST", "postcode": "80614"}}},
{"geometry": {"type": "Point", "coordinates": [-104.9608912969, 39.9239543815]}, "type": "Feature", "properties": {"collection_times": [{"days": "Mon-Fri", "time": "4:00pm"}, {"days": "Sat", "time": "12:00pm"}, {"days": "Sun", "time": "Closed"}], "id": "8061400001", "name": "USPS COLLECTION BOX - BLUE BOX", "address": {"city": "EASTLAKE", "state": "CO", "street": "12470 YORK ST", "postcode": "80614"}}},
{"geometry": {"type": "Point", "coordinates": [-104.9608912969, 39.9239543815]}, "type": "Feature", "properties": {"collection_times": [{"days": "Mon-Fri", "time": "5:00pm"}, {"days": "Sat", "time": "12:00pm"}, {"days": "Sun", "time": "Closed"}], "id": "8061400002", "name": "USPS COLLECTION BOX - PO LOBBY", "address": {"city": "EASTLAKE", "state": "CO", "street": "12470 YORK ST", "postcode": "80614"}}},
{"geometry": {"type": "Point", "coordinates": [-104.9608912969, 39.9239543815]}, "type": "Feature", "properties": {"collection_times": [{"days": "Mon-Fri", "time": "5:00pm"}, {"days": "Sat", "time": "12:00pm"}, {"days": "Sun", "time": "Closed"}], "id": "8061400003", "name": "USPS COLLECTION BOX - PO LOBBY", "address": {"city": "EASTLAKE", "state": "CO", "street": "12470 YORK ST", "postcode": "80614"}}},
{"geometry": {"type": "Point", "coordinates": [-104.7124243224, 40.5273972035]}, "type": "Feature", "properties": {"collection_times": [{"days": "Mon-Fri", "time": "4:20pm"}, {"days": "Sat", "time": "12:00pm"}, {"days": "Sun", "time": "Closed"}], "id": "8061500000", "name": "USPS COLLECTION BOX - BLUE BOX", "address": {"city": "EATON", "state": "CO", "street": "125 2ND ST", "postcode": "80615"}}},
{"geometry": {"type": "Point", "coordinates": [-104.7124243224, 40.5273972035]}, "type": "Feature", "properties": {"collection_times": [{"days": "Mon-Fri", "time": "4:00pm"}, {"days": "Sat", "time": "12:00pm"}, {"days": "Sun", "time": "Closed"}], "id": "8061500004", "name": "USPS COLLECTION BOX - PO LOBBY", "address": {"city": "EATON", "state": "CO", "street": "125 2ND ST", "postcode": "80615"}}},
{"geometry": {"type": "Point", "coordinates": [-104.6967903367, 40.3812970395]}, "type": "Feature", "properties": {"collection_times": [{"days": "Mon-Fri", "time": "5:00pm"}, {"days": "Sat", "time": "2:30pm"}, {"days": "Sun", "time": "Closed"}], "id": "8062000000", "name": "USPS COLLECTION BOX - BLUE BOX", "address": {"city": "EVANS", "state": "CO", "street": "3344 11TH AVE", "postcode": "80620"}}},
{"geometry": {"type": "Point", "coordinates": [-104.7157933896, 40.3805281161]}, "type": "Feature", "properties": {"collection_times": [{"days": "Mon-Sat", "time": "12:00pm"}, {"days": "Sun", "time": "Closed"}], "id": "8062000003", "name": "USPS COLLECTION BOX - BLUE BOX", "address": {"city": "EVANS", "state": "CO", "street": "3451 23RD AVE", "postcode": "80620"}}},
{"geometry": {"type": "Point", "coordinates": [-104.6967903367, 40.3812970395]}, "type": "Feature", "properties": {"collection_times": [{"days": "Mon-Fri", "time": "5:00pm"}, {"days": "Sat", "time": "3:30pm"}, {"days": "Sun", "time": "Closed"}], "id": "8062000007", "name": "USPS COLLECTION BOX - PO LOBBY", "address": {"city": "EVANS", "state": "CO", "street": "3344 11TH AVE", "postcode": "80620"}}},
{"geometry": {"type": "Point", "coordinates": [-104.6974658063, 40.3773790794]}, "type": "Feature", "properties": {"collection_times": [{"days": "Mon-Fri", "time": "3:00pm"}, {"days": "Sat-Sun", "time": "Closed"}], "id": "8062000008", "name": "USPS COLLECTION BOX - BLUE BOX", "address": {"city": "EVANS", "state": "CO", "street": "1100 37TH ST", "postcode": "80620"}}},
{"geometry": {"type": "Point", "coordinates": [-104.6907974666, 40.3773637009]}, "type": "Feature", "properties": {"collection_times": [{"days": "Mon-Sat", "time": "2:00pm"}, {"days": "Sun", "time": "Closed"}], "id": "8062000009", "name": "USPS COLLECTION BOX - BLUE BOX", "address": {"city": "EVANS", "state": "CO", "street": "801 37TH ST", "postcode": "80620"}}},
{"geometry": {"type": "Point", "coordinates": [-104.7204444951, 40.3823858199]}, "type": "Feature", "properties": {"collection_times": [{"days": "Mon-Sat", "time": "2:00pm"}, {"days": "Sun", "time": "Closed"}], "id": "8062000010", "name": "USPS COLLECTION BOX - BLUE BOX", "address": {"city": "EVANS", "state": "CO", "street": "2540 CRESCENT COVE DR", "postcode": "80620"}}},
{"geometry": {"type": "Point", "coordinates": [-104.7348743458, 40.3772701842]}, "type": "Feature", "properties": {"collection_times": [{"days": "Mon-Sat", "time": "2:00pm"}, {"days": "Sun", "time": "Closed"}], "id": "8062000011", "name": "USPS COLLECTION BOX - BLUE BOX", "address": {"city": "EVANS", "state": "CO", "street": "3700 35TH AVE", "postcode": "80620"}}},
{"geometry": {"type": "Point", "coordinates": [-104.6967903367, 40.3812970395]}, "type": "Feature", "properties": {"collection_times": [{"days": "Mon-Fri", "time": "5:00pm"}, {"days": "Sat", "time": "3:30pm"}, {"days": "Sun", "time": "Closed"}], "id": "8062000012", "name": "USPS COLLECTION BOX - PO LOBBY", "address": {"city": "EVANS", "state": "CO", "street": "3344 11TH AVE", "postcode": "80620"}}},
{"geometry": {"type": "Point", "coordinates": [-104.8120685049, 40.0832375157]}, "type": "Feature", "properties": {"collection_times": [{"days": "Mon-Fri", "time": "5:00pm"}, {"days": "Sat", "time": "3:30pm"}, {"days": "Sun", "time": "Closed"}], "id": "8062100000", "name": "USPS COLLECTION BOX - BLUE BOX", "address": {"city": "FORT LUPTON", "state": "CO", "street": "533 4TH ST", "postcode": "80621"}}},
{"geometry": {"type": "Point", "coordinates": [-104.8120685049, 40.0832375157]}, "type": "Feature", "properties": {"collection_times": [{"days": "Mon-Fri", "time": "5:00pm"}, {"days": "Sat", "time": "3:30pm"}, {"days": "Sun", "time": "Closed"}], "id": "8062100001", "name": "USPS COLLECTION BOX - BLUE BOX", "address": {"city": "FORT LUPTON", "state": "CO", "street": "533 4TH ST", "postcode": "80621"}}},
{"geometry": {"type": "Point", "coordinates": [-104.8120685049, 40.0832375157]}, "type": "Feature", "properties": {"collection_times": [{"days": "Mon-Fri", "time": "5:00pm"}, {"days": "Sat", "time": "3:30pm"}, {"days": "Sun", "time": "Closed"}], "id": "8062100002", "name": "USPS COLLECTION BOX - PO LOBBY", "address": {"city": "FORT LUPTON", "state": "CO", "street": "533 4TH ST", "postcode": "80621"}}},
{"geometry": {"type": "Point", "coordinates": [-104.8035734335, 40.0791447347]}, "type": "Feature", "properties": {"collection_times": [{"days": "Mon-Sat", "time": "12:00pm"}, {"days": "Sun", "time": "Closed"}], "id": "8062100003", "name": "USPS COLLECTION BOX - BLUE BOX", "address": {"city": "FORT LUPTON", "state": "CO", "street": "1300 DEXTER ST", "postcode": "80621"}}},
{"geometry": {"type": "Point", "coordinates": [-104.4513580095, 40.5293920781]}, "type": "Feature", "properties": {"collection_times": [{"days": "Mon-Fri", "time": "4:15pm"}, {"days": "Sat", "time": "10:15am"}, {"days": "Sun", "time": "Closed"}], "id": "8062200000", "name": "USPS COLLECTION BOX - PO LOBBY", "address": {"city": "GALETON", "state": "CO", "street": "24830 1ST ST", "postcode": "80622"}}},
{"geometry": {"type": "Point", "coordinates": [-104.4513580095, 40.5293920781]}, "type": "Feature", "properties": {"collection_times": [{"days": "Mon-Fri", "time": "4:00pm"}, {"days": "Sat", "time": "10:00am"}, {"days": "Sun", "time": "Closed"}], "id": "8062200002", "name": "USPS COLLECTION BOX - BLUE BOX", "address": {"city": "GALETON", "state": "CO", "street": "24830 1ST ST", "postcode": "80622"}}},
{"geometry": {"type": "Point", "coordinates": [-104.7775956845, 40.2827320581]}, "type": "Feature", "properties": {"collection_times": [{"days": "Mon-Fri", "time": "4:15pm"}, {"days": "Sat", "time": "11:00am"}, {"days": "Sun", "time": "Closed"}], "id": "8062300000", "name": "USPS COLLECTION BOX - BLUE BOX", "address": {"city": "GILCREST", "state": "CO", "street": "301 MAIN ST", "postcode": "80623"}}},
{"geometry": {"type": "Point", "coordinates": [-104.7775956845, 40.2827320581]}, "type": "Feature", "properties": {"collection_times": [{"days": "Mon-Fri", "time": "4:15pm"}, {"days": "Sat", "time": "11:00am"}, {"days": "Sun", "time": "Closed"}], "id": "8062300001", "name": "USPS COLLECTION BOX - BLUE BOX", "address": {"city": "GILCREST", "state": "CO", "street": "301 MAIN ST", "postcode": "80623"}}},
{"geometry": {"type": "Point", "coordinates": [-104.7775956845, 40.2827320581]}, "type": "Feature", "properties": {"collection_times": [{"days": "Mon-Fri", "time": "4:15pm"}, {"days": "Sat", "time": "11:00am"}, {"days": "Sun", "time": "Closed"}], "id": "8062300002", "name": "USPS COLLECTION BOX - PO LOBBY", "address": {"city": "GILCREST", "state": "CO", "street": "301 MAIN ST", "postcode": "80623"}}},
{"geometry": {"type": "Point", "coordinates": [-104.5430695511, 40.4541992516]}, "type": "Feature", "properties": {"collection_times": [{"days": "Mon-Fri", "time": "11:45am"}, {"days": "Sat", "time": "11:30am"}, {"days": "Sun", "time": "Closed"}], "id": "8062400001", "name": "USPS COLLECTION BOX - PO LOBBY", "address": {"city": "GILL", "state": "CO", "street": "31302 3RD ST", "postcode": "80624"}}},
{"geometry": {"type": "Point", "coordinates": [-104.7088979218, 40.4138319599]}, "type": "Feature", "properties": {"collection_times": [{"days": "Mon-Fri", "time": "3:50pm"}, {"days": "Sat", "time": "4:45pm"}, {"days": "Sun", "time": "Closed"}], "id": "8063100001", "name": "USPS COLLECTION BOX - BLUE BOX", "address": {"city": "GREELEY", "state": "CO", "street": "1801 16TH ST", "postcode": "80631"}}},
{"geometry": {"type": "Point", "coordinates": [-104.6946562788, 40.4044558271]}, "type": "Feature", "properties": {"collection_times": [{"days": "Mon-Sat", "time": "1:39pm"}, {"days": "Sun", "time": "Closed"}], "id": "8063100013", "name": "USPS COLLECTION BOX - BLUE BOX", "address": {"city": "GREELEY", "state": "CO", "street": "2045 10TH AVE", "postcode": "80631"}}},
{"geometry": {"type": "Point", "coordinates": [-104.6969714863, 40.3971987646]}, "type": "Feature", "properties": {"collection_times": [{"days": "Mon-Sat", "time": "1:50pm"}, {"days": "Sun", "time": "Closed"}], "id": "8063100015", "name": "USPS COLLECTION BOX - BLUE BOX", "address": {"city": "GREELEY", "state": "CO", "street": "2505 11TH AVE", "postcode": "80631"}}},
{"geometry": {"type": "Point", "coordinates": [-104.6955895982, 40.4156328422]}, "type": "Feature", "properties": {"collection_times": [{"days": "Mon-Fri", "time": "4:00pm"}, {"days": "Sat", "time": "12:30pm"}, {"days": "Sun", "time": "Closed"}], "id": "8063100035", "name": "USPS COLLECTION BOX - EXPRESS", "address": {"city": "GREELEY", "state": "CO", "street": "925 11TH AVE", "postcode": "80631"}}},
{"geometry": {"type": "Point", "coordinates": [-104.6962509075, 40.4229490246]}, "type": "Feature", "properties": {"collection_times": [{"days": "Mon-Sat", "time": "5:30pm"}, {"days": "Sun", "time": "Closed"}], "id": "8063100036", "name": "USPS COLLECTION BOX - BLUE BOX", "address": {"city": "GREELEY", "state": "CO", "street": "925 11TH AVE", "postcode": "80631"}}},
{"geometry": {"type": "Point", "coordinates": [-104.6962509075, 40.4229490246]}, "type": "Feature", "properties": {"collection_times": [{"days": "Mon-Sat", "time": "5:30pm"}, {"days": "Sun", "time": "Closed"}], "id": "8063100037", "name": "USPS COLLECTION BOX - BLUE BOX", "address": {"city": "GREELEY", "state": "CO", "street": "925 11TH AVE", "postcode": "80631"}}},
{"geometry": {"type": "Point", "coordinates": [-104.6962509075, 40.4229490246]}, "type": "Feature", "properties": {"collection_times": [{"days": "Mon-Sat", "time": "5:30pm"}, {"days": "Sun", "time": "Closed"}], "id": "8063100038", "name": "USPS COLLECTION BOX - BLUE BOX", "address": {"city": "GREELEY", "state": "CO", "street": "925 11TH AVE", "postcode": "80631"}}},
{"geometry": {"type": "Point", "coordinates": [-104.6962509075, 40.4229490246]}, "type": "Feature", "properties": {"collection_times": [{"days": "Mon-Sat", "time": "5:30pm"}, {"days": "Sun", "time": "Closed"}], "id": "8063100039", "name": "USPS COLLECTION BOX - BLUE BOX", "address": {"city": "GREELEY", "state": "CO", "street": "925 11TH AVE", "postcode": "80631"}}},
{"geometry": {"type": "Point", "coordinates": [-104.6962509075, 40.4229490246]}, "type": "Feature", "properties": {"collection_times": [{"days": "Mon-Sat", "time": "5:30pm"}, {"days": "Sun", "time": "Closed"}], "id": "8063100040", "name": "USPS COLLECTION BOX - BLUE BOX", "address": {"city": "GREELEY", "state": "CO", "street": "925 11TH AVE", "postcode": "80631"}}},
{"geometry": {"type": "Point", "coordinates": [-104.6962509075, 40.4229490246]}, "type": "Feature", "properties": {"collection_times": [{"days": "Mon-Sat", "time": "5:30pm"}, {"days": "Sun", "time": "Closed"}], "id": "8063100041", "name": "USPS COLLECTION BOX - BLUE BOX", "address": {"city": "GREELEY", "state": "CO", "street": "925 11TH AVE", "postcode": "80631"}}},
{"geometry": {"type": "Point", "coordinates": [-104.6962509075, 40.4229490246]}, "type": "Feature", "properties": {"collection_times": [{"days": "Mon-Sat", "time": "5:30pm"}, {"days": "Sun", "time": "Closed"}], "id": "8063100042", "name": "USPS COLLECTION BOX - BLUE BOX", "address": {"city": "GREELEY", "state": "CO", "street": "925 11TH AVE", "postcode": "80631"}}},
{"geometry": {"type": "Point", "coordinates": [-104.6962509075, 40.4229490246]}, "type": "Feature", "properties": {"collection_times": [{"days": "Mon-Sat", "time": "5:30pm"}, {"days": "Sun", "time": "Closed"}], "id": "8063100043", "name": "USPS COLLECTION BOX - BLUE BOX", "address": {"city": "GREELEY", "state": "CO", "street": "925 11TH AVE", "postcode": "80631"}}},
{"geometry": {"type": "Point", "coordinates": [-104.6920099996, 40.4258425422]}, "type": "Feature", "properties": {"collection_times": [{"days": "Mon-Fri", "time": "4:55pm"}, {"days": "Sat", "time": "3:40pm"}, {"days": "Sun", "time": "Closed"}], "id": "8063100065", "name": "USPS COLLECTION BOX - BLUE BOX", "address": {"city": "GREELEY", "state": "CO", "street": "822 7TH ST", "postcode": "80631"}}},
{"geometry": {"type": "Point", "coordinates": [-104.6962509075, 40.4229490246]}, "type": "Feature", "properties": {"collection_times": [{"days": "Mon-Sat", "time": "5:30pm"}, {"days": "Sun", "time": "Closed"}], "id": "8063100071", "name": "USPS COLLECTION BOX - PO LOBBY", "address": {"city": "GREELEY", "state": "CO", "street": "925 11TH AVE", "postcode": "80631"}}},
{"geometry": {"type": "Point", "coordinates": [-104.6942327795, 40.4137503357]}, "type": "Feature", "properties": {"collection_times": [{"days": "Mon-Sat", "time": "1:34pm"}, {"days": "Sun", "time": "Closed"}], "id": "8063100072", "name": "USPS COLLECTION BOX - BLUE BOX", "address": {"city": "GREELEY", "state": "CO", "street": "931 16TH ST", "postcode": "80631"}}},
{"geometry": {"type": "Point", "coordinates": [-104.7349505686, 40.4062766809]}, "type": "Feature", "properties": {"collection_times": [{"days": "Mon-Sat", "time": "2:15pm"}, {"days": "Sun", "time": "Closed"}], "id": "8063400000", "name": "USPS COLLECTION BOX - BLUE BOX", "address": {"city": "GREELEY", "state": "CO", "street": "2006 35TH AVE", "postcode": "80634"}}},
{"geometry": {"type": "Point", "coordinates": [-104.7349505686, 40.4062766809]}, "type": "Feature", "properties": {"collection_times": [{"days": "Mon-Sat", "time": "2:15pm"}, {"days": "Sun", "time": "Closed"}], "id": "8063400002", "name": "USPS COLLECTION BOX - BLUE BOX", "address": {"city": "GREELEY", "state": "CO", "street": "2006 35TH AVE", "postcode": "80634"}}},
{"geometry": {"type": "Point", "coordinates": [-104.7365211028, 40.4226257494]}, "type": "Feature", "properties": {"collection_times": [{"days": "Mon-Sat", "time": "4:45pm"}, {"days": "Sun", "time": "Closed"}], "id": "8063400003", "name": "USPS COLLECTION BOX - BLUE BOX", "address": {"city": "GREELEY", "state": "CO", "street": "3540 W 10TH ST", "postcode": "80634"}}},
{"geometry": {"type": "Point", "coordinates": [-104.7365211028, 40.4226257494]}, "type": "Feature", "properties": {"collection_times": [{"days": "Mon-Sat", "time": "4:45pm"}, {"days": "Sun", "time": "Closed"}], "id": "8063400009", "name": "USPS COLLECTION BOX - BLUE BOX", "address": {"city": "GREELEY", "state": "CO", "street": "3540 W 10TH ST", "postcode": "80634"}}},
{"geometry": {"type": "Point", "coordinates": [-104.7530088458, 40.4096236996]}, "type": "Feature", "properties": {"collection_times": [{"days": "Mon-Fri", "time": "3:45pm"}, {"days": "Sat", "time": "12:45pm"}, {"days": "Sun", "time": "Closed"}], "id": "8063400010", "name": "USPS COLLECTION BOX - EXPRESS", "address": {"city": "GREELEY", "state": "CO", "street": "930 39TH AVE", "postcode": "80634"}}},
{"geometry": {"type": "Point", "coordinates": [-104.7449639747, 40.4230980774]}, "type": "Feature", "properties": {"collection_times": [{"days": "Mon-Sat", "time": "5:30pm"}, {"days": "Sun", "time": "Closed"}], "id": "8063400011", "name": "USPS COLLECTION BOX - BLUE BOX", "address": {"city": "GREELEY", "state": "CO", "street": "930 39TH AVE", "postcode": "80634"}}},
{"geometry": {"type": "Point", "coordinates": [-104.7449639747, 40.4230980774]}, "type": "Feature", "properties": {"collection_times": [{"days": "Mon-Sat", "time": "5:30pm"}, {"days": "Sun", "time": "Closed"}], "id": "8063400012", "name": "USPS COLLECTION BOX - BLUE BOX", "address": {"city": "GREELEY", "state": "CO", "street": "930 39TH AVE", "postcode": "80634"}}},
{"geometry": {"type": "Point", "coordinates": [-104.7449639747, 40.4230980774]}, "type": "Feature", "properties": {"collection_times": [{"days": "Mon-Sat", "time": "5:30pm"}, {"days": "Sun", "time": "Closed"}], "id": "8063400013", "name": "USPS COLLECTION BOX - BLUE BOX", "address": {"city": "GREELEY", "state": "CO", "street": "930 39TH AVE", "postcode": "80634"}}},
{"geometry": {"type": "Point", "coordinates": [-104.7449639747, 40.4230980774]}, "type": "Feature", "properties": {"collection_times": [{"days": "Mon-Sat", "time": "5:30pm"}, {"days": "Sun", "time": "Closed"}], "id": "8063400014", "name": "USPS COLLECTION BOX - BLUE BOX", "address": {"city": "GREELEY", "state": "CO", "street": "930 39TH AVE", "postcode": "80634"}}},
{"geometry": {"type": "Point", "coordinates": [-104.7449639747, 40.4230980774]}, "type": "Feature", "properties": {"collection_times": [{"days": "Mon-Sat", "time": "5:30pm"}, {"days": "Sun", "time": "Closed"}], "id": "8063400015", "name": "USPS COLLECTION BOX - BLUE BOX", "address": {"city": "GREELEY", "state": "CO", "street": "930 39TH AVE", "postcode": "80634"}}},
{"geometry": {"type": "Point", "coordinates": [-104.7173288703, 40.41391595]}, "type": "Feature", "properties": {"collection_times": [{"days": "Mon-Fri", "time": "4:45pm"}, {"days": "Sat", "time": "4:30pm"}, {"days": "Sun", "time": "Closed"}], "id": "8063400018", "name": "USPS COLLECTION BOX - BLUE BOX", "address": {"city": "GREELEY", "state": "CO", "street": "2400 W 16TH ST", "postcode": "80634"}}},
{"geometry": {"type": "Point", "coordinates": [-104.7173288703, 40.41391595]}, "type": "Feature", "properties": {"collection_times": [{"days": "Mon-Fri", "time": "4:45pm"}, {"days": "Sat", "time": "4:30pm"}, {"days": "Sun", "time": "Closed"}], "id": "8063400019", "name": "USPS COLLECTION BOX - BLUE BOX", "address": {"city": "GREELEY", "state": "CO", "street": "2400 W 16TH ST", "postcode": "80634"}}},
{"geometry": {"type": "Point", "coordinates": [-104.715953089, 40.3999310091]}, "type": "Feature", "properties": {"collection_times": [{"days": "Mon-Sat", "time": "2:00pm"}, {"days": "Sun", "time": "Closed"}], "id": "8063400020", "name": "USPS COLLECTION BOX - BLUE BOX", "address": {"city": "GREELEY", "state": "CO", "street": "2325 23RD AVE", "postcode": "80634"}}},
{"geometry": {"type": "Point", "coordinates": [-104.7449639747, 40.4230980774]}, "type": "Feature", "properties": {"collection_times": [{"days": "Mon-Sat", "time": "5:30pm"}, {"days": "Sun", "time": "Closed"}], "id": "8063400023", "name": "USPS COLLECTION BOX - PO LOBBY", "address": {"city": "GREELEY", "state": "CO", "street": "930 39TH AVE", "postcode": "80634"}}},
{"geometry": {"type": "Point", "coordinates": [-104.7815427632, 40.3998306928]}, "type": "Feature", "properties": {"collection_times": [{"days": "Mon-Sat", "time": "4:10pm"}, {"days": "Sun", "time": "Closed"}], "id": "8063400024", "name": "USPS COLLECTION BOX - BLUE BOX", "address": {"city": "GREELEY", "state": "CO", "street": "4530 CENTRAL PL DR", "postcode": "80634"}}},
{"geometry": {"type": "Point", "coordinates": [-104.7530088458, 40.4096236996]}, "type": "Feature", "properties": {"collection_times": [{"days": "Mon-Sat", "time": "4:10pm"}, {"days": "Sun", "time": "Closed"}], "id": "8063400025", "name": "USPS COLLECTION BOX - EXPRESS", "address": {"city": "GREELEY", "state": "CO", "street": "4530 CENTRAL PL DR", "postcode": "80634"}}},
{"geometry": {"type": "Point", "coordinates": [-104.7953426481, 40.4068607827]}, "type": "Feature", "properties": {"collection_times": [{"days": "Mon-Sat", "time": "4:35pm"}, {"days": "Sun", "time": "Closed"}], "id": "8063400026", "name": "USPS COLLECTION BOX - BLUE BOX", "address": {"city": "GREELEY", "state": "CO", "street": "7251 W 20TH ST", "postcode": "80634"}}},
{"geometry": {"type": "Point", "coordinates": [-104.7449639747, 40.4230980774]}, "type": "Feature", "properties": {"collection_times": [{"days": "Mon-Sat", "time": "5:30pm"}, {"days": "Sun", "time": "Closed"}], "id": "8063400027", "name": "USPS COLLECTION BOX - APC", "address": {"city": "GREELEY", "state": "CO", "street": "930 39TH AVE", "postcode": "80634"}}},
{"geometry": {"type": "Point", "coordinates": [-104.7853256436, 40.3896644805]}, "type": "Feature", "properties": {"collection_times": [{"days": "Mon-Sat", "time": "4:20pm"}, {"days": "Sun", "time": "Closed"}], "id": "8063400029", "name": "USPS COLLECTION BOX - BLUE BOX", "address": {"city": "GREELEY", "state": "CO", "street": "6560 W 29TH ST", "postcode": "80634"}}},
{"geometry": {"type": "Point", "coordinates": [-104.7815427632, 40.3998306928]}, "type": "Feature", "properties": {"collection_times": [{"days": "Mon-Sat", "time": "4:30pm"}, {"days": "Sun", "time": "Closed"}], "id": "8063400030", "name": "USPS COLLECTION BOX - BLUE BOX", "address": {"city": "GREELEY", "state": "CO", "street": "1707 61ST AVE", "postcode": "80634"}}},
{"geometry": {"type": "Point", "coordinates": [-104.7449639747, 40.4230980774]}, "type": "Feature", "properties": {"collection_times": [{"days": "Mon-Sat", "time": "5:30pm"}, {"days": "Sun", "time": "Closed"}], "id": "8063400031", "name": "USPS COLLECTION BOX - BLUE BOX", "address": {"city": "GREELEY", "state": "CO", "street": "930 39TH AVE", "postcode": "80634"}}},
{"geometry": {"type": "Point", "coordinates": [-104.7449639747, 40.4230980774]}, "type": "Feature", "properties": {"collection_times": [{"days": "Mon-Sat", "time": "5:30pm"}, {"days": "Sun", "time": "Closed"}], "id": "8063400032", "name": "USPS COLLECTION BOX - PO LOBBY", "address": {"city": "GREELEY", "state": "CO", "street": "930 39TH AVE", "postcode": "80634"}}},
{"geometry": {"type": "Point", "coordinates": [-104.7449639747, 40.4230980774]}, "type": "Feature", "properties": {"collection_times": [{"days": "Mon-Sat", "time": "5:30pm"}, {"days": "Sun", "time": "Closed"}], "id": "8063400033", "name": "USPS COLLECTION BOX - PO LOBBY", "address": {"city": "GREELEY", "state": "CO", "street": "930 39TH AVE", "postcode": "80634"}}},
{"geometry": {"type": "Point", "coordinates": [-104.8677130487, 39.9179988276]}, "type": "Feature", "properties": {"collection_times": [{"days": "Mon-Fri", "time": "4:45pm"}, {"days": "Sat", "time": "11:45am"}, {"days": "Sun", "time": "Closed"}], "id": "8064000000", "name": "USPS COLLECTION BOX - BLUE BOX", "address": {"city": "HENDERSON", "state": "CO", "street": "12210 BRIGHTON RD", "postcode": "80640"}}},
{"geometry": {"type": "Point", "coordinates": [-104.8677130487, 39.9179988276]}, "type": "Feature", "properties": {"collection_times": [{"days": "Mon-Fri", "time": "4:45pm"}, {"days": "Sat", "time": "11:45am"}, {"days": "Sun", "time": "Closed"}], "id": "8064000001", "name": "USPS COLLECTION BOX - PO LOBBY", "address": {"city": "HENDERSON", "state": "CO", "street": "12210 BRIGHTON RD", "postcode": "80640"}}},
{"geometry": {"type": "Point", "coordinates": [-104.9120969644, 39.8572944656]}, "type": "Feature", "properties": {"collection_times": [{"days": "Mon-Sat", "time": "12:00pm"}, {"days": "Sun", "time": "Closed"}], "id": "8064000002", "name": "USPS COLLECTION BOX - BLUE BOX", "address": {"city": "HENDERSON", "state": "CO", "street": "6500 E 88TH AVE", "postcode": "80640"}}},
{"geometry": {"type": "Point", "coordinates": [-104.8677130487, 39.9179988276]}, "type": "Feature", "properties": {"collection_times": [{"days": "Mon-Fri", "time": "4:45pm"}, {"days": "Sat", "time": "11:45am"}, {"days": "Sun", "time": "Closed"}], "id": "8064000003", "name": "USPS COLLECTION BOX - PO LOBBY", "address": {"city": "HENDERSON", "state": "CO", "street": "12210 BRIGHTON RD", "postcode": "80640"}}},
{"geometry": {"type": "Point", "coordinates": [-104.6439369202, 40.0750022125]}, "type": "Feature", "properties": {"collection_times": [{"days": "Mon-Fri", "time": "4:45pm"}, {"days": "Sat", "time": "11:45am"}, {"days": "Sun", "time": "Closed"}], "id": "8064200000", "name": "USPS COLLECTION BOX - BLUE BOX", "address": {"city": "HUDSON", "state": "CO", "street": "738 CEDAR ST", "postcode": "80642"}}},
{"geometry": {"type": "Point", "coordinates": [-104.6439369202, 40.0750022125]}, "type": "Feature", "properties": {"collection_times": [{"days": "Mon-Fri", "time": "4:45pm"}, {"days": "Sat", "time": "11:45am"}, {"days": "Sun", "time": "Closed"}], "id": "8064200001", "name": "USPS COLLECTION BOX - PO LOBBY", "address": {"city": "HUDSON", "state": "CO", "street": "738 CEDAR ST", "postcode": "80642"}}},
{"geometry": {"type": "Point", "coordinates": [-104.6439369202, 40.0750022125]}, "type": "Feature", "properties": {"collection_times": [{"days": "Mon-Fri", "time": "4:45pm"}, {"days": "Sat", "time": "11:45am"}, {"days": "Sun", "time": "Closed"}], "id": "8064200002", "name": "USPS COLLECTION BOX - PO LOBBY", "address": {"city": "HUDSON", "state": "CO", "street": "738 CEDAR ST", "postcode": "80642"}}},
{"geometry": {"type": "Point", "coordinates": [-104.5198622621, 40.1082559148]}, "type": "Feature", "properties": {"collection_times": [{"days": "Mon-Fri", "time": "4:45pm"}, {"days": "Sat", "time": "10:45am"}, {"days": "Sun", "time": "Closed"}], "id": "8064300000", "name": "USPS COLLECTION BOX - BLUE BOX", "address": {"city": "KEENESBURG", "state": "CO", "street": "90 S MAIN ST", "postcode": "80643"}}},
{"geometry": {"type": "Point", "coordinates": [-104.5198622621, 40.1082559148]}, "type": "Feature", "properties": {"collection_times": [{"days": "Mon-Fri", "time": "5:00pm"}, {"days": "Sat", "time": "11:00am"}, {"days": "Sun", "time": "Closed"}], "id": "8064300001", "name": "USPS COLLECTION BOX - PO LOBBY", "address": {"city": "KEENESBURG", "state": "CO", "street": "90 S MAIN ST", "postcode": "80643"}}},
{"geometry": {"type": "Point", "coordinates": [-104.5643710932, 40.3877524465]}, "type": "Feature", "properties": {"collection_times": [{"days": "Mon-Fri", "time": "4:30pm"}, {"days": "Sat", "time": "12:00pm"}, {"days": "Sun", "time": "Closed"}], "id": "8064400000", "name": "USPS COLLECTION BOX - BLUE BOX", "address": {"city": "KERSEY", "state": "CO", "street": "331 1ST ST", "postcode": "80644"}}},
{"geometry": {"type": "Point", "coordinates": [-104.5643710932, 40.3877524465]}, "type": "Feature", "properties": {"collection_times": [{"days": "Mon-Fri", "time": "4:30pm"}, {"days": "Sat", "time": "12:00pm"}, {"days": "Sun", "time": "Closed"}], "id": "8064400001", "name": "USPS COLLECTION BOX - PO LOBBY", "address": {"city": "KERSEY", "state": "CO", "street": "331 1ST ST", "postcode": "80644"}}},
{"geometry": {"type": "Point", "coordinates": [-104.5643710932, 40.3877524465]}, "type": "Feature", "properties": {"collection_times": [{"days": "Mon-Fri", "time": "4:30pm"}, {"days": "Sat", "time": "12:00pm"}, {"days": "Sun", "time": "Closed"}], "id": "8064400004", "name": "USPS COLLECTION BOX - BLUE BOX", "address": {"city": "KERSEY", "state": "CO", "street": "331 1ST ST", "postcode": "80644"}}},
{"geometry": {"type": "Point", "coordinates": [-104.6992023901, 40.3553026992]}, "type": "Feature", "properties": {"collection_times": [{"days": "Mon-Fri", "time": "4:15pm"}, {"days": "Sat", "time": "12:00pm"}, {"days": "Sun", "time": "Closed"}], "id": "8064500001", "name": "USPS COLLECTION BOX - BLUE BOX", "address": {"city": "LASALLE", "state": "CO", "street": "524 N 2ND ST", "postcode": "80645"}}},
{"geometry": {"type": "Point", "coordinates": [-104.6992023901, 40.3553026992]}, "type": "Feature", "properties": {"collection_times": [{"days": "Mon-Fri", "time": "4:30pm"}, {"days": "Sat", "time": "12:00pm"}, {"days": "Sun", "time": "Closed"}], "id": "8064500005", "name": "USPS COLLECTION BOX - PO LOBBY", "address": {"city": "LASALLE", "state": "CO", "street": "524 N 2ND ST", "postcode": "80645"}}},
{"geometry": {"type": "Point", "coordinates": [-104.6992023901, 40.3553026992]}, "type": "Feature", "properties": {"collection_times": [{"days": "Mon-Fri", "time": "4:30pm"}, {"days": "Sat", "time": "12:00pm"}, {"days": "Sun", "time": "Closed"}], "id": "8064500006", "name": "USPS COLLECTION BOX - PO LOBBY", "address": {"city": "LASALLE", "state": "CO", "street": "524 N 2ND ST", "postcode": "80645"}}},
{"geometry": {"type": "Point", "coordinates": [-104.6992023901, 40.3553026992]}, "type": "Feature", "properties": {"collection_times": [{"days": "Mon-Fri", "time": "4:15pm"}, {"days": "Sat", "time": "12:00pm"}, {"days": "Sun", "time": "Closed"}], "id": "8064500007", "name": "USPS COLLECTION BOX - BLUE BOX", "address": {"city": "LASALLE", "state": "CO", "street": "524 N 2ND ST", "postcode": "80645"}}},
{"geometry": {"type": "Point", "coordinates": [-104.6967971933, 40.4808199898]}, "type": "Feature", "properties": {"collection_times": [{"days": "Mon-Fri", "time": "4:45pm"}, {"days": "Sat", "time": "11:30am"}, {"days": "Sun", "time": "Closed"}], "id": "8064600000", "name": "USPS COLLECTION BOX - BLUE BOX", "address": {"city": "LUCERNE", "state": "CO", "street": "32969 COUNTY ROAD 39", "postcode": "80646"}}},
{"geometry": {"type": "Point", "coordinates": [-104.6967971933, 40.4808199898]}, "type": "Feature", "properties": {"collection_times": [{"days": "Mon-Fri", "time": "12:45pm"}, {"days": "Sat", "time": "10:45am"}, {"days": "Sun", "time": "Closed"}], "id": "8064600001", "name": "USPS COLLECTION BOX - PO LOBBY", "address": {"city": "LUCERNE", "state": "CO", "street": "32969 COUNTY ROAD 39", "postcode": "80646"}}},
{"geometry": {"type": "Point", "coordinates": [-104.780355741, 40.7035693673]}, "type": "Feature", "properties": {"collection_times": [{"days": "Mon-Fri", "time": "3:45pm"}, {"days": "Sat", "time": "2:45pm"}, {"days": "Sun", "time": "Closed"}], "id": "8064800000", "name": "USPS COLLECTION BOX - BLUE BOX", "address": {"city": "NUNN", "state": "CO", "street": "397 LOGAN AVE", "postcode": "80648"}}},
{"geometry": {"type": "Point", "coordinates": [-104.780355741, 40.7035693673]}, "type": "Feature", "properties": {"collection_times": [{"days": "Mon-Fri", "time": "3:45pm"}, {"days": "Sat", "time": "2:45pm"}, {"days": "Sun", "time": "Closed"}], "id": "8064800001", "name": "USPS COLLECTION BOX - PO LOBBY", "address": {"city": "NUNN", "state": "CO", "street": "397 LOGAN AVE", "postcode": "80648"}}},
{"geometry": {"type": "Point", "coordinates": [-104.1172, 40.332943]}, "type": "Feature", "properties": {"collection_times": [{"days": "Mon-Fri", "time": "3:30pm"}, {"days": "Sat", "time": "9:30am"}, {"days": "Sun", "time": "Closed"}], "id": "8064900000", "name": "USPS COLLECTION BOX - BLUE BOX", "address": {"city": "ORCHARD", "state": "CO", "street": "22863 WASHINGTON AVE", "postcode": "80649"}}},
{"geometry": {"type": "Point", "coordinates": [-104.1172, 40.332943]}, "type": "Feature", "properties": {"collection_times": [{"days": "Mon-Fri", "time": "12:45pm"}, {"days": "Sat", "time": "10:45am"}, {"days": "Sun", "time": "Closed"}], "id": "8064900001", "name": "USPS COLLECTION BOX - PO LOBBY", "address": {"city": "ORCHARD", "state": "CO", "street": "22863 WASHINGTON AVE", "postcode": "80649"}}},
{"geometry": {"type": "Point", "coordinates": [-104.7553207804, 40.6351174468]}, "type": "Feature", "properties": {"collection_times": [{"days": "Mon-Fri", "time": "3:15pm"}, {"days": "Sat", "time": "11:00am"}, {"days": "Sun", "time": "Closed"}], "id": "8065000000", "name": "USPS COLLECTION BOX - BLUE BOX", "address": {"city": "PIERCE", "state": "CO", "street": "500 2ND ST", "postcode": "80650"}}},
{"geometry": {"type": "Point", "coordinates": [-104.7553207804, 40.6351174468]}, "type": "Feature", "properties": {"collection_times": [{"days": "Mon-Fri", "time": "3:15pm"}, {"days": "Sat", "time": "11:00am"}, {"days": "Sun", "time": "Closed"}], "id": "8065000001", "name": "USPS COLLECTION BOX - PO LOBBY", "address": {"city": "PIERCE", "state": "CO", "street": "500 2ND ST", "postcode": "80650"}}},
{"geometry": {"type": "Point", "coordinates": [-104.8235349262, 40.2149114951]}, "type": "Feature", "properties": {"collection_times": [{"days": "Mon-Fri", "time": "4:15pm"}, {"days": "Sat", "time": "10:45am"}, {"days": "Sun", "time": "Closed"}], "id": "8065100000", "name": "USPS COLLECTION BOX - BLUE BOX", "address": {"city": "PLATTEVILLE", "state": "CO", "street": "400 MARION ST", "postcode": "80651"}}},
{"geometry": {"type": "Point", "coordinates": [-104.8235349262, 40.2149114951]}, "type": "Feature", "properties": {"collection_times": [{"days": "Mon-Fri", "time": "4:45pm"}, {"days": "Sat", "time": "11:15am"}, {"days": "Sun", "time": "Closed"}], "id": "8065100001", "name": "USPS COLLECTION BOX - PO LOBBY", "address": {"city": "PLATTEVILLE", "state": "CO", "street": "400 MARION ST", "postcode": "80651"}}},
{"geometry": {"type": "Point", "coordinates": [-104.8235349262, 40.2149114951]}, "type": "Feature", "properties": {"collection_times": [{"days": "Mon-Fri", "time": "4:45pm"}, {"days": "Sat", "time": "11:15am"}, {"days": "Sun", "time": "Closed"}], "id": "8065100002", "name": "USPS COLLECTION BOX - PO LOBBY", "address": {"city": "PLATTEVILLE", "state": "CO", "street": "400 MARION ST", "postcode": "80651"}}},
{"geometry": {"type": "Point", "coordinates": [-104.3704438982, 40.1682390321]}, "type": "Feature", "properties": {"collection_times": [{"days": "Mon-Fri", "time": "4:15pm"}, {"days": "Sat", "time": "11:15am"}, {"days": "Sun", "time": "Closed"}], "id": "8065200000", "name": "USPS COLLECTION BOX - BLUE BOX", "address": {"city": "ROGGEN", "state": "CO", "street": "413 FRONT ST", "postcode": "80652"}}},
{"geometry": {"type": "Point", "coordinates": [-104.3704438982, 40.1682390321]}, "type": "Feature", "properties": {"collection_times": [{"days": "Mon-Fri", "time": "12:15pm"}, {"days": "Sat", "time": "11:30am"}, {"days": "Sun", "time": "Closed"}], "id": "8065200001", "name": "USPS COLLECTION BOX - PO LOBBY", "address": {"city": "ROGGEN", "state": "CO", "street": "413 FRONT ST", "postcode": "80652"}}},
{"geometry": {"type": "Point", "coordinates": [-103.9723674306, 40.3476139281]}, "type": "Feature", "properties": {"collection_times": [{"days": "Mon-Fri", "time": "3:30pm"}, {"days": "Sat", "time": "10:30am"}, {"days": "Sun", "time": "Closed"}], "id": "8065300002", "name": "USPS COLLECTION BOX - BLUE BOX", "address": {"city": "WELDONA", "state": "CO", "street": "209 RAILROAD AVE", "postcode": "80653"}}},
{"geometry": {"type": "Point", "coordinates": [-103.97237, 40.347614]}, "type": "Feature", "properties": {"collection_times": [{"days": "Mon-Fri", "time": "11:45am"}, {"days": "Sat", "time": "10:30am"}, {"days": "Sun", "time": "Closed"}], "id": "8065300003", "name": "USPS COLLECTION BOX - PO LOBBY", "address": {"city": "WELDONA", "state": "CO", "street": "209 RAILROAD AVE", "postcode": "80653"}}},
{"geometry": {"type": "Point", "coordinates": [-104.074234421, 40.2331473027]}, "type": "Feature", "properties": {"collection_times": [{"days": "Mon-Fri", "time": "4:30pm"}, {"days": "Sat", "time": "11:45am"}, {"days": "Sun", "time": "Closed"}], "id": "8065400000", "name": "USPS COLLECTION BOX - BLUE BOX", "address": {"city": "WIGGINS", "state": "CO", "street": "505 CENTRAL AVE", "postcode": "80654"}}},
{"geometry": {"type": "Point", "coordinates": [-104.0557410341, 40.2438613482]}, "type": "Feature", "properties": {"collection_times": [{"days": "Mon-Sat", "time": "11:45am"}, {"days": "Sun", "time": "Closed"}], "id": "8065400001", "name": "USPS COLLECTION BOX - BLUE BOX", "address": {"city": "WIGGINS", "state": "CO", "street": "16740 HIGHWAY 39", "postcode": "80654"}}},
{"geometry": {"type": "Point", "coordinates": [-104.0727060166, 40.1388040703]}, "type": "Feature", "properties": {"collection_times": [{"days": "Mon-Fri", "time": "10:30am"}, {"days": "Sat", "time": "11:00am"}, {"days": "Sun", "time": "Closed"}], "id": "8065400002", "name": "USPS COLLECTION BOX - BLUE BOX", "address": {"city": "WIGGINS", "state": "CO", "street": "4001 MC RD A", "postcode": "80654"}}},
{"geometry": {"type": "Point", "coordinates": [-104.074234421, 40.2331473027]}, "type": "Feature", "properties": {"collection_times": [{"days": "Mon-Fri", "time": "4:30pm"}, {"days": "Sat", "time": "11:45am"}, {"days": "Sun", "time": "Closed"}], "id": "8065400004", "name": "USPS COLLECTION BOX - BLUE BOX", "address": {"city": "WIGGINS", "state": "CO", "street": "505 CENTRAL AVE", "postcode": "80654"}}},
{"geometry": {"type": "Point", "coordinates": [-104.074234421, 40.2331473027]}, "type": "Feature", "properties": {"collection_times": [{"days": "Mon-Fri", "time": "4:30pm"}, {"days": "Sat", "time": "11:45am"}, {"days": "Sun", "time": "Closed"}], "id": "8065400007", "name": "USPS COLLECTION BOX - PO LOBBY", "address": {"city": "WIGGINS", "state": "CO", "street": "505 CENTRAL AVE", "postcode": "80654"}}},
{"geometry": {"type": "Point", "coordinates": [-104.074234421, 40.2331473027]}, "type": "Feature", "properties": {"collection_times": [{"days": "Mon-Fri", "time": "4:30pm"}, {"days": "Sat", "time": "11:45am"}, {"days": "Sun", "time": "Closed"}], "id": "8065400008", "name": "USPS COLLECTION BOX - PO LOBBY", "address": {"city": "WIGGINS", "state": "CO", "street": "505 CENTRAL AVE", "postcode": "80654"}}},
{"geometry": {"type": "Point", "coordinates": [-104.074234421, 40.2331473027]}, "type": "Feature", "properties": {"collection_times": [{"days": "Mon-Fri", "time": "4:30pm"}, {"days": "Sat", "time": "11:45am"}, {"days": "Sun", "time": "Closed"}], "id": "8065400009", "name": "USPS COLLECTION BOX - PO LOBBY", "address": {"city": "WIGGINS", "state": "CO", "street": "505 CENTRAL AVE", "postcode": "80654"}}},
{"geometry": {"type": "Point", "coordinates": [-104.074234421, 40.2331473027]}, "type": "Feature", "properties": {"collection_times": [{"days": "Mon-Fri", "time": "4:30pm"}, {"days": "Sat", "time": "11:45am"}, {"days": "Sun", "time": "Closed"}], "id": "8065400010", "name": "USPS COLLECTION BOX - PO LOBBY", "address": {"city": "WIGGINS", "state": "CO", "street": "505 CENTRAL AVE", "postcode": "80654"}}}
]}
