{"type": "FeatureCollection", "features": [
{"geometry": {"type": "Point", "coordinates": [-103.8001543088, 40.2499601731]}, "type": "Feature", "properties": {"collection_times": [{"days": "Mon-Sat", "time": "5:15pm"}, {"days": "Sun", "time": "Closed"}], "id": "8070100000", "name": "USPS COLLECTION BOX - BLUE BOX", "address": {"city": "FORT MORGAN", "state": "CO", "street": "300 STATE ST", "postcode": "80701"}}},
{"geometry": {"type": "Point", "coordinates": [-103.8015129031, 40.2512247414]}, "type": "Feature", "properties": {"collection_times": [{"days": "Mon-Fri", "time": "3:20pm"}, {"days": "Sat-Sun", "time": "Closed"}], "id": "8070100001", "name": "USPS COLLECTION BOX - BLUE BOX", "address": {"city": "FORT MORGAN", "state": "CO", "street": "100 W BEAVER AVE", "postcode": "80701"}}},
{"geometry": {"type": "Point", "coordinates": [-103.802860429, 40.248969196]}, "type": "Feature", "properties": {"collection_times": [{"days": "Mon-Fri", "time": "3:20pm"}, {"days": "Sat-Sun", "time": "Closed"}], "id": "8070100004", "name": "USPS COLLECTION BOX - BLUE BOX", "address": {"city": "FORT MORGAN", "state": "CO", "street": "231 ENSIGN ST", "postcode": "80701"}}},
{"geometry": {"type": "Point", "coordinates": [-103.7905330653, 40.251993408]}, "type": "Feature", "properties": {"collection_times": [{"days": "Mon-Fri", "time": "3:20pm"}, {"days": "Sat-Sun", "time": "Closed"}], "id": "8070100005", "name": "USPS COLLECTION BOX - BLUE BOX", "address": {"city": "FORT MORGAN", "state": "CO", "street": "400 WARNER ST", "postcode": "80701"}}},
{"geometry": {"type": "Point", "coordinates": [-103.798170284, 40.2413095623]}, "type": "Feature", "properties": {"collection_times": [{"days": "Mon-Sat", "time": "10:00am"}, {"days": "Sun", "time": "Closed"}], "id": "8070100008", "name": "USPS COLLECTION BOX - BLUE BOX", "address": {"city": "FORT MORGAN", "state": "CO", "street": "414 SOUTHRIDGE RD", "postcode": "80701"}}},
{"geometry": {"type": "Point", "coordinates": [-103.7873176356, 40.2595742982]}, "type": "Feature", "properties": {"collection_times": [{"days": "Mon-Sat", "time": "10:30am"}, {"days": "Sun", "time": "Closed"}], "id": "8070100012", "name": "USPS COLLECTION BOX - BLUE BOX", "address": {"city": "FORT MORGAN", "state": "CO", "street": "1025 LINDA ST", "postcode": "80701"}}},
{"geometry": {"type": "Point", "coordinates": [-103.7871643358, 40.2603119242]}, "type": "Feature", "properties": {"collection_times": [{"days": "Mon-Sat", "time": "10:30am"}, {"days": "Sun", "time": "Closed"}], "id": "8070100013", "name": "USPS COLLECTION BOX - BLUE BOX", "address": {"city": "FORT MORGAN", "state": "CO", "street": "1100 LINDA ST", "postcode": "80701"}}},
{"geometry": {"type": "Point", "coordinates": [-103.8022061937, 40.2436421706]}, "type": "Feature", "properties": {"collection_times": [{"days": "Mon-Sat", "time": "10:00am"}, {"days": "Sun", "time": "Closed"}], "id": "8070100016", "name": "USPS COLLECTION BOX - BLUE BOX", "address": {"city": "FORT MORGAN", "state": "CO", "street": "304 LANDMARK DR", "postcode": "80701"}}},
{"geometry": {"type": "Point", "coordinates": [-103.8096715891, 40.2539590623]}, "type": "Feature", "properties": {"collection_times": [{"days": "Mon-Sat", "time": "10:00am"}, {"days": "Sun", "time": "Closed"}], "id": "8070100017", "name": "USPS COLLECTION BOX - BLUE BOX", "address": {"city": "FORT MORGAN", "state": "CO", "street": "620 W PLATTE AVE", "postcode": "80701"}}},
{"geometry": {"type": "Point", "coordinates": [-103.8001543088, 40.2499601731]}, "type": "Feature", "properties": {"collection_times": [{"days": "Mon-Sat", "time": "5:15pm"}, {"days": "Sun", "time": "Closed"}], "id": "8070100018", "name": "USPS COLLECTION BOX - BLUE BOX", "address": {"city": "FORT MORGAN", "state": "CO", "street": "300 STATE ST", "postcode": "80701"}}},
{"geometry": {"type": "Point", "coordinates": [-103.800172447, 40.249942803]}, "type": "Feature", "properties": {"collection_times": [{"days": "Mon-Sat", "time": "5:15pm"}, {"days": "Sun", "time": "Closed"}], "id": "8070100019", "name": "USPS COLLECTION BOX - BLUE BOX", "address": {"city": "FORT MORGAN", "state": "CO", "street": "300 STATE ST", "postcode": "80701"}}},
{"geometry": {"type": "Point", "coordinates": [-103.8001543088, 40.2499601731]}, "type": "Feature", "properties": {"collection_times": [{"days": "Mon-Sat", "time": "5:30pm"}, {"days": "Sun", "time": "Closed"}], "id": "8070100020", "name": "USPS COLLECTION BOX - PO LOBBY", "address": {"city": "FORT MORGAN", "state": "CO", "street": "300 STATE ST", "postcode": "80701"}}},
{"geometry": {"type": "Point", "coordinates": [-103.8001543088, 40.2499601731]}, "type": "Feature", "properties": {"collection_times": [{"days": "Mon-Sat", "time": "5:30pm"}, {"days": "Sun", "time": "Closed"}], "id": "8070100021", "name": "USPS COLLECTION BOX - PO LOBBY", "address": {"city": "FORT MORGAN", "state": "CO", "street": "300 STATE ST", "postcode": "80701"}}},
{"geometry": {"type": "Point", "coordinates": [-103.8001543088, 40.2499601731]}, "type": "Feature", "properties": {"collection_times": [{"days": "Mon-Sat", "time": "5:30pm"}, {"days": "Sun", "time": "Closed"}], "id": "8070100022", "name": "USPS COLLECTION BOX - PO LOBBY", "address": {"city": "FORT MORGAN", "state": "CO", "street": "300 STATE ST", "postcode": "80701"}}},
{"geometry": {"type": "Point", "coordinates": [-103.802860429, 40.248969196]}, "type": "Feature", "properties": {"collection_times": [{"days": "Mon-Fri", "time": "3:20pm"}, {"days": "Sat-Sun", "time": "Closed"}], "id": "8070100023", "name": "USPS COLLECTION BOX - BLUE BOX", "address": {"city": "FORT MORGAN", "state": "CO", "street": "231 ENSIGN ST", "postcode": "80701"}}},
{"geometry": {"type": "Point", "coordinates": [-103.8001543088, 40.2499601731]}, "type": "Feature", "properties": {"collection_times": [{"days": "Mon-Sat", "time": "5:30pm"}, {"days": "Sun", "time": "Closed"}], "id": "8070100024", "name": "USPS COLLECTION BOX - PO LOBBY", "address": {"city": "FORT MORGAN", "state": "CO", "street": "300 STATE ST", "postcode": "80701"}}},
{"geometry": {"type": "Point", "coordinates": [-103.8001543088, 40.2499601731]}, "type": "Feature", "properties": {"collection_times": [{"days": "Mon-Sat", "time": "5:30pm"}, {"days": "Sun", "time": "Closed"}], "id": "8070100025", "name": "USPS COLLECTION BOX - PO LOBBY", "address": {"city": "FORT MORGAN", "state": "CO", "street": "300 STATE ST", "postcode": "80701"}}},
{"geometry": {"type": "Point", "coordinates": [-103.2141508737, 40.1598729732]}, "type": "Feature", "properties": {"collection_times": [{"days": "Mon-Fri", "time": "4:45pm"}, {"days": "Sat", "time": "12:15pm"}, {"days": "Sun", "time": "Closed"}], "id": "8072000000", "name": "USPS COLLECTION BOX - BLUE BOX", "address": {"city": "AKRON", "state": "CO", "street": "182 ADAMS AVE", "postcode": "80720"}}},
{"geometry": {"type": "Point", "coordinates": [-103.2113310162, 40.1601899042]}, "type": "Feature", "properties": {"collection_times": [{"days": "Mon-Fri", "time": "2:30pm"}, {"days": "Sat", "time": "12:01pm"}, {"days": "Sun", "time": "Closed"}], "id": "8072000001", "name": "USPS COLLECTION BOX - BLUE BOX", "address": {"city": "AKRON", "state": "CO", "street": "200 ASH AVE", "postcode": "80720"}}},
{"geometry": {"type": "Point", "coordinates": [-103.2141508737, 40.1598729732]}, "type": "Feature", "properties": {"collection_times": [{"days": "Mon-Fri", "time": "4:45pm"}, {"days": "Sat", "time": "12:30pm"}, {"days": "Sun", "time": "Closed"}], "id": "8072000002", "name": "USPS COLLECTION BOX - PO LOBBY", "address": {"city": "AKRON", "state": "CO", "street": "182 ADAMS AVE", "postcode": "80720"}}},
{"geometry": {"type": "Point", "coordinates": [-103.2141508737, 40.1598729732]}, "type": "Feature", "properties": {"collection_times": [{"days": "Mon-Fri", "time": "4:45pm"}, {"days": "Sat", "time": "12:30pm"}, {"days": "Sun", "time": "Closed"}], "id": "8072000003", "name": "USPS COLLECTION BOX - BLUE BOX", "address": {"city": "AKRON", "state": "CO", "street": "182 ADAMS AVE", "postcode": "80720"}}},
{"geometry": {"type": "Point", "coordinates": [-102.1660767666, 40.6826405745]}, "type": "Feature", "properties": {"collection_times": [{"days": "Mon-Fri", "time": "2:45pm"}, {"days": "Sat", "time": "10:00am"}, {"days": "Sun", "time": "Closed"}], "id": "8072100000", "name": "USPS COLLECTION BOX - BLUE BOX", "address": {"city": "AMHERST", "state": "CO", "street": "520 MAIN AVE", "postcode": "80721"}}},
{"geometry": {"type": "Point", "coordinates": [-102.1660767666, 40.6826405745]}, "type": "Feature", "properties": {"collection_times": [{"days": "Mon-Fri", "time": "12:15pm"}, {"days": "Sat", "time": "10:00am"}, {"days": "Sun", "time": "Closed"}], "id": "8072100001", "name": "USPS COLLECTION BOX - PO LOBBY", "address": {"city": "AMHERST", "state": "CO", "street": "520 MAIN AVE", "postcode": "80721"}}},
{"geometry": {"type": "Point", "coordinates": [-103.2725427561, 40.5442904263]}, "type": "Feature", "properties": {"collection_times": [{"days": "Mon-Fri", "time": "11:30am"}, {"days": "Sat", "time": "10:00am"}, {"days": "Sun", "time": "Closed"}], "id": "8072200000", "name": "USPS COLLECTION BOX - PO LOBBY", "address": {"city": "ATWOOD", "state": "CO", "street": "16255 FRONT AVE", "postcode": "80722"}}},
{"geometry": {"type": "Point", "coordinates": [-103.2725427561, 40.5442904263]}, "type": "Feature", "properties": {"collection_times": [{"days": "Mon-Fri", "time": "11:30am"}, {"days": "Sat", "time": "10:00am"}, {"days": "Sun", "time": "Closed"}], "id": "8072200001", "name": "USPS COLLECTION BOX - PO LOBBY", "address": {"city": "ATWOOD", "state": "CO", "street": "16255 FRONT AVE", "postcode": "80722"}}},
{"geometry": {"type": "Point", "coordinates": [-103.2725427561, 40.5442904263]}, "type": "Feature", "properties": {"collection_times": [{"days": "Mon-Fri", "time": "4:00pm"}, {"days": "Sat", "time": "10:00am"}, {"days": "Sun", "time": "Closed"}], "id": "8072200002", "name": "USPS COLLECTION BOX - BLUE BOX", "address": {"city": "ATWOOD", "state": "CO", "street": "16255 FRONT AVE", "postcode": "80722"}}},
{"geometry": {"type": "Point", "coordinates": [-103.6259811692, 40.2544344624]}, "type": "Feature", "properties": {"collection_times": [{"days": "Mon-Fri", "time": "4:40pm"}, {"days": "Sat", "time": "3:00pm"}, {"days": "Sun", "time": "Closed"}], "id": "8072300000", "name": "USPS COLLECTION BOX - BLUE BOX", "address": {"city": "BRUSH", "state": "CO", "street": "115 CARSON ST", "postcode": "80723"}}},
{"geometry": {"type": "Point", "coordinates": [-103.6259811692, 40.2544344624]}, "type": "Feature", "properties": {"collection_times": [{"days": "Mon-Fri", "time": "4:40pm"}, {"days": "Sat", "time": "3:00pm"}, {"days": "Sun", "time": "Closed"}], "id": "8072300001", "name": "USPS COLLECTION BOX - BLUE BOX", "address": {"city": "BRUSH", "state": "CO", "street": "115 CARSON ST", "postcode": "80723"}}},
{"geometry": {"type": "Point", "coordinates": [-103.6259811692, 40.2544344624]}, "type": "Feature", "properties": {"collection_times": [{"days": "Mon-Fri", "time": "4:40pm"}, {"days": "Sat", "time": "3:00pm"}, {"days": "Sun", "time": "Closed"}], "id": "8072300002", "name": "USPS COLLECTION BOX - BLUE BOX", "address": {"city": "BRUSH", "state": "CO", "street": "115 CARSON ST", "postcode": "80723"}}},
{"geometry": {"type": "Point", "coordinates": [-103.6310566669, 40.259553395]}, "type": "Feature", "properties": {"collection_times": [{"days": "Mon-Sat", "time": "10:00am"}, {"days": "Sun", "time": "Closed"}], "id": "8072300003", "name": "USPS COLLECTION BOX - BLUE BOX", "address": {"city": "BRUSH", "state": "CO", "street": "620 RAY ST", "postcode": "80723"}}},
{"geometry": {"type": "Point", "coordinates": [-103.6310518764, 40.2593987296]}, "type": "Feature", "properties": {"collection_times": [{"days": "Mon-Sat", "time": "10:00am"}, {"days": "Sun", "time": "Closed"}], "id": "8072300004", "name": "USPS COLLECTION BOX - BLUE BOX", "address": {"city": "BRUSH", "state": "CO", "street": "604 RAY ST", "postcode": "80723"}}},
{"geometry": {"type": "Point", "coordinates": [-103.6217646103, 40.2707043393]}, "type": "Feature", "properties": {"collection_times": [{"days": "Mon-Sat", "time": "10:00am"}, {"days": "Sun", "time": "Closed"}], "id": "8072300005", "name": "USPS COLLECTION BOX - BLUE BOX", "address": {"city": "BRUSH", "state": "CO", "street": "1156 N COLORADO AVE", "postcode": "80723"}}},
{"geometry": {"type": "Point", "coordinates": [-103.6232340031, 40.2553720532]}, "type": "Feature", "properties": {"collection_times": [{"days": "Mon-Fri", "time": "4:00pm"}, {"days": "Sat", "time": "1:00pm"}, {"days": "Sun", "time": "Closed"}], "id": "8072300006", "name": "USPS COLLECTION BOX - BLUE BOX", "address": {"city": "BRUSH", "state": "CO", "street": "201 CLAYTON ST", "postcode": "80723"}}},
{"geometry": {"type": "Point", "coordinates": [-103.6389293817, 40.2548049872]}, "type": "Feature", "properties": {"collection_times": [{"days": "Mon-Sat", "time": "10:00am"}, {"days": "Sun", "time": "Closed"}], "id": "8072300007", "name": "USPS COLLECTION BOX - BLUE BOX", "address": {"city": "BRUSH", "state": "CO", "street": "1302 EDISON ST", "postcode": "80723"}}},
{"geometry": {"type": "Point", "coordinates": [-103.6259811692, 40.2544344624]}, "type": "Feature", "properties": {"collection_times": [{"days": "Mon-Fri", "time": "4:45pm"}, {"days": "Sat", "time": "3:00pm"}, {"days": "Sun", "time": "Closed"}], "id": "8072300008", "name": "USPS COLLECTION BOX - PO LOBBY", "address": {"city": "BRUSH", "state": "CO", "street": "115 CARSON ST", "postcode": "80723"}}},
{"geometry": {"type": "Point", "coordinates": [-103.6259811692, 40.2544344624]}, "type": "Feature", "properties": {"collection_times": [{"days": "Mon-Fri", "time": "4:45pm"}, {"days": "Sat", "time": "3:00pm"}, {"days": "Sun", "time": "Closed"}], "id": "8072300009", "name": "USPS COLLECTION BOX - PO LOBBY", "address": {"city": "BRUSH", "state": "CO", "street": "115 CARSON ST", "postcode": "80723"}}},
{"geometry": {"type": "Point", "coordinates": [-103.6259811692, 40.2544344624]}, "type": "Feature", "properties": {"collection_times": [{"days": "Mon-Fri", "time": "4:45pm"}, {"days": "Sat", "time": "3:00pm"}, {"days": "Sun", "time": "Closed"}], "id": "8072300010", "name": "USPS COLLECTION BOX - PO LOBBY", "address": {"city": "BRUSH", "state": "CO", "street": "115 CARSON ST", "postcode": "80723"}}},
{"geometry": {"type": "Point", "coordinates": [-103.6259811692, 40.2544344624]}, "type": "Feature", "properties": {"collection_times": [{"days": "Mon-Fri", "time": "4:45pm"}, {"days": "Sat", "time": "3:00pm"}, {"days": "Sun", "time": "Closed"}], "id": "8072300011", "name": "USPS COLLECTION BOX - PO LOBBY", "address": {"city": "BRUSH", "state": "CO", "street": "115 CARSON ST", "postcode": "80723"}}},
{"geometry": {"type": "Point", "coordinates": [-102.8019420217, 40.8577291088]}, "type": "Feature", "properties": {"collection_times": [{"days": "Mon-Fri", "time": "11:45am"}, {"days": "Sat", "time": "10:15am"}, {"days": "Sun", "time": "Closed"}], "id": "8072600000", "name": "USPS COLLECTION BOX - PO LOBBY", "address": {"city": "CROOK", "state": "CO", "street": "323 2ND AVE", "postcode": "80726"}}},
{"geometry": {"type": "Point", "coordinates": [-102.8019420217, 40.8577291088]}, "type": "Feature", "properties": {"collection_times": [{"days": "Mon-Fri", "time": "3:55pm"}, {"days": "Sat", "time": "10:15am"}, {"days": "Sun", "time": "Closed"}], "id": "8072600001", "name": "USPS COLLECTION BOX - BLUE BOX", "address": {"city": "CROOK", "state": "CO", "street": "323 2ND AVE", "postcode": "80726"}}},
{"geometry": {"type": "Point", "coordinates": [-102.4883828636, 40.1148561202]}, "type": "Feature", "properties": {"collection_times": [{"days": "Mon-Fri", "time": "3:00pm"}, {"days": "Sat", "time": "10:15am"}, {"days": "Sun", "time": "Closed"}], "id": "8072700000", "name": "USPS COLLECTION BOX - BLUE BOX", "address": {"city": "ECKLEY", "state": "CO", "street": "115 N MAIN ST", "postcode": "80727"}}},
{"geometry": {"type": "Point", "coordinates": [-102.4883828636, 40.1148561202]}, "type": "Feature", "properties": {"collection_times": [{"days": "Mon-Fri", "time": "11:45am"}, {"days": "Sat", "time": "10:15am"}, {"days": "Sun", "time": "Closed"}], "id": "8072700001", "name": "USPS COLLECTION BOX - PO LOBBY", "address": {"city": "ECKLEY", "state": "CO", "street": "115 N MAIN ST", "postcode": "80727"}}},
{"geometry": {"type": "Point", "coordinates": [-102.8394859254, 40.6815636574]}, "type": "Feature", "properties": {"collection_times": [{"days": "Mon-Fri", "time": "3:00pm"}, {"days": "Sat", "time": "9:45am"}, {"days": "Sun", "time": "Closed"}], "id": "8072800000", "name": "USPS COLLECTION BOX - PO LOBBY", "address": {"city": "FLEMING", "state": "CO", "street": "203 N LOGAN AVE", "postcode": "80728"}}},
{"geometry": {"type": "Point", "coordinates": [-102.8394859254, 40.6815636574]}, "type": "Feature", "properties": {"collection_times": [{"days": "Mon-Fri", "time": "3:00pm"}, {"days": "Sat", "time": "9:45am"}, {"days": "Sun", "time": "Closed"}], "id": "8072800001", "name": "USPS COLLECTION BOX - BLUE BOX", "address": {"city": "FLEMING", "state": "CO", "street": "203 N LOGAN AVE", "postcode": "80728"}}},
{"geometry": {"type": "Point", "coordinates": [-104.2268239583, 40.8675956219]}, "type": "Feature", "properties": {"collection_times": [{"days": "Mon-Fri", "time": "2:55pm"}, {"days": "Sat", "time": "10:00am"}, {"days": "Sun", "time": "Closed"}], "id": "8072900000", "name": "USPS COLLECTION BOX - BLUE BOX", "address": {"city": "GROVER", "state": "CO", "street": "303 CHATOGA ST", "postcode": "80729"}}},
{"geometry": {"type": "Point", "coordinates": [-104.2268239583, 40.8675956219]}, "type": "Feature", "properties": {"collection_times": [{"days": "Mon-Fri", "time": "11:45am"}, {"days": "Sat", "time": "10:00am"}, {"days": "Sun", "time": "Closed"}], "id": "8072900001", "name": "USPS COLLECTION BOX - PO LOBBY", "address": {"city": "GROVER", "state": "CO", "street": "303 CHATOGA ST", "postcode": "80729"}}},
{"geometry": {"type": "Point", "coordinates": [-102.6286221588, 40.6411439003]}, "type": "Feature", "properties": {"collection_times": [{"days": "Mon-Fri", "time": "3:45pm"}, {"days": "Sat", "time": "11:00am"}, {"days": "Sun", "time": "Closed"}], "id": "8073100000", "name": "USPS COLLECTION BOX - BLUE BOX", "address": {"city": "HAXTUN", "state": "CO", "street": "225 S COLORADO AVE", "postcode": "80731"}}},
{"geometry": {"type": "Point", "coordinates": [-102.6286221588, 40.6411439003]}, "type": "Feature", "properties": {"collection_times": [{"days": "Mon-Fri", "time": "3:45pm"}, {"days": "Sat", "time": "11:00am"}, {"days": "Sun", "time": "Closed"}], "id": "8073100001", "name": "USPS COLLECTION BOX - BLUE BOX", "address": {"city": "HAXTUN", "state": "CO", "street": "225 S COLORADO AVE", "postcode": "80731"}}},
{"geometry": {"type": "Point", "coordinates": [-102.6286221588, 40.6411439003]}, "type": "Feature", "properties": {"collection_times": [{"days": "Mon-Fri", "time": "3:45pm"}, {"days": "Sat", "time": "11:00am"}, {"days": "Sun", "time": "Closed"}], "id": "8073100002", "name": "USPS COLLECTION BOX - PO LOBBY", "address": {"city": "HAXTUN", "state": "CO", "street": "225 S COLORADO AVE", "postcode": "80731"}}},
{"geometry": {"type": "Point", "coordinates": [-102.6286221588, 40.6411439003]}, "type": "Feature", "properties": {"collection_times": [{"days": "Mon-Fri", "time": "3:45pm"}, {"days": "Sat", "time": "11:00am"}, {"days": "Sun", "time": "Closed"}], "id": "8073100003", "name": "USPS COLLECTION BOX - PO LOBBY", "address": {"city": "HAXTUN", "state": "CO", "street": "225 S COLORADO AVE", "postcode": "80731"}}},
{"geometry": {"type": "Point", "coordinates": [-102.6286221588, 40.6411439003]}, "type": "Feature", "properties": {"collection_times": [{"days": "Mon-Fri", "time": "3:45pm"}, {"days": "Sat", "time": "11:00am"}, {"days": "Sun", "time": "Closed"}], "id": "8073100004", "name": "USPS COLLECTION BOX - PO LOBBY", "address": {"city": "HAXTUN", "state": "CO", "street": "225 S COLORADO AVE", "postcode": "80731"}}},
{"geometry": {"type": "Point", "coordinates": [-102.6286221588, 40.6411439003]}, "type": "Feature", "properties": {"collection_times": [{"days": "Mon-Fri", "time": "3:45pm"}, {"days": "Sat", "time": "11:00am"}, {"days": "Sun", "time": "Closed"}], "id": "8073100005", "name": "USPS COLLECTION BOX - PO LOBBY", "address": {"city": "HAXTUN", "state": "CO", "street": "225 S COLORADO AVE", "postcode": "80731"}}},
{"geometry": {"type": "Point", "coordinates": [-104.3042665762, 40.975122471]}, "type": "Feature", "properties": {"collection_times": [{"days": "Mon-Sat", "time": "11:35am"}, {"days": "Sun", "time": "Closed"}], "id": "8073200000", "name": "USPS COLLECTION BOX - BLUE BOX", "address": {"city": "HEREFORD", "state": "CO", "street": "39590 HEREFORD ST", "postcode": "80732"}}},
{"geometry": {"type": "Point", "coordinates": [-104.3042665762, 40.975122471]}, "type": "Feature", "properties": {"collection_times": [{"days": "Mon-Sat", "time": "11:35am"}, {"days": "Sun", "time": "Closed"}], "id": "8073200001", "name": "USPS COLLECTION BOX - PO LOBBY", "address": {"city": "HEREFORD", "state": "CO", "street": "39590 HEREFORD ST", "postcode": "80732"}}},
{"geometry": {"type": "Point", "coordinates": [-103.5219346756, 40.3258537833]}, "type": "Feature", "properties": {"collection_times": [{"days": "Mon-Fri", "time": "11:45am"}, {"days": "Sat", "time": "10:45am"}, {"days": "Sun", "time": "Closed"}], "id": "8073300000", "name": "USPS COLLECTION BOX - PO LOBBY", "address": {"city": "HILLROSE", "state": "CO", "street": "315 EMERSON ST", "postcode": "80733"}}},
{"geometry": {"type": "Point", "coordinates": [-102.3021365559, 40.5841191158]}, "type": "Feature", "properties": {"collection_times": [{"days": "Mon-Sat", "time": "3:15pm"}, {"days": "Sun", "time": "Closed"}], "id": "8073400000", "name": "USPS COLLECTION BOX - BLUE BOX", "address": {"city": "HOLYOKE", "state": "CO", "street": "226 S INTEROCEAN AVE", "postcode": "80734"}}},
{"geometry": {"type": "Point", "coordinates": [-102.3021365559, 40.5841191158]}, "type": "Feature", "properties": {"collection_times": [{"days": "Mon-Sat", "time": "3:15pm"}, {"days": "Sun", "time": "Closed"}], "id": "8073400001", "name": "USPS COLLECTION BOX - BLUE BOX", "address": {"city": "HOLYOKE", "state": "CO", "street": "226 S INTEROCEAN AVE", "postcode": "80734"}}},
{"geometry": {"type": "Point", "coordinates": [-102.3021365559, 40.5841191158]}, "type": "Feature", "properties": {"collection_times": [{"days": "Mon-Sat", "time": "3:15pm"}, {"days": "Sun", "time": "Closed"}], "id": "8073400005", "name": "USPS COLLECTION BOX - PO LOBBY", "address": {"city": "HOLYOKE", "state": "CO", "street": "226 S INTEROCEAN AVE", "postcode": "80734"}}},
{"geometry": {"type": "Point", "coordinates": [-102.2942819257, 39.7027625266]}, "type": "Feature", "properties": {"collection_times": [{"days": "Mon-Fri", "time": "2:30pm"}, {"days": "Sat", "time": "11:15am"}, {"days": "Sun", "time": "Closed"}], "id": "8073500000", "name": "USPS COLLECTION BOX - BLUE BOX", "address": {"city": "IDALIA", "state": "CO", "street": "9030 COUNTY ROAD CC.8", "postcode": "80735"}}},
{"geometry": {"type": "Point", "coordinates": [-102.2942819257, 39.7027625266]}, "type": "Feature", "properties": {"collection_times": [{"days": "Mon-Fri", "time": "2:30pm"}, {"days": "Sat", "time": "11:15am"}, {"days": "Sun", "time": "Closed"}], "id": "8073500001", "name": "USPS COLLECTION BOX - PO LOBBY", "address": {"city": "IDALIA", "state": "CO", "street": "9030 COUNTY ROAD CC.8", "postcode": "80735"}}},
{"geometry": {"type": "Point", "coordinates": [-103.0667641246, 40.7572242681]}, "type": "Feature", "properties": {"collection_times": [{"days": "Mon-Fri", "time": "4:00pm"}, {"days": "Sat", "time": "10:00am"}, {"days": "Sun", "time": "Closed"}], "id": "8073600000", "name": "USPS COLLECTION BOX - BLUE BOX", "address": {"city": "ILIFF", "state": "CO", "street": "401 W 3RD AVE", "postcode": "80736"}}},
{"geometry": {"type": "Point", "coordinates": [-103.0667641246, 40.7572242681]}, "type": "Feature", "properties": {"collection_times": [{"days": "Mon-Fri", "time": "12:00pm"}, {"days": "Sat", "time": "11:00am"}, {"days": "Sun", "time": "Closed"}], "id": "8073600001", "name": "USPS COLLECTION BOX - PO LOBBY", "address": {"city": "ILIFF", "state": "CO", "street": "401 W 3RD AVE", "postcode": "80736"}}},
{"geometry": {"type": "Point", "coordinates": [-103.0369967186, 40.8093903219]}, "type": "Feature", "properties": {"collection_times": [{"days": "Mon-Fri", "time": "12:00pm"}, {"days": "Sat", "time": "11:00am"}, {"days": "Sun", "time": "Closed"}], "id": "8073600002", "name": "USPS COLLECTION BOX - PO LOBBY", "address": {"city": "ILIFF", "state": "CO", "street": "401 W 3RD AVE", "postcode": "80736"}}},
{"geometry": {"type": "Point", "coordinates": [-102.2661575622, 40.988924513]}, "type": "Feature", "properties": {"collection_times": [{"days": "Mon-Sat", "time": "2:45pm"}, {"days": "Sun", "time": "Closed"}], "id": "8073700000", "name": "USPS COLLECTION BOX - PO LOBBY", "address": {"city": "JULESBURG", "state": "CO", "street": "319 PINE ST", "postcode": "80737"}}},
{"geometry": {"type": "Point", "coordinates": [-102.2661575622, 40.988924513]}, "type": "Feature", "properties": {"collection_times": [{"days": "Mon-Sat", "time": "2:45pm"}, {"days": "Sun", "time": "Closed"}], "id": "8073700001", "name": "USPS COLLECTION BOX - BLUE BOX", "address": {"city": "JULESBURG", "state": "CO", "street": "319 PINE ST", "postcode": "80737"}}},
{"geometry": {"type": "Point", "coordinates": [-103.381546573, 39.7390777834]}, "type": "Feature", "properties": {"collection_times": [{"days": "Mon-Sat", "time": "10:45am"}, {"days": "Sun", "time": "Closed"}], "id": "8074000000", "name": "USPS COLLECTION BOX - BLUE BOX", "address": {"city": "LINDON", "state": "CO", "street": "16028 HWY 36", "postcode": "80740"}}},
{"geometry": {"type": "Point", "coordinates": [-103.381546573, 39.7390777834]}, "type": "Feature", "properties": {"collection_times": [{"days": "Mon-Sat", "time": "10:45am"}, {"days": "Sun", "time": "Closed"}], "id": "8074000001", "name": "USPS COLLECTION BOX - PO LOBBY", "address": {"city": "LINDON", "state": "CO", "street": "16028 HWY 36", "postcode": "80740"}}},
{"geometry": {"type": "Point", "coordinates": [-103.3524586442, 40.4835222043]}, "type": "Feature", "properties": {"collection_times": [{"days": "Mon-Fri", "time": "4:00pm"}, {"days": "Sat", "time": "10:30am"}, {"days": "Sun", "time": "Closed"}], "id": "8074100000", "name": "USPS COLLECTION BOX - BLUE BOX", "address": {"city": "MERINO", "state": "CO", "street": "202 COLORADO AVE", "postcode": "80741"}}},
{"geometry": {"type": "Point", "coordinates": [-103.3524586442, 40.4835222043]}, "type": "Feature", "properties": {"collection_times": [{"days": "Mon-Fri", "time": "2:00pm"}, {"days": "Sat", "time": "10:30am"}, {"days": "Sun", "time": "Closed"}], "id": "8074100001", "name": "USPS COLLECTION BOX - PO LOBBY", "address": {"city": "MERINO", "state": "CO", "street": "202 COLORADO AVE", "postcode": "80741"}}},
{"geometry": {"type": "Point", "coordinates": [-103.8451904057, 40.6086498083]}, "type": "Feature", "properties": {"collection_times": [{"days": "Mon-Sat", "time": "10:30am"}, {"days": "Sun", "time": "Closed"}], "id": "8074200000", "name": "USPS COLLECTION BOX - PO LOBBY", "address": {"city": "NEW RAYMER", "state": "CO", "street": "236 N CENTER AVE", "postcode": "80742"}}},
{"geometry": {"type": "Point", "coordinates": [-102.9614047178, 40.1492976542]}, "type": "Feature", "properties": {"collection_times": [{"days": "Mon-Fri", "time": "4:00pm"}, {"days": "Sat", "time": "10:30am"}, {"days": "Sun", "time": "Closed"}], "id": "8074300000", "name": "USPS COLLECTION BOX - BLUE BOX", "address": {"city": "OTIS", "state": "CO", "street": "119 N WASHINGTON ST", "postcode": "80743"}}},
{"geometry": {"type": "Point", "coordinates": [-102.9614047178, 40.1492976542]}, "type": "Feature", "properties": {"collection_times": [{"days": "Mon-Fri", "time": "11:45am"}, {"days": "Sat", "time": "10:00am"}, {"days": "Sun", "time": "Closed"}], "id": "8074300001", "name": "USPS COLLECTION BOX - PO LOBBY", "address": {"city": "OTIS", "state": "CO", "street": "119 N WASHINGTON ST", "postcode": "80743"}}},
{"geometry": {"type": "Point", "coordinates": [-102.3878143728, 40.959923842]}, "type": "Feature", "properties": {"collection_times": [{"days": "Mon-Fri", "time": "12:30pm"}, {"days": "Sat", "time": "10:15am"}, {"days": "Sun", "time": "Closed"}], "id": "8074400000", "name": "USPS COLLECTION BOX - PO LOBBY", "address": {"city": "OVID", "state": "CO", "street": "231 MAIN ST", "postcode": "80744"}}},
{"geometry": {"type": "Point", "coordinates": [-102.3878143728, 40.959923842]}, "type": "Feature", "properties": {"collection_times": [{"days": "Mon-Fri", "time": "3:15pm"}, {"days": "Sat", "time": "10:15am"}, {"days": "Sun", "time": "Closed"}], "id": "8074400001", "name": "USPS COLLECTION BOX - BLUE BOX", "address": {"city": "OVID", "state": "CO", "street": "231 MAIN ST", "postcode": "80744"}}},
{"geometry": {"type": "Point", "coordinates": [-102.3878143728, 40.959923842]}, "type": "Feature", "properties": {"collection_times": [{"days": "Mon-Fri", "time": "12:30pm"}, {"days": "Sat", "time": "10:15am"}, {"days": "Sun", "time": "Closed"}], "id": "8074400002", "name": "USPS COLLECTION BOX - PO LOBBY", "address": {"city": "OVID", "state": "CO", "street": "231 MAIN ST", "postcode": "80744"}}},
{"geometry": {"type": "Point", "coordinates": [-103.1717445223, 40.7762374171]}, "type": "Feature", "properties": {"collection_times": [{"days": "Mon-Fri", "time": "10:50am"}, {"days": "Sat", "time": "8:45am"}, {"days": "Sun", "time": "Closed"}], "id": "8074500000", "name": "USPS COLLECTION BOX - PO LOBBY", "address": {"city": "PADRONI", "state": "CO", "street": "23115 RAILROAD AVE", "postcode": "80745"}}},
{"geometry": {"type": "Point", "coordinates": [-103.1136883189, 40.962084564]}, "type": "Feature", "properties": {"collection_times": [{"days": "Mon-Fri", "time": "4:00pm"}, {"days": "Sat", "time": "10:30am"}, {"days": "Sun", "time": "Closed"}], "id": "8074700000", "name": "USPS COLLECTION BOX - BLUE BOX", "address": {"city": "PEETZ", "state": "CO", "street": "602 MAIN ST", "postcode": "80747"}}},
{"geometry": {"type": "Point", "coordinates": [-103.1136883189, 40.962084564]}, "type": "Feature", "properties": {"collection_times": [{"days": "Mon-Fri", "time": "4:00pm"}, {"days": "Sat", "time": "10:30am"}, {"days": "Sun", "time": "Closed"}], "id": "8074700001", "name": "USPS COLLECTION BOX - PO LOBBY", "address": {"city": "PEETZ", "state": "CO", "street": "602 MAIN ST", "postcode": "80747"}}},
{"geometry": {"type": "Point", "coordinates": [-102.5237432937, 40.9345415131]}, "type": "Feature", "properties": {"collection_times": [{"days": "Mon-Fri", "time": "3:30pm"}, {"days": "Sat", "time": "10:30am"}, {"days": "Sun", "time": "Closed"}], "id": "8074900000", "name": "USPS COLLECTION BOX - BLUE BOX", "address": {"city": "SEDGWICK", "state": "CO", "street": "211 MAIN AVE", "postcode": "80749"}}},
{"geometry": {"type": "Point", "coordinates": [-102.5237432937, 40.9345415131]}, "type": "Feature", "properties": {"collection_times": [{"days": "Mon-Fri", "time": "11:45am"}, {"days": "Sat", "time": "10:45am"}, {"days": "Sun", "time": "Closed"}], "id": "8074900001", "name": "USPS COLLECTION BOX - PO LOBBY", "address": {"city": "SEDGWICK", "state": "CO", "street": "211 MAIN AVE", "postcode": "80749"}}},
{"geometry": {"type": "Point", "coordinates": [-103.6174764185, 40.3743335649]}, "type": "Feature", "properties": {"collection_times": [{"days": "Mon-Fri", "time": "3:30pm"}, {"days": "Sat", "time": "10:30am"}, {"days": "Sun", "time": "Closed"}], "id": "8075000000", "name": "USPS COLLECTION BOX - BLUE BOX", "address": {"city": "SNYDER", "state": "CO", "street": "22836 WINCHELL AVE", "postcode": "80750"}}},
{"geometry": {"type": "Point", "coordinates": [-103.5952814679, 40.3331619382]}, "type": "Feature", "properties": {"collection_times": [{"days": "Mon-Fri", "time": "11:45am"}, {"days": "Sat", "time": "10:30am"}, {"days": "Sun", "time": "Closed"}], "id": "8075000001", "name": "USPS COLLECTION BOX - PO LOBBY", "address": {"city": "SNYDER", "state": "CO", "street": "22836 WINCHELL AVE", "postcode": "80750"}}},
{"geometry": {"type": "Point", "coordinates": [-103.2076231023, 40.6251485067]}, "type": "Feature", "properties": {"collection_times": [{"days": "Mon-Fri", "time": "5:30pm"}, {"days": "Sat", "time": "5:00pm"}, {"days": "Sun", "time": "Closed"}], "id": "8075100000", "name": "USPS COLLECTION BOX - BLUE BOX", "address": {"city": "STERLING", "state": "CO", "street": "306 POPLAR ST", "postcode": "80751"}}},
{"geometry": {"type": "Point", "coordinates": [-103.2150131707, 40.6239732741]}, "type": "Feature", "properties": {"collection_times": [{"days": "Mon-Fri", "time": "3:05pm"}, {"days": "Sat", "time": "2:35pm"}, {"days": "Sun", "time": "Closed"}], "id": "8075100001", "name": "USPS COLLECTION BOX - BLUE BOX", "address": {"city": "STERLING", "state": "CO", "street": "217 S 3RD AVE", "postcode": "80751"}}},
{"geometry": {"type": "Point", "coordinates": [-103.23648932, 40.6251040521]}, "type": "Feature", "properties": {"collection_times": [{"days": "Mon-Fri", "time": "3:05pm"}, {"days": "Sat", "time": "2:55pm"}, {"days": "Sun", "time": "Closed"}], "id": "8075100002", "name": "USPS COLLECTION BOX - BLUE BOX", "address": {"city": "STERLING", "state": "CO", "street": "1510 W MAIN ST", "postcode": "80751"}}},
{"geometry": {"type": "Point", "coordinates": [-103.1974802089, 40.6368544876]}, "type": "Feature", "properties": {"collection_times": [{"days": "Mon-Sat", "time": "3:00pm"}, {"days": "Sun", "time": "Closed"}], "id": "8075100003", "name": "USPS COLLECTION BOX - BLUE BOX", "address": {"city": "STERLING", "state": "CO", "street": "100 COLLEGE AVE", "postcode": "80751"}}},
{"geometry": {"type": "Point", "coordinates": [-103.2169584866, 40.6254793144]}, "type": "Feature", "properties": {"collection_times": [{"days": "Mon-Fri", "time": "3:05pm"}, {"days": "Sat", "time": "2:35pm"}, {"days": "Sun", "time": "Closed"}], "id": "8075100004", "name": "USPS COLLECTION BOX - BLUE BOX", "address": {"city": "STERLING", "state": "CO", "street": "410 W MAIN ST", "postcode": "80751"}}},
{"geometry": {"type": "Point", "coordinates": [-103.208720823, 40.6238636943]}, "type": "Feature", "properties": {"collection_times": [{"days": "Mon-Fri", "time": "3:00pm"}, {"days": "Sat", "time": "2:30pm"}, {"days": "Sun", "time": "Closed"}], "id": "8075100005", "name": "USPS COLLECTION BOX - BLUE BOX", "address": {"city": "STERLING", "state": "CO", "street": "315 MAIN ST", "postcode": "80751"}}},
{"geometry": {"type": "Point", "coordinates": [-103.2320789326, 40.6249949761]}, "type": "Feature", "properties": {"collection_times": [{"days": "Mon-Fri", "time": "3:10pm"}, {"days": "Sat", "time": "2:55pm"}, {"days": "Sun", "time": "Closed"}], "id": "8075100007", "name": "USPS COLLECTION BOX - BLUE BOX", "address": {"city": "STERLING", "state": "CO", "street": "1303 W MAIN ST", "postcode": "80751"}}},
{"geometry": {"type": "Point", "coordinates": [-103.3766918546, 40.6996447461]}, "type": "Feature", "properties": {"collection_times": [{"days": "Mon-Sat", "time": "12:00pm"}, {"days": "Sun", "time": "Closed"}], "id": "8075100008", "name": "USPS COLLECTION BOX - BLUE BOX", "address": {"city": "STERLING", "state": "CO", "street": "102 N RIVERVIEW RD", "postcode": "80751"}}},
{"geometry": {"type": "Point", "coordinates": [-103.208720823, 40.6238636943]}, "type": "Feature", "properties": {"collection_times": [{"days": "Mon-Fri", "time": "3:00pm"}, {"days": "Sat", "time": "2:30pm"}, {"days": "Sun", "time": "Closed"}], "id": "8075100010", "name": "USPS COLLECTION BOX - BLUE BOX", "address": {"city": "STERLING", "state": "CO", "street": "315 MAIN ST", "postcode": "80751"}}},
{"geometry": {"type": "Point", "coordinates": [-103.2076231023, 40.6251485067]}, "type": "Feature", "properties": {"collection_times": [{"days": "Mon-Fri", "time": "5:30pm"}, {"days": "Sat", "time": "5:00pm"}, {"days": "Sun", "time": "Closed"}], "id": "8075100011", "name": "USPS COLLECTION BOX - BLUE BOX", "address": {"city": "STERLING", "state": "CO", "street": "306 POPLAR ST", "postcode": "80751"}}},
{"geometry": {"type": "Point", "coordinates": [-103.2076231023, 40.6251485067]}, "type": "Feature", "properties": {"collection_times": [{"days": "Mon-Fri", "time": "5:30pm"}, {"days": "Sat", "time": "5:00pm"}, {"days": "Sun", "time": "Closed"}], "id": "8075100012", "name": "USPS COLLECTION BOX - BLUE BOX", "address": {"city": "STERLING", "state": "CO", "street": "306 POPLAR ST", "postcode": "80751"}}},
{"geometry": {"type": "Point", "coordinates": [-103.2202386356, 40.6296200181]}, "type": "Feature", "properties": {"collection_times": [{"days": "Mon-Sat", "time": "5:00pm"}, {"days": "Sun", "time": "Closed"}], "id": "8075100013", "name": "USPS COLLECTION BOX - EXPRESS", "address": {"city": "STERLING", "state": "CO", "street": "306 POPLAR ST", "postcode": "80751"}}},
{"geometry": {"type": "Point", "coordinates": [-103.2076231023, 40.6251485067]}, "type": "Feature", "properties": {"collection_times": [{"days": "Mon-Fri", "time": "5:30pm"}, {"days": "Sat", "time": "5:00pm"}, {"days": "Sun", "time": "Closed"}], "id": "8075100014", "name": "USPS COLLECTION BOX - PO LOBBY", "address": {"city": "STERLING", "state": "CO", "street": "306 POPLAR ST", "postcode": "80751"}}},
{"geometry": {"type": "Point", "coordinates": [-103.2076231023, 40.6251485067]}, "type": "Feature", "properties": {"collection_times": [{"days": "Mon-Fri", "time": "5:30pm"}, {"days": "Sat", "time": "5:00pm"}, {"days": "Sun", "time": "Closed"}], "id": "8075100015", "name": "USPS COLLECTION BOX - PO LOBBY", "address": {"city": "STERLING", "state": "CO", "street": "306 POPLAR ST", "postcode": "80751"}}},
{"geometry": {"type": "Point", "coordinates": [-103.2076231023, 40.6251485067]}, "type": "Feature", "properties": {"collection_times": [{"days": "Mon-Fri", "time": "5:30pm"}, {"days": "Sat", "time": "5:00pm"}, {"days": "Sun", "time": "Closed"}], "id": "8075100016", "name": "USPS COLLECTION BOX - PO LOBBY", "address": {"city": "STERLING", "state": "CO", "street": "306 POPLAR ST", "postcode": "80751"}}},
{"geometry": {"type": "Point", "coordinates": [-103.2076231023, 40.6251485067]}, "type": "Feature", "properties": {"collection_times": [{"days": "Mon-Fri", "time": "5:30pm"}, {"days": "Sat", "time": "5:00pm"}, {"days": "Sun", "time": "Closed"}], "id": "8075100017", "name": "USPS COLLECTION BOX - BLUE BOX", "address": {"city": "STERLING", "state": "CO", "street": "306 POPLAR ST", "postcode": "80751"}}},
{"geometry": {"type": "Point", "coordinates": [-103.2202386356, 40.6296200181]}, "type": "Feature", "properties": {"collection_times": [{"days": "Mon-Fri", "time": "3:05pm"}, {"days": "Sat", "time": "2:50pm"}, {"days": "Sun", "time": "Closed"}], "id": "8075100018", "name": "USPS COLLECTION BOX - EXPRESS", "address": {"city": "STERLING", "state": "CO", "street": "1510 W MAIN ST", "postcode": "80751"}}},
{"geometry": {"type": "Point", "coordinates": [-103.2200601157, 40.6136440511]}, "type": "Feature", "properties": {"collection_times": [{"days": "Mon-Fri", "time": "3:15pm"}, {"days": "Sat", "time": "2:45pm"}, {"days": "Sun", "time": "Closed"}], "id": "8075100019", "name": "USPS COLLECTION BOX - BLUE BOX", "address": {"city": "STERLING", "state": "CO", "street": "615 FAIRHURST ST", "postcode": "80751"}}},
{"geometry": {"type": "Point", "coordinates": [-103.2055027904, 40.6276420498]}, "type": "Feature", "properties": {"collection_times": [{"days": "Mon-Sat", "time": "3:00pm"}, {"days": "Sun", "time": "Closed"}], "id": "8075100024", "name": "USPS COLLECTION BOX - BLUE BOX", "address": {"city": "STERLING", "state": "CO", "street": "419 N 3RD ST", "postcode": "80751"}}},
{"geometry": {"type": "Point", "coordinates": [-103.6657008266, 40.6043747092]}, "type": "Feature", "properties": {"collection_times": [{"days": "Mon-Fri", "time": "11:00am"}, {"days": "Sat", "time": "11:45am"}, {"days": "Sun", "time": "Closed"}], "id": "8075400000", "name": "USPS COLLECTION BOX - BLUE BOX", "address": {"city": "STONEHAM", "state": "CO", "street": "41621 MARBLE AVE", "postcode": "80754"}}},
{"geometry": {"type": "Point", "coordinates": [-103.6657008266, 40.6043747092]}, "type": "Feature", "properties": {"collection_times": [{"days": "Mon-Fri", "time": "11:30am"}, {"days": "Sat", "time": "11:00am"}, {"days": "Sun", "time": "Closed"}], "id": "8075400001", "name": "USPS COLLECTION BOX - PO LOBBY", "address": {"city": "STONEHAM", "state": "CO", "street": "41621 MARBLE AVE", "postcode": "80754"}}},
{"geometry": {"type": "Point", "coordinates": [-102.3152605324, 39.9471185122]}, "type": "Feature", "properties": {"collection_times": [{"days": "Mon-Fri", "time": "11:45am"}, {"days": "Sat", "time": "10:45am"}, {"days": "Sun", "time": "Closed"}], "id": "8075500000", "name": "USPS COLLECTION BOX - PO LOBBY", "address": {"city": "VERNON", "state": "CO", "street": "26101 WASHINGTON ST", "postcode": "80755"}}},
{"geometry": {"type": "Point", "coordinates": [-102.3152605324, 39.9471185122]}, "type": "Feature", "properties": {"collection_times": [{"days": "Mon-Fri", "time": "2:45pm"}, {"days": "Sat", "time": "1:00pm"}, {"days": "Sun", "time": "Closed"}], "id": "8075500001", "name": "USPS COLLECTION BOX - BLUE BOX", "address": {"city": "VERNON", "state": "CO", "street": "26101 WASHINGTON ST", "postcode": "80755"}}},
{"geometry": {"type": "Point", "coordinates": [-103.5916828538, 39.9847287652]}, "type": "Feature", "properties": {"collection_times": [{"days": "Mon-Sat", "time": "12:00pm"}, {"days": "Sun", "time": "Closed"}], "id": "8075700000", "name": "USPS COLLECTION BOX - BLUE BOX", "address": {"city": "WOODROW", "state": "CO", "street": "28999 HIGHWAY 71", "postcode": "80757"}}},
{"geometry": {"type": "Point", "coordinates": [-103.5916828538, 39.9847287652]}, "type": "Feature", "properties": {"collection_times": [{"days": "Mon-Fri", "time": "2:30pm"}, {"days": "Sat", "time": "12:00pm"}, {"days": "Sun", "time": "Closed"}], "id": "8075700001", "name": "USPS COLLECTION BOX - PO LOBBY", "address": {"city": "WOODROW", "state": "CO", "street": "28999 HIGHWAY 71", "postcode": "80757"}}},
{"geometry": {"type": "Point", "coordinates": [-103.5957769036, 39.81371141]}, "type": "Feature", "properties": {"collection_times": [{"days": "Mon-Sat", "time": "11:30am"}, {"days": "Sun", "time": "Closed"}], "id": "8075700002", "name": "USPS COLLECTION BOX - BLUE BOX", "address": {"city": "WOODROW", "state": "CO", "street": "1 NE HWY 71 AND HWY 36", "postcode": "80757"}}},
{"geometry": {"type": "Point", "coordinates": [-102.2262666668, 40.0753058838]}, "type": "Feature", "properties": {"collection_times": [{"days": "Mon-Sat", "time": "3:30pm"}, {"days": "Sun", "time": "Closed"}], "id": "8075800000", "name": "USPS COLLECTION BOX - BLUE BOX", "address": {"city": "WRAY", "state": "CO", "street": "407 W 7TH ST", "postcode": "80758"}}},
{"geometry": {"type": "Point", "coordinates": [-102.2273190431, 40.0800136541]}, "type": "Feature", "properties": {"collection_times": [{"days": "Mon-Sat", "time": "12:00pm"}, {"days": "Sun", "time": "Closed"}], "id": "8075800001", "name": "USPS COLLECTION BOX - BLUE BOX", "address": {"city": "WRAY", "state": "CO", "street": "333 W 2ND ST", "postcode": "80758"}}},
{"geometry": {"type": "Point", "coordinates": [-102.2206600922, 40.0788575154]}, "type": "Feature", "properties": {"collection_times": [{"days": "Mon-Sat", "time": "3:00pm"}, {"days": "Sun", "time": "Closed"}], "id": "8075800002", "name": "USPS COLLECTION BOX - BLUE BOX", "address": {"city": "WRAY", "state": "CO", "street": "310 ASH ST", "postcode": "80758"}}},
{"geometry": {"type": "Point", "coordinates": [-102.222168651, 40.0795646078]}, "type": "Feature", "properties": {"collection_times": [{"days": "Mon-Sat", "time": "3:00pm"}, {"days": "Sun", "time": "Closed"}], "id": "8075800003", "name": "USPS COLLECTION BOX - BLUE BOX", "address": {"city": "WRAY", "state": "CO", "street": "317 MAIN ST", "postcode": "80758"}}},
{"geometry": {"type": "Point", "coordinates": [-102.2282010954, 40.0804376477]}, "type": "Feature", "properties": {"collection_times": [{"days": "Mon-Sat", "time": "2:00pm"}, {"days": "Sun", "time": "Closed"}], "id": "8075800004", "name": "USPS COLLECTION BOX - BLUE BOX", "address": {"city": "WRAY", "state": "CO", "street": "233 N DEXTER ST", "postcode": "80758"}}},
{"geometry": {"type": "Point", "coordinates": [-102.2262666668, 40.0753058838]}, "type": "Feature", "properties": {"collection_times": [{"days": "Mon-Sat", "time": "3:30pm"}, {"days": "Sun", "time": "Closed"}], "id": "8075800005", "name": "USPS COLLECTION BOX - PO LOBBY", "address": {"city": "WRAY", "state": "CO", "street": "407 W 7TH ST", "postcode": "80758"}}},
{"geometry": {"type": "Point", "coordinates": [-102.7238714641, 40.1227648524]}, "type": "Feature", "properties": {"collection_times": [{"days": "Mon-Fri", "time": "4:00pm"}, {"days": "Sat", "time": "2:00pm"}, {"days": "Sun", "time": "Closed"}], "id": "8075900000", "name": "USPS COLLECTION BOX - BLUE BOX", "address": {"city": "YUMA", "state": "CO", "street": "315 S MAIN ST", "postcode": "80759"}}},
{"geometry": {"type": "Point", "coordinates": [-102.7238714641, 40.1227648524]}, "type": "Feature", "properties": {"collection_times": [{"days": "Mon-Fri", "time": "4:00pm"}, {"days": "Sat", "time": "2:00pm"}, {"days": "Sun", "time": "Closed"}], "id": "8075900002", "name": "USPS COLLECTION BOX - BLUE BOX", "address": {"city": "YUMA", "state": "CO", "street": "315 S MAIN ST", "postcode": "80759"}}},
{"geometry": {"type": "Point", "coordinates": [-102.7238714641, 40.1227648524]}, "type": "Feature", "properties": {"collection_times": [{"days": "Mon-Fri", "time": "4:00pm"}, {"days": "Sat", "time": "2:00pm"}, {"days": "Sun", "time": "Closed"}], "id": "8075900003", "name": "USPS COLLECTION BOX - BLUE BOX", "address": {"city": "YUMA", "state": "CO", "street": "315 S MAIN ST", "postcode": "80759"}}},
{"geometry": {"type": "Point", "coordinates": [-102.7238714641, 40.1227648524]}, "type": "Feature", "properties": {"collection_times": [{"days": "Mon-Fri", "time": "4:00pm"}, {"days": "Sat", "time": "2:00pm"}, {"days": "Sun", "time": "Closed"}], "id": "8075900004", "name": "USPS COLLECTION BOX - PO LOBBY", "address": {"city": "YUMA", "state": "CO", "street": "315 S MAIN ST", "postcode": "80759"}}},
{"geometry": {"type": "Point", "coordinates": [-102.7238714641, 40.1227648524]}, "type": "Feature", "properties": {"collection_times": [{"days": "Mon-Fri", "time": "4:00pm"}, {"days": "Sat", "time": "2:00pm"}, {"days": "Sun", "time": "Closed"}], "id": "8075900006", "name": "USPS COLLECTION BOX - PO LOBBY", "address": {"city": "YUMA", "state": "CO", "street": "315 S MAIN ST", "postcode": "80759"}}},
{"geometry": {"type": "Point", "coordinates": [-102.7238714641, 40.1227648524]}, "type": "Feature", "properties": {"collection_times": [{"days": "Mon-Fri", "time": "4:00pm"}, {"days": "Sat", "time": "2:00pm"}, {"days": "Sun", "time": "Closed"}], "id": "8075900007", "name": "USPS COLLECTION BOX - PO LOBBY", "address": {"city": "YUMA", "state": "CO", "street": "315 S MAIN ST", "postcode": "80759"}}}
]}
