{"type": "FeatureCollection", "features": [
{"geometry": {"type": "Point", "coordinates": [-103.2185203729, 39.7409867943]}, "type": "Feature", "properties": {"collection_times": [{"days": "Mon-Fri", "time": "12:00pm"}, {"days": "Sat", "time": "10:30am"}, {"days": "Sun", "time": "Closed"}], "id": "8080100000", "name": "USPS COLLECTION BOX - BLUE BOX", "address": {"city": "ANTON", "state": "CO", "street": "25940 US HIGHWAY 36", "postcode": "80801"}}},
{"geometry": {"type": "Point", "coordinates": [-103.2185203729, 39.7409867943]}, "type": "Feature", "properties": {"collection_times": [{"days": "Mon-Fri", "time": "12:00pm"}, {"days": "Sat", "time": "10:30am"}, {"days": "Sun", "time": "Closed"}], "id": "8080100001", "name": "USPS COLLECTION BOX - PO LOBBY", "address": {"city": "ANTON", "state": "CO", "street": "25940 US HIGHWAY 36", "postcode": "80801"}}},
{"geometry": {"type": "Point", "coordinates": [-102.1777977939, 38.851803576]}, "type": "Feature", "properties": {"collection_times": [{"days": "Mon-Fri", "time": "3:00pm"}, {"days": "Sat", "time": "11:15am"}, {"days": "Sun", "time": "Closed"}], "id": "8080200000", "name": "USPS COLLECTION BOX - BLUE BOX", "address": {"city": "ARAPAHOE", "state": "CO", "street": "16665 MICHIGAN AVE", "postcode": "80802"}}},
{"geometry": {"type": "Point", "coordinates": [-102.1777977939, 38.851803576]}, "type": "Feature", "properties": {"collection_times": [{"days": "Mon-Fri", "time": "12:00pm"}, {"days": "Sat", "time": "11:15am"}, {"days": "Sun", "time": "Closed"}], "id": "8080200001", "name": "USPS COLLECTION BOX - PO LOBBY", "address": {"city": "ARAPAHOE", "state": "CO", "street": "16665 MICHIGAN AVE", "postcode": "80802"}}},
{"geometry": {"type": "Point", "coordinates": [-103.2745134351, 39.2855692133]}, "type": "Feature", "properties": {"collection_times": [{"days": "Mon-Fri", "time": "3:30pm"}, {"days": "Sat", "time": "10:30am"}, {"days": "Sun", "time": "Closed"}], "id": "8080400000", "name": "USPS COLLECTION BOX - BLUE BOX", "address": {"city": "ARRIBA", "state": "CO", "street": "520 COLORADO AVE", "postcode": "80804"}}},
{"geometry": {"type": "Point", "coordinates": [-103.2745134351, 39.2855692133]}, "type": "Feature", "properties": {"collection_times": [{"days": "Mon-Fri", "time": "11:45am"}, {"days": "Sat", "time": "10:40am"}, {"days": "Sun", "time": "Closed"}], "id": "8080400001", "name": "USPS COLLECTION BOX - PO LOBBY", "address": {"city": "ARRIBA", "state": "CO", "street": "520 COLORADO AVE", "postcode": "80804"}}},
{"geometry": {"type": "Point", "coordinates": [-102.426308852, 39.3037677332]}, "type": "Feature", "properties": {"collection_times": [{"days": "Mon-Fri", "time": "12:00pm"}, {"days": "Sat", "time": "10:15am"}, {"days": "Sun", "time": "Closed"}], "id": "8080500000", "name": "USPS COLLECTION BOX - PO LOBBY", "address": {"city": "BETHUNE", "state": "CO", "street": "135 E 1ST AVE", "postcode": "80805"}}},
{"geometry": {"type": "Point", "coordinates": [-102.2680696585, 39.3029611269]}, "type": "Feature", "properties": {"collection_times": [{"days": "Mon-Fri", "time": "5:00pm"}, {"days": "Sat", "time": "3:00pm"}, {"days": "Sun", "time": "Closed"}], "id": "8080700000", "name": "USPS COLLECTION BOX - BLUE BOX", "address": {"city": "BURLINGTON", "state": "CO", "street": "259 14TH ST", "postcode": "80807"}}},
{"geometry": {"type": "Point", "coordinates": [-102.2680696585, 39.3029611269]}, "type": "Feature", "properties": {"collection_times": [{"days": "Mon-Fri", "time": "5:00pm"}, {"days": "Sat", "time": "3:00pm"}, {"days": "Sun", "time": "Closed"}], "id": "8080700001", "name": "USPS COLLECTION BOX - BLUE BOX", "address": {"city": "BURLINGTON", "state": "CO", "street": "259 14TH ST", "postcode": "80807"}}},
{"geometry": {"type": "Point", "coordinates": [-102.2788161344, 39.2976017935]}, "type": "Feature", "properties": {"collection_times": [{"days": "Mon-Sat", "time": "9:30am"}, {"days": "Sun", "time": "Closed"}], "id": "8080700005", "name": "USPS COLLECTION BOX - BLUE BOX", "address": {"city": "BURLINGTON", "state": "CO", "street": "415 S LINCOLN ST", "postcode": "80807"}}},
{"geometry": {"type": "Point", "coordinates": [-102.2680696585, 39.3029611269]}, "type": "Feature", "properties": {"collection_times": [{"days": "Mon-Sat", "time": "3:00pm"}, {"days": "Sun", "time": "Closed"}], "id": "8080700006", "name": "USPS COLLECTION BOX - PO LOBBY", "address": {"city": "BURLINGTON", "state": "CO", "street": "259 14TH ST", "postcode": "80807"}}},
{"geometry": {"type": "Point", "coordinates": [-102.2680696585, 39.3029611269]}, "type": "Feature", "properties": {"collection_times": [{"days": "Mon-Sat", "time": "3:00pm"}, {"days": "Sun", "time": "Closed"}], "id": "8080700007", "name": "USPS COLLECTION BOX - PO LOBBY", "address": {"city": "BURLINGTON", "state": "CO", "street": "259 14TH ST", "postcode": "80807"}}},
{"geometry": {"type": "Point", "coordinates": [-102.2601792554, 39.3092336767]}, "type": "Feature", "properties": {"collection_times": [{"days": "Mon-Sat", "time": "9:30am"}, {"days": "Sun", "time": "Closed"}], "id": "8080700009", "name": "USPS COLLECTION BOX - BLUE BOX", "address": {"city": "BURLINGTON", "state": "CO", "street": "48265 INTERSTATE 70", "postcode": "80807"}}},
{"geometry": {"type": "Point", "coordinates": [-104.3054544986, 39.034925306]}, "type": "Feature", "properties": {"collection_times": [{"days": "Mon-Fri", "time": "4:00pm"}, {"days": "Sat", "time": "11:45am"}, {"days": "Sun", "time": "Closed"}], "id": "8080800000", "name": "USPS COLLECTION BOX - BLUE BOX", "address": {"city": "CALHAN", "state": "CO", "street": "655 CASCADE ST", "postcode": "80808"}}},
{"geometry": {"type": "Point", "coordinates": [-104.3214976596, 38.9543423175]}, "type": "Feature", "properties": {"collection_times": [{"days": "Mon-Sat", "time": "12:00pm"}, {"days": "Sun", "time": "Closed"}], "id": "8080800001", "name": "USPS COLLECTION BOX - BLUE BOX", "address": {"city": "CALHAN", "state": "CO", "street": "23355 STATE HIGHWAY 94", "postcode": "80808"}}},
{"geometry": {"type": "Point", "coordinates": [-104.3054544986, 39.034925306]}, "type": "Feature", "properties": {"collection_times": [{"days": "Mon-Fri", "time": "4:00pm"}, {"days": "Sat", "time": "11:45am"}, {"days": "Sun", "time": "Closed"}], "id": "8080800002", "name": "USPS COLLECTION BOX - PO LOBBY", "address": {"city": "CALHAN", "state": "CO", "street": "655 CASCADE ST", "postcode": "80808"}}},
{"geometry": {"type": "Point", "coordinates": [-104.3054544986, 39.034925306]}, "type": "Feature", "properties": {"collection_times": [{"days": "Mon-Fri", "time": "4:00pm"}, {"days": "Sat", "time": "11:45am"}, {"days": "Sun", "time": "Closed"}], "id": "8080800003", "name": "USPS COLLECTION BOX - PO LOBBY", "address": {"city": "CALHAN", "state": "CO", "street": "655 CASCADE ST", "postcode": "80808"}}},
{"geometry": {"type": "Point", "coordinates": [-104.9695783082, 38.8950143833]}, "type": "Feature", "properties": {"collection_times": [{"days": "Mon-Fri", "time": "4:00pm"}, {"days": "Sat", "time": "12:15pm"}, {"days": "Sun", "time": "Closed"}], "id": "8080900000", "name": "USPS COLLECTION BOX - PO LOBBY", "address": {"city": "CASCADE", "state": "CO", "street": "8006 UTE PASS AVE", "postcode": "80809"}}},
{"geometry": {"type": "Point", "coordinates": [-104.9695783082, 38.8950143833]}, "type": "Feature", "properties": {"collection_times": [{"days": "Mon-Fri", "time": "4:00pm"}, {"days": "Sat", "time": "12:15pm"}, {"days": "Sun", "time": "Closed"}], "id": "8080900001", "name": "USPS COLLECTION BOX - BLUE BOX", "address": {"city": "CASCADE", "state": "CO", "street": "8006 UTE PASS AVE", "postcode": "80809"}}},
{"geometry": {"type": "Point", "coordinates": [-104.9883809358, 38.9176168356]}, "type": "Feature", "properties": {"collection_times": [{"days": "Mon-Fri", "time": "1:00pm"}, {"days": "Sat", "time": "12:15pm"}, {"days": "Sun", "time": "Closed"}], "id": "8080900002", "name": "USPS COLLECTION BOX - BLUE BOX", "address": {"city": "CASCADE", "state": "CO", "street": "9075 CHIPITA PARK RD", "postcode": "80809"}}},
{"geometry": {"type": "Point", "coordinates": [-102.348548666, 38.8214327985]}, "type": "Feature", "properties": {"collection_times": [{"days": "Mon-Fri", "time": "3:30pm"}, {"days": "Sat", "time": "11:45am"}, {"days": "Sun", "time": "Closed"}], "id": "8081000001", "name": "USPS COLLECTION BOX - PO LOBBY", "address": {"city": "CHEYENNE WELLS", "state": "CO", "street": "90 E 1ST ST", "postcode": "80810"}}},
{"geometry": {"type": "Point", "coordinates": [-102.8250796564, 39.6548920595]}, "type": "Feature", "properties": {"collection_times": [{"days": "Mon-Fri", "time": "2:30pm"}, {"days": "Sat", "time": "11:30am"}, {"days": "Sun", "time": "Closed"}], "id": "8081200000", "name": "USPS COLLECTION BOX - BLUE BOX", "address": {"city": "COPE", "state": "CO", "street": "45537 MAIN ST", "postcode": "80812"}}},
{"geometry": {"type": "Point", "coordinates": [-102.8250796564, 39.6548920595]}, "type": "Feature", "properties": {"collection_times": [{"days": "Mon-Fri", "time": "2:30pm"}, {"days": "Sat", "time": "11:30am"}, {"days": "Sun", "time": "Closed"}], "id": "8081200001", "name": "USPS COLLECTION BOX - PO LOBBY", "address": {"city": "COPE", "state": "CO", "street": "45537 MAIN ST", "postcode": "80812"}}},
{"geometry": {"type": "Point", "coordinates": [-105.1845985203, 38.7473774343]}, "type": "Feature", "properties": {"collection_times": [{"days": "Mon-Fri", "time": "3:45pm"}, {"days": "Sat", "time": "11:45am"}, {"days": "Sun", "time": "Closed"}], "id": "8081300000", "name": "USPS COLLECTION BOX - BLUE BOX", "address": {"city": "CRIPPLE CREEK", "state": "CO", "street": "319 W CARR ST", "postcode": "80813"}}},
{"geometry": {"type": "Point", "coordinates": [-105.1972291731, 38.798343585]}, "type": "Feature", "properties": {"collection_times": [{"days": "Mon-Fri", "time": "3:45pm"}, {"days": "Sat", "time": "11:45am"}, {"days": "Sun", "time": "Closed"}], "id": "8081300001", "name": "USPS COLLECTION BOX - EXPRESS", "address": {"city": "CRIPPLE CREEK", "state": "CO", "street": "319 W CARR ST", "postcode": "80813"}}},
{"geometry": {"type": "Point", "coordinates": [-105.1793171982, 38.7466097097]}, "type": "Feature", "properties": {"collection_times": [{"days": "Mon-Sat", "time": "11:45am"}, {"days": "Sun", "time": "Closed"}], "id": "8081300002", "name": "USPS COLLECTION BOX - BLUE BOX", "address": {"city": "CRIPPLE CREEK", "state": "CO", "street": "153 E BENNETT AVE", "postcode": "80813"}}},
{"geometry": {"type": "Point", "coordinates": [-105.2020074985, 38.7924030729]}, "type": "Feature", "properties": {"collection_times": [{"days": "Mon-Sat", "time": "11:45am"}, {"days": "Sun", "time": "Closed"}], "id": "8081300003", "name": "USPS COLLECTION BOX - BLUE BOX", "address": {"city": "CRIPPLE CREEK", "state": "CO", "street": "411 BENNETT DR", "postcode": "80813"}}},
{"geometry": {"type": "Point", "coordinates": [-105.1845985203, 38.7473774343]}, "type": "Feature", "properties": {"collection_times": [{"days": "Mon-Fri", "time": "3:45pm"}, {"days": "Sat", "time": "11:45am"}, {"days": "Sun", "time": "Closed"}], "id": "8081300004", "name": "USPS COLLECTION BOX - PO LOBBY", "address": {"city": "CRIPPLE CREEK", "state": "CO", "street": "319 W CARR ST", "postcode": "80813"}}},
{"geometry": {"type": "Point", "coordinates": [-105.1845985203, 38.7473774343]}, "type": "Feature", "properties": {"collection_times": [{"days": "Mon-Fri", "time": "3:45pm"}, {"days": "Sat", "time": "11:45am"}, {"days": "Sun", "time": "Closed"}], "id": "8081300005", "name": "USPS COLLECTION BOX - PO LOBBY", "address": {"city": "CRIPPLE CREEK", "state": "CO", "street": "319 W CARR ST", "postcode": "80813"}}},
{"geometry": {"type": "Point", "coordinates": [-105.1544140478, 38.9424612028]}, "type": "Feature", "properties": {"collection_times": [{"days": "Mon-Fri", "time": "5:00pm"}, {"days": "Sat", "time": "11:45am"}, {"days": "Sun", "time": "Closed"}], "id": "8081400000", "name": "USPS COLLECTION BOX - BLUE BOX", "address": {"city": "DIVIDE", "state": "CO", "street": "66 HYBROOK RD S", "postcode": "80814"}}},
{"geometry": {"type": "Point", "coordinates": [-105.1544140478, 38.9424612028]}, "type": "Feature", "properties": {"collection_times": [{"days": "Mon-Fri", "time": "5:00pm"}, {"days": "Sat", "time": "11:45am"}, {"days": "Sun", "time": "Closed"}], "id": "8081400002", "name": "USPS COLLECTION BOX - PO LOBBY", "address": {"city": "DIVIDE", "state": "CO", "street": "66 HYBROOK RD S", "postcode": "80814"}}},
{"geometry": {"type": "Point", "coordinates": [-105.1544140478, 38.9424612028]}, "type": "Feature", "properties": {"collection_times": [{"days": "Mon-Fri", "time": "5:00pm"}, {"days": "Sat", "time": "11:45am"}, {"days": "Sun", "time": "Closed"}], "id": "8081400003", "name": "USPS COLLECTION BOX - BLUE BOX", "address": {"city": "DIVIDE", "state": "CO", "street": "66 HYBROOK RD S", "postcode": "80814"}}},
{"geometry": {"type": "Point", "coordinates": [-103.067624741, 39.2913946528]}, "type": "Feature", "properties": {"collection_times": [{"days": "Mon-Fri", "time": "4:00pm"}, {"days": "Sat", "time": "11:00am"}, {"days": "Sun", "time": "Closed"}], "id": "8081500000", "name": "USPS COLLECTION BOX - BLUE BOX", "address": {"city": "FLAGLER", "state": "CO", "street": "315 MAIN AVE", "postcode": "80815"}}},
{"geometry": {"type": "Point", "coordinates": [-103.067624741, 39.2913946528]}, "type": "Feature", "properties": {"collection_times": [{"days": "Mon-Fri", "time": "4:00pm"}, {"days": "Sat", "time": "11:00am"}, {"days": "Sun", "time": "Closed"}], "id": "8081500001", "name": "USPS COLLECTION BOX - PO LOBBY", "address": {"city": "FLAGLER", "state": "CO", "street": "315 MAIN AVE", "postcode": "80815"}}},
{"geometry": {"type": "Point", "coordinates": [-105.2846897888, 38.8808422044]}, "type": "Feature", "properties": {"collection_times": [{"days": "Mon-Fri", "time": "4:00pm"}, {"days": "Sat", "time": "11:15am"}, {"days": "Sun", "time": "Closed"}], "id": "8081600000", "name": "USPS COLLECTION BOX - BLUE BOX", "address": {"city": "FLORISSANT", "state": "CO", "street": "18101 COUNTY ROAD 1", "postcode": "80816"}}},
{"geometry": {"type": "Point", "coordinates": [-105.2846897888, 38.8808422044]}, "type": "Feature", "properties": {"collection_times": [{"days": "Mon-Fri", "time": "4:00pm"}, {"days": "Sat", "time": "11:15am"}, {"days": "Sun", "time": "Closed"}], "id": "8081600001", "name": "USPS COLLECTION BOX - PO LOBBY", "address": {"city": "FLORISSANT", "state": "CO", "street": "18101 COUNTY ROAD 1", "postcode": "80816"}}},
{"geometry": {"type": "Point", "coordinates": [-105.0759976155, 38.7196401735]}, "type": "Feature", "properties": {"collection_times": [{"days": "Mon-Sat", "time": "10:30am"}, {"days": "Sun", "time": "Closed"}], "id": "8081600002", "name": "USPS COLLECTION BOX - BLUE BOX", "address": {"city": "FLORISSANT", "state": "CO", "street": "473 N MOUNTAIN ESTS", "postcode": "80816"}}},
{"geometry": {"type": "Point", "coordinates": [-104.7045493646, 38.6828506929]}, "type": "Feature", "properties": {"collection_times": [{"days": "Mon-Fri", "time": "5:00pm"}, {"days": "Sat", "time": "3:15pm"}, {"days": "Sun", "time": "Closed"}], "id": "8081700000", "name": "USPS COLLECTION BOX - BLUE BOX", "address": {"city": "FOUNTAIN", "state": "CO", "street": "101 S SANTA FE AVE", "postcode": "80817"}}},
{"geometry": {"type": "Point", "coordinates": [-104.7045493646, 38.6828506929]}, "type": "Feature", "properties": {"collection_times": [{"days": "Mon-Fri", "time": "4:00pm"}, {"days": "Sat", "time": "3:15pm"}, {"days": "Sun", "time": "Closed"}], "id": "8081700001", "name": "USPS COLLECTION BOX - PO LOBBY", "address": {"city": "FOUNTAIN", "state": "CO", "street": "101 S SANTA FE AVE", "postcode": "80817"}}},
{"geometry": {"type": "Point", "coordinates": [-104.6970502011, 38.6938182026]}, "type": "Feature", "properties": {"collection_times": [{"days": "Mon-Sat", "time": "11:15am"}, {"days": "Sun", "time": "Closed"}], "id": "8081700003", "name": "USPS COLLECTION BOX - BLUE BOX", "address": {"city": "FOUNTAIN", "state": "CO", "street": "995 LAKE AVE", "postcode": "80817"}}},
{"geometry": {"type": "Point", "coordinates": [-104.7092918471, 38.6750857503]}, "type": "Feature", "properties": {"collection_times": [{"days": "Mon-Sat", "time": "10:00am"}, {"days": "Sun", "time": "Closed"}], "id": "8081700004", "name": "USPS COLLECTION BOX - BLUE BOX", "address": {"city": "FOUNTAIN", "state": "CO", "street": "504 ROYALTY PL", "postcode": "80817"}}},
{"geometry": {"type": "Point", "coordinates": [-104.7133327567, 38.6716223948]}, "type": "Feature", "properties": {"collection_times": [{"days": "Mon-Sat", "time": "10:00am"}, {"days": "Sun", "time": "Closed"}], "id": "8081700005", "name": "USPS COLLECTION BOX - BLUE BOX", "address": {"city": "FOUNTAIN", "state": "CO", "street": "1103 S SANTA FE AVE", "postcode": "80817"}}},
{"geometry": {"type": "Point", "coordinates": [-104.6980879763, 38.6752321992]}, "type": "Feature", "properties": {"collection_times": [{"days": "Mon-Sat", "time": "10:00am"}, {"days": "Sun", "time": "Closed"}], "id": "8081700007", "name": "USPS COLLECTION BOX - BLUE BOX", "address": {"city": "FOUNTAIN", "state": "CO", "street": "6300 S US HIGHWAY 85-87", "postcode": "80817"}}},
{"geometry": {"type": "Point", "coordinates": [-104.7005881785, 38.6822881902]}, "type": "Feature", "properties": {"collection_times": [{"days": "Mon-Sat", "time": "11:35am"}, {"days": "Sun", "time": "Closed"}], "id": "8081700008", "name": "USPS COLLECTION BOX - BLUE BOX", "address": {"city": "FOUNTAIN", "state": "CO", "street": "202 S MAIN ST", "postcode": "80817"}}},
{"geometry": {"type": "Point", "coordinates": [-104.7253079285, 38.7293882986]}, "type": "Feature", "properties": {"collection_times": [{"days": "Mon-Sat", "time": "9:05am"}, {"days": "Sun", "time": "Closed"}], "id": "8081700009", "name": "USPS COLLECTION BOX - BLUE BOX", "address": {"city": "FOUNTAIN", "state": "CO", "street": "7055 ALEGRE ST", "postcode": "80817"}}},
{"geometry": {"type": "Point", "coordinates": [-104.6982146193, 38.7182684843]}, "type": "Feature", "properties": {"collection_times": [{"days": "Mon-Fri", "time": "11:00am"}, {"days": "Sat", "time": "10:30am"}, {"days": "Sun", "time": "Closed"}], "id": "8081700010", "name": "USPS COLLECTION BOX - BLUE BOX", "address": {"city": "FOUNTAIN", "state": "CO", "street": "6925 MESA RIDGE PKWY", "postcode": "80817"}}},
{"geometry": {"type": "Point", "coordinates": [-103.5004644946, 39.2799839837]}, "type": "Feature", "properties": {"collection_times": [{"days": "Mon-Fri", "time": "11:15am"}, {"days": "Sat", "time": "11:30am"}, {"days": "Sun", "time": "Closed"}], "id": "8081800001", "name": "USPS COLLECTION BOX - BLUE BOX", "address": {"city": "GENOA", "state": "CO", "street": "217 MAIN ST", "postcode": "80818"}}},
{"geometry": {"type": "Point", "coordinates": [-103.5004644946, 39.2799839837]}, "type": "Feature", "properties": {"collection_times": [{"days": "Mon-Sat", "time": "11:15am"}, {"days": "Sun", "time": "Closed"}], "id": "8081800002", "name": "USPS COLLECTION BOX - PO LOBBY", "address": {"city": "GENOA", "state": "CO", "street": "217 MAIN ST", "postcode": "80818"}}},
{"geometry": {"type": "Point", "coordinates": [-105.0158330533, 38.9347811232]}, "type": "Feature", "properties": {"collection_times": [{"days": "Mon-Fri", "time": "4:30pm"}, {"days": "Sat", "time": "11:30am"}, {"days": "Sun", "time": "Closed"}], "id": "8081900000", "name": "USPS COLLECTION BOX - BLUE BOX", "address": {"city": "GREEN MTN FLS", "state": "CO", "street": "10560 UTE PASS AVE", "postcode": "80819"}}},
{"geometry": {"type": "Point", "coordinates": [-105.0158330533, 38.9347811232]}, "type": "Feature", "properties": {"collection_times": [{"days": "Mon-Fri", "time": "3:15pm"}, {"days": "Sat", "time": "11:30am"}, {"days": "Sun", "time": "Closed"}], "id": "8081900001", "name": "USPS COLLECTION BOX - PO LOBBY", "address": {"city": "GREEN MTN FLS", "state": "CO", "street": "10560 UTE PASS AVE", "postcode": "80819"}}},
{"geometry": {"type": "Point", "coordinates": [-105.6613283626, 38.8264533699]}, "type": "Feature", "properties": {"collection_times": [{"days": "Mon-Fri", "time": "12:00pm"}, {"days": "Sat", "time": "11:45am"}, {"days": "Sun", "time": "Closed"}], "id": "8082000000", "name": "USPS COLLECTION BOX - BLUE BOX", "address": {"city": "GUFFEY", "state": "CO", "street": "1517 CANYON ST", "postcode": "80820"}}},
{"geometry": {"type": "Point", "coordinates": [-103.3343709315, 39.032141837]}, "type": "Feature", "properties": {"collection_times": [{"days": "Mon-Sat", "time": "10:10am"}, {"days": "Sun", "time": "Closed"}], "id": "8082100000", "name": "USPS COLLECTION BOX - BLUE BOX", "address": {"city": "HUGO", "state": "CO", "street": "1 LINCOLN CR", "postcode": "80821"}}},
{"geometry": {"type": "Point", "coordinates": [-103.4690994507, 39.1343859682]}, "type": "Feature", "properties": {"collection_times": [{"days": "Mon-Fri", "time": "4:00pm"}, {"days": "Sat", "time": "11:45am"}, {"days": "Sun", "time": "Closed"}], "id": "8082100001", "name": "USPS COLLECTION BOX - PO LOBBY", "address": {"city": "HUGO", "state": "CO", "street": "422 4TH AVE", "postcode": "80821"}}},
{"geometry": {"type": "Point", "coordinates": [-103.4690994507, 39.1343859682]}, "type": "Feature", "properties": {"collection_times": [{"days": "Mon-Fri", "time": "4:45pm"}, {"days": "Sat", "time": "12:00pm"}, {"days": "Sun", "time": "Closed"}], "id": "8082100002", "name": "USPS COLLECTION BOX - BLUE BOX", "address": {"city": "HUGO", "state": "CO", "street": "422 4TH AVE", "postcode": "80821"}}},
{"geometry": {"type": "Point", "coordinates": [-103.4690994507, 39.1343859682]}, "type": "Feature", "properties": {"collection_times": [{"days": "Mon-Fri", "time": "4:00pm"}, {"days": "Sat", "time": "11:45am"}, {"days": "Sun", "time": "Closed"}], "id": "8082100003", "name": "USPS COLLECTION BOX - BLUE BOX", "address": {"city": "HUGO", "state": "CO", "street": "422 4TH AVE", "postcode": "80821"}}},
{"geometry": {"type": "Point", "coordinates": [-102.6849927537, 39.6558088695]}, "type": "Feature", "properties": {"collection_times": [{"days": "Mon-Fri", "time": "2:40pm"}, {"days": "Sat", "time": "11:15am"}, {"days": "Sun", "time": "Closed"}], "id": "8082200000", "name": "USPS COLLECTION BOX - BLUE BOX", "address": {"city": "JOES", "state": "CO", "street": "6461 US HIGHWAY 36", "postcode": "80822"}}},
{"geometry": {"type": "Point", "coordinates": [-102.6849927537, 39.6558088695]}, "type": "Feature", "properties": {"collection_times": [{"days": "Mon-Fri", "time": "2:40pm"}, {"days": "Sat", "time": "11:15am"}, {"days": "Sun", "time": "Closed"}], "id": "8082200002", "name": "USPS COLLECTION BOX - PO LOBBY", "address": {"city": "JOES", "state": "CO", "street": "6461 US HIGHWAY 36", "postcode": "80822"}}},
{"geometry": {"type": "Point", "coordinates": [-103.5373095594, 38.7344677226]}, "type": "Feature", "properties": {"collection_times": [{"days": "Mon-Fri", "time": "1:00pm"}, {"days": "Sat", "time": "12:00pm"}, {"days": "Sun", "time": "Closed"}], "id": "8082300000", "name": "USPS COLLECTION BOX - BLUE BOX", "address": {"city": "KARVAL", "state": "CO", "street": "28913 COUNTY ROAD S", "postcode": "80823"}}},
{"geometry": {"type": "Point", "coordinates": [-103.5373095594, 38.7344677226]}, "type": "Feature", "properties": {"collection_times": [{"days": "Mon-Fri", "time": "1:00pm"}, {"days": "Sat", "time": "12:00pm"}, {"days": "Sun", "time": "Closed"}], "id": "8082300001", "name": "USPS COLLECTION BOX - PO LOBBY", "address": {"city": "KARVAL", "state": "CO", "street": "28913 COUNTY ROAD S", "postcode": "80823"}}},
{"geometry": {"type": "Point", "coordinates": [-102.5912498694, 39.6127887807]}, "type": "Feature", "properties": {"collection_times": [{"days": "Mon-Fri", "time": "2:45pm"}, {"days": "Sat", "time": "10:15am"}, {"days": "Sun", "time": "Closed"}], "id": "8082400000", "name": "USPS COLLECTION BOX - BLUE BOX", "address": {"city": "KIRK", "state": "CO", "street": "11028 COUNTY ROAD 3", "postcode": "80824"}}},
{"geometry": {"type": "Point", "coordinates": [-102.5912498694, 39.6127887807]}, "type": "Feature", "properties": {"collection_times": [{"days": "Mon-Fri", "time": "2:45pm"}, {"days": "Sat", "time": "10:15am"}, {"days": "Sun", "time": "Closed"}], "id": "8082400002", "name": "USPS COLLECTION BOX - PO LOBBY", "address": {"city": "KIRK", "state": "CO", "street": "11028 COUNTY ROAD 3", "postcode": "80824"}}},
{"geometry": {"type": "Point", "coordinates": [-102.7953579278, 38.7676026711]}, "type": "Feature", "properties": {"collection_times": [{"days": "Mon-Fri", "time": "3:30pm"}, {"days": "Sat", "time": "11:15am"}, {"days": "Sun", "time": "Closed"}], "id": "8082500000", "name": "USPS COLLECTION BOX - BLUE BOX", "address": {"city": "KIT CARSON", "state": "CO", "street": "104 MAIN ST", "postcode": "80825"}}},
{"geometry": {"type": "Point", "coordinates": [-102.7953579278, 38.7676026711]}, "type": "Feature", "properties": {"collection_times": [{"days": "Mon-Fri", "time": "12:00pm"}, {"days": "Sat", "time": "11:15am"}, {"days": "Sun", "time": "Closed"}], "id": "8082500001", "name": "USPS COLLECTION BOX - PO LOBBY", "address": {"city": "KIT CARSON", "state": "CO", "street": "104 MAIN ST", "postcode": "80825"}}},
{"geometry": {"type": "Point", "coordinates": [-105.6343573307, 39.0478214668]}, "type": "Feature", "properties": {"collection_times": [{"days": "Mon-Fri", "time": "2:15pm"}, {"days": "Sat", "time": "10:45am"}, {"days": "Sun", "time": "Closed"}], "id": "8082700000", "name": "USPS COLLECTION BOX - BLUE BOX", "address": {"city": "LAKE GEORGE", "state": "CO", "street": "37370 US HIGHWAY 24", "postcode": "80827"}}},
{"geometry": {"type": "Point", "coordinates": [-105.6343573307, 39.0478214668]}, "type": "Feature", "properties": {"collection_times": [{"days": "Mon-Fri", "time": "2:15pm"}, {"days": "Sat", "time": "10:45am"}, {"days": "Sun", "time": "Closed"}], "id": "8082700001", "name": "USPS COLLECTION BOX - PO LOBBY", "address": {"city": "LAKE GEORGE", "state": "CO", "street": "37370 US HIGHWAY 24", "postcode": "80827"}}},
{"geometry": {"type": "Point", "coordinates": [-103.6805038974, 39.263076969]}, "type": "Feature", "properties": {"collection_times": [{"days": "Mon-Fri", "time": "10:15am"}, {"days": "Sat", "time": "11:45am"}, {"days": "Sun", "time": "Closed"}], "id": "8082800000", "name": "USPS COLLECTION BOX - BLUE BOX", "address": {"city": "LIMON", "state": "CO", "street": "330 MAIN ST", "postcode": "80828"}}},
{"geometry": {"type": "Point", "coordinates": [-103.689188355, 39.2623594947]}, "type": "Feature", "properties": {"collection_times": [{"days": "Mon-Fri", "time": "5:00pm"}, {"days": "Sat", "time": "11:45am"}, {"days": "Sun", "time": "Closed"}], "id": "8082800001", "name": "USPS COLLECTION BOX - BLUE BOX", "address": {"city": "LIMON", "state": "CO", "street": "250 F AVE", "postcode": "80828"}}},
{"geometry": {"type": "Point", "coordinates": [-103.7084075278, 39.2693814695]}, "type": "Feature", "properties": {"collection_times": [{"days": "Mon-Fri", "time": "9:30am"}, {"days": "Sat", "time": "11:45am"}, {"days": "Sun", "time": "Closed"}], "id": "8082800003", "name": "USPS COLLECTION BOX - BLUE BOX", "address": {"city": "LIMON", "state": "CO", "street": "2380 W 6TH", "postcode": "80828"}}},
{"geometry": {"type": "Point", "coordinates": [-103.6868051785, 39.2929922821]}, "type": "Feature", "properties": {"collection_times": [{"days": "Mon-Fri", "time": "9:30am"}, {"days": "Sat", "time": "11:45am"}, {"days": "Sun", "time": "Closed"}], "id": "8082800004", "name": "USPS COLLECTION BOX - BLUE BOX", "address": {"city": "LIMON", "state": "CO", "street": "0 HWY 24 AND I-70", "postcode": "80828"}}},
{"geometry": {"type": "Point", "coordinates": [-103.689188355, 39.2623594947]}, "type": "Feature", "properties": {"collection_times": [{"days": "Mon-Fri", "time": "5:00pm"}, {"days": "Sat", "time": "11:45am"}, {"days": "Sun", "time": "Closed"}], "id": "8082800005", "name": "USPS COLLECTION BOX - BLUE BOX", "address": {"city": "LIMON", "state": "CO", "street": "250 F AVE", "postcode": "80828"}}},
{"geometry": {"type": "Point", "coordinates": [-103.689188355, 39.2623594947]}, "type": "Feature", "properties": {"collection_times": [{"days": "Mon-Fri", "time": "5:00pm"}, {"days": "Sat", "time": "11:45am"}, {"days": "Sun", "time": "Closed"}], "id": "8082800006", "name": "USPS COLLECTION BOX - PO LOBBY", "address": {"city": "LIMON", "state": "CO", "street": "250 F AVE", "postcode": "80828"}}},
{"geometry": {"type": "Point", "coordinates": [-103.689188355, 39.2623594947]}, "type": "Feature", "properties": {"collection_times": [{"days": "Mon-Fri", "time": "5:00pm"}, {"days": "Sat", "time": "11:45am"}, {"days": "Sun", "time": "Closed"}], "id": "8082800007", "name": "USPS COLLECTION BOX - PO LOBBY", "address": {"city": "LIMON", "state": "CO", "street": "250 F AVE", "postcode": "80828"}}},
{"geometry": {"type": "Point", "coordinates": [-103.689188355, 39.2623594947]}, "type": "Feature", "properties": {"collection_times": [{"days": "Mon-Fri", "time": "5:00pm"}, {"days": "Sat", "time": "11:45am"}, {"days": "Sun", "time": "Closed"}], "id": "8082800008", "name": "USPS COLLECTION BOX - PO LOBBY", "address": {"city": "LIMON", "state": "CO", "street": "250 F AVE", "postcode": "80828"}}},
{"geometry": {"type": "Point", "coordinates": [-104.9177706203, 38.859910076]}, "type": "Feature", "properties": {"collection_times": [{"days": "Mon-Fri", "time": "5:00pm"}, {"days": "Sat", "time": "12:00pm"}, {"days": "Sun", "time": "Closed"}], "id": "8082900000", "name": "USPS COLLECTION BOX - BLUE BOX", "address": {"city": "MANITOU SPRINGS", "state": "CO", "street": "307 CANON AVE", "postcode": "80829"}}},
{"geometry": {"type": "Point", "coordinates": [-104.8945349403, 38.8584018033]}, "type": "Feature", "properties": {"collection_times": [{"days": "Mon-Fri", "time": "1:30pm"}, {"days": "Sat", "time": "1:00pm"}, {"days": "Sun", "time": "Closed"}], "id": "8082900003", "name": "USPS COLLECTION BOX - BLUE BOX", "address": {"city": "MANITOU SPRINGS", "state": "CO", "street": "137 MANITOU AVE", "postcode": "80829"}}},
{"geometry": {"type": "Point", "coordinates": [-104.9192126473, 38.8590867365]}, "type": "Feature", "properties": {"collection_times": [{"days": "Mon-Fri", "time": "2:00pm"}, {"days": "Sat", "time": "1:00pm"}, {"days": "Sun", "time": "Closed"}], "id": "8082900004", "name": "USPS COLLECTION BOX - BLUE BOX", "address": {"city": "MANITOU SPRINGS", "state": "CO", "street": "951 MANITOU AVE", "postcode": "80829"}}},
{"geometry": {"type": "Point", "coordinates": [-104.9164610847, 38.8576340629]}, "type": "Feature", "properties": {"collection_times": [{"days": "Mon-Fri", "time": "1:45pm"}, {"days": "Sat", "time": "1:00pm"}, {"days": "Sun", "time": "Closed"}], "id": "8082900005", "name": "USPS COLLECTION BOX - BLUE BOX", "address": {"city": "MANITOU SPRINGS", "state": "CO", "street": "802 MANITOU AVE", "postcode": "80829"}}},
{"geometry": {"type": "Point", "coordinates": [-104.913655106, 38.8573797268]}, "type": "Feature", "properties": {"collection_times": [{"days": "Mon-Fri", "time": "2:00pm"}, {"days": "Sat", "time": "1:00pm"}, {"days": "Sun", "time": "Closed"}], "id": "8082900006", "name": "USPS COLLECTION BOX - BLUE BOX", "address": {"city": "MANITOU SPRINGS", "state": "CO", "street": "354 MANITOU AVE", "postcode": "80829"}}},
{"geometry": {"type": "Point", "coordinates": [-104.9177706203, 38.859910076]}, "type": "Feature", "properties": {"collection_times": [{"days": "Mon-Fri", "time": "4:30pm"}, {"days": "Sat", "time": "12:00pm"}, {"days": "Sun", "time": "Closed"}], "id": "8082900009", "name": "USPS COLLECTION BOX - PO LOBBY", "address": {"city": "MANITOU SPRINGS", "state": "CO", "street": "307 CANON AVE", "postcode": "80829"}}},
{"geometry": {"type": "Point", "coordinates": [-104.9177706203, 38.859910076]}, "type": "Feature", "properties": {"collection_times": [{"days": "Mon-Fri", "time": "4:30pm"}, {"days": "Sat", "time": "12:00pm"}, {"days": "Sun", "time": "Closed"}], "id": "8082900010", "name": "USPS COLLECTION BOX - PO LOBBY", "address": {"city": "MANITOU SPRINGS", "state": "CO", "street": "307 CANON AVE", "postcode": "80829"}}},
{"geometry": {"type": "Point", "coordinates": [-103.9406492375, 39.0938908591]}, "type": "Feature", "properties": {"collection_times": [{"days": "Mon-Fri", "time": "2:00pm"}, {"days": "Sat", "time": "10:15am"}, {"days": "Sun", "time": "Closed"}], "id": "8083000000", "name": "USPS COLLECTION BOX - BLUE BOX", "address": {"city": "MATHESON", "state": "CO", "street": "37021 BROADWAY AVE", "postcode": "80830"}}},
{"geometry": {"type": "Point", "coordinates": [-103.9761267442, 39.1720613379]}, "type": "Feature", "properties": {"collection_times": [{"days": "Mon-Fri", "time": "11:45am"}, {"days": "Sat", "time": "10:15am"}, {"days": "Sun", "time": "Closed"}], "id": "8083000001", "name": "USPS COLLECTION BOX - PO LOBBY", "address": {"city": "MATHESON", "state": "CO", "street": "37021 BROADWAY AVE", "postcode": "80830"}}},
{"geometry": {"type": "Point", "coordinates": [-104.48322484, 39.0257916798]}, "type": "Feature", "properties": {"collection_times": [{"days": "Mon-Fri", "time": "4:00pm"}, {"days": "Sat", "time": "12:00pm"}, {"days": "Sun", "time": "Closed"}], "id": "8083100000", "name": "USPS COLLECTION BOX - PO LOBBY", "address": {"city": "PEYTON", "state": "CO", "street": "13055 BRADSHAW RD", "postcode": "80831"}}},
{"geometry": {"type": "Point", "coordinates": [-104.5569795777, 38.9709532735]}, "type": "Feature", "properties": {"collection_times": [{"days": "Mon-Fri", "time": "4:00pm"}, {"days": "Sat", "time": "12:00pm"}, {"days": "Sun", "time": "Closed"}], "id": "8083100001", "name": "USPS COLLECTION BOX - BLUE BOX", "address": {"city": "PEYTON", "state": "CO", "street": "13055 BRADSHAW RD", "postcode": "80831"}}},
{"geometry": {"type": "Point", "coordinates": [-104.6040274265, 38.9409936323]}, "type": "Feature", "properties": {"collection_times": [{"days": "Mon-Fri", "time": "1:00pm"}, {"days": "Sat", "time": "12:00pm"}, {"days": "Sun", "time": "Closed"}], "id": "8083100003", "name": "USPS COLLECTION BOX - BLUE BOX", "address": {"city": "PEYTON", "state": "CO", "street": "7655 MCLAUGHLIN RD", "postcode": "80831"}}},
{"geometry": {"type": "Point", "coordinates": [-104.48322484, 39.0257916798]}, "type": "Feature", "properties": {"collection_times": [{"days": "Mon-Fri", "time": "4:00pm"}, {"days": "Sat", "time": "12:00pm"}, {"days": "Sun", "time": "Closed"}], "id": "8083100004", "name": "USPS COLLECTION BOX - BLUE BOX", "address": {"city": "PEYTON", "state": "CO", "street": "13055 BRADSHAW RD", "postcode": "80831"}}},
{"geometry": {"type": "Point", "coordinates": [-104.6104825444, 38.9384323384]}, "type": "Feature", "properties": {"collection_times": [{"days": "Mon-Fri", "time": "1:00pm"}, {"days": "Sat", "time": "12:00pm"}, {"days": "Sun", "time": "Closed"}], "id": "8083100005", "name": "USPS COLLECTION BOX - BLUE BOX", "address": {"city": "PEYTON", "state": "CO", "street": "11550 MERIDIAN MARKET VW", "postcode": "80831"}}},
{"geometry": {"type": "Point", "coordinates": [-104.48322484, 39.0257916798]}, "type": "Feature", "properties": {"collection_times": [{"days": "Mon-Fri", "time": "4:00pm"}, {"days": "Sat", "time": "12:00pm"}, {"days": "Sun", "time": "Closed"}], "id": "8083100006", "name": "USPS COLLECTION BOX - PO LOBBY", "address": {"city": "PEYTON", "state": "CO", "street": "13055 BRADSHAW RD", "postcode": "80831"}}},
{"geometry": {"type": "Point", "coordinates": [-104.1679026806, 39.1232138507]}, "type": "Feature", "properties": {"collection_times": [{"days": "Mon-Fri", "time": "11:45am"}, {"days": "Sat", "time": "10:15am"}, {"days": "Sun", "time": "Closed"}], "id": "8083200000", "name": "USPS COLLECTION BOX - BLUE BOX", "address": {"city": "RAMAH", "state": "CO", "street": "2 S COMMERCIAL ST", "postcode": "80832"}}},
{"geometry": {"type": "Point", "coordinates": [-104.1679026806, 39.1232138507]}, "type": "Feature", "properties": {"collection_times": [{"days": "Mon-Fri", "time": "11:45am"}, {"days": "Sat", "time": "10:15am"}, {"days": "Sun", "time": "Closed"}], "id": "8083200001", "name": "USPS COLLECTION BOX - PO LOBBY", "address": {"city": "RAMAH", "state": "CO", "street": "2 S COMMERCIAL ST", "postcode": "80832"}}},
{"geometry": {"type": "Point", "coordinates": [-104.092097634, 38.8421355947]}, "type": "Feature", "properties": {"collection_times": [{"days": "Mon-Fri", "time": "2:00pm"}, {"days": "Sat", "time": "10:15am"}, {"days": "Sun", "time": "Closed"}], "id": "8083300001", "name": "USPS COLLECTION BOX - BLUE BOX", "address": {"city": "RUSH", "state": "CO", "street": "455 N RUSH RD", "postcode": "80833"}}},
{"geometry": {"type": "Point", "coordinates": [-102.869699639, 39.301150331]}, "type": "Feature", "properties": {"collection_times": [{"days": "Mon-Fri", "time": "3:45pm"}, {"days": "Sat", "time": "10:30am"}, {"days": "Sun", "time": "Closed"}], "id": "8083400000", "name": "USPS COLLECTION BOX - BLUE BOX", "address": {"city": "SEIBERT", "state": "CO", "street": "113 COLORADO AVE", "postcode": "80834"}}},
{"geometry": {"type": "Point", "coordinates": [-102.869699639, 39.301150331]}, "type": "Feature", "properties": {"collection_times": [{"days": "Mon-Fri", "time": "3:45pm"}, {"days": "Sat", "time": "10:30am"}, {"days": "Sun", "time": "Closed"}], "id": "8083400001", "name": "USPS COLLECTION BOX - PO LOBBY", "address": {"city": "SEIBERT", "state": "CO", "street": "113 COLORADO AVE", "postcode": "80834"}}},
{"geometry": {"type": "Point", "coordinates": [-104.0849578613, 39.1427080864]}, "type": "Feature", "properties": {"collection_times": [{"days": "Mon-Fri", "time": "2:00pm"}, {"days": "Sat", "time": "10:30am"}, {"days": "Sun", "time": "Closed"}], "id": "8083500000", "name": "USPS COLLECTION BOX - BLUE BOX", "address": {"city": "SIMLA", "state": "CO", "street": "611 CARIBOU ST", "postcode": "80835"}}},
{"geometry": {"type": "Point", "coordinates": [-104.0849578613, 39.1427080864]}, "type": "Feature", "properties": {"collection_times": [{"days": "Mon-Fri", "time": "2:00pm"}, {"days": "Sat", "time": "10:30am"}, {"days": "Sun", "time": "Closed"}], "id": "8083500001", "name": "USPS COLLECTION BOX - PO LOBBY", "address": {"city": "SIMLA", "state": "CO", "street": "611 CARIBOU ST", "postcode": "80835"}}},
{"geometry": {"type": "Point", "coordinates": [-102.6048910828, 39.3034204015]}, "type": "Feature", "properties": {"collection_times": [{"days": "Mon-Fri", "time": "3:45pm"}, {"days": "Sat", "time": "11:45am"}, {"days": "Sun", "time": "Closed"}], "id": "8083600000", "name": "USPS COLLECTION BOX - BLUE BOX", "address": {"city": "STRATTON", "state": "CO", "street": "313 COLORADO AVE", "postcode": "80836"}}},
{"geometry": {"type": "Point", "coordinates": [-102.6049013896, 39.2972048641]}, "type": "Feature", "properties": {"collection_times": [{"days": "Mon-Sat", "time": "9:00am"}, {"days": "Sun", "time": "Closed"}], "id": "8083600001", "name": "USPS COLLECTION BOX - BLUE BOX", "address": {"city": "STRATTON", "state": "CO", "street": "913 COLORADO AVE", "postcode": "80836"}}},
{"geometry": {"type": "Point", "coordinates": [-102.6048910828, 39.3034204015]}, "type": "Feature", "properties": {"collection_times": [{"days": "Mon-Fri", "time": "2:45pm"}, {"days": "Sat", "time": "11:00am"}, {"days": "Sun", "time": "Closed"}], "id": "8083600002", "name": "USPS COLLECTION BOX - PO LOBBY", "address": {"city": "STRATTON", "state": "CO", "street": "313 COLORADO AVE", "postcode": "80836"}}},
{"geometry": {"type": "Point", "coordinates": [-104.8821746509, 39.0068169029]}, "type": "Feature", "properties": {"collection_times": [{"days": "Mon-Fri", "time": "3:30pm"}, {"days": "Sat", "time": "1:30pm"}, {"days": "Sun", "time": "Closed"}], "id": "8084000001", "name": "USPS COLLECTION BOX - BLUE BOX", "address": {"city": "U S A F ACADEMY", "state": "CO", "street": "2354 VANDENBERG DR", "postcode": "80840"}}},
{"geometry": {"type": "Point", "coordinates": [-104.8923828135, 39.005726357]}, "type": "Feature", "properties": {"collection_times": [{"days": "Mon-Fri", "time": "1:00pm"}, {"days": "Sat", "time": "1:30pm"}, {"days": "Sun", "time": "Closed"}], "id": "8084000002", "name": "USPS COLLECTION BOX - BLUE BOX", "address": {"city": "U S A F ACADEMY", "state": "CO", "street": "2348 SIJAN DR", "postcode": "80840"}}},
{"geometry": {"type": "Point", "coordinates": [-104.886102598, 39.0085187656]}, "type": "Feature", "properties": {"collection_times": [{"days": "Mon-Fri", "time": "1:00pm"}, {"days": "Sat", "time": "1:30pm"}, {"days": "Sun", "time": "Closed"}], "id": "8084000003", "name": "USPS COLLECTION BOX - BLUE BOX", "address": {"city": "U S A F ACADEMY", "state": "CO", "street": "2354 FAIRCHILD DR", "postcode": "80840"}}},
{"geometry": {"type": "Point", "coordinates": [-104.8441338424, 39.002649268]}, "type": "Feature", "properties": {"collection_times": [{"days": "Mon-Fri", "time": "1:00pm"}, {"days": "Sat", "time": "1:30pm"}, {"days": "Sun", "time": "Closed"}], "id": "8084000005", "name": "USPS COLLECTION BOX - BLUE BOX", "address": {"city": "U S A F ACADEMY", "state": "CO", "street": "2346 ACADEMY DR", "postcode": "80840"}}},
{"geometry": {"type": "Point", "coordinates": [-104.8249334816, 38.9520212046]}, "type": "Feature", "properties": {"collection_times": [{"days": "Mon-Fri", "time": "10:00am"}, {"days": "Sat", "time": "9:00am"}, {"days": "Sun", "time": "Closed"}], "id": "8084000007", "name": "USPS COLLECTION BOX - BLUE BOX", "address": {"city": "U S A F ACADEMY", "state": "CO", "street": "8120 EDGERTON DR", "postcode": "80840"}}},
{"geometry": {"type": "Point", "coordinates": [-104.8618128425, 38.9785680273]}, "type": "Feature", "properties": {"collection_times": [{"days": "Mon-Fri", "time": "1:00pm"}, {"days": "Sat", "time": "1:30pm"}, {"days": "Sun", "time": "Closed"}], "id": "8084000008", "name": "USPS COLLECTION BOX - BLUE BOX", "address": {"city": "U S A F ACADEMY", "state": "CO", "street": "5218 CEDAR DR", "postcode": "80840"}}},
{"geometry": {"type": "Point", "coordinates": [-104.8363948833, 38.9861499151]}, "type": "Feature", "properties": {"collection_times": [{"days": "Mon-Fri", "time": "1:00pm"}, {"days": "Sat", "time": "1:30pm"}, {"days": "Sun", "time": "Closed"}], "id": "8084000010", "name": "USPS COLLECTION BOX - BLUE BOX", "address": {"city": "U S A F ACADEMY", "state": "CO", "street": "5124 COMMUNITY CENTER DR", "postcode": "80840"}}},
{"geometry": {"type": "Point", "coordinates": [-104.836916627, 38.9861084127]}, "type": "Feature", "properties": {"collection_times": [{"days": "Mon-Fri", "time": "4:25pm"}, {"days": "Sat", "time": "2:50pm"}, {"days": "Sun", "time": "Closed"}], "id": "8084000011", "name": "USPS COLLECTION BOX - BLUE BOX", "address": {"city": "U S A F ACADEMY", "state": "CO", "street": "5136 COMMUNITY CENTER DR", "postcode": "80840"}}},
{"geometry": {"type": "Point", "coordinates": [-104.8862785026, 38.9933187025]}, "type": "Feature", "properties": {"collection_times": [{"days": "Mon-Fri", "time": "1:00pm"}, {"days": "Sat", "time": "1:30pm"}, {"days": "Sun", "time": "Closed"}], "id": "8084000012", "name": "USPS COLLECTION BOX - BLUE BOX", "address": {"city": "U S A F ACADEMY", "state": "CO", "street": "4102 PINION DR", "postcode": "80840"}}},
{"geometry": {"type": "Point", "coordinates": [-105.1401198231, 38.7100527789]}, "type": "Feature", "properties": {"collection_times": [{"days": "Mon-Fri", "time": "3:30pm"}, {"days": "Sat", "time": "1:00pm"}, {"days": "Sun", "time": "Closed"}], "id": "8086000000", "name": "USPS COLLECTION BOX - BLUE BOX", "address": {"city": "VICTOR", "state": "CO", "street": "106 N 3RD ST", "postcode": "80860"}}},
{"geometry": {"type": "Point", "coordinates": [-105.1401198231, 38.7100527789]}, "type": "Feature", "properties": {"collection_times": [{"days": "Mon-Fri", "time": "3:30pm"}, {"days": "Sat", "time": "1:00pm"}, {"days": "Sun", "time": "Closed"}], "id": "8086000001", "name": "USPS COLLECTION BOX - PO LOBBY", "address": {"city": "VICTOR", "state": "CO", "street": "106 N 3RD ST", "postcode": "80860"}}},
{"geometry": {"type": "Point", "coordinates": [-102.7434228113, 39.3028244475]}, "type": "Feature", "properties": {"collection_times": [{"days": "Mon-Fri", "time": "3:45pm"}, {"days": "Sat", "time": "10:30am"}, {"days": "Sun", "time": "Closed"}], "id": "8086100000", "name": "USPS COLLECTION BOX - BLUE BOX", "address": {"city": "VONA", "state": "CO", "street": "1263 1ST AVE", "postcode": "80861"}}},
{"geometry": {"type": "Point", "coordinates": [-102.7434228113, 39.3028244475]}, "type": "Feature", "properties": {"collection_times": [{"days": "Mon-Fri", "time": "1:00pm"}, {"days": "Sat", "time": "10:30am"}, {"days": "Sun", "time": "Closed"}], "id": "8086100001", "name": "USPS COLLECTION BOX - PO LOBBY", "address": {"city": "VONA", "state": "CO", "street": "1263 1ST AVE", "postcode": "80861"}}},
{"geometry": {"type": "Point", "coordinates": [-102.7434228113, 39.3028244475]}, "type": "Feature", "properties": {"collection_times": [{"days": "Mon-Fri", "time": "1:00pm"}, {"days": "Sat", "time": "10:30am"}, {"days": "Sun", "time": "Closed"}], "id": "8086100002", "name": "USPS COLLECTION BOX - PO LOBBY", "address": {"city": "VONA", "state": "CO", "street": "1263 1ST AVE", "postcode": "80861"}}},
{"geometry": {"type": "Point", "coordinates": [-103.0050642228, 38.8256918292]}, "type": "Feature", "properties": {"collection_times": [{"days": "Mon-Fri", "time": "12:30pm"}, {"days": "Sat", "time": "9:15am"}, {"days": "Sun", "time": "Closed"}], "id": "8086200001", "name": "USPS COLLECTION BOX - PO LOBBY", "address": {"city": "WILD HORSE", "state": "CO", "street": "8511 US HIGHWAY 40-287", "postcode": "80862"}}},
{"geometry": {"type": "Point", "coordinates": [-105.0457814055, 38.9848288859]}, "type": "Feature", "properties": {"collection_times": [{"days": "Mon-Fri", "time": "4:15pm"}, {"days": "Sat", "time": "12:30pm"}, {"days": "Sun", "time": "Closed"}], "id": "8086300009", "name": "USPS COLLECTION BOX - BLUE BOX", "address": {"city": "WOODLAND PARK", "state": "CO", "street": "1101 E US HIGHWAY 24", "postcode": "80863"}}},
{"geometry": {"type": "Point", "coordinates": [-105.0601446284, 38.9923039586]}, "type": "Feature", "properties": {"collection_times": [{"days": "Mon-Fri", "time": "4:15pm"}, {"days": "Sat", "time": "12:30pm"}, {"days": "Sun", "time": "Closed"}], "id": "8086300010", "name": "USPS COLLECTION BOX - BLUE BOX", "address": {"city": "WOODLAND PARK", "state": "CO", "street": "700 W US HIGHWAY 24", "postcode": "80863"}}},
{"geometry": {"type": "Point", "coordinates": [-105.0646163529, 39.014850248]}, "type": "Feature", "properties": {"collection_times": [{"days": "Mon-Fri", "time": "4:55pm"}, {"days": "Sat", "time": "1:00pm"}, {"days": "Sun", "time": "Closed"}], "id": "8086300012", "name": "USPS COLLECTION BOX - BLUE BOX", "address": {"city": "WOODLAND PARK", "state": "CO", "street": "900 TAMARAC PKWY", "postcode": "80863"}}},
{"geometry": {"type": "Point", "coordinates": [-105.062038672, 38.9953808944]}, "type": "Feature", "properties": {"collection_times": [{"days": "Mon-Fri", "time": "4:55pm"}, {"days": "Sat", "time": "1:00pm"}, {"days": "Sun", "time": "Closed"}], "id": "8086300013", "name": "USPS COLLECTION BOX - EXPRESS", "address": {"city": "WOODLAND PARK", "state": "CO", "street": "900 TAMARAC PKWY", "postcode": "80863"}}},
{"geometry": {"type": "Point", "coordinates": [-105.0646163529, 39.014850248]}, "type": "Feature", "properties": {"collection_times": [{"days": "Mon-Fri", "time": "4:55pm"}, {"days": "Sat", "time": "1:00pm"}, {"days": "Sun", "time": "Closed"}], "id": "8086300014", "name": "USPS COLLECTION BOX - PO LOBBY", "address": {"city": "WOODLAND PARK", "state": "CO", "street": "900 TAMARAC PKWY", "postcode": "80863"}}},
{"geometry": {"type": "Point", "coordinates": [-104.2219299349, 38.8401093705]}, "type": "Feature", "properties": {"collection_times": [{"days": "Mon-Fri", "time": "2:45pm"}, {"days": "Sat", "time": "10:15am"}, {"days": "Sun", "time": "Closed"}], "id": "8086400000", "name": "USPS COLLECTION BOX - BLUE BOX", "address": {"city": "YODER", "state": "CO", "street": "475 N YODER RD", "postcode": "80864"}}},
{"geometry": {"type": "Point", "coordinates": [-105.0558325724, 38.9959267092]}, "type": "Feature", "properties": {"collection_times": [{"days": "Mon-Fri", "time": "4:55pm"}, {"days": "Sat", "time": "1:00pm"}, {"days": "Sun", "time": "Closed"}], "id": "8086600000", "name": "USPS COLLECTION BOX - BLUE BOX", "address": {"city": "WOODLAND PARK", "state": "CO", "street": "300 W SOUTH AVE", "postcode": "80866"}}},
{"geometry": {"type": "Point", "coordinates": [-105.0558325724, 38.9959267092]}, "type": "Feature", "properties": {"collection_times": [{"days": "Mon-Fri", "time": "4:55pm"}, {"days": "Sat", "time": "1:00pm"}, {"days": "Sun", "time": "Closed"}], "id": "8086600001", "name": "USPS COLLECTION BOX - BLUE BOX", "address": {"city": "WOODLAND PARK", "state": "CO", "street": "300 W SOUTH AVE", "postcode": "80866"}}},
{"geometry": {"type": "Point", "coordinates": [-105.0558079341, 38.9959109851]}, "type": "Feature", "properties": {"collection_times": [{"days": "Mon-Fri", "time": "4:55pm"}, {"days": "Sat", "time": "1:00pm"}, {"days": "Sun", "time": "Closed"}], "id": "8086600002", "name": "USPS COLLECTION BOX - EXPRESS", "address": {"city": "WOODLAND PARK", "state": "CO", "street": "300 W SOUTH AVE", "postcode": "80866"}}},
{"geometry": {"type": "Point", "coordinates": [-105.0558325724, 38.9959267092]}, "type": "Feature", "properties": {"collection_times": [{"days": "Mon-Fri", "time": "4:55pm"}, {"days": "Sat", "time": "1:00pm"}, {"days": "Sun", "time": "Closed"}], "id": "8086600003", "name": "USPS COLLECTION BOX - PO LOBBY", "address": {"city": "WOODLAND PARK", "state": "CO", "street": "300 W SOUTH AVE", "postcode": "80866"}}}
]}
