{"type": "FeatureCollection", "features": [
{"geometry": {"type": "Point", "coordinates": [-104.8254323924, 38.8336909735]}, "type": "Feature", "properties": {"collection_times": [{"days": "Mon-Fri", "time": "1:45pm"}, {"days": "Sat", "time": "12:45pm"}, {"days": "Sun", "time": "Closed"}], "id": "8090300017", "name": "USPS COLLECTION BOX - BLUE BOX", "address": {"city": "COLORADO SPGS", "state": "CO", "street": "90 S CASCADE AVE", "postcode": "80903"}}},
{"geometry": {"type": "Point", "coordinates": [-104.8228898125, 38.8353672666]}, "type": "Feature", "properties": {"collection_times": [{"days": "Mon-Sat", "time": "12:30pm"}, {"days": "Sun", "time": "Closed"}], "id": "8090300034", "name": "USPS COLLECTION BOX - BLUE BOX", "address": {"city": "COLORADO SPGS", "state": "CO", "street": "130 E KIOWA ST", "postcode": "80903"}}},
{"geometry": {"type": "Point", "coordinates": [-104.821060176, 38.833791525]}, "type": "Feature", "properties": {"collection_times": [{"days": "Mon-Fri", "time": "5:30pm"}, {"days": "Sat", "time": "1:00pm"}, {"days": "Sun", "time": "Closed"}], "id": "8090300040", "name": "USPS COLLECTION BOX - BLUE BOX", "address": {"city": "COLORADO SPGS", "state": "CO", "street": "201 E PIKES PEAK AVE", "postcode": "80903"}}},
{"geometry": {"type": "Point", "coordinates": [-104.821060176, 38.833791525]}, "type": "Feature", "properties": {"collection_times": [{"days": "Mon-Fri", "time": "5:30pm"}, {"days": "Sat", "time": "1:00pm"}, {"days": "Sun", "time": "Closed"}], "id": "8090300041", "name": "USPS COLLECTION BOX - BLUE BOX", "address": {"city": "COLORADO SPGS", "state": "CO", "street": "201 E PIKES PEAK AVE", "postcode": "80903"}}},
{"geometry": {"type": "Point", "coordinates": [-104.8235065352, 38.8343013803]}, "type": "Feature", "properties": {"collection_times": [{"days": "Mon-Fri", "time": "2:00pm"}, {"days": "Sat", "time": "1:00pm"}, {"days": "Sun", "time": "Closed"}], "id": "8090300051", "name": "USPS COLLECTION BOX - BLUE BOX", "address": {"city": "COLORADO SPGS", "state": "CO", "street": "6 N TEJON ST", "postcode": "80903"}}},
{"geometry": {"type": "Point", "coordinates": [-104.8239040094, 38.8264808386]}, "type": "Feature", "properties": {"collection_times": [{"days": "Mon-Fri", "time": "11:30am"}, {"days": "Sat", "time": "10:30am"}, {"days": "Sun", "time": "Closed"}], "id": "8090300057", "name": "USPS COLLECTION BOX - BLUE BOX", "address": {"city": "COLORADO SPGS", "state": "CO", "street": "501 N TEJON ST", "postcode": "80903"}}},
{"geometry": {"type": "Point", "coordinates": [-104.8236461243, 38.8312694565]}, "type": "Feature", "properties": {"collection_times": [{"days": "Mon-Fri", "time": "1:30pm"}, {"days": "Sat", "time": "12:45pm"}, {"days": "Sun", "time": "Closed"}], "id": "8090300066", "name": "USPS COLLECTION BOX - BLUE BOX", "address": {"city": "COLORADO SPGS", "state": "CO", "street": "128 S TEJON ST", "postcode": "80903"}}},
{"geometry": {"type": "Point", "coordinates": [-104.8238129215, 38.8280305148]}, "type": "Feature", "properties": {"collection_times": [{"days": "Mon-Fri", "time": "11:45am"}, {"days": "Sat", "time": "11:00am"}, {"days": "Sun", "time": "Closed"}], "id": "8090300072", "name": "USPS COLLECTION BOX - BLUE BOX", "address": {"city": "COLORADO SPGS", "state": "CO", "street": "403 S TEJON ST", "postcode": "80903"}}},
{"geometry": {"type": "Point", "coordinates": [-104.8154304356, 38.8504583124]}, "type": "Feature", "properties": {"collection_times": [{"days": "Mon-Fri", "time": "11:30am"}, {"days": "Sat", "time": "10:30am"}, {"days": "Sun", "time": "Closed"}], "id": "8090300073", "name": "USPS COLLECTION BOX - BLUE BOX", "address": {"city": "COLORADO SPGS", "state": "CO", "street": "500 E UINTAH ST", "postcode": "80903"}}},
{"geometry": {"type": "Point", "coordinates": [-104.824230506, 38.8295967525]}, "type": "Feature", "properties": {"collection_times": [{"days": "Mon-Fri", "time": "1:30pm"}, {"days": "Sat-Sun", "time": "Closed"}], "id": "8090300076", "name": "USPS COLLECTION BOX - BLUE BOX", "address": {"city": "COLORADO SPGS", "state": "CO", "street": "27 E VERMIJO AVE", "postcode": "80903"}}},
{"geometry": {"type": "Point", "coordinates": [-104.8233077981, 38.8295624467]}, "type": "Feature", "properties": {"collection_times": [{"days": "Mon-Fri", "time": "11:45am"}, {"days": "Sat", "time": "11:00am"}, {"days": "Sun", "time": "Closed"}], "id": "8090300077", "name": "USPS COLLECTION BOX - BLUE BOX", "address": {"city": "COLORADO SPGS", "state": "CO", "street": "105 E VERMIJO AVE", "postcode": "80903"}}},
{"geometry": {"type": "Point", "coordinates": [-104.8236189163, 38.8318834122]}, "type": "Feature", "properties": {"collection_times": [{"days": "Mon-Fri", "time": "1:30pm"}, {"days": "Sat-Sun", "time": "Closed"}], "id": "8090300088", "name": "USPS COLLECTION BOX - BLUE BOX", "address": {"city": "COLORADO SPGS", "state": "CO", "street": "111 S TEJON ST", "postcode": "80903"}}},
{"geometry": {"type": "Point", "coordinates": [-104.821060176, 38.833791525]}, "type": "Feature", "properties": {"collection_times": [{"days": "Mon-Fri", "time": "5:30pm"}, {"days": "Sat", "time": "1:00pm"}, {"days": "Sun", "time": "Closed"}], "id": "8090300092", "name": "USPS COLLECTION BOX - BLUE BOX", "address": {"city": "COLORADO SPGS", "state": "CO", "street": "201 E PIKES PEAK AVE", "postcode": "80903"}}},
{"geometry": {"type": "Point", "coordinates": [-104.821060176, 38.833791525]}, "type": "Feature", "properties": {"collection_times": [{"days": "Mon-Fri", "time": "5:30pm"}, {"days": "Sat", "time": "1:00pm"}, {"days": "Sun", "time": "Closed"}], "id": "8090300093", "name": "USPS COLLECTION BOX - BLUE BOX", "address": {"city": "COLORADO SPGS", "state": "CO", "street": "201 E PIKES PEAK AVE", "postcode": "80903"}}},
{"geometry": {"type": "Point", "coordinates": [-104.821060176, 38.833791525]}, "type": "Feature", "properties": {"collection_times": [{"days": "Mon-Fri", "time": "5:30pm"}, {"days": "Sat", "time": "1:00pm"}, {"days": "Sun", "time": "Closed"}], "id": "8090300094", "name": "USPS COLLECTION BOX - BLUE BOX", "address": {"city": "COLORADO SPGS", "state": "CO", "street": "201 E PIKES PEAK AVE", "postcode": "80903"}}},
{"geometry": {"type": "Point", "coordinates": [-104.8255608764, 38.8325411891]}, "type": "Feature", "properties": {"collection_times": [{"days": "Mon-Fri", "time": "1:45pm"}, {"days": "Sat", "time": "12:30pm"}, {"days": "Sun", "time": "Closed"}], "id": "8090300097", "name": "USPS COLLECTION BOX - BLUE BOX", "address": {"city": "COLORADO SPGS", "state": "CO", "street": "100 S CASCADE AVE", "postcode": "80903"}}},
{"geometry": {"type": "Point", "coordinates": [-104.8253235601, 38.8362260545]}, "type": "Feature", "properties": {"collection_times": [{"days": "Mon-Fri", "time": "2:30pm"}, {"days": "Sat-Sun", "time": "Closed"}], "id": "8090300105", "name": "USPS COLLECTION BOX - BLUE BOX", "address": {"city": "COLORADO SPGS", "state": "CO", "street": "102 N CASCADE AVE", "postcode": "80903"}}},
{"geometry": {"type": "Point", "coordinates": [-104.821060176, 38.833791525]}, "type": "Feature", "properties": {"collection_times": [{"days": "Mon-Fri", "time": "5:30pm"}, {"days": "Sat", "time": "1:00pm"}, {"days": "Sun", "time": "Closed"}], "id": "8090300107", "name": "USPS COLLECTION BOX - PO LOBBY", "address": {"city": "COLORADO SPGS", "state": "CO", "street": "201 E PIKES PEAK AVE", "postcode": "80903"}}},
{"geometry": {"type": "Point", "coordinates": [-104.821060176, 38.833791525]}, "type": "Feature", "properties": {"collection_times": [{"days": "Mon-Fri", "time": "5:30pm"}, {"days": "Sat", "time": "1:00pm"}, {"days": "Sun", "time": "Closed"}], "id": "8090300108", "name": "USPS COLLECTION BOX - PO LOBBY", "address": {"city": "COLORADO SPGS", "state": "CO", "street": "201 E PIKES PEAK AVE", "postcode": "80903"}}},
{"geometry": {"type": "Point", "coordinates": [-104.821060176, 38.833791525]}, "type": "Feature", "properties": {"collection_times": [{"days": "Mon-Fri", "time": "5:30pm"}, {"days": "Sat", "time": "1:00pm"}, {"days": "Sun", "time": "Closed"}], "id": "8090300115", "name": "USPS COLLECTION BOX - BLUE BOX", "address": {"city": "COLORADO SPGS", "state": "CO", "street": "201 E PIKES PEAK AVE", "postcode": "80903"}}},
{"geometry": {"type": "Point", "coordinates": [-104.8254806902, 38.8343175152]}, "type": "Feature", "properties": {"collection_times": [{"days": "Mon-Fri", "time": "2:00pm"}, {"days": "Sat-Sun", "time": "Closed"}], "id": "8090300116", "name": "USPS COLLECTION BOX - BLUE BOX", "address": {"city": "COLORADO SPGS", "state": "CO", "street": "2 N CASCADE AVE", "postcode": "80903"}}},
{"geometry": {"type": "Point", "coordinates": [-104.8254323924, 38.8336909735]}, "type": "Feature", "properties": {"collection_times": [{"days": "Mon-Fri", "time": "1:45pm"}, {"days": "Sat", "time": "12:45pm"}, {"days": "Sun", "time": "Closed"}], "id": "8090300118", "name": "USPS COLLECTION BOX - BLUE BOX", "address": {"city": "COLORADO SPGS", "state": "CO", "street": "90 S CASCADE AVE", "postcode": "80903"}}},
{"geometry": {"type": "Point", "coordinates": [-104.8235065352, 38.8343013803]}, "type": "Feature", "properties": {"collection_times": [{"days": "Mon-Fri", "time": "2:00pm"}, {"days": "Sat", "time": "1:00pm"}, {"days": "Sun", "time": "Closed"}], "id": "8090300122", "name": "USPS COLLECTION BOX - BLUE BOX", "address": {"city": "COLORADO SPGS", "state": "CO", "street": "6 N TEJON ST", "postcode": "80903"}}},
{"geometry": {"type": "Point", "coordinates": [-104.821060176, 38.833791525]}, "type": "Feature", "properties": {"collection_times": [{"days": "Mon-Fri", "time": "5:30pm"}, {"days": "Sat", "time": "1:00pm"}, {"days": "Sun", "time": "Closed"}], "id": "8090300126", "name": "USPS COLLECTION BOX - APC", "address": {"city": "COLORADO SPGS", "state": "CO", "street": "201 E PIKES PEAK AVE", "postcode": "80903"}}},
{"geometry": {"type": "Point", "coordinates": [-104.8635970145, 38.8462989501]}, "type": "Feature", "properties": {"collection_times": [{"days": "Mon-Fri", "time": "5:00pm"}, {"days": "Sat", "time": "1:00pm"}, {"days": "Sun", "time": "Closed"}], "id": "8090400001", "name": "USPS COLLECTION BOX - BLUE BOX", "address": {"city": "COLORADO SPGS", "state": "CO", "street": "204 S 25TH ST", "postcode": "80904"}}},
{"geometry": {"type": "Point", "coordinates": [-104.8635970145, 38.8462989501]}, "type": "Feature", "properties": {"collection_times": [{"days": "Mon-Fri", "time": "5:00pm"}, {"days": "Sat", "time": "1:00pm"}, {"days": "Sun", "time": "Closed"}], "id": "8090400002", "name": "USPS COLLECTION BOX - BLUE BOX", "address": {"city": "COLORADO SPGS", "state": "CO", "street": "204 S 25TH ST", "postcode": "80904"}}},
{"geometry": {"type": "Point", "coordinates": [-104.8635970145, 38.8462989501]}, "type": "Feature", "properties": {"collection_times": [{"days": "Mon-Fri", "time": "5:00pm"}, {"days": "Sat", "time": "1:00pm"}, {"days": "Sun", "time": "Closed"}], "id": "8090400003", "name": "USPS COLLECTION BOX - BLUE BOX", "address": {"city": "COLORADO SPGS", "state": "CO", "street": "204 S 25TH ST", "postcode": "80904"}}},
{"geometry": {"type": "Point", "coordinates": [-104.8743227481, 38.8544090639]}, "type": "Feature", "properties": {"collection_times": [{"days": "Mon-Sat", "time": "12:00pm"}, {"days": "Sun", "time": "Closed"}], "id": "8090400017", "name": "USPS COLLECTION BOX - BLUE BOX", "address": {"city": "COLORADO SPGS", "state": "CO", "street": "3141 W COLORADO AVE", "postcode": "80904"}}},
{"geometry": {"type": "Point", "coordinates": [-104.8635970145, 38.8462989501]}, "type": "Feature", "properties": {"collection_times": [{"days": "Mon-Fri", "time": "5:00pm"}, {"days": "Sat", "time": "1:00pm"}, {"days": "Sun", "time": "Closed"}], "id": "8090400029", "name": "USPS COLLECTION BOX - PO LOBBY", "address": {"city": "COLORADO SPGS", "state": "CO", "street": "204 S 25TH ST", "postcode": "80904"}}},
{"geometry": {"type": "Point", "coordinates": [-104.8635970145, 38.8462989501]}, "type": "Feature", "properties": {"collection_times": [{"days": "Mon-Fri", "time": "5:00pm"}, {"days": "Sat", "time": "1:00pm"}, {"days": "Sun", "time": "Closed"}], "id": "8090400030", "name": "USPS COLLECTION BOX - PO LOBBY", "address": {"city": "COLORADO SPGS", "state": "CO", "street": "204 S 25TH ST", "postcode": "80904"}}},
{"geometry": {"type": "Point", "coordinates": [-104.8385100037, 38.8236062483]}, "type": "Feature", "properties": {"collection_times": [{"days": "Mon-Sat", "time": "11:15am"}, {"days": "Sun", "time": "Closed"}], "id": "8090500005", "name": "USPS COLLECTION BOX - BLUE BOX", "address": {"city": "COLORADO SPGS", "state": "CO", "street": "707 S 8TH ST", "postcode": "80905"}}},
{"geometry": {"type": "Point", "coordinates": [-104.8408581773, 38.8106090782]}, "type": "Feature", "properties": {"collection_times": [{"days": "Mon-Fri", "time": "5:30pm"}, {"days": "Sat", "time": "1:00pm"}, {"days": "Sun", "time": "Closed"}], "id": "8090500006", "name": "USPS COLLECTION BOX - BLUE BOX", "address": {"city": "COLORADO SPGS", "state": "CO", "street": "1540 S 8TH ST", "postcode": "80905"}}},
{"geometry": {"type": "Point", "coordinates": [-104.8408581773, 38.8106090782]}, "type": "Feature", "properties": {"collection_times": [{"days": "Mon-Fri", "time": "5:30pm"}, {"days": "Sat", "time": "1:00pm"}, {"days": "Sun", "time": "Closed"}], "id": "8090500007", "name": "USPS COLLECTION BOX - PO LOBBY", "address": {"city": "COLORADO SPGS", "state": "CO", "street": "1540 S 8TH ST", "postcode": "80905"}}},
{"geometry": {"type": "Point", "coordinates": [-104.8408581773, 38.8106090782]}, "type": "Feature", "properties": {"collection_times": [{"days": "Mon-Fri", "time": "5:30pm"}, {"days": "Sat", "time": "1:00pm"}, {"days": "Sun", "time": "Closed"}], "id": "8090500008", "name": "USPS COLLECTION BOX - PO LOBBY", "address": {"city": "COLORADO SPGS", "state": "CO", "street": "1540 S 8TH ST", "postcode": "80905"}}},
{"geometry": {"type": "Point", "coordinates": [-104.8408581773, 38.8106090782]}, "type": "Feature", "properties": {"collection_times": [{"days": "Mon-Fri", "time": "5:30pm"}, {"days": "Sat", "time": "1:00pm"}, {"days": "Sun", "time": "Closed"}], "id": "8090500010", "name": "USPS COLLECTION BOX - APC", "address": {"city": "COLORADO SPGS", "state": "CO", "street": "1540 S 8TH ST", "postcode": "80905"}}},
{"geometry": {"type": "Point", "coordinates": [-104.8125617988, 38.7774803123]}, "type": "Feature", "properties": {"collection_times": [{"days": "Mon-Fri", "time": "12:45pm"}, {"days": "Sat", "time": "12:00pm"}, {"days": "Sun", "time": "Closed"}], "id": "8090600005", "name": "USPS COLLECTION BOX - BLUE BOX", "address": {"city": "COLORADO SPGS", "state": "CO", "street": "815 CHEYENNE MEADOWS RD", "postcode": "80906"}}},
{"geometry": {"type": "Point", "coordinates": [-104.8200298188, 38.7884936603]}, "type": "Feature", "properties": {"collection_times": [{"days": "Mon-Fri", "time": "12:30pm"}, {"days": "Sat", "time": "11:30am"}, {"days": "Sun", "time": "Closed"}], "id": "8090600009", "name": "USPS COLLECTION BOX - BLUE BOX", "address": {"city": "COLORADO SPGS", "state": "CO", "street": "445 E CHEYENNE MOUNTAIN BLVD", "postcode": "80906"}}},
{"geometry": {"type": "Point", "coordinates": [-104.7939656839, 38.7962089187]}, "type": "Feature", "properties": {"collection_times": [{"days": "Mon-Fri", "time": "12:45pm"}, {"days": "Sat", "time": "12:00pm"}, {"days": "Sun", "time": "Closed"}], "id": "8090600012", "name": "USPS COLLECTION BOX - BLUE BOX", "address": {"city": "COLORADO SPGS", "state": "CO", "street": "2862 S CIRCLE DR", "postcode": "80906"}}},
{"geometry": {"type": "Point", "coordinates": [-104.8310372519, 38.7953086869]}, "type": "Feature", "properties": {"collection_times": [{"days": "Mon-Fri", "time": "12:15pm"}, {"days": "Sat", "time": "11:30am"}, {"days": "Sun", "time": "Closed"}], "id": "8090600015", "name": "USPS COLLECTION BOX - BLUE BOX", "address": {"city": "COLORADO SPGS", "state": "CO", "street": "155 LAKE AVE", "postcode": "80906"}}},
{"geometry": {"type": "Point", "coordinates": [-104.8224985188, 38.7841832121]}, "type": "Feature", "properties": {"collection_times": [{"days": "Mon-Fri", "time": "1:30pm"}, {"days": "Sat", "time": "12:30pm"}, {"days": "Sun", "time": "Closed"}], "id": "8090600021", "name": "USPS COLLECTION BOX - BLUE BOX", "address": {"city": "COLORADO SPGS", "state": "CO", "street": "1920 S NEVADA AVE", "postcode": "80906"}}},
{"geometry": {"type": "Point", "coordinates": [-104.8164336742, 38.77584474]}, "type": "Feature", "properties": {"collection_times": [{"days": "Mon-Fri", "time": "12:30pm"}, {"days": "Sat", "time": "11:45am"}, {"days": "Sun", "time": "Closed"}], "id": "8090600039", "name": "USPS COLLECTION BOX - BLUE BOX", "address": {"city": "COLORADO SPGS", "state": "CO", "street": "3647 STAR RANCH RD", "postcode": "80906"}}},
{"geometry": {"type": "Point", "coordinates": [-104.8047258786, 38.7943528561]}, "type": "Feature", "properties": {"collection_times": [{"days": "Mon-Fri", "time": "1:00pm"}, {"days": "Sat", "time": "12:15pm"}, {"days": "Sun", "time": "Closed"}], "id": "8090600042", "name": "USPS COLLECTION BOX - BLUE BOX", "address": {"city": "COLORADO SPGS", "state": "CO", "street": "1257 LAKE PLAZA DR", "postcode": "80906"}}},
{"geometry": {"type": "Point", "coordinates": [-104.7937645809, 38.7961852595]}, "type": "Feature", "properties": {"collection_times": [{"days": "Mon-Fri", "time": "12:45pm"}, {"days": "Sat", "time": "12:00pm"}, {"days": "Sun", "time": "Closed"}], "id": "8090600045", "name": "USPS COLLECTION BOX - BLUE BOX", "address": {"city": "COLORADO SPGS", "state": "CO", "street": "2864 S CIRCLE DR", "postcode": "80906"}}},
{"geometry": {"type": "Point", "coordinates": [-104.8008035249, 38.7939524997]}, "type": "Feature", "properties": {"collection_times": [{"days": "Mon-Fri", "time": "12:45pm"}, {"days": "Sat", "time": "12:15pm"}, {"days": "Sun", "time": "Closed"}], "id": "8090600046", "name": "USPS COLLECTION BOX - BLUE BOX", "address": {"city": "COLORADO SPGS", "state": "CO", "street": "1670 E CHEYENNE MOUNTAIN BLVD", "postcode": "80906"}}},
{"geometry": {"type": "Point", "coordinates": [-104.815959257, 38.7962349438]}, "type": "Feature", "properties": {"collection_times": [{"days": "Mon-Fri", "time": "1:00pm"}, {"days": "Sat", "time": "12:15pm"}, {"days": "Sun", "time": "Closed"}], "id": "8090600049", "name": "USPS COLLECTION BOX - BLUE BOX", "address": {"city": "COLORADO SPGS", "state": "CO", "street": "675 SOUTHPOINTE CT", "postcode": "80906"}}},
{"geometry": {"type": "Point", "coordinates": [-104.8245321022, 38.7898947626]}, "type": "Feature", "properties": {"collection_times": [{"days": "Mon-Fri", "time": "12:15pm"}, {"days": "Sat", "time": "11:30am"}, {"days": "Sun", "time": "Closed"}], "id": "8090600051", "name": "USPS COLLECTION BOX - BLUE BOX", "address": {"city": "COLORADO SPGS", "state": "CO", "street": "154 E CHEYENNE MOUNTAIN BLVD", "postcode": "80906"}}},
{"geometry": {"type": "Point", "coordinates": [-104.8152139928, 38.7658553746]}, "type": "Feature", "properties": {"collection_times": [{"days": "Mon-Fri", "time": "12:30pm"}, {"days": "Sat", "time": "11:45am"}, {"days": "Sun", "time": "Closed"}], "id": "8090600056", "name": "USPS COLLECTION BOX - BLUE BOX", "address": {"city": "COLORADO SPGS", "state": "CO", "street": "6520 S ACADEMY BLVD", "postcode": "80906"}}},
{"geometry": {"type": "Point", "coordinates": [-104.8171138249, 38.8603879914]}, "type": "Feature", "properties": {"collection_times": [{"days": "Mon-Fri", "time": "12:00pm"}, {"days": "Sat", "time": "11:00am"}, {"days": "Sun", "time": "Closed"}], "id": "8090700004", "name": "USPS COLLECTION BOX - BLUE BOX", "address": {"city": "COLORADO SPGS", "state": "CO", "street": "320 E FONTANERO ST", "postcode": "80907"}}},
{"geometry": {"type": "Point", "coordinates": [-104.8370260329, 38.8965971139]}, "type": "Feature", "properties": {"collection_times": [{"days": "Mon-Fri", "time": "11:45am"}, {"days": "Sat", "time": "10:30am"}, {"days": "Sun", "time": "Closed"}], "id": "8090700006", "name": "USPS COLLECTION BOX - BLUE BOX", "address": {"city": "COLORADO SPGS", "state": "CO", "street": "777 GARDEN OF THE GODS RD", "postcode": "80907"}}},
{"geometry": {"type": "Point", "coordinates": [-104.8111895664, 38.8736146556]}, "type": "Feature", "properties": {"collection_times": [{"days": "Mon-Fri", "time": "5:00pm"}, {"days": "Sat", "time": "1:00pm"}, {"days": "Sun", "time": "Closed"}], "id": "8090700015", "name": "USPS COLLECTION BOX - BLUE BOX", "address": {"city": "COLORADO SPGS", "state": "CO", "street": "2940 N PROSPECT ST", "postcode": "80907"}}},
{"geometry": {"type": "Point", "coordinates": [-104.8111895664, 38.8736146556]}, "type": "Feature", "properties": {"collection_times": [{"days": "Mon-Fri", "time": "5:00pm"}, {"days": "Sat", "time": "1:00pm"}, {"days": "Sun", "time": "Closed"}], "id": "8090700017", "name": "USPS COLLECTION BOX - PO LOBBY", "address": {"city": "COLORADO SPGS", "state": "CO", "street": "2940 N PROSPECT ST", "postcode": "80907"}}},
{"geometry": {"type": "Point", "coordinates": [-104.8099652039, 38.8638351338]}, "type": "Feature", "properties": {"collection_times": [{"days": "Mon-Fri", "time": "12:00pm"}, {"days": "Sat", "time": "10:45am"}, {"days": "Sun", "time": "Closed"}], "id": "8090700022", "name": "USPS COLLECTION BOX - BLUE BOX", "address": {"city": "COLORADO SPGS", "state": "CO", "street": "2129 TEMPLETON GAP RD", "postcode": "80907"}}},
{"geometry": {"type": "Point", "coordinates": [-104.8165022351, 38.8655681687]}, "type": "Feature", "properties": {"collection_times": [{"days": "Mon-Fri", "time": "12:00pm"}, {"days": "Sat", "time": "10:45am"}, {"days": "Sun", "time": "Closed"}], "id": "8090700023", "name": "USPS COLLECTION BOX - BLUE BOX", "address": {"city": "COLORADO SPGS", "state": "CO", "street": "2230 N WAHSATCH AVE", "postcode": "80907"}}},
{"geometry": {"type": "Point", "coordinates": [-104.8111895664, 38.8736146556]}, "type": "Feature", "properties": {"collection_times": [{"days": "Mon-Fri", "time": "5:00pm"}, {"days": "Sat", "time": "1:00pm"}, {"days": "Sun", "time": "Closed"}], "id": "8090700047", "name": "USPS COLLECTION BOX - PO LOBBY", "address": {"city": "COLORADO SPGS", "state": "CO", "street": "2940 N PROSPECT ST", "postcode": "80907"}}},
{"geometry": {"type": "Point", "coordinates": [-104.7972661394, 38.8745598398]}, "type": "Feature", "properties": {"collection_times": [{"days": "Mon-Fri", "time": "11:45am"}, {"days": "Sat", "time": "10:45am"}, {"days": "Sun", "time": "Closed"}], "id": "8090700049", "name": "USPS COLLECTION BOX - BLUE BOX", "address": {"city": "COLORADO SPGS", "state": "CO", "street": "1625 MEDICAL CENTER PT", "postcode": "80907"}}},
{"geometry": {"type": "Point", "coordinates": [-104.8515438456, 38.894098773]}, "type": "Feature", "properties": {"collection_times": [{"days": "Mon-Fri", "time": "11:30am"}, {"days": "Sat", "time": "10:30am"}, {"days": "Sun", "time": "Closed"}], "id": "8090700056", "name": "USPS COLLECTION BOX - BLUE BOX", "address": {"city": "COLORADO SPGS", "state": "CO", "street": "4315 CENTENNIAL BLVD", "postcode": "80907"}}},
{"geometry": {"type": "Point", "coordinates": [-104.8185215355, 38.8581494904]}, "type": "Feature", "properties": {"collection_times": [{"days": "Mon-Fri", "time": "12:15pm"}, {"days": "Sat", "time": "11:00am"}, {"days": "Sun", "time": "Closed"}], "id": "8090700057", "name": "USPS COLLECTION BOX - BLUE BOX", "address": {"city": "COLORADO SPGS", "state": "CO", "street": "1733 N WEBER ST", "postcode": "80907"}}},
{"geometry": {"type": "Point", "coordinates": [-104.8111895664, 38.8736146556]}, "type": "Feature", "properties": {"collection_times": [{"days": "Mon-Fri", "time": "5:00pm"}, {"days": "Sat", "time": "1:00pm"}, {"days": "Sun", "time": "Closed"}], "id": "8090700067", "name": "USPS COLLECTION BOX - APC", "address": {"city": "COLORADO SPGS", "state": "CO", "street": "2940 N PROSPECT ST", "postcode": "80907"}}},
{"geometry": {"type": "Point", "coordinates": [-104.7003356648, 38.9967382076]}, "type": "Feature", "properties": {"collection_times": [{"days": "Mon-Sat", "time": "1:45pm"}, {"days": "Sun", "time": "Closed"}], "id": "8090800000", "name": "USPS COLLECTION BOX - BLUE BOX", "address": {"city": "COLORADO SPGS", "state": "CO", "street": "11425 BLACK FOREST RD", "postcode": "80908"}}},
{"geometry": {"type": "Point", "coordinates": [-104.7003356648, 38.9967382076]}, "type": "Feature", "properties": {"collection_times": [{"days": "Mon-Sat", "time": "1:45pm"}, {"days": "Sun", "time": "Closed"}], "id": "8090800001", "name": "USPS COLLECTION BOX - BLUE BOX", "address": {"city": "COLORADO SPGS", "state": "CO", "street": "11425 BLACK FOREST RD", "postcode": "80908"}}},
{"geometry": {"type": "Point", "coordinates": [-104.7549422335, 38.8543572666]}, "type": "Feature", "properties": {"collection_times": [{"days": "Mon-Fri", "time": "12:30pm"}, {"days": "Sat", "time": "12:00pm"}, {"days": "Sun", "time": "Closed"}], "id": "8090900006", "name": "USPS COLLECTION BOX - BLUE BOX", "address": {"city": "COLORADO SPGS", "state": "CO", "street": "3921 PALMER PARK BLVD", "postcode": "80909"}}},
{"geometry": {"type": "Point", "coordinates": [-104.7941975438, 38.858671518]}, "type": "Feature", "properties": {"collection_times": [{"days": "Mon-Fri", "time": "12:00pm"}, {"days": "Sat", "time": "11:15am"}, {"days": "Sun", "time": "Closed"}], "id": "8090900010", "name": "USPS COLLECTION BOX - BLUE BOX", "address": {"city": "COLORADO SPGS", "state": "CO", "street": "1801 N UNION BLVD", "postcode": "80909"}}},
{"geometry": {"type": "Point", "coordinates": [-104.7992014603, 38.8387871607]}, "type": "Feature", "properties": {"collection_times": [{"days": "Mon-Fri", "time": "11:45am"}, {"days": "Sat", "time": "11:00am"}, {"days": "Sun", "time": "Closed"}], "id": "8090900014", "name": "USPS COLLECTION BOX - BLUE BOX", "address": {"city": "COLORADO SPGS", "state": "CO", "street": "1400 E BOULDER ST", "postcode": "80909"}}},
{"geometry": {"type": "Point", "coordinates": [-104.7544829972, 38.8679193739]}, "type": "Feature", "properties": {"collection_times": [{"days": "Mon-Fri", "time": "12:15pm"}, {"days": "Sat", "time": "11:30am"}, {"days": "Sun", "time": "Closed"}], "id": "8090900035", "name": "USPS COLLECTION BOX - BLUE BOX", "address": {"city": "COLORADO SPGS", "state": "CO", "street": "3960 MAIZELAND RD", "postcode": "80909"}}},
{"geometry": {"type": "Point", "coordinates": [-104.7756385633, 38.8327714625]}, "type": "Feature", "properties": {"collection_times": [{"days": "Mon-Fri", "time": "11:45am"}, {"days": "Sat", "time": "11:00am"}, {"days": "Sun", "time": "Closed"}], "id": "8090900039", "name": "USPS COLLECTION BOX - BLUE BOX", "address": {"city": "COLORADO SPGS", "state": "CO", "street": "2808 E PIKES PEAK AVE", "postcode": "80909"}}},
{"geometry": {"type": "Point", "coordinates": [-104.7786179743, 38.8489582419]}, "type": "Feature", "properties": {"collection_times": [{"days": "Mon-Fri", "time": "5:00pm"}, {"days": "Sat", "time": "1:00pm"}, {"days": "Sun", "time": "Closed"}], "id": "8090900041", "name": "USPS COLLECTION BOX - BLUE BOX", "address": {"city": "COLORADO SPGS", "state": "CO", "street": "2641 E UINTAH ST", "postcode": "80909"}}},
{"geometry": {"type": "Point", "coordinates": [-104.7786179743, 38.8489582419]}, "type": "Feature", "properties": {"collection_times": [{"days": "Mon-Fri", "time": "5:00pm"}, {"days": "Sat", "time": "1:00pm"}, {"days": "Sun", "time": "Closed"}], "id": "8090900043", "name": "USPS COLLECTION BOX - BLUE BOX", "address": {"city": "COLORADO SPGS", "state": "CO", "street": "2641 E UINTAH ST", "postcode": "80909"}}},
{"geometry": {"type": "Point", "coordinates": [-104.775771775, 38.8481798549]}, "type": "Feature", "properties": {"collection_times": [{"days": "Mon-Fri", "time": "12:00pm"}, {"days": "Sat", "time": "11:15am"}, {"days": "Sun", "time": "Closed"}], "id": "8090900052", "name": "USPS COLLECTION BOX - BLUE BOX", "address": {"city": "COLORADO SPGS", "state": "CO", "street": "1121 N CIRCLE DR", "postcode": "80909"}}},
{"geometry": {"type": "Point", "coordinates": [-104.7695257517, 38.8396992221]}, "type": "Feature", "properties": {"collection_times": [{"days": "Mon-Fri", "time": "1:15pm"}, {"days": "Sat", "time": "12:45pm"}, {"days": "Sun", "time": "Closed"}], "id": "8090900058", "name": "USPS COLLECTION BOX - BLUE BOX", "address": {"city": "COLORADO SPGS", "state": "CO", "street": "3201 E PLATTE AVE", "postcode": "80909"}}},
{"geometry": {"type": "Point", "coordinates": [-104.7786179743, 38.8489582419]}, "type": "Feature", "properties": {"collection_times": [{"days": "Mon-Fri", "time": "5:00pm"}, {"days": "Sat", "time": "1:00pm"}, {"days": "Sun", "time": "Closed"}], "id": "8090900062", "name": "USPS COLLECTION BOX - PO LOBBY", "address": {"city": "COLORADO SPGS", "state": "CO", "street": "2641 E UINTAH ST", "postcode": "80909"}}},
{"geometry": {"type": "Point", "coordinates": [-104.7786179743, 38.8489582419]}, "type": "Feature", "properties": {"collection_times": [{"days": "Mon-Fri", "time": "5:00pm"}, {"days": "Sat", "time": "1:00pm"}, {"days": "Sun", "time": "Closed"}], "id": "8090900063", "name": "USPS COLLECTION BOX - PO LOBBY", "address": {"city": "COLORADO SPGS", "state": "CO", "street": "2641 E UINTAH ST", "postcode": "80909"}}},
{"geometry": {"type": "Point", "coordinates": [-104.7939094376, 38.8735349668]}, "type": "Feature", "properties": {"collection_times": [{"days": "Mon-Fri", "time": "12:00pm"}, {"days": "Sat", "time": "11:30am"}, {"days": "Sun", "time": "Closed"}], "id": "8090900070", "name": "USPS COLLECTION BOX - BLUE BOX", "address": {"city": "COLORADO SPGS", "state": "CO", "street": "3050 N CIRCLE DR", "postcode": "80909"}}},
{"geometry": {"type": "Point", "coordinates": [-104.7589579923, 38.8137388932]}, "type": "Feature", "properties": {"collection_times": [{"days": "Mon-Fri", "time": "6:00pm"}, {"days": "Sat", "time": "1:00pm"}, {"days": "Sun", "time": "Closed"}], "id": "8091000011", "name": "USPS COLLECTION BOX - BLUE BOX", "address": {"city": "COLORADO SPGS", "state": "CO", "street": "3655 E FOUNTAIN BLVD", "postcode": "80910"}}},
{"geometry": {"type": "Point", "coordinates": [-104.7589579923, 38.8137388932]}, "type": "Feature", "properties": {"collection_times": [{"days": "Mon-Fri", "time": "6:00pm"}, {"days": "Sat", "time": "1:00pm"}, {"days": "Sun", "time": "Closed"}], "id": "8091000013", "name": "USPS COLLECTION BOX - BLUE BOX", "address": {"city": "COLORADO SPGS", "state": "CO", "street": "3655 E FOUNTAIN BLVD", "postcode": "80910"}}},
{"geometry": {"type": "Point", "coordinates": [-104.7589579923, 38.8137388932]}, "type": "Feature", "properties": {"collection_times": [{"days": "Mon-Fri", "time": "6:00pm"}, {"days": "Sat", "time": "1:00pm"}, {"days": "Sun", "time": "Closed"}], "id": "8091000014", "name": "USPS COLLECTION BOX - BLUE BOX", "address": {"city": "COLORADO SPGS", "state": "CO", "street": "3655 E FOUNTAIN BLVD", "postcode": "80910"}}},
{"geometry": {"type": "Point", "coordinates": [-104.758448064, 38.8251046576]}, "type": "Feature", "properties": {"collection_times": [{"days": "Mon-Fri", "time": "1:30pm"}, {"days": "Sat", "time": "12:45pm"}, {"days": "Sun", "time": "Closed"}], "id": "8091000021", "name": "USPS COLLECTION BOX - BLUE BOX", "address": {"city": "COLORADO SPGS", "state": "CO", "street": "411 LAKEWOOD CIR", "postcode": "80910"}}},
{"geometry": {"type": "Point", "coordinates": [-104.7589579923, 38.8137388932]}, "type": "Feature", "properties": {"collection_times": [{"days": "Mon-Fri", "time": "6:00pm"}, {"days": "Sat", "time": "1:00pm"}, {"days": "Sun", "time": "Closed"}], "id": "8091000023", "name": "USPS COLLECTION BOX - PO LOBBY", "address": {"city": "COLORADO SPGS", "state": "CO", "street": "3655 E FOUNTAIN BLVD", "postcode": "80910"}}},
{"geometry": {"type": "Point", "coordinates": [-104.7589579923, 38.8137388932]}, "type": "Feature", "properties": {"collection_times": [{"days": "Mon-Fri", "time": "6:00pm"}, {"days": "Sat", "time": "1:00pm"}, {"days": "Sun", "time": "Closed"}], "id": "8091000024", "name": "USPS COLLECTION BOX - PO LOBBY", "address": {"city": "COLORADO SPGS", "state": "CO", "street": "3655 E FOUNTAIN BLVD", "postcode": "80910"}}},
{"geometry": {"type": "Point", "coordinates": [-104.7589579923, 38.8137388932]}, "type": "Feature", "properties": {"collection_times": [{"days": "Mon-Fri", "time": "6:00pm"}, {"days": "Sat", "time": "1:00pm"}, {"days": "Sun", "time": "Closed"}], "id": "8091000025", "name": "USPS COLLECTION BOX - APC", "address": {"city": "COLORADO SPGS", "state": "CO", "street": "3655 E FOUNTAIN BLVD", "postcode": "80910"}}},
{"geometry": {"type": "Point", "coordinates": [-104.7949073192, 38.8292844513]}, "type": "Feature", "properties": {"collection_times": [{"days": "Mon-Fri", "time": "1:15pm"}, {"days": "Sat", "time": "12:45pm"}, {"days": "Sun", "time": "Closed"}], "id": "8091000038", "name": "USPS COLLECTION BOX - BLUE BOX", "address": {"city": "COLORADO SPGS", "state": "CO", "street": "175 S UNION BLVD", "postcode": "80910"}}},
{"geometry": {"type": "Point", "coordinates": [-104.7227135483, 38.7372016222]}, "type": "Feature", "properties": {"collection_times": [{"days": "Mon-Fri", "time": "11:30am"}, {"days": "Sat", "time": "10:30am"}, {"days": "Sun", "time": "Closed"}], "id": "8091100000", "name": "USPS COLLECTION BOX - BLUE BOX", "address": {"city": "COLORADO SPGS", "state": "CO", "street": "165 FONTAINE BLVD", "postcode": "80911"}}},
{"geometry": {"type": "Point", "coordinates": [-104.7203944087, 38.7480621252]}, "type": "Feature", "properties": {"collection_times": [{"days": "Mon-Fri", "time": "5:00pm"}, {"days": "Sat", "time": "2:00pm"}, {"days": "Sun", "time": "Closed"}], "id": "8091100004", "name": "USPS COLLECTION BOX - BLUE BOX", "address": {"city": "COLORADO SPGS", "state": "CO", "street": "5755 KITTERY DR", "postcode": "80911"}}},
{"geometry": {"type": "Point", "coordinates": [-104.7410868931, 38.7531624855]}, "type": "Feature", "properties": {"collection_times": [{"days": "Mon-Fri", "time": "11:30am"}, {"days": "Sat", "time": "10:30am"}, {"days": "Sun", "time": "Closed"}], "id": "8091100006", "name": "USPS COLLECTION BOX - BLUE BOX", "address": {"city": "COLORADO SPGS", "state": "CO", "street": "352 MAIN ST", "postcode": "80911"}}},
{"geometry": {"type": "Point", "coordinates": [-104.7203944087, 38.7480621252]}, "type": "Feature", "properties": {"collection_times": [{"days": "Mon-Fri", "time": "5:00pm"}, {"days": "Sat", "time": "2:00pm"}, {"days": "Sun", "time": "Closed"}], "id": "8091100013", "name": "USPS COLLECTION BOX - PO LOBBY", "address": {"city": "COLORADO SPGS", "state": "CO", "street": "5755 KITTERY DR", "postcode": "80911"}}},
{"geometry": {"type": "Point", "coordinates": [-104.7203944087, 38.7480621252]}, "type": "Feature", "properties": {"collection_times": [{"days": "Mon-Fri", "time": "5:00pm"}, {"days": "Sat", "time": "2:00pm"}, {"days": "Sun", "time": "Closed"}], "id": "8091100014", "name": "USPS COLLECTION BOX - PO LOBBY", "address": {"city": "COLORADO SPGS", "state": "CO", "street": "5755 KITTERY DR", "postcode": "80911"}}},
{"geometry": {"type": "Point", "coordinates": [-104.7203944087, 38.7480621252]}, "type": "Feature", "properties": {"collection_times": [{"days": "Mon-Fri", "time": "5:00pm"}, {"days": "Sat", "time": "2:00pm"}, {"days": "Sun", "time": "Closed"}], "id": "8091100016", "name": "USPS COLLECTION BOX - APC", "address": {"city": "COLORADO SPGS", "state": "CO", "street": "5755 KITTERY DR", "postcode": "80911"}}},
{"geometry": {"type": "Point", "coordinates": [-104.7882110202, 38.7391828344]}, "type": "Feature", "properties": {"collection_times": [{"days": "Mon-Fri", "time": "4:30pm"}, {"days": "Sat", "time": "12:00pm"}, {"days": "Sun", "time": "Closed"}], "id": "8091300013", "name": "USPS COLLECTION BOX - BLUE BOX", "address": {"city": "COLORADO SPRINGS", "state": "CO", "street": "1611 MCDONALD ST", "postcode": "80913"}}},
{"geometry": {"type": "Point", "coordinates": [-104.7882110202, 38.7391828344]}, "type": "Feature", "properties": {"collection_times": [{"days": "Mon-Fri", "time": "4:30pm"}, {"days": "Sat", "time": "12:00pm"}, {"days": "Sun", "time": "Closed"}], "id": "8091300014", "name": "USPS COLLECTION BOX - BLUE BOX", "address": {"city": "COLORADO SPRINGS", "state": "CO", "street": "1611 MCDONALD ST", "postcode": "80913"}}},
{"geometry": {"type": "Point", "coordinates": [-104.7838583849, 38.7405506668]}, "type": "Feature", "properties": {"collection_times": [{"days": "Mon-Fri", "time": "4:30pm"}, {"days": "Sat", "time": "12:00pm"}, {"days": "Sun", "time": "Closed"}], "id": "8091300015", "name": "USPS COLLECTION BOX - PO LOBBY", "address": {"city": "COLORADO SPRINGS", "state": "CO", "street": "1611 MCDONALD ST", "postcode": "80913"}}},
{"geometry": {"type": "Point", "coordinates": [-104.8093702585, 38.6122544007]}, "type": "Feature", "properties": {"collection_times": [{"days": "Mon-Fri", "time": "2:30pm"}, {"days": "Sat", "time": "12:30pm"}, {"days": "Sun", "time": "Closed"}], "id": "8091300018", "name": "USPS COLLECTION BOX - BLUE BOX", "address": {"city": "COLORADO SPRINGS", "state": "CO", "street": "1650 COCHRANE CIR", "postcode": "80913"}}},
{"geometry": {"type": "Point", "coordinates": [-104.7045398606, 38.8302228603]}, "type": "Feature", "properties": {"collection_times": [{"days": "Mon-Fri", "time": "1:00pm"}, {"days": "Sat", "time": "12:30pm"}, {"days": "Sun", "time": "Closed"}], "id": "8091400009", "name": "USPS COLLECTION BOX - BLUE BOX", "address": {"city": "COLORADO SPRINGS", "state": "CO", "street": "360 W OTIS ST", "postcode": "80914"}}},
{"geometry": {"type": "Point", "coordinates": [-104.7479289153, 38.8426076271]}, "type": "Feature", "properties": {"collection_times": [{"days": "Mon-Fri", "time": "12:45pm"}, {"days": "Sat", "time": "12:15pm"}, {"days": "Sun", "time": "Closed"}], "id": "8091500005", "name": "USPS COLLECTION BOX - BLUE BOX", "address": {"city": "COLORADO SPGS", "state": "CO", "street": "645 N MURRAY BLVD", "postcode": "80915"}}},
{"geometry": {"type": "Point", "coordinates": [-104.7005663418, 38.8585319288]}, "type": "Feature", "properties": {"collection_times": [{"days": "Mon-Fri", "time": "12:45pm"}, {"days": "Sat", "time": "12:15pm"}, {"days": "Sun", "time": "Closed"}], "id": "8091500008", "name": "USPS COLLECTION BOX - BLUE BOX", "address": {"city": "COLORADO SPGS", "state": "CO", "street": "1817 PETERSON RD", "postcode": "80915"}}},
{"geometry": {"type": "Point", "coordinates": [-104.716616729, 38.8462019475]}, "type": "Feature", "properties": {"collection_times": [{"days": "Mon-Fri", "time": "5:00pm"}, {"days": "Sat", "time": "1:00pm"}, {"days": "Sun", "time": "Closed"}], "id": "8091500011", "name": "USPS COLLECTION BOX - BLUE BOX", "address": {"city": "COLORADO SPGS", "state": "CO", "street": "5925 GALLEY RD", "postcode": "80915"}}},
{"geometry": {"type": "Point", "coordinates": [-104.716616729, 38.8462019475]}, "type": "Feature", "properties": {"collection_times": [{"days": "Mon-Fri", "time": "5:00pm"}, {"days": "Sat", "time": "1:00pm"}, {"days": "Sun", "time": "Closed"}], "id": "8091500020", "name": "USPS COLLECTION BOX - PO LOBBY", "address": {"city": "COLORADO SPGS", "state": "CO", "street": "5925 GALLEY RD", "postcode": "80915"}}},
{"geometry": {"type": "Point", "coordinates": [-104.716616729, 38.8462019475]}, "type": "Feature", "properties": {"collection_times": [{"days": "Mon-Fri", "time": "5:00pm"}, {"days": "Sat", "time": "1:00pm"}, {"days": "Sun", "time": "Closed"}], "id": "8091500021", "name": "USPS COLLECTION BOX - PO LOBBY", "address": {"city": "COLORADO SPGS", "state": "CO", "street": "5925 GALLEY RD", "postcode": "80915"}}},
{"geometry": {"type": "Point", "coordinates": [-104.716616729, 38.8462019475]}, "type": "Feature", "properties": {"collection_times": [{"days": "Mon-Fri", "time": "5:00pm"}, {"days": "Sat", "time": "1:00pm"}, {"days": "Sun", "time": "Closed"}], "id": "8091500022", "name": "USPS COLLECTION BOX - PO LOBBY", "address": {"city": "COLORADO SPGS", "state": "CO", "street": "5925 GALLEY RD", "postcode": "80915"}}},
{"geometry": {"type": "Point", "coordinates": [-104.7232531599, 38.8552162923]}, "type": "Feature", "properties": {"collection_times": [{"days": "Mon-Fri", "time": "12:45pm"}, {"days": "Sat", "time": "12:15pm"}, {"days": "Sun", "time": "Closed"}], "id": "8091500024", "name": "USPS COLLECTION BOX - BLUE BOX", "address": {"city": "COLORADO SPGS", "state": "CO", "street": "1575 SPACE CENTER DR", "postcode": "80915"}}},
{"geometry": {"type": "Point", "coordinates": [-104.716616729, 38.8462019475]}, "type": "Feature", "properties": {"collection_times": [{"days": "Mon-Fri", "time": "5:00pm"}, {"days": "Sat", "time": "1:00pm"}, {"days": "Sun", "time": "Closed"}], "id": "8091500025", "name": "USPS COLLECTION BOX - APC", "address": {"city": "COLORADO SPGS", "state": "CO", "street": "5925 GALLEY RD", "postcode": "80915"}}},
{"geometry": {"type": "Point", "coordinates": [-104.7568627116, 38.8799783802]}, "type": "Feature", "properties": {"collection_times": [{"days": "Mon-Fri", "time": "11:00am"}, {"days": "Sat", "time": "10:30am"}, {"days": "Sun", "time": "Closed"}], "id": "8091700001", "name": "USPS COLLECTION BOX - BLUE BOX", "address": {"city": "COLORADO SPGS", "state": "CO", "street": "3325 N ACADEMY BLVD", "postcode": "80917"}}},
{"geometry": {"type": "Point", "coordinates": [-104.7395223634, 38.8858689275]}, "type": "Feature", "properties": {"collection_times": [{"days": "Mon-Fri", "time": "12:45pm"}, {"days": "Sat", "time": "12:15pm"}, {"days": "Sun", "time": "Closed"}], "id": "8091700002", "name": "USPS COLLECTION BOX - BLUE BOX", "address": {"city": "COLORADO SPGS", "state": "CO", "street": "4715 N CAREFREE CIR", "postcode": "80917"}}},
{"geometry": {"type": "Point", "coordinates": [-104.7213529807, 38.8854347638]}, "type": "Feature", "properties": {"collection_times": [{"days": "Mon-Fri", "time": "1:00pm"}, {"days": "Sat", "time": "12:30pm"}, {"days": "Sun", "time": "Closed"}], "id": "8091700004", "name": "USPS COLLECTION BOX - BLUE BOX", "address": {"city": "COLORADO SPGS", "state": "CO", "street": "5720 N CAREFREE CIR", "postcode": "80917"}}},
{"geometry": {"type": "Point", "coordinates": [-104.7477758557, 38.8730526135]}, "type": "Feature", "properties": {"collection_times": [{"days": "Mon-Fri", "time": "1:00pm"}, {"days": "Sat", "time": "12:15pm"}, {"days": "Sun", "time": "Closed"}], "id": "8091700009", "name": "USPS COLLECTION BOX - BLUE BOX", "address": {"city": "COLORADO SPGS", "state": "CO", "street": "2855 N MURRAY BLVD", "postcode": "80917"}}},
{"geometry": {"type": "Point", "coordinates": [-104.7407410321, 38.9006572355]}, "type": "Feature", "properties": {"collection_times": [{"days": "Mon-Fri", "time": "12:45pm"}, {"days": "Sat", "time": "12:15pm"}, {"days": "Sun", "time": "Closed"}], "id": "8091700010", "name": "USPS COLLECTION BOX - BLUE BOX", "address": {"city": "COLORADO SPGS", "state": "CO", "street": "4700 ORO BLANCO DR", "postcode": "80917"}}},
{"geometry": {"type": "Point", "coordinates": [-104.7536509274, 38.8810083567]}, "type": "Feature", "properties": {"collection_times": [{"days": "Mon-Fri", "time": "11:30am"}, {"days": "Sat", "time": "10:30am"}, {"days": "Sun", "time": "Closed"}], "id": "8091700017", "name": "USPS COLLECTION BOX - BLUE BOX", "address": {"city": "COLORADO SPGS", "state": "CO", "street": "3434 W CAREFREE CIR", "postcode": "80917"}}},
{"geometry": {"type": "Point", "coordinates": [-104.7363248594, 38.8884919475]}, "type": "Feature", "properties": {"collection_times": [{"days": "Mon-Fri", "time": "5:30pm"}, {"days": "Sat", "time": "2:00pm"}, {"days": "Sun", "time": "Closed"}], "id": "8091700023", "name": "USPS COLLECTION BOX - APC", "address": {"city": "COLORADO SPGS", "state": "CO", "street": "4356 MONTEBELLO DR", "postcode": "80917"}}},
{"geometry": {"type": "Point", "coordinates": [-104.7879124396, 38.9123623051]}, "type": "Feature", "properties": {"collection_times": [{"days": "Mon-Fri", "time": "12:00pm"}, {"days": "Sat", "time": "11:00am"}, {"days": "Sun", "time": "Closed"}], "id": "8091800005", "name": "USPS COLLECTION BOX - BLUE BOX", "address": {"city": "COLORADO SPGS", "state": "CO", "street": "5691 N ACADEMY BLVD", "postcode": "80918"}}},
{"geometry": {"type": "Point", "coordinates": [-104.7739006684, 38.9257756887]}, "type": "Feature", "properties": {"collection_times": [{"days": "Mon-Fri", "time": "12:30pm"}, {"days": "Sat", "time": "12:00pm"}, {"days": "Sun", "time": "Closed"}], "id": "8091800022", "name": "USPS COLLECTION BOX - BLUE BOX", "address": {"city": "COLORADO SPGS", "state": "CO", "street": "2865 DUBLIN BLVD", "postcode": "80918"}}},
{"geometry": {"type": "Point", "coordinates": [-104.7567758199, 38.8948393053]}, "type": "Feature", "properties": {"collection_times": [{"days": "Mon-Fri", "time": "5:30pm"}, {"days": "Sat", "time": "2:00pm"}, {"days": "Sun", "time": "Closed"}], "id": "8091800027", "name": "USPS COLLECTION BOX - BLUE BOX", "address": {"city": "COLORADO SPGS", "state": "CO", "street": "4356 MONTEBELLO DR", "postcode": "80918"}}},
{"geometry": {"type": "Point", "coordinates": [-104.7567758199, 38.8948393053]}, "type": "Feature", "properties": {"collection_times": [{"days": "Mon-Fri", "time": "5:30pm"}, {"days": "Sat", "time": "2:00pm"}, {"days": "Sun", "time": "Closed"}], "id": "8091800028", "name": "USPS COLLECTION BOX - PO LOBBY", "address": {"city": "COLORADO SPGS", "state": "CO", "street": "4356 MONTEBELLO DR", "postcode": "80918"}}},
{"geometry": {"type": "Point", "coordinates": [-104.7567758199, 38.8948393053]}, "type": "Feature", "properties": {"collection_times": [{"days": "Mon-Fri", "time": "5:30pm"}, {"days": "Sat", "time": "2:00pm"}, {"days": "Sun", "time": "Closed"}], "id": "8091800029", "name": "USPS COLLECTION BOX - PO LOBBY", "address": {"city": "COLORADO SPGS", "state": "CO", "street": "4356 MONTEBELLO DR", "postcode": "80918"}}},
{"geometry": {"type": "Point", "coordinates": [-104.7955828603, 38.9316378928]}, "type": "Feature", "properties": {"collection_times": [{"days": "Mon-Fri", "time": "12:30pm"}, {"days": "Sat", "time": "11:30am"}, {"days": "Sun", "time": "Closed"}], "id": "8091800036", "name": "USPS COLLECTION BOX - BLUE BOX", "address": {"city": "COLORADO SPGS", "state": "CO", "street": "6982 N ACADEMY BLVD", "postcode": "80918"}}},
{"geometry": {"type": "Point", "coordinates": [-104.7953713177, 38.9256427641]}, "type": "Feature", "properties": {"collection_times": [{"days": "Mon-Fri", "time": "12:00pm"}, {"days": "Sat", "time": "11:30am"}, {"days": "Sun", "time": "Closed"}], "id": "8091800043", "name": "USPS COLLECTION BOX - BLUE BOX", "address": {"city": "COLORADO SPGS", "state": "CO", "street": "1714 DUBLIN BLVD", "postcode": "80918"}}},
{"geometry": {"type": "Point", "coordinates": [-104.7752181502, 38.9128001713]}, "type": "Feature", "properties": {"collection_times": [{"days": "Mon-Fri", "time": "11:45am"}, {"days": "Sat", "time": "11:00am"}, {"days": "Sun", "time": "Closed"}], "id": "8091800045", "name": "USPS COLLECTION BOX - BLUE BOX", "address": {"city": "COLORADO SPGS", "state": "CO", "street": "5550 N UNION BLVD", "postcode": "80918"}}},
{"geometry": {"type": "Point", "coordinates": [-104.7675241851, 38.9011846972]}, "type": "Feature", "properties": {"collection_times": [{"days": "Mon-Fri", "time": "11:45am"}, {"days": "Sat", "time": "10:30am"}, {"days": "Sun", "time": "Closed"}], "id": "8091800049", "name": "USPS COLLECTION BOX - BLUE BOX", "address": {"city": "COLORADO SPGS", "state": "CO", "street": "4790 N ACADEMY BLVD", "postcode": "80918"}}},
{"geometry": {"type": "Point", "coordinates": [-104.7780481919, 38.905366453]}, "type": "Feature", "properties": {"collection_times": [{"days": "Mon-Fri", "time": "11:45am"}, {"days": "Sat", "time": "11:00am"}, {"days": "Sun", "time": "Closed"}], "id": "8091800055", "name": "USPS COLLECTION BOX - BLUE BOX", "address": {"city": "COLORADO SPGS", "state": "CO", "street": "5160 N ACADEMY BLVD", "postcode": "80918"}}},
{"geometry": {"type": "Point", "coordinates": [-104.7801162951, 38.9117658268]}, "type": "Feature", "properties": {"collection_times": [{"days": "Mon-Fri", "time": "12:45pm"}, {"days": "Sat", "time": "12:00pm"}, {"days": "Sun", "time": "Closed"}], "id": "8091800056", "name": "USPS COLLECTION BOX - BLUE BOX", "address": {"city": "COLORADO SPGS", "state": "CO", "street": "7055 AUSTIN BLUFFS PKWY", "postcode": "80918"}}},
{"geometry": {"type": "Point", "coordinates": [-104.7567758199, 38.8948393053]}, "type": "Feature", "properties": {"collection_times": [{"days": "Mon-Fri", "time": "5:30pm"}, {"days": "Sat", "time": "2:00pm"}, {"days": "Sun", "time": "Closed"}], "id": "8091800057", "name": "USPS COLLECTION BOX - APC", "address": {"city": "COLORADO SPGS", "state": "CO", "street": "4356 MONTEBELLO DR", "postcode": "80918"}}},
{"geometry": {"type": "Point", "coordinates": [-104.8586889177, 38.9037339738]}, "type": "Feature", "properties": {"collection_times": [{"days": "Mon-Fri", "time": "5:00pm"}, {"days": "Sat", "time": "1:00pm"}, {"days": "Sun", "time": "Closed"}], "id": "8091900001", "name": "USPS COLLECTION BOX - BLUE BOX", "address": {"city": "COLORADO SPGS", "state": "CO", "street": "5001 CENTENNIAL BLVD", "postcode": "80919"}}},
{"geometry": {"type": "Point", "coordinates": [-104.8439669124, 38.9223339316]}, "type": "Feature", "properties": {"collection_times": [{"days": "Mon-Sat", "time": "12:30pm"}, {"days": "Sun", "time": "Closed"}], "id": "8091900017", "name": "USPS COLLECTION BOX - BLUE BOX", "address": {"city": "COLORADO SPGS", "state": "CO", "street": "840 VILLAGE CENTER DR", "postcode": "80919"}}},
{"geometry": {"type": "Point", "coordinates": [-104.864014599, 38.9289724033]}, "type": "Feature", "properties": {"collection_times": [{"days": "Mon-Sat", "time": "12:30pm"}, {"days": "Sun", "time": "Closed"}], "id": "8091900021", "name": "USPS COLLECTION BOX - BLUE BOX", "address": {"city": "COLORADO SPGS", "state": "CO", "street": "6820 CENTENNIAL BLVD", "postcode": "80919"}}},
{"geometry": {"type": "Point", "coordinates": [-104.8151311857, 38.9311880855]}, "type": "Feature", "properties": {"collection_times": [{"days": "Mon-Fri", "time": "1:00pm"}, {"days": "Sat", "time": "12:45pm"}, {"days": "Sun", "time": "Closed"}], "id": "8091900023", "name": "USPS COLLECTION BOX - BLUE BOX", "address": {"city": "COLORADO SPGS", "state": "CO", "street": "6600 DELMONICO DR", "postcode": "80919"}}},
{"geometry": {"type": "Point", "coordinates": [-104.8299866353, 38.9269965474]}, "type": "Feature", "properties": {"collection_times": [{"days": "Mon-Fri", "time": "1:00pm"}, {"days": "Sat", "time": "12:45pm"}, {"days": "Sun", "time": "Closed"}], "id": "8091900036", "name": "USPS COLLECTION BOX - BLUE BOX", "address": {"city": "COLORADO SPGS", "state": "CO", "street": "6600 DELMONICO DR", "postcode": "80919"}}},
{"geometry": {"type": "Point", "coordinates": [-104.8219435491, 38.9140298773]}, "type": "Feature", "properties": {"collection_times": [{"days": "Mon-Sat", "time": "12:45pm"}, {"days": "Sun", "time": "Closed"}], "id": "8091900038", "name": "USPS COLLECTION BOX - BLUE BOX", "address": {"city": "COLORADO SPGS", "state": "CO", "street": "5745 MARK DABLING BLVD", "postcode": "80919"}}},
{"geometry": {"type": "Point", "coordinates": [-104.8586889177, 38.9037339738]}, "type": "Feature", "properties": {"collection_times": [{"days": "Mon-Fri", "time": "5:00pm"}, {"days": "Sat", "time": "1:00pm"}, {"days": "Sun", "time": "Closed"}], "id": "8091900040", "name": "USPS COLLECTION BOX - APC", "address": {"city": "COLORADO SPGS", "state": "CO", "street": "5001 CENTENNIAL BLVD", "postcode": "80919"}}},
{"geometry": {"type": "Point", "coordinates": [-104.8586889177, 38.9037339738]}, "type": "Feature", "properties": {"collection_times": [{"days": "Mon-Fri", "time": "5:00pm"}, {"days": "Sat", "time": "1:00pm"}, {"days": "Sun", "time": "Closed"}], "id": "8091900043", "name": "USPS COLLECTION BOX - PO LOBBY", "address": {"city": "COLORADO SPGS", "state": "CO", "street": "5001 CENTENNIAL BLVD", "postcode": "80919"}}},
{"geometry": {"type": "Point", "coordinates": [-104.8586889177, 38.9037339738]}, "type": "Feature", "properties": {"collection_times": [{"days": "Mon-Fri", "time": "5:00pm"}, {"days": "Sat", "time": "1:00pm"}, {"days": "Sun", "time": "Closed"}], "id": "8091900044", "name": "USPS COLLECTION BOX - PO LOBBY", "address": {"city": "COLORADO SPGS", "state": "CO", "street": "5001 CENTENNIAL BLVD", "postcode": "80919"}}},
{"geometry": {"type": "Point", "coordinates": [-104.8083268057, 38.9471603974]}, "type": "Feature", "properties": {"collection_times": [{"days": "Mon-Fri", "time": "2:30pm"}, {"days": "Sat-Sun", "time": "Closed"}], "id": "8092000009", "name": "USPS COLLECTION BOX - BLUE BOX", "address": {"city": "COLORADO SPGS", "state": "CO", "street": "1155 KELLY JOHNSON BLVD", "postcode": "80920"}}},
{"geometry": {"type": "Point", "coordinates": [-104.7962168548, 38.9598724744]}, "type": "Feature", "properties": {"collection_times": [{"days": "Mon-Sat", "time": "2:30pm"}, {"days": "Sun", "time": "Closed"}], "id": "8092000011", "name": "USPS COLLECTION BOX - BLUE BOX", "address": {"city": "COLORADO SPGS", "state": "CO", "street": "1755 TELSTAR DR", "postcode": "80920"}}},
{"geometry": {"type": "Point", "coordinates": [-104.8109092051, 38.9349368824]}, "type": "Feature", "properties": {"collection_times": [{"days": "Mon-Sat", "time": "11:00am"}, {"days": "Sun", "time": "Closed"}], "id": "8092000015", "name": "USPS COLLECTION BOX - BLUE BOX", "address": {"city": "COLORADO SPGS", "state": "CO", "street": "7150 CAMPUS DR", "postcode": "80920"}}},
{"geometry": {"type": "Point", "coordinates": [-104.7746584632, 38.9429242467]}, "type": "Feature", "properties": {"collection_times": [{"days": "Mon-Sat", "time": "2:00pm"}, {"days": "Sun", "time": "Closed"}], "id": "8092000022", "name": "USPS COLLECTION BOX - BLUE BOX", "address": {"city": "COLORADO SPGS", "state": "CO", "street": "7649 N UNION BLVD", "postcode": "80920"}}},
{"geometry": {"type": "Point", "coordinates": [-104.7882425284, 38.9593839124]}, "type": "Feature", "properties": {"collection_times": [{"days": "Mon-Fri", "time": "5:30pm"}, {"days": "Sat", "time": "3:00pm"}, {"days": "Sun", "time": "Closed"}], "id": "8092000025", "name": "USPS COLLECTION BOX - BLUE BOX", "address": {"city": "COLORADO SPGS", "state": "CO", "street": "8585 CRITERION DR", "postcode": "80920"}}},
{"geometry": {"type": "Point", "coordinates": [-104.7882425284, 38.9593839124]}, "type": "Feature", "properties": {"collection_times": [{"days": "Mon-Fri", "time": "5:30pm"}, {"days": "Sat", "time": "3:00pm"}, {"days": "Sun", "time": "Closed"}], "id": "8092000026", "name": "USPS COLLECTION BOX - PO LOBBY", "address": {"city": "COLORADO SPGS", "state": "CO", "street": "8585 CRITERION DR", "postcode": "80920"}}},
{"geometry": {"type": "Point", "coordinates": [-104.7882425284, 38.9593839124]}, "type": "Feature", "properties": {"collection_times": [{"days": "Mon-Fri", "time": "5:30pm"}, {"days": "Sat", "time": "3:00pm"}, {"days": "Sun", "time": "Closed"}], "id": "8092000028", "name": "USPS COLLECTION BOX - PO LOBBY", "address": {"city": "COLORADO SPGS", "state": "CO", "street": "8585 CRITERION DR", "postcode": "80920"}}},
{"geometry": {"type": "Point", "coordinates": [-104.7604775635, 38.9384256358]}, "type": "Feature", "properties": {"collection_times": [{"days": "Mon-Sat", "time": "2:00pm"}, {"days": "Sun", "time": "Closed"}], "id": "8092000029", "name": "USPS COLLECTION BOX - BLUE BOX", "address": {"city": "COLORADO SPGS", "state": "CO", "street": "3540 HARTSEL DR", "postcode": "80920"}}},
{"geometry": {"type": "Point", "coordinates": [-104.7896443348, 38.9669063485]}, "type": "Feature", "properties": {"collection_times": [{"days": "Mon-Fri", "time": "2:15pm"}, {"days": "Sat-Sun", "time": "Closed"}], "id": "8092000030", "name": "USPS COLLECTION BOX - BLUE BOX", "address": {"city": "COLORADO SPGS", "state": "CO", "street": "9240 EXPLORER DR", "postcode": "80920"}}},
{"geometry": {"type": "Point", "coordinates": [-104.7635660044, 38.9599103291]}, "type": "Feature", "properties": {"collection_times": [{"days": "Mon-Fri", "time": "2:15pm"}, {"days": "Sat-Sun", "time": "Closed"}], "id": "8092000035", "name": "USPS COLLECTION BOX - BLUE BOX", "address": {"city": "COLORADO SPGS", "state": "CO", "street": "8890 N UNION BLVD", "postcode": "80920"}}},
{"geometry": {"type": "Point", "coordinates": [-104.7643727824, 38.9585865981]}, "type": "Feature", "properties": {"collection_times": [{"days": "Mon-Sat", "time": "2:15pm"}, {"days": "Sun", "time": "Closed"}], "id": "8092000037", "name": "USPS COLLECTION BOX - BLUE BOX", "address": {"city": "COLORADO SPGS", "state": "CO", "street": "8750 N UNION BLVD", "postcode": "80920"}}},
{"geometry": {"type": "Point", "coordinates": [-104.7251707053, 38.9402377215]}, "type": "Feature", "properties": {"collection_times": [{"days": "Mon-Sat", "time": "1:45pm"}, {"days": "Sun", "time": "Closed"}], "id": "8092000038", "name": "USPS COLLECTION BOX - BLUE BOX", "address": {"city": "COLORADO SPGS", "state": "CO", "street": "5550 E WOODMEN RD", "postcode": "80920"}}},
{"geometry": {"type": "Point", "coordinates": [-104.7882425284, 38.9593839124]}, "type": "Feature", "properties": {"collection_times": [{"days": "Mon-Fri", "time": "5:30pm"}, {"days": "Sat", "time": "3:00pm"}, {"days": "Sun", "time": "Closed"}], "id": "8092000039", "name": "USPS COLLECTION BOX - APC", "address": {"city": "COLORADO SPGS", "state": "CO", "street": "8585 CRITERION DR", "postcode": "80920"}}},
{"geometry": {"type": "Point", "coordinates": [-104.7626472157, 38.9368421088]}, "type": "Feature", "properties": {"collection_times": [{"days": "Mon-Sat", "time": "2:00pm"}, {"days": "Sun", "time": "Closed"}], "id": "8092000043", "name": "USPS COLLECTION BOX - BLUE BOX", "address": {"city": "COLORADO SPGS", "state": "CO", "street": "3280 E WOODMEN RD", "postcode": "80920"}}},
{"geometry": {"type": "Point", "coordinates": [-104.8300880786, 39.0324113017]}, "type": "Feature", "properties": {"collection_times": [{"days": "Mon-Sat", "time": "1:30pm"}, {"days": "Sun", "time": "Closed"}], "id": "8092100002", "name": "USPS COLLECTION BOX - BLUE BOX", "address": {"city": "COLORADO SPGS", "state": "CO", "street": "13854 GLENEAGLE DR", "postcode": "80921"}}},
{"geometry": {"type": "Point", "coordinates": [-104.8426949399, 39.0567023285]}, "type": "Feature", "properties": {"collection_times": [{"days": "Mon-Sat", "time": "1:30pm"}, {"days": "Sun", "time": "Closed"}], "id": "8092100005", "name": "USPS COLLECTION BOX - BLUE BOX", "address": {"city": "COLORADO SPGS", "state": "CO", "street": "1070 W BAPTIST RD", "postcode": "80921"}}},
{"geometry": {"type": "Point", "coordinates": [-104.7012381053, 38.8926606194]}, "type": "Feature", "properties": {"collection_times": [{"days": "Mon-Fri", "time": "1:00pm"}, {"days": "Sat", "time": "12:30pm"}, {"days": "Sun", "time": "Closed"}], "id": "8092200001", "name": "USPS COLLECTION BOX - BLUE BOX", "address": {"city": "COLORADO SPRINGS", "state": "CO", "street": "2890 N POWERS BLVD", "postcode": "80922"}}},
{"geometry": {"type": "Point", "coordinates": [-104.7204690996, 38.9243226745]}, "type": "Feature", "properties": {"collection_times": [{"days": "Mon-Fri", "time": "1:00pm"}, {"days": "Sat", "time": "12:45pm"}, {"days": "Sun", "time": "Closed"}], "id": "8092300001", "name": "USPS COLLECTION BOX - BLUE BOX", "address": {"city": "COLORADO SPRINGS", "state": "CO", "street": "6020 STETSON HILLS BLVD", "postcode": "80923"}}},
{"geometry": {"type": "Point", "coordinates": [-104.7204690996, 38.9243226745]}, "type": "Feature", "properties": {"collection_times": [{"days": "Mon-Fri", "time": "1:00pm"}, {"days": "Sat", "time": "12:45pm"}, {"days": "Sun", "time": "Closed"}], "id": "8092300002", "name": "USPS COLLECTION BOX - BLUE BOX", "address": {"city": "COLORADO SPRINGS", "state": "CO", "street": "6020 STETSON HILLS BLVD", "postcode": "80923"}}},
{"geometry": {"type": "Point", "coordinates": [-104.4141590163, 38.6314179489]}, "type": "Feature", "properties": {"collection_times": [{"days": "Mon-Sat", "time": "11:30am"}, {"days": "Sun", "time": "Closed"}], "id": "8092800002", "name": "USPS COLLECTION BOX - BLUE BOX", "address": {"city": "COLORADO SPRINGS", "state": "CO", "street": "1 SCHRIEVER AFB", "postcode": "80928"}}},
{"geometry": {"type": "Point", "coordinates": [-104.4141590163, 38.6314179489]}, "type": "Feature", "properties": {"collection_times": [{"days": "Mon-Sat", "time": "11:30am"}, {"days": "Sun", "time": "Closed"}], "id": "8092800003", "name": "USPS COLLECTION BOX - BLUE BOX", "address": {"city": "COLORADO SPRINGS", "state": "CO", "street": "1 SCHRIEVER AFB STA", "postcode": "80928"}}}
]}
