{"type": "FeatureCollection", "features": [
{"geometry": {"type": "Point", "coordinates": [-104.600018052, 38.2755145743]}, "type": "Feature", "properties": {"collection_times": [{"days": "Mon-Fri", "time": "1:00pm"}, {"days": "Sat-Sun", "time": "Closed"}], "id": "8100100007", "name": "USPS COLLECTION BOX - BLUE BOX", "address": {"city": "PUEBLO", "state": "CO", "street": "905 N ERIE AVE", "postcode": "81001"}}},
{"geometry": {"type": "Point", "coordinates": [-104.4960038654, 38.2836951899]}, "type": "Feature", "properties": {"collection_times": [{"days": "Mon-Fri", "time": "11:00am"}, {"days": "Sat-Sun", "time": "Closed"}], "id": "8100100010", "name": "USPS COLLECTION BOX - BLUE BOX", "address": {"city": "PUEBLO", "state": "CO", "street": "31201 BRYAN CIR", "postcode": "81001"}}},
{"geometry": {"type": "Point", "coordinates": [-104.594172007, 38.2862542867]}, "type": "Feature", "properties": {"collection_times": [{"days": "Mon-Fri", "time": "5:00pm"}, {"days": "Sat", "time": "3:00pm"}, {"days": "Sun", "time": "Closed"}], "id": "8100100032", "name": "USPS COLLECTION BOX - BLUE BOX", "address": {"city": "PUEBLO", "state": "CO", "street": "1025 E US HIGHWAY 50 BYP", "postcode": "81001"}}},
{"geometry": {"type": "Point", "coordinates": [-104.594172007, 38.2862542867]}, "type": "Feature", "properties": {"collection_times": [{"days": "Mon-Fri", "time": "5:00pm"}, {"days": "Sat", "time": "3:00pm"}, {"days": "Sun", "time": "Closed"}], "id": "8100100033", "name": "USPS COLLECTION BOX - BLUE BOX", "address": {"city": "PUEBLO", "state": "CO", "street": "1025 E US HIGHWAY 50 BYP", "postcode": "81001"}}},
{"geometry": {"type": "Point", "coordinates": [-104.5882695305, 38.2747833687]}, "type": "Feature", "properties": {"collection_times": [{"days": "Mon-Sat", "time": "1:00pm"}, {"days": "Sun", "time": "Closed"}], "id": "8100100040", "name": "USPS COLLECTION BOX - BLUE BOX", "address": {"city": "PUEBLO", "state": "CO", "street": "1322 E 8TH ST", "postcode": "81001"}}},
{"geometry": {"type": "Point", "coordinates": [-104.5984727834, 38.316403282]}, "type": "Feature", "properties": {"collection_times": [{"days": "Mon-Sat", "time": "1:00pm"}, {"days": "Sun", "time": "Closed"}], "id": "8100100042", "name": "USPS COLLECTION BOX - BLUE BOX", "address": {"city": "PUEBLO", "state": "CO", "street": "4001 JERRY MURPHY RD", "postcode": "81001"}}},
{"geometry": {"type": "Point", "coordinates": [-104.5827889104, 38.2869234026]}, "type": "Feature", "properties": {"collection_times": [{"days": "Mon-Fri", "time": "4:45pm"}, {"days": "Sat", "time": "11:45am"}, {"days": "Sun", "time": "Closed"}], "id": "8100100043", "name": "USPS COLLECTION BOX - PO LOBBY", "address": {"city": "PUEBLO", "state": "CO", "street": "1025 E US HIGHWAY 50 BYP", "postcode": "81001"}}},
{"geometry": {"type": "Point", "coordinates": [-104.6086511039, 38.2708672901]}, "type": "Feature", "properties": {"collection_times": [{"days": "Mon-Fri", "time": "3:00pm"}, {"days": "Sat", "time": "12:30pm"}, {"days": "Sun", "time": "Closed"}], "id": "8100300010", "name": "USPS COLLECTION BOX - BLUE BOX", "address": {"city": "PUEBLO", "state": "CO", "street": "421 N MAIN ST", "postcode": "81003"}}},
{"geometry": {"type": "Point", "coordinates": [-104.6086511039, 38.2708672901]}, "type": "Feature", "properties": {"collection_times": [{"days": "Mon-Fri", "time": "3:00pm"}, {"days": "Sat", "time": "12:30pm"}, {"days": "Sun", "time": "Closed"}], "id": "8100300012", "name": "USPS COLLECTION BOX - BLUE BOX", "address": {"city": "PUEBLO", "state": "CO", "street": "421 N MAIN ST", "postcode": "81003"}}},
{"geometry": {"type": "Point", "coordinates": [-104.6177019585, 38.2723341608]}, "type": "Feature", "properties": {"collection_times": [{"days": "Mon-Fri", "time": "4:15pm"}, {"days": "Sat", "time": "4:00pm"}, {"days": "Sun", "time": "Closed"}], "id": "8100300015", "name": "USPS COLLECTION BOX - BLUE BOX", "address": {"city": "PUEBLO", "state": "CO", "street": "1000 W 6TH ST STE U", "postcode": "81003"}}},
{"geometry": {"type": "Point", "coordinates": [-104.6086842844, 38.2725315009]}, "type": "Feature", "properties": {"collection_times": [{"days": "Mon-Fri", "time": "3:00pm"}, {"days": "Sat-Sun", "time": "Closed"}], "id": "8100300018", "name": "USPS COLLECTION BOX - BLUE BOX", "address": {"city": "PUEBLO", "state": "CO", "street": "601 N MAIN ST", "postcode": "81003"}}},
{"geometry": {"type": "Point", "coordinates": [-104.6101449974, 38.2716129362]}, "type": "Feature", "properties": {"collection_times": [{"days": "Mon-Fri", "time": "3:00pm"}, {"days": "Sat", "time": "12:30pm"}, {"days": "Sun", "time": "Closed"}], "id": "8100300019", "name": "USPS COLLECTION BOX - BLUE BOX", "address": {"city": "PUEBLO", "state": "CO", "street": "301 W 5TH ST", "postcode": "81003"}}},
{"geometry": {"type": "Point", "coordinates": [-104.6101449974, 38.2716129362]}, "type": "Feature", "properties": {"collection_times": [{"days": "Mon-Fri", "time": "3:00pm"}, {"days": "Sat", "time": "12:30pm"}, {"days": "Sun", "time": "Closed"}], "id": "8100300022", "name": "USPS COLLECTION BOX - BLUE BOX", "address": {"city": "PUEBLO", "state": "CO", "street": "301 W 5TH ST", "postcode": "81003"}}},
{"geometry": {"type": "Point", "coordinates": [-104.6086918036, 38.2744132169]}, "type": "Feature", "properties": {"collection_times": [{"days": "Mon-Fri", "time": "1:00pm"}, {"days": "Sat", "time": "12:30pm"}, {"days": "Sun", "time": "Closed"}], "id": "8100300025", "name": "USPS COLLECTION BOX - BLUE BOX", "address": {"city": "PUEBLO", "state": "CO", "street": "201 W 8TH ST", "postcode": "81003"}}},
{"geometry": {"type": "Point", "coordinates": [-104.6167733743, 38.2724445878]}, "type": "Feature", "properties": {"collection_times": [{"days": "Mon-Fri", "time": "3:00pm"}, {"days": "Sat", "time": "12:45pm"}, {"days": "Sun", "time": "Closed"}], "id": "8100300029", "name": "USPS COLLECTION BOX - BLUE BOX", "address": {"city": "PUEBLO", "state": "CO", "street": "825 W 6TH ST", "postcode": "81003"}}},
{"geometry": {"type": "Point", "coordinates": [-104.6181821322, 38.2706602081]}, "type": "Feature", "properties": {"collection_times": [{"days": "Mon-Fri", "time": "12:30pm"}, {"days": "Sat", "time": "12:45pm"}, {"days": "Sun", "time": "Closed"}], "id": "8100300030", "name": "USPS COLLECTION BOX - BLUE BOX", "address": {"city": "PUEBLO", "state": "CO", "street": "803 W 4TH ST", "postcode": "81003"}}},
{"geometry": {"type": "Point", "coordinates": [-104.616136906, 38.2626594503]}, "type": "Feature", "properties": {"collection_times": [{"days": "Mon-Fri", "time": "1:00pm"}, {"days": "Sat-Sun", "time": "Closed"}], "id": "8100300035", "name": "USPS COLLECTION BOX - BLUE BOX", "address": {"city": "PUEBLO", "state": "CO", "street": "129 W B ST", "postcode": "81003"}}},
{"geometry": {"type": "Point", "coordinates": [-104.6126984639, 38.2826615498]}, "type": "Feature", "properties": {"collection_times": [{"days": "Mon-Fri", "time": "12:00pm"}, {"days": "Sat-Sun", "time": "Closed"}], "id": "8100300038", "name": "USPS COLLECTION BOX - BLUE BOX", "address": {"city": "PUEBLO", "state": "CO", "street": "400 W 16TH ST", "postcode": "81003"}}},
{"geometry": {"type": "Point", "coordinates": [-104.6146744063, 38.2781307735]}, "type": "Feature", "properties": {"collection_times": [{"days": "Mon-Sat", "time": "12:00pm"}, {"days": "Sun", "time": "Closed"}], "id": "8100300044", "name": "USPS COLLECTION BOX - BLUE BOX", "address": {"city": "PUEBLO", "state": "CO", "street": "1214 N ELIZABETH ST", "postcode": "81003"}}},
{"geometry": {"type": "Point", "coordinates": [-104.608662938, 38.271625175]}, "type": "Feature", "properties": {"collection_times": [{"days": "Mon-Fri", "time": "2:00pm"}, {"days": "Sat-Sun", "time": "Closed"}], "id": "8100300065", "name": "USPS COLLECTION BOX - BLUE BOX", "address": {"city": "PUEBLO", "state": "CO", "street": "503 N MAIN ST", "postcode": "81003"}}},
{"geometry": {"type": "Point", "coordinates": [-104.6177019585, 38.2723341608]}, "type": "Feature", "properties": {"collection_times": [{"days": "Mon-Fri", "time": "4:15pm"}, {"days": "Sat-Sun", "time": "Closed"}], "id": "8100300067", "name": "USPS COLLECTION BOX - PO LOBBY", "address": {"city": "PUEBLO", "state": "CO", "street": "1000 W 6TH ST STE U", "postcode": "81003"}}},
{"geometry": {"type": "Point", "coordinates": [-104.6085548991, 38.2736384094]}, "type": "Feature", "properties": {"collection_times": [{"days": "Mon-Fri", "time": "1:00pm"}, {"days": "Sat", "time": "12:30pm"}, {"days": "Sun", "time": "Closed"}], "id": "8100300068", "name": "USPS COLLECTION BOX - BLUE BOX", "address": {"city": "PUEBLO", "state": "CO", "street": "720 N MAIN ST", "postcode": "81003"}}},
{"geometry": {"type": "Point", "coordinates": [-104.6086918036, 38.2744132169]}, "type": "Feature", "properties": {"collection_times": [{"days": "Mon-Fri", "time": "1:00pm"}, {"days": "Sat", "time": "12:30pm"}, {"days": "Sun", "time": "Closed"}], "id": "8100300069", "name": "USPS COLLECTION BOX - BLUE BOX", "address": {"city": "PUEBLO", "state": "CO", "street": "201 W 8TH ST", "postcode": "81003"}}},
{"geometry": {"type": "Point", "coordinates": [-104.6085657278, 38.2688107907]}, "type": "Feature", "properties": {"collection_times": [{"days": "Mon-Fri", "time": "3:00pm"}, {"days": "Sat-Sun", "time": "Closed"}], "id": "8100300070", "name": "USPS COLLECTION BOX - BLUE BOX", "address": {"city": "PUEBLO", "state": "CO", "street": "203 N MAIN ST", "postcode": "81003"}}},
{"geometry": {"type": "Point", "coordinates": [-104.6177019585, 38.2723341608]}, "type": "Feature", "properties": {"collection_times": [{"days": "Mon-Fri", "time": "4:15pm"}, {"days": "Sat", "time": "4:00pm"}, {"days": "Sun", "time": "Closed"}], "id": "8100300072", "name": "USPS COLLECTION BOX - BLUE BOX", "address": {"city": "PUEBLO", "state": "CO", "street": "1000 W 6TH ST STE U", "postcode": "81003"}}},
{"geometry": {"type": "Point", "coordinates": [-104.6177019585, 38.2723341608]}, "type": "Feature", "properties": {"collection_times": [{"days": "Mon-Fri", "time": "4:15pm"}, {"days": "Sat-Sun", "time": "Closed"}], "id": "8100300073", "name": "USPS COLLECTION BOX - PO LOBBY", "address": {"city": "PUEBLO", "state": "CO", "street": "1000 W 6TH ST STE U", "postcode": "81003"}}},
{"geometry": {"type": "Point", "coordinates": [-104.6086527914, 38.2697218097]}, "type": "Feature", "properties": {"collection_times": [{"days": "Mon-Fri", "time": "3:00pm"}, {"days": "Sat-Sun", "time": "Closed"}], "id": "8100300074", "name": "USPS COLLECTION BOX - BLUE BOX", "address": {"city": "PUEBLO", "state": "CO", "street": "301 N MAIN ST", "postcode": "81003"}}},
{"geometry": {"type": "Point", "coordinates": [-104.6176988772, 38.2571343021]}, "type": "Feature", "properties": {"collection_times": [{"days": "Mon-Fri", "time": "1:00pm"}, {"days": "Sat-Sun", "time": "Closed"}], "id": "8100400001", "name": "USPS COLLECTION BOX - BLUE BOX", "address": {"city": "PUEBLO", "state": "CO", "street": "310 E ABRIENDO AVE", "postcode": "81004"}}},
{"geometry": {"type": "Point", "coordinates": [-104.6150496001, 38.2551155607]}, "type": "Feature", "properties": {"collection_times": [{"days": "Mon-Fri", "time": "1:00pm"}, {"days": "Sat", "time": "11:00am"}, {"days": "Sun", "time": "Closed"}], "id": "8100400002", "name": "USPS COLLECTION BOX - BLUE BOX", "address": {"city": "PUEBLO", "state": "CO", "street": "540 E ABRIENDO AVE", "postcode": "81004"}}},
{"geometry": {"type": "Point", "coordinates": [-104.6315510216, 38.2674685162]}, "type": "Feature", "properties": {"collection_times": [{"days": "Mon-Fri", "time": "12:30pm"}, {"days": "Sat", "time": "11:00am"}, {"days": "Sun", "time": "Closed"}], "id": "8100400003", "name": "USPS COLLECTION BOX - BLUE BOX", "address": {"city": "PUEBLO", "state": "CO", "street": "926 W ABRIENDO AVE", "postcode": "81004"}}},
{"geometry": {"type": "Point", "coordinates": [-104.6250330338, 38.233090368]}, "type": "Feature", "properties": {"collection_times": [{"days": "Mon-Fri", "time": "1:00pm"}, {"days": "Sat", "time": "11:00am"}, {"days": "Sun", "time": "Closed"}], "id": "8100400015", "name": "USPS COLLECTION BOX - BLUE BOX", "address": {"city": "PUEBLO", "state": "CO", "street": "2050 LAKE AVE", "postcode": "81004"}}},
{"geometry": {"type": "Point", "coordinates": [-104.622104068, 38.2331655155]}, "type": "Feature", "properties": {"collection_times": [{"days": "Mon-Fri", "time": "1:00pm"}, {"days": "Sat", "time": "12:00pm"}, {"days": "Sun", "time": "Closed"}], "id": "8100400020", "name": "USPS COLLECTION BOX - BLUE BOX", "address": {"city": "PUEBLO", "state": "CO", "street": "1008 MINNEQUA AVE", "postcode": "81004"}}},
{"geometry": {"type": "Point", "coordinates": [-104.6209173364, 38.2442273188]}, "type": "Feature", "properties": {"collection_times": [{"days": "Mon-Fri", "time": "1:00pm"}, {"days": "Sat", "time": "12:00pm"}, {"days": "Sun", "time": "Closed"}], "id": "8100400022", "name": "USPS COLLECTION BOX - BLUE BOX", "address": {"city": "PUEBLO", "state": "CO", "street": "915 W NORTHERN AVE", "postcode": "81004"}}},
{"geometry": {"type": "Point", "coordinates": [-104.6206897981, 38.2341614402]}, "type": "Feature", "properties": {"collection_times": [{"days": "Mon-Fri", "time": "1:00pm"}, {"days": "Sat-Sun", "time": "Closed"}], "id": "8100400024", "name": "USPS COLLECTION BOX - BLUE BOX", "address": {"city": "PUEBLO", "state": "CO", "street": "1925 E ORMAN AVE", "postcode": "81004"}}},
{"geometry": {"type": "Point", "coordinates": [-104.6316484972, 38.2359912482]}, "type": "Feature", "properties": {"collection_times": [{"days": "Mon-Fri", "time": "10:00am"}, {"days": "Sat", "time": "12:00pm"}, {"days": "Sun", "time": "Closed"}], "id": "8100400028", "name": "USPS COLLECTION BOX - BLUE BOX", "address": {"city": "PUEBLO", "state": "CO", "street": "2501 SAINT CLAIR AVE", "postcode": "81004"}}},
{"geometry": {"type": "Point", "coordinates": [-104.6595856101, 38.2199626037]}, "type": "Feature", "properties": {"collection_times": [{"days": "Mon-Sat", "time": "1:00pm"}, {"days": "Sun", "time": "Closed"}], "id": "8100500003", "name": "USPS COLLECTION BOX - BLUE BOX", "address": {"city": "PUEBLO", "state": "CO", "street": "3900 HOLLYBROOK LN", "postcode": "81005"}}},
{"geometry": {"type": "Point", "coordinates": [-104.6624556229, 38.2364370537]}, "type": "Feature", "properties": {"collection_times": [{"days": "Mon-Fri", "time": "3:00pm"}, {"days": "Sat", "time": "12:00pm"}, {"days": "Sun", "time": "Closed"}], "id": "8100500004", "name": "USPS COLLECTION BOX - BLUE BOX", "address": {"city": "PUEBLO", "state": "CO", "street": "1829 S PUEBLO BLVD", "postcode": "81005"}}},
{"geometry": {"type": "Point", "coordinates": [-104.6452064484, 38.242072151]}, "type": "Feature", "properties": {"collection_times": [{"days": "Mon-Fri", "time": "5:00pm"}, {"days": "Sat", "time": "4:00pm"}, {"days": "Sun", "time": "Closed"}], "id": "8100500012", "name": "USPS COLLECTION BOX - BLUE BOX", "address": {"city": "PUEBLO", "state": "CO", "street": "3000 WEDGEWOOD DR", "postcode": "81005"}}},
{"geometry": {"type": "Point", "coordinates": [-104.6737500196, 38.222669306]}, "type": "Feature", "properties": {"collection_times": [{"days": "Mon-Sat", "time": "12:00pm"}, {"days": "Sun", "time": "Closed"}], "id": "8100500051", "name": "USPS COLLECTION BOX - BLUE BOX", "address": {"city": "PUEBLO", "state": "CO", "street": "142 ENCINO DR", "postcode": "81005"}}},
{"geometry": {"type": "Point", "coordinates": [-104.6452064484, 38.242072151]}, "type": "Feature", "properties": {"collection_times": [{"days": "Mon-Fri", "time": "5:00pm"}, {"days": "Sat", "time": "4:00pm"}, {"days": "Sun", "time": "Closed"}], "id": "8100500052", "name": "USPS COLLECTION BOX - PO LOBBY", "address": {"city": "PUEBLO", "state": "CO", "street": "3000 WEDGEWOOD DR", "postcode": "81005"}}},
{"geometry": {"type": "Point", "coordinates": [-104.5779761571, 38.2456824678]}, "type": "Feature", "properties": {"collection_times": [{"days": "Mon-Fri", "time": "3:00pm"}, {"days": "Sat", "time": "10:00am"}, {"days": "Sun", "time": "Closed"}], "id": "8100600002", "name": "USPS COLLECTION BOX - BLUE BOX", "address": {"city": "PUEBLO", "state": "CO", "street": "1805 SANTA FE DR", "postcode": "81006"}}},
{"geometry": {"type": "Point", "coordinates": [-104.7024468316, 38.3219001718]}, "type": "Feature", "properties": {"collection_times": [{"days": "Mon-Sat", "time": "1:00pm"}, {"days": "Sun", "time": "Closed"}], "id": "8100700002", "name": "USPS COLLECTION BOX - BLUE BOX", "address": {"city": "PUEBLO", "state": "CO", "street": "136 S PURCELL BLVD", "postcode": "81007"}}},
{"geometry": {"type": "Point", "coordinates": [-104.7444385043, 38.3236590764]}, "type": "Feature", "properties": {"collection_times": [{"days": "Mon-Fri", "time": "5:00pm"}, {"days": "Sat", "time": "12:00pm"}, {"days": "Sun", "time": "Closed"}], "id": "8100700005", "name": "USPS COLLECTION BOX - BLUE BOX", "address": {"city": "PUEBLO", "state": "CO", "street": "434 S MCCULLOCH BLVD", "postcode": "81007"}}},
{"geometry": {"type": "Point", "coordinates": [-104.7013442782, 38.3260232996]}, "type": "Feature", "properties": {"collection_times": [{"days": "Mon-Sat", "time": "1:00pm"}, {"days": "Sun", "time": "Closed"}], "id": "8100700007", "name": "USPS COLLECTION BOX - BLUE BOX", "address": {"city": "PUEBLO", "state": "CO", "street": "958 HAILEY LN", "postcode": "81007"}}},
{"geometry": {"type": "Point", "coordinates": [-104.606119122, 38.2984990204]}, "type": "Feature", "properties": {"collection_times": [{"days": "Mon-Fri", "time": "1:00pm"}, {"days": "Sat", "time": "12:00pm"}, {"days": "Sun", "time": "Closed"}], "id": "8100800000", "name": "USPS COLLECTION BOX - BLUE BOX", "address": {"city": "PUEBLO", "state": "CO", "street": "102 W 29TH ST", "postcode": "81008"}}},
{"geometry": {"type": "Point", "coordinates": [-104.6154923477, 38.2981422817]}, "type": "Feature", "properties": {"collection_times": [{"days": "Mon-Fri", "time": "12:00pm"}, {"days": "Sat", "time": "11:00am"}, {"days": "Sun", "time": "Closed"}], "id": "8100800001", "name": "USPS COLLECTION BOX - BLUE BOX", "address": {"city": "PUEBLO", "state": "CO", "street": "615 W 29TH ST", "postcode": "81008"}}},
{"geometry": {"type": "Point", "coordinates": [-104.623321639, 38.3124614408]}, "type": "Feature", "properties": {"collection_times": [{"days": "Mon-Sat", "time": "5:00pm"}, {"days": "Sun", "time": "Closed"}], "id": "8100800011", "name": "USPS COLLECTION BOX - BLUE BOX", "address": {"city": "PUEBLO", "state": "CO", "street": "1022 FORTINO BLVD", "postcode": "81008"}}},
{"geometry": {"type": "Point", "coordinates": [-104.623321639, 38.3124614408]}, "type": "Feature", "properties": {"collection_times": [{"days": "Mon-Sat", "time": "5:00pm"}, {"days": "Sun", "time": "Closed"}], "id": "8100800015", "name": "USPS COLLECTION BOX - PO LOBBY", "address": {"city": "PUEBLO", "state": "CO", "street": "1022 FORTINO BLVD", "postcode": "81008"}}},
{"geometry": {"type": "Point", "coordinates": [-104.623321639, 38.3124614408]}, "type": "Feature", "properties": {"collection_times": [{"days": "Mon-Sat", "time": "5:00pm"}, {"days": "Sun", "time": "Closed"}], "id": "8100800016", "name": "USPS COLLECTION BOX - PO LOBBY", "address": {"city": "PUEBLO", "state": "CO", "street": "1022 FORTINO BLVD", "postcode": "81008"}}},
{"geometry": {"type": "Point", "coordinates": [-104.6560977701, 38.3111518335]}, "type": "Feature", "properties": {"collection_times": [{"days": "Mon-Fri", "time": "1:00pm"}, {"days": "Sat", "time": "10:00am"}, {"days": "Sun", "time": "Closed"}], "id": "8100800018", "name": "USPS COLLECTION BOX - BLUE BOX", "address": {"city": "PUEBLO", "state": "CO", "street": "3676 PARKER BLVD", "postcode": "81008"}}},
{"geometry": {"type": "Point", "coordinates": [-104.6560977701, 38.3111518335]}, "type": "Feature", "properties": {"collection_times": [{"days": "Mon-Fri", "time": "1:00pm"}, {"days": "Sat", "time": "10:00am"}, {"days": "Sun", "time": "Closed"}], "id": "8100800020", "name": "USPS COLLECTION BOX - BLUE BOX", "address": {"city": "PUEBLO", "state": "CO", "street": "3676 PARKER BLVD", "postcode": "81008"}}},
{"geometry": {"type": "Point", "coordinates": [-104.6570620413, 38.3112444824]}, "type": "Feature", "properties": {"collection_times": [{"days": "Mon-Fri", "time": "1:00pm"}, {"days": "Sat", "time": "10:00am"}, {"days": "Sun", "time": "Closed"}], "id": "8100800021", "name": "USPS COLLECTION BOX - BLUE BOX", "address": {"city": "PUEBLO", "state": "CO", "street": "3673 PARKER BLVD", "postcode": "81008"}}},
{"geometry": {"type": "Point", "coordinates": [-104.623321639, 38.3124614408]}, "type": "Feature", "properties": {"collection_times": [{"days": "Mon-Sat", "time": "5:00pm"}, {"days": "Sun", "time": "Closed"}], "id": "8100800022", "name": "USPS COLLECTION BOX - APC", "address": {"city": "PUEBLO", "state": "CO", "street": "1022 FORTINO BLVD", "postcode": "81008"}}},
{"geometry": {"type": "Point", "coordinates": [-104.655319965, 37.4016629607]}, "type": "Feature", "properties": {"collection_times": [{"days": "Mon-Fri", "time": "1:45pm"}, {"days": "Sat", "time": "11:45am"}, {"days": "Sun", "time": "Closed"}], "id": "8102000000", "name": "USPS COLLECTION BOX - BLUE BOX", "address": {"city": "AGUILAR", "state": "CO", "street": "106 E MAIN ST", "postcode": "81020"}}},
{"geometry": {"type": "Point", "coordinates": [-104.655319965, 37.4016629607]}, "type": "Feature", "properties": {"collection_times": [{"days": "Mon-Fri", "time": "1:45pm"}, {"days": "Sat", "time": "11:45am"}, {"days": "Sun", "time": "Closed"}], "id": "8102000002", "name": "USPS COLLECTION BOX - PO LOBBY", "address": {"city": "AGUILAR", "state": "CO", "street": "106 E MAIN ST", "postcode": "81020"}}},
{"geometry": {"type": "Point", "coordinates": [-104.3499113107, 38.2368164137]}, "type": "Feature", "properties": {"collection_times": [{"days": "Mon-Fri", "time": "2:15pm"}, {"days": "Sat", "time": "10:00am"}, {"days": "Sun", "time": "Closed"}], "id": "8102200000", "name": "USPS COLLECTION BOX - PO LOBBY", "address": {"city": "AVONDALE", "state": "CO", "street": "230 AVONDALE BLVD", "postcode": "81022"}}},
{"geometry": {"type": "Point", "coordinates": [-104.3499113107, 38.2368164137]}, "type": "Feature", "properties": {"collection_times": [{"days": "Mon-Fri", "time": "2:15pm"}, {"days": "Sat", "time": "10:00am"}, {"days": "Sun", "time": "Closed"}], "id": "8102200001", "name": "USPS COLLECTION BOX - BLUE BOX", "address": {"city": "AVONDALE", "state": "CO", "street": "230 AVONDALE BLVD", "postcode": "81022"}}},
{"geometry": {"type": "Point", "coordinates": [-104.9860344884, 38.0750385722]}, "type": "Feature", "properties": {"collection_times": [{"days": "Mon-Fri", "time": "3:45pm"}, {"days": "Sat", "time": "11:45am"}, {"days": "Sun", "time": "Closed"}], "id": "8102300000", "name": "USPS COLLECTION BOX - BLUE BOX", "address": {"city": "BEULAH", "state": "CO", "street": "8867 GRAND AVE", "postcode": "81023"}}},
{"geometry": {"type": "Point", "coordinates": [-104.9860344884, 38.0750385722]}, "type": "Feature", "properties": {"collection_times": [{"days": "Mon-Fri", "time": "3:45pm"}, {"days": "Sat", "time": "11:45am"}, {"days": "Sun", "time": "Closed"}], "id": "8102300001", "name": "USPS COLLECTION BOX - PO LOBBY", "address": {"city": "BEULAH", "state": "CO", "street": "8867 GRAND AVE", "postcode": "81023"}}},
{"geometry": {"type": "Point", "coordinates": [-104.2473762108, 38.2472230874]}, "type": "Feature", "properties": {"collection_times": [{"days": "Mon-Fri", "time": "4:00pm"}, {"days": "Sat", "time": "11:00am"}, {"days": "Sun", "time": "Closed"}], "id": "8102500000", "name": "USPS COLLECTION BOX - PO LOBBY", "address": {"city": "BOONE", "state": "CO", "street": "524 MAIN ST", "postcode": "81025"}}},
{"geometry": {"type": "Point", "coordinates": [-104.2570781347, 38.2481867347]}, "type": "Feature", "properties": {"collection_times": [{"days": "Mon-Fri", "time": "4:00pm"}, {"days": "Sat", "time": "11:00am"}, {"days": "Sun", "time": "Closed"}], "id": "8102500001", "name": "USPS COLLECTION BOX - BLUE BOX", "address": {"city": "BOONE", "state": "CO", "street": "524 MAIN ST", "postcode": "81025"}}},
{"geometry": {"type": "Point", "coordinates": [-103.884849553, 37.019040726]}, "type": "Feature", "properties": {"collection_times": [{"days": "Mon-Fri", "time": "1:45pm"}, {"days": "Sat", "time": "11:45am"}, {"days": "Sun", "time": "Closed"}], "id": "8102700000", "name": "USPS COLLECTION BOX - BLUE BOX", "address": {"city": "BRANSON", "state": "CO", "street": "334 SADDLEROCK DR", "postcode": "81027"}}},
{"geometry": {"type": "Point", "coordinates": [-103.884849553, 37.019040726]}, "type": "Feature", "properties": {"collection_times": [{"days": "Mon-Fri", "time": "1:45pm"}, {"days": "Sat", "time": "11:45am"}, {"days": "Sun", "time": "Closed"}], "id": "8102700001", "name": "USPS COLLECTION BOX - PO LOBBY", "address": {"city": "BRANSON", "state": "CO", "street": "334 SADDLEROCK DR", "postcode": "81027"}}},
{"geometry": {"type": "Point", "coordinates": [-102.5801791367, 37.1053368643]}, "type": "Feature", "properties": {"collection_times": [{"days": "Mon-Fri", "time": "1:45pm"}, {"days": "Sat", "time": "11:45am"}, {"days": "Sun", "time": "Closed"}], "id": "8102900000", "name": "USPS COLLECTION BOX - BLUE BOX", "address": {"city": "CAMPO", "state": "CO", "street": "183 W 4TH ST", "postcode": "81029"}}},
{"geometry": {"type": "Point", "coordinates": [-102.5801791367, 37.1053368643]}, "type": "Feature", "properties": {"collection_times": [{"days": "Mon-Fri", "time": "1:45pm"}, {"days": "Sat", "time": "11:45am"}, {"days": "Sun", "time": "Closed"}], "id": "8102900001", "name": "USPS COLLECTION BOX - PO LOBBY", "address": {"city": "CAMPO", "state": "CO", "street": "183 W 4TH ST", "postcode": "81029"}}},
{"geometry": {"type": "Point", "coordinates": [-103.508907766, 38.1072400452]}, "type": "Feature", "properties": {"collection_times": [{"days": "Mon-Fri", "time": "2:00pm"}, {"days": "Sat", "time": "9:30am"}, {"days": "Sun", "time": "Closed"}], "id": "8103000000", "name": "USPS COLLECTION BOX - BLUE BOX", "address": {"city": "CHERAW", "state": "CO", "street": "207 W GRAND AVE", "postcode": "81030"}}},
{"geometry": {"type": "Point", "coordinates": [-103.508907766, 38.1072400452]}, "type": "Feature", "properties": {"collection_times": [{"days": "Mon-Fri", "time": "2:00pm"}, {"days": "Sat", "time": "9:45am"}, {"days": "Sun", "time": "Closed"}], "id": "8103000001", "name": "USPS COLLECTION BOX - PO LOBBY", "address": {"city": "CHERAW", "state": "CO", "street": "207 W GRAND AVE", "postcode": "81030"}}},
{"geometry": {"type": "Point", "coordinates": [-103.8572636885, 38.1930277193]}, "type": "Feature", "properties": {"collection_times": [{"days": "Mon-Fri", "time": "2:45pm"}, {"days": "Sat", "time": "9:45am"}, {"days": "Sun", "time": "Closed"}], "id": "8103300000", "name": "USPS COLLECTION BOX - BLUE BOX", "address": {"city": "CROWLEY", "state": "CO", "street": "208 BROADWAY ST", "postcode": "81033"}}},
{"geometry": {"type": "Point", "coordinates": [-103.8572636885, 38.1930277193]}, "type": "Feature", "properties": {"collection_times": [{"days": "Mon-Fri", "time": "2:45pm"}, {"days": "Sat", "time": "9:45am"}, {"days": "Sun", "time": "Closed"}], "id": "8103300001", "name": "USPS COLLECTION BOX - PO LOBBY", "address": {"city": "CROWLEY", "state": "CO", "street": "208 BROADWAY ST", "postcode": "81033"}}},
{"geometry": {"type": "Point", "coordinates": [-102.7818183221, 38.4809807122]}, "type": "Feature", "properties": {"collection_times": [{"days": "Mon-Fri", "time": "1:15pm"}, {"days": "Sat", "time": "11:30am"}, {"days": "Sun", "time": "Closed"}], "id": "8103600000", "name": "USPS COLLECTION BOX - BLUE BOX", "address": {"city": "EADS", "state": "CO", "street": "1200 MAINE ST", "postcode": "81036"}}},
{"geometry": {"type": "Point", "coordinates": [-102.7818183221, 38.4809807122]}, "type": "Feature", "properties": {"collection_times": [{"days": "Mon-Fri", "time": "1:15pm"}, {"days": "Sat", "time": "11:30am"}, {"days": "Sun", "time": "Closed"}], "id": "8103600001", "name": "USPS COLLECTION BOX - PO LOBBY", "address": {"city": "EADS", "state": "CO", "street": "1200 MAINE ST", "postcode": "81036"}}},
{"geometry": {"type": "Point", "coordinates": [-104.2161726248, 37.9581988617]}, "type": "Feature", "properties": {"collection_times": [{"days": "Mon-Fri", "time": "3:30pm"}, {"days": "Sat", "time": "1:30pm"}, {"days": "Sun", "time": "Closed"}], "id": "8103900003", "name": "USPS COLLECTION BOX - PO LOBBY", "address": {"city": "FOWLER", "state": "CO", "street": "34191 COUNTY ROAD 3.5", "postcode": "81039"}}},
{"geometry": {"type": "Point", "coordinates": [-104.0234855169, 38.1319070479]}, "type": "Feature", "properties": {"collection_times": [{"days": "Mon-Sat", "time": "1:00pm"}, {"days": "Sun", "time": "Closed"}], "id": "8103900004", "name": "USPS COLLECTION BOX - BLUE BOX", "address": {"city": "FOWLER", "state": "CO", "street": "123 MAIN ST", "postcode": "81039"}}},
{"geometry": {"type": "Point", "coordinates": [-104.2161726248, 37.9581988617]}, "type": "Feature", "properties": {"collection_times": [{"days": "Mon-Fri", "time": "3:30pm"}, {"days": "Sat", "time": "1:30pm"}, {"days": "Sun", "time": "Closed"}], "id": "8103900005", "name": "USPS COLLECTION BOX - BLUE BOX", "address": {"city": "FOWLER", "state": "CO", "street": "34191 COUNTY ROAD 3.5", "postcode": "81039"}}},
{"geometry": {"type": "Point", "coordinates": [-105.2423172952, 37.7295200271]}, "type": "Feature", "properties": {"collection_times": [{"days": "Mon-Fri", "time": "1:15pm"}, {"days": "Sat", "time": "11:30am"}, {"days": "Sun", "time": "Closed"}], "id": "8104000000", "name": "USPS COLLECTION BOX - BLUE BOX", "address": {"city": "GARDNER", "state": "CO", "street": "24962 STATE HIGHWAY 69", "postcode": "81040"}}},
{"geometry": {"type": "Point", "coordinates": [-105.2423172952, 37.7295200271]}, "type": "Feature", "properties": {"collection_times": [{"days": "Mon-Fri", "time": "1:15pm"}, {"days": "Sat", "time": "11:30am"}, {"days": "Sun", "time": "Closed"}], "id": "8104000001", "name": "USPS COLLECTION BOX - PO LOBBY", "address": {"city": "GARDNER", "state": "CO", "street": "24962 STATE HIGHWAY 69", "postcode": "81040"}}},
{"geometry": {"type": "Point", "coordinates": [-102.3102226761, 38.062562381]}, "type": "Feature", "properties": {"collection_times": [{"days": "Mon-Fri", "time": "3:00pm"}, {"days": "Sat", "time": "11:30am"}, {"days": "Sun", "time": "Closed"}], "id": "8104100000", "name": "USPS COLLECTION BOX - BLUE BOX", "address": {"city": "GRANADA", "state": "CO", "street": "111 S MAIN ST", "postcode": "81041"}}},
{"geometry": {"type": "Point", "coordinates": [-102.3102226761, 38.062562381]}, "type": "Feature", "properties": {"collection_times": [{"days": "Mon-Fri", "time": "3:00pm"}, {"days": "Sat", "time": "11:30am"}, {"days": "Sun", "time": "Closed"}], "id": "8104100001", "name": "USPS COLLECTION BOX - PO LOBBY", "address": {"city": "GRANADA", "state": "CO", "street": "111 S MAIN ST", "postcode": "81041"}}},
{"geometry": {"type": "Point", "coordinates": [-102.219095992, 38.1213132332]}, "type": "Feature", "properties": {"collection_times": [{"days": "Mon-Sat", "time": "10:00am"}, {"days": "Sun", "time": "Closed"}], "id": "8104300001", "name": "USPS COLLECTION BOX - PO LOBBY", "address": {"city": "HARTMAN", "state": "CO", "street": "108 N MAIN ST", "postcode": "81043"}}},
{"geometry": {"type": "Point", "coordinates": [-102.9572810463, 38.113461712]}, "type": "Feature", "properties": {"collection_times": [{"days": "Mon-Sat", "time": "2:00pm"}, {"days": "Sun", "time": "Closed"}], "id": "8104400000", "name": "USPS COLLECTION BOX - BLUE BOX", "address": {"city": "HASTY", "state": "CO", "street": "101 S MAIN ST", "postcode": "81044"}}},
{"geometry": {"type": "Point", "coordinates": [-102.9572810463, 38.113461712]}, "type": "Feature", "properties": {"collection_times": [{"days": "Mon-Fri", "time": "2:00pm"}, {"days": "Sat", "time": "12:30pm"}, {"days": "Sun", "time": "Closed"}], "id": "8104400001", "name": "USPS COLLECTION BOX - PO LOBBY", "address": {"city": "HASTY", "state": "CO", "street": "101 S MAIN ST", "postcode": "81044"}}},
{"geometry": {"type": "Point", "coordinates": [-103.163536484, 38.447804315]}, "type": "Feature", "properties": {"collection_times": [{"days": "Mon-Fri", "time": "1:45pm"}, {"days": "Sat", "time": "10:45am"}, {"days": "Sun", "time": "Closed"}], "id": "8104500000", "name": "USPS COLLECTION BOX - PO LOBBY", "address": {"city": "HASWELL", "state": "CO", "street": "301 MAIN ST", "postcode": "81045"}}},
{"geometry": {"type": "Point", "coordinates": [-103.163536484, 38.447804315]}, "type": "Feature", "properties": {"collection_times": [{"days": "Mon-Fri", "time": "1:45pm"}, {"days": "Sat", "time": "10:45am"}, {"days": "Sun", "time": "Closed"}], "id": "8104500001", "name": "USPS COLLECTION BOX - BLUE BOX", "address": {"city": "HASWELL", "state": "CO", "street": "301 MAIN ST", "postcode": "81045"}}},
{"geometry": {"type": "Point", "coordinates": [-104.3797989434, 37.2811936696]}, "type": "Feature", "properties": {"collection_times": [{"days": "Mon-Fri", "time": "1:30pm"}, {"days": "Sat", "time": "11:30am"}, {"days": "Sun", "time": "Closed"}], "id": "8104600000", "name": "USPS COLLECTION BOX - BLUE BOX", "address": {"city": "HOEHNE", "state": "CO", "street": "42607 COUNTY ROAD 40.6", "postcode": "81046"}}},
{"geometry": {"type": "Point", "coordinates": [-104.3797989434, 37.2811936696]}, "type": "Feature", "properties": {"collection_times": [{"days": "Mon-Fri", "time": "10:45am"}, {"days": "Sat", "time": "11:30am"}, {"days": "Sun", "time": "Closed"}], "id": "8104600001", "name": "USPS COLLECTION BOX - PO LOBBY", "address": {"city": "HOEHNE", "state": "CO", "street": "42607 COUNTY ROAD 40.6", "postcode": "81046"}}},
{"geometry": {"type": "Point", "coordinates": [-102.1922059893, 38.0569422615]}, "type": "Feature", "properties": {"collection_times": [{"days": "Mon-Fri", "time": "2:45pm"}, {"days": "Sat", "time": "11:45am"}, {"days": "Sun", "time": "Closed"}], "id": "8104700000", "name": "USPS COLLECTION BOX - BLUE BOX", "address": {"city": "HOLLY", "state": "CO", "street": "101 E SANTA FE ST", "postcode": "81047"}}},
{"geometry": {"type": "Point", "coordinates": [-102.1922059893, 38.0569422615]}, "type": "Feature", "properties": {"collection_times": [{"days": "Mon-Fri", "time": "2:45pm"}, {"days": "Sat", "time": "11:45am"}, {"days": "Sun", "time": "Closed"}], "id": "8104700002", "name": "USPS COLLECTION BOX - PO LOBBY", "address": {"city": "HOLLY", "state": "CO", "street": "101 E SANTA FE ST", "postcode": "81047"}}},
{"geometry": {"type": "Point", "coordinates": [-103.3530119972, 37.2435018473]}, "type": "Feature", "properties": {"collection_times": [{"days": "Mon-Fri", "time": "1:00pm"}, {"days": "Sat", "time": "12:15pm"}, {"days": "Sun", "time": "Closed"}], "id": "8104900001", "name": "USPS COLLECTION BOX - BLUE BOX", "address": {"city": "KIM", "state": "CO", "street": "185 STATE ST", "postcode": "81049"}}},
{"geometry": {"type": "Point", "coordinates": [-103.3530119972, 37.2435018473]}, "type": "Feature", "properties": {"collection_times": [{"days": "Mon-Fri", "time": "1:00pm"}, {"days": "Sat", "time": "12:15pm"}, {"days": "Sun", "time": "Closed"}], "id": "8104900003", "name": "USPS COLLECTION BOX - PO LOBBY", "address": {"city": "KIM", "state": "CO", "street": "185 STATE ST", "postcode": "81049"}}},
{"geometry": {"type": "Point", "coordinates": [-103.5451277319, 37.9860013567]}, "type": "Feature", "properties": {"collection_times": [{"days": "Mon-Fri", "time": "2:45pm"}, {"days": "Sat", "time": "12:45pm"}, {"days": "Sun", "time": "Closed"}], "id": "8105000000", "name": "USPS COLLECTION BOX - EXPRESS", "address": {"city": "LA JUNTA", "state": "CO", "street": "324 COLORADO AVE", "postcode": "81050"}}},
{"geometry": {"type": "Point", "coordinates": [-103.5430661107, 37.9857047127]}, "type": "Feature", "properties": {"collection_times": [{"days": "Mon-Sat", "time": "2:45pm"}, {"days": "Sun", "time": "Closed"}], "id": "8105000001", "name": "USPS COLLECTION BOX - BLUE BOX", "address": {"city": "LA JUNTA", "state": "CO", "street": "324 COLORADO AVE", "postcode": "81050"}}},
{"geometry": {"type": "Point", "coordinates": [-103.5451277319, 37.9860013567]}, "type": "Feature", "properties": {"collection_times": [{"days": "Mon-Fri", "time": "12:00pm"}, {"days": "Sat", "time": "9:30am"}, {"days": "Sun", "time": "Closed"}], "id": "8105000016", "name": "USPS COLLECTION BOX - BLUE BOX", "address": {"city": "LA JUNTA", "state": "CO", "street": "122 WESTERN AVE", "postcode": "81050"}}},
{"geometry": {"type": "Point", "coordinates": [-103.5430661107, 37.9857047127]}, "type": "Feature", "properties": {"collection_times": [{"days": "Mon-Sat", "time": "2:45pm"}, {"days": "Sun", "time": "Closed"}], "id": "8105000023", "name": "USPS COLLECTION BOX - PO LOBBY", "address": {"city": "LA JUNTA", "state": "CO", "street": "324 COLORADO AVE", "postcode": "81050"}}},
{"geometry": {"type": "Point", "coordinates": [-102.6205411558, 38.0870483457]}, "type": "Feature", "properties": {"collection_times": [{"days": "Mon-Fri", "time": "3:30pm"}, {"days": "Sat", "time": "2:00pm"}, {"days": "Sun", "time": "Closed"}], "id": "8105200001", "name": "USPS COLLECTION BOX - BLUE BOX", "address": {"city": "LAMAR", "state": "CO", "street": "300 S 5TH ST", "postcode": "81052"}}},
{"geometry": {"type": "Point", "coordinates": [-102.6205411558, 38.0870483457]}, "type": "Feature", "properties": {"collection_times": [{"days": "Mon-Fri", "time": "3:30pm"}, {"days": "Sat", "time": "2:00pm"}, {"days": "Sun", "time": "Closed"}], "id": "8105200020", "name": "USPS COLLECTION BOX - PO LOBBY", "address": {"city": "LAMAR", "state": "CO", "street": "300 S 5TH ST", "postcode": "81052"}}},
{"geometry": {"type": "Point", "coordinates": [-102.6205411558, 38.0870483457]}, "type": "Feature", "properties": {"collection_times": [{"days": "Mon-Fri", "time": "3:30pm"}, {"days": "Sat", "time": "2:00pm"}, {"days": "Sun", "time": "Closed"}], "id": "8105200023", "name": "USPS COLLECTION BOX - PO LOBBY", "address": {"city": "LAMAR", "state": "CO", "street": "300 S 5TH ST", "postcode": "81052"}}},
{"geometry": {"type": "Point", "coordinates": [-103.2227732451, 38.0663463803]}, "type": "Feature", "properties": {"collection_times": [{"days": "Mon-Sat", "time": "2:15pm"}, {"days": "Sun", "time": "Closed"}], "id": "8105400000", "name": "USPS COLLECTION BOX - BLUE BOX", "address": {"city": "LAS ANIMAS", "state": "CO", "street": "513 6TH ST", "postcode": "81054"}}},
{"geometry": {"type": "Point", "coordinates": [-103.2227732451, 38.0663463803]}, "type": "Feature", "properties": {"collection_times": [{"days": "Mon-Sat", "time": "2:15pm"}, {"days": "Sun", "time": "Closed"}], "id": "8105400001", "name": "USPS COLLECTION BOX - BLUE BOX", "address": {"city": "LAS ANIMAS", "state": "CO", "street": "513 6TH ST", "postcode": "81054"}}},
{"geometry": {"type": "Point", "coordinates": [-103.2227732451, 38.0663463803]}, "type": "Feature", "properties": {"collection_times": [{"days": "Mon-Sat", "time": "2:15pm"}, {"days": "Sun", "time": "Closed"}], "id": "8105400008", "name": "USPS COLLECTION BOX - PO LOBBY", "address": {"city": "LAS ANIMAS", "state": "CO", "street": "513 6TH ST", "postcode": "81054"}}},
{"geometry": {"type": "Point", "coordinates": [-103.2227732451, 38.0663463803]}, "type": "Feature", "properties": {"collection_times": [{"days": "Mon-Sat", "time": "2:15pm"}, {"days": "Sun", "time": "Closed"}], "id": "8105400009", "name": "USPS COLLECTION BOX - PO LOBBY", "address": {"city": "LAS ANIMAS", "state": "CO", "street": "513 6TH ST", "postcode": "81054"}}},
{"geometry": {"type": "Point", "coordinates": [-105.0066473763, 37.5091669065]}, "type": "Feature", "properties": {"collection_times": [{"days": "Mon-Fri", "time": "3:15pm"}, {"days": "Sat", "time": "12:00pm"}, {"days": "Sun", "time": "Closed"}], "id": "8105500000", "name": "USPS COLLECTION BOX - BLUE BOX", "address": {"city": "LA VETA", "state": "CO", "street": "117 E RYUS ST", "postcode": "81055"}}},
{"geometry": {"type": "Point", "coordinates": [-105.0066473763, 37.5091669065]}, "type": "Feature", "properties": {"collection_times": [{"days": "Mon-Fri", "time": "3:15pm"}, {"days": "Sat", "time": "12:00pm"}, {"days": "Sun", "time": "Closed"}], "id": "8105500002", "name": "USPS COLLECTION BOX - PO LOBBY", "address": {"city": "LA VETA", "state": "CO", "street": "117 E RYUS ST", "postcode": "81055"}}},
{"geometry": {"type": "Point", "coordinates": [-105.0066473763, 37.5091669065]}, "type": "Feature", "properties": {"collection_times": [{"days": "Mon-Fri", "time": "3:15pm"}, {"days": "Sat", "time": "12:00pm"}, {"days": "Sun", "time": "Closed"}], "id": "8105500003", "name": "USPS COLLECTION BOX - PO LOBBY", "address": {"city": "LA VETA", "state": "CO", "street": "117 E RYUS ST", "postcode": "81055"}}},
{"geometry": {"type": "Point", "coordinates": [-102.850971349, 38.137767849]}, "type": "Feature", "properties": {"collection_times": [{"days": "Mon-Fri", "time": "2:45pm"}, {"days": "Sat", "time": "10:45am"}, {"days": "Sun", "time": "Closed"}], "id": "8105700000", "name": "USPS COLLECTION BOX - BLUE BOX", "address": {"city": "MCCLAVE", "state": "CO", "street": "111 E 1ST ST", "postcode": "81057"}}},
{"geometry": {"type": "Point", "coordinates": [-102.8510687359, 38.1367915439]}, "type": "Feature", "properties": {"collection_times": [{"days": "Mon-Fri", "time": "11:30am"}, {"days": "Sat", "time": "10:45am"}, {"days": "Sun", "time": "Closed"}], "id": "8105700001", "name": "USPS COLLECTION BOX - PO LOBBY", "address": {"city": "MCCLAVE", "state": "CO", "street": "111 E 1ST ST", "postcode": "81057"}}},
{"geometry": {"type": "Point", "coordinates": [-103.8667739472, 38.1076018689]}, "type": "Feature", "properties": {"collection_times": [{"days": "Mon-Fri", "time": "3:15pm"}, {"days": "Sat", "time": "10:30am"}, {"days": "Sun", "time": "Closed"}], "id": "8105800000", "name": "USPS COLLECTION BOX - BLUE BOX", "address": {"city": "MANZANOLA", "state": "CO", "street": "103 S PARK ST", "postcode": "81058"}}},
{"geometry": {"type": "Point", "coordinates": [-103.8667739472, 38.1076018689]}, "type": "Feature", "properties": {"collection_times": [{"days": "Mon-Fri", "time": "11:30am"}, {"days": "Sat", "time": "10:30am"}, {"days": "Sun", "time": "Closed"}], "id": "8105800001", "name": "USPS COLLECTION BOX - PO LOBBY", "address": {"city": "MANZANOLA", "state": "CO", "street": "103 S PARK ST", "postcode": "81058"}}},
{"geometry": {"type": "Point", "coordinates": [-103.9434277498, 38.1660950974]}, "type": "Feature", "properties": {"collection_times": [{"days": "Mon-Fri", "time": "11:45am"}, {"days": "Sat", "time": "10:30am"}, {"days": "Sun", "time": "Closed"}], "id": "8106200000", "name": "USPS COLLECTION BOX - BLUE BOX", "address": {"city": "OLNEY SPRINGS", "state": "CO", "street": "601 WARNER ST", "postcode": "81062"}}},
{"geometry": {"type": "Point", "coordinates": [-103.9434277498, 38.1660950974]}, "type": "Feature", "properties": {"collection_times": [{"days": "Mon-Fri", "time": "11:45am"}, {"days": "Sat", "time": "10:30am"}, {"days": "Sun", "time": "Closed"}], "id": "8106200001", "name": "USPS COLLECTION BOX - PO LOBBY", "address": {"city": "OLNEY SPRINGS", "state": "CO", "street": "601 WARNER ST", "postcode": "81062"}}},
{"geometry": {"type": "Point", "coordinates": [-103.7553149255, 38.2147773841]}, "type": "Feature", "properties": {"collection_times": [{"days": "Mon-Fri", "time": "3:00pm"}, {"days": "Sat", "time": "12:00pm"}, {"days": "Sun", "time": "Closed"}], "id": "8106300007", "name": "USPS COLLECTION BOX - PO LOBBY", "address": {"city": "ORDWAY", "state": "CO", "street": "115 SHERMAN AVE", "postcode": "81063"}}},
{"geometry": {"type": "Point", "coordinates": [-103.7553149255, 38.2147773841]}, "type": "Feature", "properties": {"collection_times": [{"days": "Mon-Fri", "time": "3:00pm"}, {"days": "Sat", "time": "12:00pm"}, {"days": "Sun", "time": "Closed"}], "id": "8106300008", "name": "USPS COLLECTION BOX - PO LOBBY", "address": {"city": "ORDWAY", "state": "CO", "street": "115 SHERMAN AVE", "postcode": "81063"}}},
{"geometry": {"type": "Point", "coordinates": [-103.7553149255, 38.2147773841]}, "type": "Feature", "properties": {"collection_times": [{"days": "Mon-Fri", "time": "3:00pm"}, {"days": "Sat", "time": "12:00pm"}, {"days": "Sun", "time": "Closed"}], "id": "8106300010", "name": "USPS COLLECTION BOX - BLUE BOX", "address": {"city": "ORDWAY", "state": "CO", "street": "115 SHERMAN AVE", "postcode": "81063"}}},
{"geometry": {"type": "Point", "coordinates": [-102.8600220964, 37.3680514872]}, "type": "Feature", "properties": {"collection_times": [{"days": "Mon-Fri", "time": "1:45pm"}, {"days": "Sat", "time": "1:00pm"}, {"days": "Sun", "time": "Closed"}], "id": "8106400000", "name": "USPS COLLECTION BOX - BLUE BOX", "address": {"city": "PRITCHETT", "state": "CO", "street": "153 RANDOLPH ST", "postcode": "81064"}}},
{"geometry": {"type": "Point", "coordinates": [-102.8600220964, 37.3680514872]}, "type": "Feature", "properties": {"collection_times": [{"days": "Mon-Fri", "time": "1:45pm"}, {"days": "Sat", "time": "1:00pm"}, {"days": "Sun", "time": "Closed"}], "id": "8106400001", "name": "USPS COLLECTION BOX - PO LOBBY", "address": {"city": "PRITCHETT", "state": "CO", "street": "153 RANDOLPH ST", "postcode": "81064"}}},
{"geometry": {"type": "Point", "coordinates": [-103.7200745347, 38.0548948644]}, "type": "Feature", "properties": {"collection_times": [{"days": "Mon-Fri", "time": "3:45pm"}, {"days": "Sat", "time": "2:30pm"}, {"days": "Sun", "time": "Closed"}], "id": "8106700000", "name": "USPS COLLECTION BOX - BLUE BOX", "address": {"city": "ROCKY FORD", "state": "CO", "street": "401 N 9TH ST", "postcode": "81067"}}},
{"geometry": {"type": "Point", "coordinates": [-103.7200745347, 38.0548948644]}, "type": "Feature", "properties": {"collection_times": [{"days": "Mon-Fri", "time": "3:45pm"}, {"days": "Sat", "time": "2:30pm"}, {"days": "Sun", "time": "Closed"}], "id": "8106700013", "name": "USPS COLLECTION BOX - PO LOBBY", "address": {"city": "ROCKY FORD", "state": "CO", "street": "401 N 9TH ST", "postcode": "81067"}}},
{"geometry": {"type": "Point", "coordinates": [-103.7200745347, 38.0548948644]}, "type": "Feature", "properties": {"collection_times": [{"days": "Mon-Fri", "time": "3:45pm"}, {"days": "Sat", "time": "2:30pm"}, {"days": "Sun", "time": "Closed"}], "id": "8106700016", "name": "USPS COLLECTION BOX - BLUE BOX", "address": {"city": "ROCKY FORD", "state": "CO", "street": "401 N 9TH ST", "postcode": "81067"}}},
{"geometry": {"type": "Point", "coordinates": [-104.9287969808, 37.9237269977]}, "type": "Feature", "properties": {"collection_times": [{"days": "Mon-Fri", "time": "3:30pm"}, {"days": "Sat", "time": "11:20am"}, {"days": "Sun", "time": "Closed"}], "id": "8106900000", "name": "USPS COLLECTION BOX - BLUE BOX", "address": {"city": "RYE", "state": "CO", "street": "8084 HIGHWAY 165", "postcode": "81069"}}},
{"geometry": {"type": "Point", "coordinates": [-104.9287969808, 37.9237269977]}, "type": "Feature", "properties": {"collection_times": [{"days": "Mon-Fri", "time": "3:30pm"}, {"days": "Sat", "time": "11:20am"}, {"days": "Sun", "time": "Closed"}], "id": "8106900001", "name": "USPS COLLECTION BOX - PO LOBBY", "address": {"city": "RYE", "state": "CO", "street": "8084 HIGHWAY 165", "postcode": "81069"}}},
{"geometry": {"type": "Point", "coordinates": [-102.2907066402, 38.4687306049]}, "type": "Feature", "properties": {"collection_times": [{"days": "Mon-Fri", "time": "12:30pm"}, {"days": "Sat", "time": "12:15pm"}, {"days": "Sun", "time": "Closed"}], "id": "8107100000", "name": "USPS COLLECTION BOX - BLUE BOX", "address": {"city": "SHERIDAN LAKE", "state": "CO", "street": "619 BURNETTE ST", "postcode": "81071"}}},
{"geometry": {"type": "Point", "coordinates": [-102.2907066402, 38.4687306049]}, "type": "Feature", "properties": {"collection_times": [{"days": "Mon-Fri", "time": "12:30pm"}, {"days": "Sat", "time": "12:15pm"}, {"days": "Sun", "time": "Closed"}], "id": "8107100003", "name": "USPS COLLECTION BOX - PO LOBBY", "address": {"city": "SHERIDAN LAKE", "state": "CO", "street": "619 BURNETTE ST", "postcode": "81071"}}},
{"geometry": {"type": "Point", "coordinates": [-102.6154067836, 37.4050807913]}, "type": "Feature", "properties": {"collection_times": [{"days": "Mon-Sat", "time": "2:45pm"}, {"days": "Sun", "time": "Closed"}], "id": "8107300000", "name": "USPS COLLECTION BOX - BLUE BOX", "address": {"city": "SPRINGFIELD", "state": "CO", "street": "188 E 9TH AVE", "postcode": "81073"}}},
{"geometry": {"type": "Point", "coordinates": [-102.6154067836, 37.4050807913]}, "type": "Feature", "properties": {"collection_times": [{"days": "Mon-Sat", "time": "2:45pm"}, {"days": "Sun", "time": "Closed"}], "id": "8107300002", "name": "USPS COLLECTION BOX - PO LOBBY", "address": {"city": "SPRINGFIELD", "state": "CO", "street": "188 E 9TH AVE", "postcode": "81073"}}},
{"geometry": {"type": "Point", "coordinates": [-103.6629368492, 38.2331411226]}, "type": "Feature", "properties": {"collection_times": [{"days": "Mon-Fri", "time": "2:45pm"}, {"days": "Sat", "time": "9:45am"}, {"days": "Sun", "time": "Closed"}], "id": "8107600000", "name": "USPS COLLECTION BOX - BLUE BOX", "address": {"city": "SUGAR CITY", "state": "CO", "street": "208 COLORADO AVE", "postcode": "81076"}}},
{"geometry": {"type": "Point", "coordinates": [-103.6629368492, 38.2331411226]}, "type": "Feature", "properties": {"collection_times": [{"days": "Mon-Fri", "time": "12:30pm"}, {"days": "Sat", "time": "9:45am"}, {"days": "Sun", "time": "Closed"}], "id": "8107600001", "name": "USPS COLLECTION BOX - PO LOBBY", "address": {"city": "SUGAR CITY", "state": "CO", "street": "208 COLORADO AVE", "postcode": "81076"}}},
{"geometry": {"type": "Point", "coordinates": [-103.6287483281, 38.0143848654]}, "type": "Feature", "properties": {"collection_times": [{"days": "Mon-Fri", "time": "2:15pm"}, {"days": "Sat", "time": "10:30am"}, {"days": "Sun", "time": "Closed"}], "id": "8107700000", "name": "USPS COLLECTION BOX - BLUE BOX", "address": {"city": "SWINK", "state": "CO", "street": "302 COLUMBIA AVE", "postcode": "81077"}}},
{"geometry": {"type": "Point", "coordinates": [-103.6287483281, 38.0143848654]}, "type": "Feature", "properties": {"collection_times": [{"days": "Mon-Fri", "time": "2:15pm"}, {"days": "Sat", "time": "10:45am"}, {"days": "Sun", "time": "Closed"}], "id": "8107700001", "name": "USPS COLLECTION BOX - PO LOBBY", "address": {"city": "SWINK", "state": "CO", "street": "302 COLUMBIA AVE", "postcode": "81077"}}},
{"geometry": {"type": "Point", "coordinates": [-104.1744887435, 37.0554011137]}, "type": "Feature", "properties": {"collection_times": [{"days": "Mon-Fri", "time": "12:15pm"}, {"days": "Sat", "time": "10:15am"}, {"days": "Sun", "time": "Closed"}], "id": "8108100000", "name": "USPS COLLECTION BOX - PO LOBBY", "address": {"city": "TRINCHERA", "state": "CO", "street": "60994 COUNTY ROAD 8.8", "postcode": "81081"}}},
{"geometry": {"type": "Point", "coordinates": [-104.5031683509, 37.1694837961]}, "type": "Feature", "properties": {"collection_times": [{"days": "Mon-Sat", "time": "3:30pm"}, {"days": "Sun", "time": "Closed"}], "id": "8108200000", "name": "USPS COLLECTION BOX - BLUE BOX", "address": {"city": "TRINIDAD", "state": "CO", "street": "301 E MAIN ST", "postcode": "81082"}}},
{"geometry": {"type": "Point", "coordinates": [-104.5031683509, 37.1694837961]}, "type": "Feature", "properties": {"collection_times": [{"days": "Mon-Sat", "time": "3:30pm"}, {"days": "Sun", "time": "Closed"}], "id": "8108200001", "name": "USPS COLLECTION BOX - BLUE BOX", "address": {"city": "TRINIDAD", "state": "CO", "street": "301 E MAIN ST", "postcode": "81082"}}},
{"geometry": {"type": "Point", "coordinates": [-104.5031683509, 37.1694837961]}, "type": "Feature", "properties": {"collection_times": [{"days": "Mon-Sat", "time": "3:30pm"}, {"days": "Sun", "time": "Closed"}], "id": "8108200002", "name": "USPS COLLECTION BOX - BLUE BOX", "address": {"city": "TRINIDAD", "state": "CO", "street": "301 E MAIN ST", "postcode": "81082"}}},
{"geometry": {"type": "Point", "coordinates": [-104.5056283828, 37.1684648486]}, "type": "Feature", "properties": {"collection_times": [{"days": "Mon-Sat", "time": "9:00am"}, {"days": "Sun", "time": "Closed"}], "id": "8108200003", "name": "USPS COLLECTION BOX - BLUE BOX", "address": {"city": "TRINIDAD", "state": "CO", "street": "100 E MAIN ST", "postcode": "81082"}}},
{"geometry": {"type": "Point", "coordinates": [-104.5077419779, 37.1793174162]}, "type": "Feature", "properties": {"collection_times": [{"days": "Mon-Sat", "time": "9:00am"}, {"days": "Sun", "time": "Closed"}], "id": "8108200010", "name": "USPS COLLECTION BOX - BLUE BOX", "address": {"city": "TRINIDAD", "state": "CO", "street": "1222 SAN PEDRO AVE", "postcode": "81082"}}},
{"geometry": {"type": "Point", "coordinates": [-104.5206144741, 37.1402107436]}, "type": "Feature", "properties": {"collection_times": [{"days": "Mon-Sat", "time": "9:00am"}, {"days": "Sun", "time": "Closed"}], "id": "8108200016", "name": "USPS COLLECTION BOX - BLUE BOX", "address": {"city": "TRINIDAD", "state": "CO", "street": "2921 TOUPAL DR", "postcode": "81082"}}},
{"geometry": {"type": "Point", "coordinates": [-104.5031683509, 37.1694837961]}, "type": "Feature", "properties": {"collection_times": [{"days": "Mon-Sat", "time": "3:30pm"}, {"days": "Sun", "time": "Closed"}], "id": "8108200017", "name": "USPS COLLECTION BOX - PO LOBBY", "address": {"city": "TRINIDAD", "state": "CO", "street": "301 E MAIN ST", "postcode": "81082"}}},
{"geometry": {"type": "Point", "coordinates": [-102.3970855763, 37.5569842148]}, "type": "Feature", "properties": {"collection_times": [{"days": "Mon-Fri", "time": "1:15pm"}, {"days": "Sat", "time": "11:45am"}, {"days": "Sun", "time": "Closed"}], "id": "8108400000", "name": "USPS COLLECTION BOX - BLUE BOX", "address": {"city": "TWO BUTTES", "state": "CO", "street": "448 MAIN ST", "postcode": "81084"}}},
{"geometry": {"type": "Point", "coordinates": [-102.3970855763, 37.5569842148]}, "type": "Feature", "properties": {"collection_times": [{"days": "Mon-Fri", "time": "1:15pm"}, {"days": "Sat", "time": "12:00pm"}, {"days": "Sun", "time": "Closed"}], "id": "8108400001", "name": "USPS COLLECTION BOX - PO LOBBY", "address": {"city": "TWO BUTTES", "state": "CO", "street": "448 MAIN ST", "postcode": "81084"}}},
{"geometry": {"type": "Point", "coordinates": [-102.4463594574, 37.3736141287]}, "type": "Feature", "properties": {"collection_times": [{"days": "Mon-Fri", "time": "10:15am"}, {"days": "Sat", "time": "9:45am"}, {"days": "Sun", "time": "Closed"}], "id": "8108700000", "name": "USPS COLLECTION BOX - PO LOBBY", "address": {"city": "VILAS", "state": "CO", "street": "202 MAIN ST", "postcode": "81087"}}},
{"geometry": {"type": "Point", "coordinates": [-102.4463594574, 37.3736141287]}, "type": "Feature", "properties": {"collection_times": [{"days": "Mon-Fri", "time": "2:15pm"}, {"days": "Sat", "time": "9:45am"}, {"days": "Sun", "time": "Closed"}], "id": "8108700001", "name": "USPS COLLECTION BOX - BLUE BOX", "address": {"city": "VILAS", "state": "CO", "street": "202 MAIN ST", "postcode": "81087"}}},
{"geometry": {"type": "Point", "coordinates": [-104.7791965253, 37.6242745863]}, "type": "Feature", "properties": {"collection_times": [{"days": "Mon-Fri", "time": "3:45pm"}, {"days": "Sat", "time": "3:00pm"}, {"days": "Sun", "time": "Closed"}], "id": "8108900006", "name": "USPS COLLECTION BOX - PO LOBBY", "address": {"city": "WALSENBURG", "state": "CO", "street": "204 E 6TH ST", "postcode": "81089"}}},
{"geometry": {"type": "Point", "coordinates": [-104.7791965253, 37.6242745863]}, "type": "Feature", "properties": {"collection_times": [{"days": "Mon-Fri", "time": "3:45pm"}, {"days": "Sat", "time": "3:00pm"}, {"days": "Sun", "time": "Closed"}], "id": "8108900007", "name": "USPS COLLECTION BOX - BLUE BOX", "address": {"city": "WALSENBURG", "state": "CO", "street": "204 E 6TH ST", "postcode": "81089"}}},
{"geometry": {"type": "Point", "coordinates": [-102.2782429469, 37.38838503]}, "type": "Feature", "properties": {"collection_times": [{"days": "Mon-Sat", "time": "2:00pm"}, {"days": "Sun", "time": "Closed"}], "id": "8109000000", "name": "USPS COLLECTION BOX - BLUE BOX", "address": {"city": "WALSH", "state": "CO", "street": "529 COLORADO AVE", "postcode": "81090"}}},
{"geometry": {"type": "Point", "coordinates": [-102.2782429469, 37.38838503]}, "type": "Feature", "properties": {"collection_times": [{"days": "Mon-Sat", "time": "2:00pm"}, {"days": "Sun", "time": "Closed"}], "id": "8109000001", "name": "USPS COLLECTION BOX - PO LOBBY", "address": {"city": "WALSH", "state": "CO", "street": "529 COLORADO AVE", "postcode": "81090"}}},
{"geometry": {"type": "Point", "coordinates": [-104.8480959411, 37.1301043806]}, "type": "Feature", "properties": {"collection_times": [{"days": "Mon-Fri", "time": "1:45pm"}, {"days": "Sat", "time": "12:00pm"}, {"days": "Sun", "time": "Closed"}], "id": "8109100000", "name": "USPS COLLECTION BOX - BLUE BOX", "address": {"city": "WESTON", "state": "CO", "street": "16900 STATE HIGHWAY 12", "postcode": "81091"}}},
{"geometry": {"type": "Point", "coordinates": [-104.8480959411, 37.1301043806]}, "type": "Feature", "properties": {"collection_times": [{"days": "Mon-Fri", "time": "1:45pm"}, {"days": "Sat", "time": "12:00pm"}, {"days": "Sun", "time": "Closed"}], "id": "8109100001", "name": "USPS COLLECTION BOX - PO LOBBY", "address": {"city": "WESTON", "state": "CO", "street": "16900 STATE HIGHWAY 12", "postcode": "81091"}}},
{"geometry": {"type": "Point", "coordinates": [-102.7334676695, 38.1721935324]}, "type": "Feature", "properties": {"collection_times": [{"days": "Mon-Fri", "time": "3:15pm"}, {"days": "Sat", "time": "10:15am"}, {"days": "Sun", "time": "Closed"}], "id": "8109200000", "name": "USPS COLLECTION BOX - BLUE BOX", "address": {"city": "WILEY", "state": "CO", "street": "301 MAIN ST", "postcode": "81092"}}},
{"geometry": {"type": "Point", "coordinates": [-102.7334676695, 38.1721935324]}, "type": "Feature", "properties": {"collection_times": [{"days": "Mon-Fri", "time": "3:15pm"}, {"days": "Sat", "time": "10:15am"}, {"days": "Sun", "time": "Closed"}], "id": "8109200001", "name": "USPS COLLECTION BOX - PO LOBBY", "address": {"city": "WILEY", "state": "CO", "street": "301 MAIN ST", "postcode": "81092"}}}
]}
