{"type": "FeatureCollection", "features": [
{"geometry": {"type": "Point", "coordinates": [-105.8879096196, 37.4723621547]}, "type": "Feature", "properties": {"collection_times": [{"days": "Mon-Sat", "time": "2:00pm"}, {"days": "Sun", "time": "Closed"}], "id": "8110100000", "name": "USPS COLLECTION BOX - BLUE BOX", "address": {"city": "ALAMOSA", "state": "CO", "street": "2431 MAIN ST", "postcode": "81101"}}},
{"geometry": {"type": "Point", "coordinates": [-105.8751586563, 37.4716135356]}, "type": "Feature", "properties": {"collection_times": [{"days": "Mon-Sat", "time": "9:00am"}, {"days": "Sun", "time": "Closed"}], "id": "8110100002", "name": "USPS COLLECTION BOX - BLUE BOX", "address": {"city": "ALAMOSA", "state": "CO", "street": "1601 1ST ST", "postcode": "81101"}}},
{"geometry": {"type": "Point", "coordinates": [-105.9019391436, 37.478338268]}, "type": "Feature", "properties": {"collection_times": [{"days": "Mon-Sat", "time": "2:00pm"}, {"days": "Sun", "time": "Closed"}], "id": "8110100004", "name": "USPS COLLECTION BOX - BLUE BOX", "address": {"city": "ALAMOSA", "state": "CO", "street": "7565 W US HIGHWAY 160", "postcode": "81101"}}},
{"geometry": {"type": "Point", "coordinates": [-105.8753153327, 37.4682546655]}, "type": "Feature", "properties": {"collection_times": [{"days": "Mon-Sat", "time": "2:00pm"}, {"days": "Sun", "time": "Closed"}], "id": "8110100005", "name": "USPS COLLECTION BOX - BLUE BOX", "address": {"city": "ALAMOSA", "state": "CO", "street": "1301 MAIN ST", "postcode": "81101"}}},
{"geometry": {"type": "Point", "coordinates": [-105.8751586563, 37.4716135356]}, "type": "Feature", "properties": {"collection_times": [{"days": "Mon-Sat", "time": "2:00pm"}, {"days": "Sun", "time": "Closed"}], "id": "8110100006", "name": "USPS COLLECTION BOX - BLUE BOX", "address": {"city": "ALAMOSA", "state": "CO", "street": "2431 MAIN ST", "postcode": "81101"}}},
{"geometry": {"type": "Point", "coordinates": [-105.8671849331, 37.4692294225]}, "type": "Feature", "properties": {"collection_times": [{"days": "Mon-Sat", "time": "2:00pm"}, {"days": "Sun", "time": "Closed"}], "id": "8110100008", "name": "USPS COLLECTION BOX - BLUE BOX", "address": {"city": "ALAMOSA", "state": "CO", "street": "702 4TH ST", "postcode": "81101"}}},
{"geometry": {"type": "Point", "coordinates": [-105.865511219, 37.4657184258]}, "type": "Feature", "properties": {"collection_times": [{"days": "Mon-Sat", "time": "9:00am"}, {"days": "Sun", "time": "Closed"}], "id": "8110100010", "name": "USPS COLLECTION BOX - BLUE BOX", "address": {"city": "ALAMOSA", "state": "CO", "street": "725 STATE AVE", "postcode": "81101"}}},
{"geometry": {"type": "Point", "coordinates": [-105.8671849331, 37.4692294225]}, "type": "Feature", "properties": {"collection_times": [{"days": "Mon-Sat", "time": "2:00pm"}, {"days": "Sun", "time": "Closed"}], "id": "8110100011", "name": "USPS COLLECTION BOX - BLUE BOX", "address": {"city": "ALAMOSA", "state": "CO", "street": "702 4TH ST", "postcode": "81101"}}},
{"geometry": {"type": "Point", "coordinates": [-105.8653716736, 37.4668953292]}, "type": "Feature", "properties": {"collection_times": [{"days": "Mon-Sat", "time": "9:00am"}, {"days": "Sun", "time": "Closed"}], "id": "8110100012", "name": "USPS COLLECTION BOX - BLUE BOX", "address": {"city": "ALAMOSA", "state": "CO", "street": "610 STATE AVE", "postcode": "81101"}}},
{"geometry": {"type": "Point", "coordinates": [-105.8573149456, 37.4734861807]}, "type": "Feature", "properties": {"collection_times": [{"days": "Mon-Sat", "time": "9:00am"}, {"days": "Sun", "time": "Closed"}], "id": "8110100013", "name": "USPS COLLECTION BOX - BLUE BOX", "address": {"city": "ALAMOSA", "state": "CO", "street": "6988 STATE HIGHWAY 17", "postcode": "81101"}}},
{"geometry": {"type": "Point", "coordinates": [-105.8628102923, 37.4704487637]}, "type": "Feature", "properties": {"collection_times": [{"days": "Mon-Sat", "time": "3:00pm"}, {"days": "Sun", "time": "Closed"}], "id": "8110100014", "name": "USPS COLLECTION BOX - BLUE BOX", "address": {"city": "ALAMOSA", "state": "CO", "street": "505 3RD ST", "postcode": "81101"}}},
{"geometry": {"type": "Point", "coordinates": [-105.8628102923, 37.4704487637]}, "type": "Feature", "properties": {"collection_times": [{"days": "Mon-Sat", "time": "3:00pm"}, {"days": "Sun", "time": "Closed"}], "id": "8110100015", "name": "USPS COLLECTION BOX - BLUE BOX", "address": {"city": "ALAMOSA", "state": "CO", "street": "505 3RD ST", "postcode": "81101"}}},
{"geometry": {"type": "Point", "coordinates": [-105.8628102923, 37.4704487637]}, "type": "Feature", "properties": {"collection_times": [{"days": "Mon-Sat", "time": "3:00pm"}, {"days": "Sun", "time": "Closed"}], "id": "8110100016", "name": "USPS COLLECTION BOX - BLUE BOX", "address": {"city": "ALAMOSA", "state": "CO", "street": "505 3RD ST", "postcode": "81101"}}},
{"geometry": {"type": "Point", "coordinates": [-105.8628102923, 37.4704487637]}, "type": "Feature", "properties": {"collection_times": [{"days": "Mon-Sat", "time": "3:00pm"}, {"days": "Sun", "time": "Closed"}], "id": "8110100017", "name": "USPS COLLECTION BOX - PO LOBBY", "address": {"city": "ALAMOSA", "state": "CO", "street": "505 3RD ST", "postcode": "81101"}}},
{"geometry": {"type": "Point", "coordinates": [-105.8628102923, 37.4704487637]}, "type": "Feature", "properties": {"collection_times": [{"days": "Mon-Sat", "time": "3:00pm"}, {"days": "Sun", "time": "Closed"}], "id": "8110100018", "name": "USPS COLLECTION BOX - PO LOBBY", "address": {"city": "ALAMOSA", "state": "CO", "street": "505 3RD ST", "postcode": "81101"}}},
{"geometry": {"type": "Point", "coordinates": [-105.90375399, 37.4802591424]}, "type": "Feature", "properties": {"collection_times": [{"days": "Mon-Sat", "time": "9:00am"}, {"days": "Sun", "time": "Closed"}], "id": "8110100019", "name": "USPS COLLECTION BOX - BLUE BOX", "address": {"city": "ALAMOSA", "state": "CO", "street": "3333 CLARK ST", "postcode": "81101"}}},
{"geometry": {"type": "Point", "coordinates": [-105.90375399, 37.4802591424]}, "type": "Feature", "properties": {"collection_times": [{"days": "Mon-Sat", "time": "9:00am"}, {"days": "Sun", "time": "Closed"}], "id": "8110100021", "name": "USPS COLLECTION BOX - BLUE BOX", "address": {"city": "ALAMOSA", "state": "CO", "street": "3333 CLARK ST", "postcode": "81101"}}},
{"geometry": {"type": "Point", "coordinates": [-106.0087096106, 37.0753058065]}, "type": "Feature", "properties": {"collection_times": [{"days": "Mon-Fri", "time": "1:00pm"}, {"days": "Sat", "time": "12:00pm"}, {"days": "Sun", "time": "Closed"}], "id": "8112000000", "name": "USPS COLLECTION BOX - BLUE BOX", "address": {"city": "ANTONITO", "state": "CO", "street": "438 MAIN ST", "postcode": "81120"}}},
{"geometry": {"type": "Point", "coordinates": [-106.0087598917, 37.0753959497]}, "type": "Feature", "properties": {"collection_times": [{"days": "Mon-Fri", "time": "1:00pm"}, {"days": "Sat", "time": "12:00pm"}, {"days": "Sun", "time": "Closed"}], "id": "8112000002", "name": "USPS COLLECTION BOX - PO LOBBY", "address": {"city": "ANTONITO", "state": "CO", "street": "438 MAIN ST", "postcode": "81120"}}},
{"geometry": {"type": "Point", "coordinates": [-107.4261806192, 37.1350514361]}, "type": "Feature", "properties": {"collection_times": [{"days": "Mon-Fri", "time": "11:15am"}, {"days": "Sat", "time": "11:00am"}, {"days": "Sun", "time": "Closed"}], "id": "8112100000", "name": "USPS COLLECTION BOX - BLUE BOX", "address": {"city": "ARBOLES", "state": "CO", "street": "86 COUNTY ROAD 982", "postcode": "81121"}}},
{"geometry": {"type": "Point", "coordinates": [-107.6022595758, 37.2272359186]}, "type": "Feature", "properties": {"collection_times": [{"days": "Mon-Sat", "time": "11:30am"}, {"days": "Sun", "time": "Closed"}], "id": "8112200000", "name": "USPS COLLECTION BOX - BLUE BOX", "address": {"city": "BAYFIELD", "state": "CO", "street": "145 PARK ST", "postcode": "81122"}}},
{"geometry": {"type": "Point", "coordinates": [-107.6022595758, 37.2272359186]}, "type": "Feature", "properties": {"collection_times": [{"days": "Mon-Sat", "time": "11:30am"}, {"days": "Sun", "time": "Closed"}], "id": "8112200002", "name": "USPS COLLECTION BOX - PO LOBBY", "address": {"city": "BAYFIELD", "state": "CO", "street": "145 PARK ST", "postcode": "81122"}}},
{"geometry": {"type": "Point", "coordinates": [-107.6047276342, 37.3207100467]}, "type": "Feature", "properties": {"collection_times": [{"days": "Mon-Sat", "time": "10:00am"}, {"days": "Sun", "time": "Closed"}], "id": "8112200003", "name": "USPS COLLECTION BOX - BLUE BOX", "address": {"city": "BAYFIELD", "state": "CO", "street": "257 ALPINE FOREST DR", "postcode": "81122"}}},
{"geometry": {"type": "Point", "coordinates": [-105.5641125689, 37.3877380506]}, "type": "Feature", "properties": {"collection_times": [{"days": "Mon-Fri", "time": "2:30pm"}, {"days": "Sat", "time": "11:30am"}, {"days": "Sun", "time": "Closed"}], "id": "8112300000", "name": "USPS COLLECTION BOX - BLUE BOX", "address": {"city": "BLANCA", "state": "CO", "street": "406 SMITH ST", "postcode": "81123"}}},
{"geometry": {"type": "Point", "coordinates": [-105.5641125689, 37.3877380506]}, "type": "Feature", "properties": {"collection_times": [{"days": "Mon-Fri", "time": "2:30pm"}, {"days": "Sat", "time": "11:30am"}, {"days": "Sun", "time": "Closed"}], "id": "8112300001", "name": "USPS COLLECTION BOX - PO LOBBY", "address": {"city": "BLANCA", "state": "CO", "street": "406 SMITH ST", "postcode": "81123"}}},
{"geometry": {"type": "Point", "coordinates": [-106.1085786975, 37.2818540475]}, "type": "Feature", "properties": {"collection_times": [{"days": "Mon-Sat", "time": "10:00am"}, {"days": "Sun", "time": "Closed"}], "id": "8112400000", "name": "USPS COLLECTION BOX - PO LOBBY", "address": {"city": "CAPULIN", "state": "CO", "street": "7999 STATE HIGHWAY 15", "postcode": "81124"}}},
{"geometry": {"type": "Point", "coordinates": [-106.1085786975, 37.2818540475]}, "type": "Feature", "properties": {"collection_times": [{"days": "Mon-Sat", "time": "10:00am"}, {"days": "Sun", "time": "Closed"}], "id": "8112400001", "name": "USPS COLLECTION BOX - BLUE BOX", "address": {"city": "CAPULIN", "state": "CO", "street": "7999 STATE HIGHWAY 15", "postcode": "81124"}}},
{"geometry": {"type": "Point", "coordinates": [-106.1085786975, 37.2818540475]}, "type": "Feature", "properties": {"collection_times": [{"days": "Mon-Sat", "time": "10:00am"}, {"days": "Sun", "time": "Closed"}], "id": "8112400002", "name": "USPS COLLECTION BOX - PO LOBBY", "address": {"city": "CAPULIN", "state": "CO", "street": "7999 STATE HIGHWAY 15", "postcode": "81124"}}},
{"geometry": {"type": "Point", "coordinates": [-106.1085560344, 37.7538970479]}, "type": "Feature", "properties": {"collection_times": [{"days": "Mon-Fri", "time": "1:45pm"}, {"days": "Sat", "time": "12:30pm"}, {"days": "Sun", "time": "Closed"}], "id": "8112500001", "name": "USPS COLLECTION BOX - BLUE BOX", "address": {"city": "CENTER", "state": "CO", "street": "255 S WORTH ST", "postcode": "81125"}}},
{"geometry": {"type": "Point", "coordinates": [-106.1085560344, 37.7538970479]}, "type": "Feature", "properties": {"collection_times": [{"days": "Mon-Fri", "time": "1:45pm"}, {"days": "Sat", "time": "12:30pm"}, {"days": "Sun", "time": "Closed"}], "id": "8112500002", "name": "USPS COLLECTION BOX - PO LOBBY", "address": {"city": "CENTER", "state": "CO", "street": "255 S WORTH ST", "postcode": "81125"}}},
{"geometry": {"type": "Point", "coordinates": [-106.1085560344, 37.7538970479]}, "type": "Feature", "properties": {"collection_times": [{"days": "Mon-Fri", "time": "1:45pm"}, {"days": "Sat", "time": "12:30pm"}, {"days": "Sun", "time": "Closed"}], "id": "8112500003", "name": "USPS COLLECTION BOX - PO LOBBY", "address": {"city": "CENTER", "state": "CO", "street": "255 S WORTH ST", "postcode": "81125"}}},
{"geometry": {"type": "Point", "coordinates": [-105.3828061934, 37.1663655378]}, "type": "Feature", "properties": {"collection_times": [{"days": "Mon-Sat", "time": "11:30am"}, {"days": "Sun", "time": "Closed"}], "id": "8112600000", "name": "USPS COLLECTION BOX - BLUE BOX", "address": {"city": "CHAMA", "state": "CO", "street": "21844 CTY RD P 6", "postcode": "81126"}}},
{"geometry": {"type": "Point", "coordinates": [-105.3828061934, 37.1663655378]}, "type": "Feature", "properties": {"collection_times": [{"days": "Mon-Sat", "time": "11:30am"}, {"days": "Sun", "time": "Closed"}], "id": "8112600001", "name": "USPS COLLECTION BOX - PO LOBBY", "address": {"city": "CHAMA", "state": "CO", "street": "21844 CTY RD P 6", "postcode": "81126"}}},
{"geometry": {"type": "Point", "coordinates": [-106.8410596754, 37.0331017044]}, "type": "Feature", "properties": {"collection_times": [{"days": "Mon-Fri", "time": "12:15pm"}, {"days": "Sat", "time": "11:45am"}, {"days": "Sun", "time": "Closed"}], "id": "8112800000", "name": "USPS COLLECTION BOX - BLUE BOX", "address": {"city": "CHROMO", "state": "CO", "street": "460 COUNTY ROAD 391", "postcode": "81128"}}},
{"geometry": {"type": "Point", "coordinates": [-106.0210161459, 37.090400133]}, "type": "Feature", "properties": {"collection_times": [{"days": "Mon-Fri", "time": "1:00pm"}, {"days": "Sat", "time": "9:45am"}, {"days": "Sun", "time": "Closed"}], "id": "8112900000", "name": "USPS COLLECTION BOX - BLUE BOX", "address": {"city": "CONEJOS", "state": "CO", "street": "6731 COUNTY ROAD 13", "postcode": "81129"}}},
{"geometry": {"type": "Point", "coordinates": [-106.0210161459, 37.090400133]}, "type": "Feature", "properties": {"collection_times": [{"days": "Mon-Fri", "time": "1:00pm"}, {"days": "Sat", "time": "9:45am"}, {"days": "Sun", "time": "Closed"}], "id": "8112900001", "name": "USPS COLLECTION BOX - PO LOBBY", "address": {"city": "CONEJOS", "state": "CO", "street": "6731 COUNTY ROAD 13", "postcode": "81129"}}},
{"geometry": {"type": "Point", "coordinates": [-106.9269788816, 37.8527826992]}, "type": "Feature", "properties": {"collection_times": [{"days": "Mon-Fri", "time": "12:45pm"}, {"days": "Sat", "time": "11:50am"}, {"days": "Sun", "time": "Closed"}], "id": "8113000000", "name": "USPS COLLECTION BOX - PO LOBBY", "address": {"city": "CREEDE", "state": "CO", "street": "10 S MAIN ST", "postcode": "81130"}}},
{"geometry": {"type": "Point", "coordinates": [-105.7003161241, 37.9949986143]}, "type": "Feature", "properties": {"collection_times": [{"days": "Mon-Fri", "time": "12:15pm"}, {"days": "Sat", "time": "12:00pm"}, {"days": "Sun", "time": "Closed"}], "id": "8113100000", "name": "USPS COLLECTION BOX - BLUE BOX", "address": {"city": "CRESTONE", "state": "CO", "street": "166 S ALDER AVE", "postcode": "81131"}}},
{"geometry": {"type": "Point", "coordinates": [-105.7003161241, 37.9949986143]}, "type": "Feature", "properties": {"collection_times": [{"days": "Mon-Fri", "time": "12:15pm"}, {"days": "Sat", "time": "11:45am"}, {"days": "Sun", "time": "Closed"}], "id": "8113100001", "name": "USPS COLLECTION BOX - PO LOBBY", "address": {"city": "CRESTONE", "state": "CO", "street": "166 S ALDER AVE", "postcode": "81131"}}},
{"geometry": {"type": "Point", "coordinates": [-106.3546738148, 37.6778962671]}, "type": "Feature", "properties": {"collection_times": [{"days": "Mon-Fri", "time": "1:45pm"}, {"days": "Sat", "time": "12:00pm"}, {"days": "Sun", "time": "Closed"}], "id": "8113200003", "name": "USPS COLLECTION BOX - PO LOBBY", "address": {"city": "DEL NORTE", "state": "CO", "street": "590 COLUMBIA AVE", "postcode": "81132"}}},
{"geometry": {"type": "Point", "coordinates": [-106.3546738148, 37.6778962671]}, "type": "Feature", "properties": {"collection_times": [{"days": "Mon-Fri", "time": "1:45pm"}, {"days": "Sat", "time": "12:00pm"}, {"days": "Sun", "time": "Closed"}], "id": "8113200004", "name": "USPS COLLECTION BOX - BLUE BOX", "address": {"city": "DEL NORTE", "state": "CO", "street": "590 COLUMBIA AVE", "postcode": "81132"}}},
{"geometry": {"type": "Point", "coordinates": [-105.2477876571, 37.5081202718]}, "type": "Feature", "properties": {"collection_times": [{"days": "Mon-Fri", "time": "2:15pm"}, {"days": "Sat", "time": "11:45am"}, {"days": "Sun", "time": "Closed"}], "id": "8113300000", "name": "USPS COLLECTION BOX - BLUE BOX", "address": {"city": "FT GARLAND", "state": "CO", "street": "313 HIGHWAY 159", "postcode": "81133"}}},
{"geometry": {"type": "Point", "coordinates": [-105.2477876571, 37.5081202718]}, "type": "Feature", "properties": {"collection_times": [{"days": "Mon-Sat", "time": "10:00am"}, {"days": "Sun", "time": "Closed"}], "id": "8113300001", "name": "USPS COLLECTION BOX - BLUE BOX", "address": {"city": "FT GARLAND", "state": "CO", "street": "313 FORBES PARK RD", "postcode": "81133"}}},
{"geometry": {"type": "Point", "coordinates": [-105.2477876571, 37.5081202718]}, "type": "Feature", "properties": {"collection_times": [{"days": "Mon-Fri", "time": "2:15pm"}, {"days": "Sat", "time": "11:45am"}, {"days": "Sun", "time": "Closed"}], "id": "8113300002", "name": "USPS COLLECTION BOX - PO LOBBY", "address": {"city": "FT GARLAND", "state": "CO", "street": "313 HIGHWAY 159", "postcode": "81133"}}},
{"geometry": {"type": "Point", "coordinates": [-105.880532448, 37.7459540805]}, "type": "Feature", "properties": {"collection_times": [{"days": "Mon-Fri", "time": "2:15pm"}, {"days": "Sat", "time": "11:15am"}, {"days": "Sun", "time": "Closed"}], "id": "8113600000", "name": "USPS COLLECTION BOX - BLUE BOX", "address": {"city": "HOOPER", "state": "CO", "street": "11701 W HWY 17", "postcode": "81136"}}},
{"geometry": {"type": "Point", "coordinates": [-105.880532448, 37.7459540805]}, "type": "Feature", "properties": {"collection_times": [{"days": "Mon-Fri", "time": "1:00pm"}, {"days": "Sat", "time": "11:15am"}, {"days": "Sun", "time": "Closed"}], "id": "8113600002", "name": "USPS COLLECTION BOX - PO LOBBY", "address": {"city": "HOOPER", "state": "CO", "street": "11701 W HWY 17", "postcode": "81136"}}},
{"geometry": {"type": "Point", "coordinates": [-107.6316090826, 37.0599373741]}, "type": "Feature", "properties": {"collection_times": [{"days": "Mon-Sat", "time": "11:00am"}, {"days": "Sun", "time": "Closed"}], "id": "8113700001", "name": "USPS COLLECTION BOX - BLUE BOX", "address": {"city": "IGNACIO", "state": "CO", "street": "1001 WILLIAMS ST", "postcode": "81137"}}},
{"geometry": {"type": "Point", "coordinates": [-107.6316090826, 37.0599373741]}, "type": "Feature", "properties": {"collection_times": [{"days": "Mon-Sat", "time": "11:00am"}, {"days": "Sun", "time": "Closed"}], "id": "8113700002", "name": "USPS COLLECTION BOX - BLUE BOX", "address": {"city": "IGNACIO", "state": "CO", "street": "1001 WILLIAMS ST", "postcode": "81137"}}},
{"geometry": {"type": "Point", "coordinates": [-107.6316090826, 37.0599373741]}, "type": "Feature", "properties": {"collection_times": [{"days": "Mon-Sat", "time": "11:00am"}, {"days": "Sun", "time": "Closed"}], "id": "8113700003", "name": "USPS COLLECTION BOX - PO LOBBY", "address": {"city": "IGNACIO", "state": "CO", "street": "1001 WILLIAMS ST", "postcode": "81137"}}},
{"geometry": {"type": "Point", "coordinates": [-107.6316090826, 37.0599373741]}, "type": "Feature", "properties": {"collection_times": [{"days": "Mon-Sat", "time": "11:00am"}, {"days": "Sun", "time": "Closed"}], "id": "8113700004", "name": "USPS COLLECTION BOX - PO LOBBY", "address": {"city": "IGNACIO", "state": "CO", "street": "1001 WILLIAMS ST", "postcode": "81137"}}},
{"geometry": {"type": "Point", "coordinates": [-105.6234431302, 37.0028331828]}, "type": "Feature", "properties": {"collection_times": [{"days": "Mon-Sat", "time": "11:30am"}, {"days": "Sun", "time": "Closed"}], "id": "8113800000", "name": "USPS COLLECTION BOX - PO LOBBY", "address": {"city": "JAROSO", "state": "CO", "street": "111 COSTILLA RD", "postcode": "81138"}}},
{"geometry": {"type": "Point", "coordinates": [-105.9590069552, 37.2747158713]}, "type": "Feature", "properties": {"collection_times": [{"days": "Mon-Fri", "time": "2:15pm"}, {"days": "Sat", "time": "12:00pm"}, {"days": "Sun", "time": "Closed"}], "id": "8114000000", "name": "USPS COLLECTION BOX - BLUE BOX", "address": {"city": "LA JARA", "state": "CO", "street": "525 MAIN ST", "postcode": "81140"}}},
{"geometry": {"type": "Point", "coordinates": [-105.9590069552, 37.2747158713]}, "type": "Feature", "properties": {"collection_times": [{"days": "Mon-Fri", "time": "2:15pm"}, {"days": "Sat", "time": "12:00pm"}, {"days": "Sun", "time": "Closed"}], "id": "8114000001", "name": "USPS COLLECTION BOX - PO LOBBY", "address": {"city": "LA JARA", "state": "CO", "street": "525 MAIN ST", "postcode": "81140"}}},
{"geometry": {"type": "Point", "coordinates": [-105.9354412039, 37.1739274762]}, "type": "Feature", "properties": {"collection_times": [{"days": "Mon-Fri", "time": "1:30pm"}, {"days": "Sat", "time": "11:15am"}, {"days": "Sun", "time": "Closed"}], "id": "8114100000", "name": "USPS COLLECTION BOX - BLUE BOX", "address": {"city": "MANASSA", "state": "CO", "street": "413 MAIN ST", "postcode": "81141"}}},
{"geometry": {"type": "Point", "coordinates": [-105.9354412039, 37.1739274762]}, "type": "Feature", "properties": {"collection_times": [{"days": "Mon-Fri", "time": "1:30pm"}, {"days": "Sat", "time": "11:15am"}, {"days": "Sun", "time": "Closed"}], "id": "8114100001", "name": "USPS COLLECTION BOX - PO LOBBY", "address": {"city": "MANASSA", "state": "CO", "street": "413 MAIN ST", "postcode": "81141"}}},
{"geometry": {"type": "Point", "coordinates": [-105.9084281652, 37.9982836858]}, "type": "Feature", "properties": {"collection_times": [{"days": "Mon-Fri", "time": "12:00pm"}, {"days": "Sat", "time": "10:30am"}, {"days": "Sun", "time": "Closed"}], "id": "8114300001", "name": "USPS COLLECTION BOX - PO LOBBY", "address": {"city": "MOFFAT", "state": "CO", "street": "17363 STATE HIGHWAY 17", "postcode": "81143"}}},
{"geometry": {"type": "Point", "coordinates": [-105.9039095577, 38.0708202091]}, "type": "Feature", "properties": {"collection_times": [{"days": "Mon-Fri", "time": "12:00pm"}, {"days": "Sat", "time": "10:30am"}, {"days": "Sun", "time": "Closed"}], "id": "8114300002", "name": "USPS COLLECTION BOX - BLUE BOX", "address": {"city": "MOFFAT", "state": "CO", "street": "17363 STATE HIGHWAY 17", "postcode": "81143"}}},
{"geometry": {"type": "Point", "coordinates": [-106.1480298186, 37.5798566568]}, "type": "Feature", "properties": {"collection_times": [{"days": "Mon-Fri", "time": "2:00pm"}, {"days": "Sat", "time": "12:00pm"}, {"days": "Sun", "time": "Closed"}], "id": "8114400000", "name": "USPS COLLECTION BOX - PO LOBBY", "address": {"city": "MONTE VISTA", "state": "CO", "street": "150 WASHINGTON ST", "postcode": "81144"}}},
{"geometry": {"type": "Point", "coordinates": [-106.1480298186, 37.5798566568]}, "type": "Feature", "properties": {"collection_times": [{"days": "Mon-Fri", "time": "2:00pm"}, {"days": "Sat", "time": "12:00pm"}, {"days": "Sun", "time": "Closed"}], "id": "8114400003", "name": "USPS COLLECTION BOX - BLUE BOX", "address": {"city": "MONTE VISTA", "state": "CO", "street": "150 WASHINGTON ST", "postcode": "81144"}}},
{"geometry": {"type": "Point", "coordinates": [-106.1480298186, 37.5798566568]}, "type": "Feature", "properties": {"collection_times": [{"days": "Mon-Fri", "time": "2:00pm"}, {"days": "Sat", "time": "12:00pm"}, {"days": "Sun", "time": "Closed"}], "id": "8114400004", "name": "USPS COLLECTION BOX - BLUE BOX", "address": {"city": "MONTE VISTA", "state": "CO", "street": "150 WASHINGTON ST", "postcode": "81144"}}},
{"geometry": {"type": "Point", "coordinates": [-106.1480298186, 37.5798566568]}, "type": "Feature", "properties": {"collection_times": [{"days": "Mon-Fri", "time": "2:00pm"}, {"days": "Sat", "time": "12:00pm"}, {"days": "Sun", "time": "Closed"}], "id": "8114400008", "name": "USPS COLLECTION BOX - PO LOBBY", "address": {"city": "MONTE VISTA", "state": "CO", "street": "150 WASHINGTON ST", "postcode": "81144"}}},
{"geometry": {"type": "Point", "coordinates": [-105.8709900636, 37.6527173645]}, "type": "Feature", "properties": {"collection_times": [{"days": "Mon-Fri", "time": "2:45pm"}, {"days": "Sat", "time": "11:15am"}, {"days": "Sun", "time": "Closed"}], "id": "8114600000", "name": "USPS COLLECTION BOX - BLUE BOX", "address": {"city": "MOSCA", "state": "CO", "street": "9260 4TH AVE", "postcode": "81146"}}},
{"geometry": {"type": "Point", "coordinates": [-105.8709900636, 37.6527173645]}, "type": "Feature", "properties": {"collection_times": [{"days": "Mon-Fri", "time": "11:45am"}, {"days": "Sat", "time": "11:15am"}, {"days": "Sun", "time": "Closed"}], "id": "8114600001", "name": "USPS COLLECTION BOX - PO LOBBY", "address": {"city": "MOSCA", "state": "CO", "street": "9260 4TH AVE", "postcode": "81146"}}},
{"geometry": {"type": "Point", "coordinates": [-105.5069502731, 37.7439097337]}, "type": "Feature", "properties": {"collection_times": [{"days": "Mon-Sat", "time": "11:45am"}, {"days": "Sun", "time": "Closed"}], "id": "8114600002", "name": "USPS COLLECTION BOX - BLUE BOX", "address": {"city": "MOSCA", "state": "CO", "street": "11999 STATE HIGHWAY 150", "postcode": "81146"}}},
{"geometry": {"type": "Point", "coordinates": [-107.0095718259, 37.264967133]}, "type": "Feature", "properties": {"collection_times": [{"days": "Mon-Sat", "time": "12:15pm"}, {"days": "Sun", "time": "Closed"}], "id": "8114700000", "name": "USPS COLLECTION BOX - PO LOBBY", "address": {"city": "PAGOSA SPRINGS", "state": "CO", "street": "250 HOT SPRINGS BLVD", "postcode": "81147"}}},
{"geometry": {"type": "Point", "coordinates": [-107.0095718259, 37.264967133]}, "type": "Feature", "properties": {"collection_times": [{"days": "Mon-Sat", "time": "12:15pm"}, {"days": "Sun", "time": "Closed"}], "id": "8114700001", "name": "USPS COLLECTION BOX - PO LOBBY", "address": {"city": "PAGOSA SPRINGS", "state": "CO", "street": "250 HOT SPRINGS BLVD", "postcode": "81147"}}},
{"geometry": {"type": "Point", "coordinates": [-107.0095718259, 37.264967133]}, "type": "Feature", "properties": {"collection_times": [{"days": "Mon-Sat", "time": "12:15pm"}, {"days": "Sun", "time": "Closed"}], "id": "8114700004", "name": "USPS COLLECTION BOX - BLUE BOX", "address": {"city": "PAGOSA SPRINGS", "state": "CO", "street": "250 HOT SPRINGS BLVD", "postcode": "81147"}}},
{"geometry": {"type": "Point", "coordinates": [-107.0095718259, 37.264967133]}, "type": "Feature", "properties": {"collection_times": [{"days": "Mon-Sat", "time": "12:15pm"}, {"days": "Sun", "time": "Closed"}], "id": "8114700005", "name": "USPS COLLECTION BOX - BLUE BOX", "address": {"city": "PAGOSA SPRINGS", "state": "CO", "street": "250 HOT SPRINGS BLVD", "postcode": "81147"}}},
{"geometry": {"type": "Point", "coordinates": [-107.0785573741, 37.2548740477]}, "type": "Feature", "properties": {"collection_times": [{"days": "Mon-Sat", "time": "11:45am"}, {"days": "Sun", "time": "Closed"}], "id": "8114700008", "name": "USPS COLLECTION BOX - BLUE BOX", "address": {"city": "PAGOSA SPRINGS", "state": "CO", "street": "63 N PAGOSA BLVD", "postcode": "81147"}}},
{"geometry": {"type": "Point", "coordinates": [-107.077937899, 37.2608822475]}, "type": "Feature", "properties": {"collection_times": [{"days": "Mon-Sat", "time": "11:45am"}, {"days": "Sun", "time": "Closed"}], "id": "8114700009", "name": "USPS COLLECTION BOX - BLUE BOX", "address": {"city": "PAGOSA SPRINGS", "state": "CO", "street": "56 TALISMAN DR", "postcode": "81147"}}},
{"geometry": {"type": "Point", "coordinates": [-107.0095718259, 37.264967133]}, "type": "Feature", "properties": {"collection_times": [{"days": "Mon-Sat", "time": "12:15pm"}, {"days": "Sun", "time": "Closed"}], "id": "8114700013", "name": "USPS COLLECTION BOX - PO LOBBY", "address": {"city": "PAGOSA SPRINGS", "state": "CO", "street": "250 HOT SPRINGS BLVD", "postcode": "81147"}}},
{"geometry": {"type": "Point", "coordinates": [-105.9853855198, 37.1733515921]}, "type": "Feature", "properties": {"collection_times": [{"days": "Mon-Fri", "time": "1:15pm"}, {"days": "Sat", "time": "9:50am"}, {"days": "Sun", "time": "Closed"}], "id": "8114800000", "name": "USPS COLLECTION BOX - BLUE BOX", "address": {"city": "ROMEO", "state": "CO", "street": "615 2ND AVE", "postcode": "81148"}}},
{"geometry": {"type": "Point", "coordinates": [-105.9853855198, 37.1733515921]}, "type": "Feature", "properties": {"collection_times": [{"days": "Mon-Fri", "time": "1:15pm"}, {"days": "Sat", "time": "9:50am"}, {"days": "Sun", "time": "Closed"}], "id": "8114800001", "name": "USPS COLLECTION BOX - PO LOBBY", "address": {"city": "ROMEO", "state": "CO", "street": "615 2ND AVE", "postcode": "81148"}}},
{"geometry": {"type": "Point", "coordinates": [-106.1361806467, 38.0875705485]}, "type": "Feature", "properties": {"collection_times": [{"days": "Mon-Fri", "time": "1:00pm"}, {"days": "Sat", "time": "11:00am"}, {"days": "Sun", "time": "Closed"}], "id": "8114900000", "name": "USPS COLLECTION BOX - BLUE BOX", "address": {"city": "SAGUACHE", "state": "CO", "street": "350 DENVER AVE", "postcode": "81149"}}},
{"geometry": {"type": "Point", "coordinates": [-106.1361806467, 38.0875705485]}, "type": "Feature", "properties": {"collection_times": [{"days": "Mon-Fri", "time": "1:00pm"}, {"days": "Sat", "time": "11:00am"}, {"days": "Sun", "time": "Closed"}], "id": "8114900001", "name": "USPS COLLECTION BOX - PO LOBBY", "address": {"city": "SAGUACHE", "state": "CO", "street": "350 DENVER AVE", "postcode": "81149"}}},
{"geometry": {"type": "Point", "coordinates": [-105.9440992635, 37.1737651587]}, "type": "Feature", "properties": {"collection_times": [{"days": "Mon-Fri", "time": "2:00pm"}, {"days": "Sat", "time": "10:00am"}, {"days": "Sun", "time": "Closed"}], "id": "8115100000", "name": "USPS COLLECTION BOX - BLUE BOX", "address": {"city": "SANFORD", "state": "CO", "street": "810 MAIN ST", "postcode": "81151"}}},
{"geometry": {"type": "Point", "coordinates": [-105.9440992635, 37.1737651587]}, "type": "Feature", "properties": {"collection_times": [{"days": "Mon-Fri", "time": "2:00pm"}, {"days": "Sat", "time": "10:00am"}, {"days": "Sun", "time": "Closed"}], "id": "8115100001", "name": "USPS COLLECTION BOX - PO LOBBY", "address": {"city": "SANFORD", "state": "CO", "street": "810 MAIN ST", "postcode": "81151"}}},
{"geometry": {"type": "Point", "coordinates": [-105.4259621635, 37.2055896239]}, "type": "Feature", "properties": {"collection_times": [{"days": "Mon-Fri", "time": "1:45pm"}, {"days": "Sat", "time": "11:45am"}, {"days": "Sun", "time": "Closed"}], "id": "8115200000", "name": "USPS COLLECTION BOX - BLUE BOX", "address": {"city": "SAN LUIS", "state": "CO", "street": "13 9TH ST", "postcode": "81152"}}},
{"geometry": {"type": "Point", "coordinates": [-105.4259621635, 37.2055896239]}, "type": "Feature", "properties": {"collection_times": [{"days": "Mon-Fri", "time": "1:45pm"}, {"days": "Sat", "time": "11:45am"}, {"days": "Sun", "time": "Closed"}], "id": "8115200001", "name": "USPS COLLECTION BOX - PO LOBBY", "address": {"city": "SAN LUIS", "state": "CO", "street": "13 9TH ST", "postcode": "81152"}}},
{"geometry": {"type": "Point", "coordinates": [-106.6138084271, 37.6622038785]}, "type": "Feature", "properties": {"collection_times": [{"days": "Mon-Fri", "time": "1:15pm"}, {"days": "Sat", "time": "10:00am"}, {"days": "Sun", "time": "Closed"}], "id": "8115400001", "name": "USPS COLLECTION BOX - PO LOBBY", "address": {"city": "SOUTH FORK", "state": "CO", "street": "130 W FRONTAGE RD", "postcode": "81154"}}},
{"geometry": {"type": "Point", "coordinates": [-106.6229775529, 37.6783141372]}, "type": "Feature", "properties": {"collection_times": [{"days": "Mon-Fri", "time": "1:15pm"}, {"days": "Sat", "time": "10:00am"}, {"days": "Sun", "time": "Closed"}], "id": "8115400002", "name": "USPS COLLECTION BOX - BLUE BOX", "address": {"city": "SOUTH FORK", "state": "CO", "street": "130 W FRONTAGE RD", "postcode": "81154"}}},
{"geometry": {"type": "Point", "coordinates": [-106.0750751661, 38.3156683709]}, "type": "Feature", "properties": {"collection_times": [{"days": "Mon-Fri", "time": "11:30am"}, {"days": "Sat", "time": "10:15am"}, {"days": "Sun", "time": "Closed"}], "id": "8115500000", "name": "USPS COLLECTION BOX - BLUE BOX", "address": {"city": "VILLA GROVE", "state": "CO", "street": "33937 HIGHWAY 285", "postcode": "81155"}}},
{"geometry": {"type": "Point", "coordinates": [-106.0750751661, 38.3156683709]}, "type": "Feature", "properties": {"collection_times": [{"days": "Mon-Fri", "time": "11:30am"}, {"days": "Sat", "time": "10:15am"}, {"days": "Sun", "time": "Closed"}], "id": "8115500001", "name": "USPS COLLECTION BOX - PO LOBBY", "address": {"city": "VILLA GROVE", "state": "CO", "street": "33937 HIGHWAY 285", "postcode": "81155"}}}
]}
