{"type": "FeatureCollection", "features": [
{"geometry": {"type": "Point", "coordinates": [-105.9915933401, 38.5329875364]}, "type": "Feature", "properties": {"collection_times": [{"days": "Mon-Fri", "time": "5:00pm"}, {"days": "Sat", "time": "4:00pm"}, {"days": "Sun", "time": "Closed"}], "id": "8120100000", "name": "USPS COLLECTION BOX - BLUE BOX", "address": {"city": "SALIDA", "state": "CO", "street": "310 D ST", "postcode": "81201"}}},
{"geometry": {"type": "Point", "coordinates": [-105.9915933401, 38.5329875364]}, "type": "Feature", "properties": {"collection_times": [{"days": "Mon-Fri", "time": "5:00pm"}, {"days": "Sat", "time": "4:00pm"}, {"days": "Sun", "time": "Closed"}], "id": "8120100001", "name": "USPS COLLECTION BOX - BLUE BOX", "address": {"city": "SALIDA", "state": "CO", "street": "310 D ST", "postcode": "81201"}}},
{"geometry": {"type": "Point", "coordinates": [-105.9936540142, 38.5359933565]}, "type": "Feature", "properties": {"collection_times": [{"days": "Mon-Sat", "time": "3:00pm"}, {"days": "Sun", "time": "Closed"}], "id": "8120100002", "name": "USPS COLLECTION BOX - BLUE BOX", "address": {"city": "SALIDA", "state": "CO", "street": "197 W 2ND ST", "postcode": "81201"}}},
{"geometry": {"type": "Point", "coordinates": [-105.9940799198, 38.5356456452]}, "type": "Feature", "properties": {"collection_times": [{"days": "Mon-Sat", "time": "3:00pm"}, {"days": "Sun", "time": "Closed"}], "id": "8120100004", "name": "USPS COLLECTION BOX - BLUE BOX", "address": {"city": "SALIDA", "state": "CO", "street": "232 G ST", "postcode": "81201"}}},
{"geometry": {"type": "Point", "coordinates": [-105.9975360999, 38.5369855368]}, "type": "Feature", "properties": {"collection_times": [{"days": "Mon-Sat", "time": "3:00pm"}, {"days": "Sun", "time": "Closed"}], "id": "8120100006", "name": "USPS COLLECTION BOX - BLUE BOX", "address": {"city": "SALIDA", "state": "CO", "street": "132 CRESTONE AVE", "postcode": "81201"}}},
{"geometry": {"type": "Point", "coordinates": [-106.0070330629, 38.5242261336]}, "type": "Feature", "properties": {"collection_times": [{"days": "Mon-Sat", "time": "3:00pm"}, {"days": "Sun", "time": "Closed"}], "id": "8120100012", "name": "USPS COLLECTION BOX - BLUE BOX", "address": {"city": "SALIDA", "state": "CO", "street": "402 W HIGHWAY 50", "postcode": "81201"}}},
{"geometry": {"type": "Point", "coordinates": [-106.0238877778, 38.5226028687]}, "type": "Feature", "properties": {"collection_times": [{"days": "Mon-Sat", "time": "10:00am"}, {"days": "Sun", "time": "Closed"}], "id": "8120100014", "name": "USPS COLLECTION BOX - BLUE BOX", "address": {"city": "SALIDA", "state": "CO", "street": "7865 W US HIGHWAY 50", "postcode": "81201"}}},
{"geometry": {"type": "Point", "coordinates": [-105.9915933401, 38.5329875364]}, "type": "Feature", "properties": {"collection_times": [{"days": "Mon-Fri", "time": "5:00pm"}, {"days": "Sat", "time": "4:00pm"}, {"days": "Sun", "time": "Closed"}], "id": "8120100015", "name": "USPS COLLECTION BOX - PO LOBBY", "address": {"city": "SALIDA", "state": "CO", "street": "310 D ST", "postcode": "81201"}}},
{"geometry": {"type": "Point", "coordinates": [-105.9915933401, 38.5329875364]}, "type": "Feature", "properties": {"collection_times": [{"days": "Mon-Fri", "time": "5:00pm"}, {"days": "Sat", "time": "4:00pm"}, {"days": "Sun", "time": "Closed"}], "id": "8120100016", "name": "USPS COLLECTION BOX - PO LOBBY", "address": {"city": "SALIDA", "state": "CO", "street": "310 D ST", "postcode": "81201"}}},
{"geometry": {"type": "Point", "coordinates": [-106.837941912, 38.666257288]}, "type": "Feature", "properties": {"collection_times": [{"days": "Mon-Sat", "time": "11:45am"}, {"days": "Sun", "time": "Closed"}], "id": "8121000000", "name": "USPS COLLECTION BOX - PO LOBBY", "address": {"city": "ALMONT", "state": "CO", "street": "500 COUNTY ROAD 742", "postcode": "81210"}}},
{"geometry": {"type": "Point", "coordinates": [-106.837941912, 38.666257288]}, "type": "Feature", "properties": {"collection_times": [{"days": "Mon-Fri", "time": "2:00pm"}, {"days": "Sat", "time": "11:45am"}, {"days": "Sun", "time": "Closed"}], "id": "8121000003", "name": "USPS COLLECTION BOX - BLUE BOX", "address": {"city": "ALMONT", "state": "CO", "street": "500 COUNTY ROAD 742", "postcode": "81210"}}},
{"geometry": {"type": "Point", "coordinates": [-106.1347974251, 38.8452847309]}, "type": "Feature", "properties": {"collection_times": [{"days": "Mon-Sat", "time": "2:30pm"}, {"days": "Sun", "time": "Closed"}], "id": "8121100000", "name": "USPS COLLECTION BOX - BLUE BOX", "address": {"city": "BUENA VISTA", "state": "CO", "street": "110 BROOKDALE AVE", "postcode": "81211"}}},
{"geometry": {"type": "Point", "coordinates": [-106.1347974251, 38.8452847309]}, "type": "Feature", "properties": {"collection_times": [{"days": "Mon-Sat", "time": "2:30pm"}, {"days": "Sun", "time": "Closed"}], "id": "8121100001", "name": "USPS COLLECTION BOX - BLUE BOX", "address": {"city": "BUENA VISTA", "state": "CO", "street": "110 BROOKDALE AVE", "postcode": "81211"}}},
{"geometry": {"type": "Point", "coordinates": [-106.1347974251, 38.8452847309]}, "type": "Feature", "properties": {"collection_times": [{"days": "Mon-Fri", "time": "2:30pm"}, {"days": "Sat", "time": "1:00pm"}, {"days": "Sun", "time": "Closed"}], "id": "8121100004", "name": "USPS COLLECTION BOX - PO LOBBY", "address": {"city": "BUENA VISTA", "state": "CO", "street": "110 BROOKDALE AVE", "postcode": "81211"}}},
{"geometry": {"type": "Point", "coordinates": [-106.1347974251, 38.8452847309]}, "type": "Feature", "properties": {"collection_times": [{"days": "Mon-Fri", "time": "2:30pm"}, {"days": "Sat", "time": "1:00pm"}, {"days": "Sun", "time": "Closed"}], "id": "8121100005", "name": "USPS COLLECTION BOX - PO LOBBY", "address": {"city": "BUENA VISTA", "state": "CO", "street": "110 BROOKDALE AVE", "postcode": "81211"}}},
{"geometry": {"type": "Point", "coordinates": [-106.131500016, 38.8421806976]}, "type": "Feature", "properties": {"collection_times": [{"days": "Mon-Sat", "time": "2:30pm"}, {"days": "Sun", "time": "Closed"}], "id": "8121100006", "name": "USPS COLLECTION BOX - BLUE BOX", "address": {"city": "BUENA VISTA", "state": "CO", "street": "210 E MAIN ST", "postcode": "81211"}}},
{"geometry": {"type": "Point", "coordinates": [-105.2039121287, 38.4474503404]}, "type": "Feature", "properties": {"collection_times": [{"days": "Mon-Sat", "time": "12:30pm"}, {"days": "Sun", "time": "Closed"}], "id": "8121200000", "name": "USPS COLLECTION BOX - BLUE BOX", "address": {"city": "CANON CITY", "state": "CO", "street": "3105 E US HIGHWAY 50", "postcode": "81212"}}},
{"geometry": {"type": "Point", "coordinates": [-105.2272255125, 38.446798834]}, "type": "Feature", "properties": {"collection_times": [{"days": "Mon-Sat", "time": "3:30pm"}, {"days": "Sun", "time": "Closed"}], "id": "8121200019", "name": "USPS COLLECTION BOX - BLUE BOX", "address": {"city": "CANON CITY", "state": "CO", "street": "1501 MAIN ST", "postcode": "81212"}}},
{"geometry": {"type": "Point", "coordinates": [-105.2272255125, 38.446798834]}, "type": "Feature", "properties": {"collection_times": [{"days": "Mon-Sat", "time": "3:30pm"}, {"days": "Sun", "time": "Closed"}], "id": "8121200023", "name": "USPS COLLECTION BOX - PO LOBBY", "address": {"city": "CANON CITY", "state": "CO", "street": "1501 MAIN ST", "postcode": "81212"}}},
{"geometry": {"type": "Point", "coordinates": [-105.2272255125, 38.446798834]}, "type": "Feature", "properties": {"collection_times": [{"days": "Mon-Sat", "time": "3:30pm"}, {"days": "Sun", "time": "Closed"}], "id": "8121200024", "name": "USPS COLLECTION BOX - PO LOBBY", "address": {"city": "CANON CITY", "state": "CO", "street": "1501 MAIN ST", "postcode": "81212"}}},
{"geometry": {"type": "Point", "coordinates": [-105.2272255125, 38.446798834]}, "type": "Feature", "properties": {"collection_times": [{"days": "Mon-Sat", "time": "3:30pm"}, {"days": "Sun", "time": "Closed"}], "id": "8121200025", "name": "USPS COLLECTION BOX - PO LOBBY", "address": {"city": "CANON CITY", "state": "CO", "street": "1501 MAIN ST", "postcode": "81212"}}},
{"geometry": {"type": "Point", "coordinates": [-105.2272255125, 38.446798834]}, "type": "Feature", "properties": {"collection_times": [{"days": "Mon-Sat", "time": "3:30pm"}, {"days": "Sun", "time": "Closed"}], "id": "8121200030", "name": "USPS COLLECTION BOX - APC", "address": {"city": "CANON CITY", "state": "CO", "street": "1501 MAIN ST", "postcode": "81212"}}},
{"geometry": {"type": "Point", "coordinates": [-105.2272255125, 38.446798834]}, "type": "Feature", "properties": {"collection_times": [{"days": "Mon-Sat", "time": "3:30pm"}, {"days": "Sun", "time": "Closed"}], "id": "8121200031", "name": "USPS COLLECTION BOX - BLUE BOX", "address": {"city": "CANON CITY", "state": "CO", "street": "1501 MAIN ST", "postcode": "81212"}}},
{"geometry": {"type": "Point", "coordinates": [-107.557404151, 38.442667958]}, "type": "Feature", "properties": {"collection_times": [{"days": "Mon-Fri", "time": "12:45pm"}, {"days": "Sat", "time": "12:00pm"}, {"days": "Sun", "time": "Closed"}], "id": "8122000000", "name": "USPS COLLECTION BOX - BLUE BOX", "address": {"city": "CIMARRON", "state": "CO", "street": "82111 E US HIGHWAY 50", "postcode": "81220"}}},
{"geometry": {"type": "Point", "coordinates": [-107.557404151, 38.442667958]}, "type": "Feature", "properties": {"collection_times": [{"days": "Mon-Fri", "time": "12:45pm"}, {"days": "Sat", "time": "12:00pm"}, {"days": "Sun", "time": "Closed"}], "id": "8122000001", "name": "USPS COLLECTION BOX - PO LOBBY", "address": {"city": "CIMARRON", "state": "CO", "street": "82111 E US HIGHWAY 50", "postcode": "81220"}}},
{"geometry": {"type": "Point", "coordinates": [-105.1477003727, 38.3638201957]}, "type": "Feature", "properties": {"collection_times": [{"days": "Mon-Fri", "time": "1:15pm"}, {"days": "Sat", "time": "10:45am"}, {"days": "Sun", "time": "Closed"}], "id": "8122100000", "name": "USPS COLLECTION BOX - BLUE BOX", "address": {"city": "COAL CREEK", "state": "CO", "street": "201 COAL CREEK DR", "postcode": "81221"}}},
{"geometry": {"type": "Point", "coordinates": [-105.7713241175, 38.361822572]}, "type": "Feature", "properties": {"collection_times": [{"days": "Mon-Fri", "time": "3:30pm"}, {"days": "Sat", "time": "9:15am"}, {"days": "Sun", "time": "Closed"}], "id": "8122200000", "name": "USPS COLLECTION BOX - BLUE BOX", "address": {"city": "COALDALE", "state": "CO", "street": "16081 US HIGHWAY 50", "postcode": "81222"}}},
{"geometry": {"type": "Point", "coordinates": [-105.7713241175, 38.361822572]}, "type": "Feature", "properties": {"collection_times": [{"days": "Mon-Fri", "time": "3:30pm"}, {"days": "Sat", "time": "9:15am"}, {"days": "Sun", "time": "Closed"}], "id": "8122200001", "name": "USPS COLLECTION BOX - PO LOBBY", "address": {"city": "COALDALE", "state": "CO", "street": "16081 US HIGHWAY 50", "postcode": "81222"}}},
{"geometry": {"type": "Point", "coordinates": [-105.517899269, 38.3410317561]}, "type": "Feature", "properties": {"collection_times": [{"days": "Mon-Fri", "time": "3:15pm"}, {"days": "Sat", "time": "11:15am"}, {"days": "Sun", "time": "Closed"}], "id": "8122300000", "name": "USPS COLLECTION BOX - BLUE BOX", "address": {"city": "COTOPAXI", "state": "CO", "street": "123 COUNTY ROAD 12", "postcode": "81223"}}},
{"geometry": {"type": "Point", "coordinates": [-105.517899269, 38.3410317561]}, "type": "Feature", "properties": {"collection_times": [{"days": "Mon-Fri", "time": "3:15pm"}, {"days": "Sat", "time": "11:15am"}, {"days": "Sun", "time": "Closed"}], "id": "8122300001", "name": "USPS COLLECTION BOX - PO LOBBY", "address": {"city": "COTOPAXI", "state": "CO", "street": "123 COUNTY ROAD 12", "postcode": "81223"}}},
{"geometry": {"type": "Point", "coordinates": [-106.9324983647, 38.8357801524]}, "type": "Feature", "properties": {"collection_times": [{"days": "Mon-Sat", "time": "1:15pm"}, {"days": "Sun", "time": "Closed"}], "id": "8122400001", "name": "USPS COLLECTION BOX - BLUE BOX", "address": {"city": "CRESTED BUTTE", "state": "CO", "street": "217 ELK AVE", "postcode": "81224"}}},
{"geometry": {"type": "Point", "coordinates": [-106.8853363047, 38.8099629901]}, "type": "Feature", "properties": {"collection_times": [{"days": "Mon-Sat", "time": "11:00am"}, {"days": "Sun", "time": "Closed"}], "id": "8122400004", "name": "USPS COLLECTION BOX - BLUE BOX", "address": {"city": "CRESTED BUTTE", "state": "CO", "street": "1 TEOCALLI RD N", "postcode": "81224"}}},
{"geometry": {"type": "Point", "coordinates": [-106.9324983647, 38.8357801524]}, "type": "Feature", "properties": {"collection_times": [{"days": "Mon-Sat", "time": "1:15pm"}, {"days": "Sun", "time": "Closed"}], "id": "8122400006", "name": "USPS COLLECTION BOX - BLUE BOX", "address": {"city": "CRESTED BUTTE", "state": "CO", "street": "217 ELK AVE", "postcode": "81224"}}},
{"geometry": {"type": "Point", "coordinates": [-106.9865682959, 38.8697487457]}, "type": "Feature", "properties": {"collection_times": [{"days": "Mon-Sat", "time": "1:15pm"}, {"days": "Sun", "time": "Closed"}], "id": "8122400010", "name": "USPS COLLECTION BOX - BLUE BOX", "address": {"city": "CRESTED BUTTE", "state": "CO", "street": "217 ELK AVE", "postcode": "81224"}}},
{"geometry": {"type": "Point", "coordinates": [-106.9324983647, 38.8357801524]}, "type": "Feature", "properties": {"collection_times": [{"days": "Mon-Sat", "time": "10:30am"}, {"days": "Sun", "time": "Closed"}], "id": "8122400014", "name": "USPS COLLECTION BOX - BLUE BOX", "address": {"city": "CRESTED BUTTE", "state": "CO", "street": "500 BELLEVIEW", "postcode": "81224"}}},
{"geometry": {"type": "Point", "coordinates": [-106.980287543, 38.8697703621]}, "type": "Feature", "properties": {"collection_times": [{"days": "Mon-Sat", "time": "10:30am"}, {"days": "Sun", "time": "Closed"}], "id": "8122400017", "name": "USPS COLLECTION BOX - BLUE BOX", "address": {"city": "CRESTED BUTTE", "state": "CO", "street": "601 ELK AVE", "postcode": "81224"}}},
{"geometry": {"type": "Point", "coordinates": [-106.9699819, 38.9031535894]}, "type": "Feature", "properties": {"collection_times": [{"days": "Mon-Sat", "time": "10:30am"}, {"days": "Sun", "time": "Closed"}], "id": "8122500001", "name": "USPS COLLECTION BOX - BLUE BOX", "address": {"city": "MT CRESTED BUTTE", "state": "CO", "street": "701 GOTHIC RD", "postcode": "81225"}}},
{"geometry": {"type": "Point", "coordinates": [-105.1176589103, 38.3901590482]}, "type": "Feature", "properties": {"collection_times": [{"days": "Mon-Fri", "time": "3:15pm"}, {"days": "Sat", "time": "12:00pm"}, {"days": "Sun", "time": "Closed"}], "id": "8122600000", "name": "USPS COLLECTION BOX - BLUE BOX", "address": {"city": "FLORENCE", "state": "CO", "street": "121 N PIKES PEAK AVE", "postcode": "81226"}}},
{"geometry": {"type": "Point", "coordinates": [-105.1176589103, 38.3901590482]}, "type": "Feature", "properties": {"collection_times": [{"days": "Mon-Fri", "time": "3:15pm"}, {"days": "Sat", "time": "12:00pm"}, {"days": "Sun", "time": "Closed"}], "id": "8122600002", "name": "USPS COLLECTION BOX - BLUE BOX", "address": {"city": "FLORENCE", "state": "CO", "street": "121 N PIKES PEAK AVE", "postcode": "81226"}}},
{"geometry": {"type": "Point", "coordinates": [-105.1176589103, 38.3901590482]}, "type": "Feature", "properties": {"collection_times": [{"days": "Mon-Fri", "time": "3:15pm"}, {"days": "Sat", "time": "12:00pm"}, {"days": "Sun", "time": "Closed"}], "id": "8122600003", "name": "USPS COLLECTION BOX - PO LOBBY", "address": {"city": "FLORENCE", "state": "CO", "street": "121 N PIKES PEAK AVE", "postcode": "81226"}}},
{"geometry": {"type": "Point", "coordinates": [-105.1176589103, 38.3901590482]}, "type": "Feature", "properties": {"collection_times": [{"days": "Mon-Fri", "time": "3:15pm"}, {"days": "Sat", "time": "12:00pm"}, {"days": "Sun", "time": "Closed"}], "id": "8122600004", "name": "USPS COLLECTION BOX - PO LOBBY", "address": {"city": "FLORENCE", "state": "CO", "street": "121 N PIKES PEAK AVE", "postcode": "81226"}}},
{"geometry": {"type": "Point", "coordinates": [-106.9281845392, 38.5459776088]}, "type": "Feature", "properties": {"collection_times": [{"days": "Mon-Sat", "time": "2:00pm"}, {"days": "Sun", "time": "Closed"}], "id": "8123000013", "name": "USPS COLLECTION BOX - BLUE BOX", "address": {"city": "GUNNISON", "state": "CO", "street": "200 N WISCONSIN ST", "postcode": "81230"}}},
{"geometry": {"type": "Point", "coordinates": [-106.9281845392, 38.5459776088]}, "type": "Feature", "properties": {"collection_times": [{"days": "Mon-Sat", "time": "2:00pm"}, {"days": "Sun", "time": "Closed"}], "id": "8123000014", "name": "USPS COLLECTION BOX - BLUE BOX", "address": {"city": "GUNNISON", "state": "CO", "street": "200 N WISCONSIN ST", "postcode": "81230"}}},
{"geometry": {"type": "Point", "coordinates": [-106.9281845392, 38.5459776088]}, "type": "Feature", "properties": {"collection_times": [{"days": "Mon-Sat", "time": "2:00pm"}, {"days": "Sun", "time": "Closed"}], "id": "8123000015", "name": "USPS COLLECTION BOX - BLUE BOX", "address": {"city": "GUNNISON", "state": "CO", "street": "200 N WISCONSIN ST", "postcode": "81230"}}},
{"geometry": {"type": "Point", "coordinates": [-106.9281845392, 38.5459776088]}, "type": "Feature", "properties": {"collection_times": [{"days": "Mon-Sat", "time": "2:00pm"}, {"days": "Sun", "time": "Closed"}], "id": "8123000017", "name": "USPS COLLECTION BOX - BLUE BOX", "address": {"city": "GUNNISON", "state": "CO", "street": "200 N WISCONSIN ST", "postcode": "81230"}}},
{"geometry": {"type": "Point", "coordinates": [-106.9281845392, 38.5459776088]}, "type": "Feature", "properties": {"collection_times": [{"days": "Mon-Sat", "time": "2:00pm"}, {"days": "Sun", "time": "Closed"}], "id": "8123000018", "name": "USPS COLLECTION BOX - PO LOBBY", "address": {"city": "GUNNISON", "state": "CO", "street": "200 N WISCONSIN ST", "postcode": "81230"}}},
{"geometry": {"type": "Point", "coordinates": [-106.9268525274, 38.5535426314]}, "type": "Feature", "properties": {"collection_times": [{"days": "Mon-Sat", "time": "10:30am"}, {"days": "Sun", "time": "Closed"}], "id": "8123000024", "name": "USPS COLLECTION BOX - BLUE BOX", "address": {"city": "GUNNISON", "state": "CO", "street": "880 N MAIN ST", "postcode": "81230"}}},
{"geometry": {"type": "Point", "coordinates": [-105.8205424748, 38.4299206434]}, "type": "Feature", "properties": {"collection_times": [{"days": "Mon-Fri", "time": "3:45pm"}, {"days": "Sat", "time": "9:45am"}, {"days": "Sun", "time": "Closed"}], "id": "8123300000", "name": "USPS COLLECTION BOX - BLUE BOX", "address": {"city": "HOWARD", "state": "CO", "street": "9232 US HIGHWAY 50", "postcode": "81233"}}},
{"geometry": {"type": "Point", "coordinates": [-105.8205424748, 38.4299206434]}, "type": "Feature", "properties": {"collection_times": [{"days": "Mon-Fri", "time": "11:00am"}, {"days": "Sat", "time": "9:45am"}, {"days": "Sun", "time": "Closed"}], "id": "8123300001", "name": "USPS COLLECTION BOX - PO LOBBY", "address": {"city": "HOWARD", "state": "CO", "street": "9232 US HIGHWAY 50", "postcode": "81233"}}},
{"geometry": {"type": "Point", "coordinates": [-107.3129697245, 38.0347642098]}, "type": "Feature", "properties": {"collection_times": [{"days": "Mon-Sat", "time": "12:15pm"}, {"days": "Sun", "time": "Closed"}], "id": "8123500000", "name": "USPS COLLECTION BOX - BLUE BOX", "address": {"city": "LAKE CITY", "state": "CO", "street": "803 GUNNISON AVE", "postcode": "81235"}}},
{"geometry": {"type": "Point", "coordinates": [-107.3129697245, 38.0347642098]}, "type": "Feature", "properties": {"collection_times": [{"days": "Mon-Sat", "time": "12:15pm"}, {"days": "Sun", "time": "Closed"}], "id": "8123500001", "name": "USPS COLLECTION BOX - PO LOBBY", "address": {"city": "LAKE CITY", "state": "CO", "street": "803 GUNNISON AVE", "postcode": "81235"}}},
{"geometry": {"type": "Point", "coordinates": [-106.0944127313, 38.7646872695]}, "type": "Feature", "properties": {"collection_times": [{"days": "Mon-Fri", "time": "3:00pm"}, {"days": "Sat", "time": "10:00am"}, {"days": "Sun", "time": "Closed"}], "id": "8123600000", "name": "USPS COLLECTION BOX - BLUE BOX", "address": {"city": "NATHROP", "state": "CO", "street": "22617 US HIGHWAY 285", "postcode": "81236"}}},
{"geometry": {"type": "Point", "coordinates": [-106.0944127313, 38.7646872695]}, "type": "Feature", "properties": {"collection_times": [{"days": "Mon-Fri", "time": "3:00pm"}, {"days": "Sat", "time": "10:00am"}, {"days": "Sun", "time": "Closed"}], "id": "8123600001", "name": "USPS COLLECTION BOX - PO LOBBY", "address": {"city": "NATHROP", "state": "CO", "street": "22617 US HIGHWAY 285", "postcode": "81236"}}},
{"geometry": {"type": "Point", "coordinates": [-106.5650115659, 38.5788957894]}, "type": "Feature", "properties": {"collection_times": [{"days": "Mon-Sat", "time": "10:00am"}, {"days": "Sun", "time": "Closed"}], "id": "8123900000", "name": "USPS COLLECTION BOX - PO LOBBY", "address": {"city": "PARLIN", "state": "CO", "street": "51387 US HIGHWAY 50", "postcode": "81239"}}},
{"geometry": {"type": "Point", "coordinates": [-106.6563298151, 38.5355228923]}, "type": "Feature", "properties": {"collection_times": [{"days": "Mon-Fri", "time": "2:15pm"}, {"days": "Sat", "time": "10:00am"}, {"days": "Sun", "time": "Closed"}], "id": "8123900001", "name": "USPS COLLECTION BOX - BLUE BOX", "address": {"city": "PARLIN", "state": "CO", "street": "51387 US HIGHWAY 50", "postcode": "81239"}}},
{"geometry": {"type": "Point", "coordinates": [-105.0247044788, 38.4318081842]}, "type": "Feature", "properties": {"collection_times": [{"days": "Mon-Fri", "time": "3:00pm"}, {"days": "Sat", "time": "11:30am"}, {"days": "Sun", "time": "Closed"}], "id": "8124000000", "name": "USPS COLLECTION BOX - BLUE BOX", "address": {"city": "PENROSE", "state": "CO", "street": "15 WERNER RD", "postcode": "81240"}}},
{"geometry": {"type": "Point", "coordinates": [-105.0247044788, 38.4318081842]}, "type": "Feature", "properties": {"collection_times": [{"days": "Mon-Fri", "time": "3:00pm"}, {"days": "Sat", "time": "11:30am"}, {"days": "Sun", "time": "Closed"}], "id": "8124000001", "name": "USPS COLLECTION BOX - PO LOBBY", "address": {"city": "PENROSE", "state": "CO", "street": "15 WERNER RD", "postcode": "81240"}}},
{"geometry": {"type": "Point", "coordinates": [-106.5194544382, 38.6081291846]}, "type": "Feature", "properties": {"collection_times": [{"days": "Mon-Sat", "time": "11:00am"}, {"days": "Sun", "time": "Closed"}], "id": "8124100000", "name": "USPS COLLECTION BOX - BLUE BOX", "address": {"city": "PITKIN", "state": "CO", "street": "419 MAIN ST", "postcode": "81241"}}},
{"geometry": {"type": "Point", "coordinates": [-106.5194544382, 38.6081291846]}, "type": "Feature", "properties": {"collection_times": [{"days": "Mon-Sat", "time": "11:00am"}, {"days": "Sun", "time": "Closed"}], "id": "8124100001", "name": "USPS COLLECTION BOX - PO LOBBY", "address": {"city": "PITKIN", "state": "CO", "street": "419 MAIN ST", "postcode": "81241"}}},
{"geometry": {"type": "Point", "coordinates": [-106.0766887014, 38.5140020801]}, "type": "Feature", "properties": {"collection_times": [{"days": "Mon-Fri", "time": "3:30pm"}, {"days": "Sat", "time": "12:00pm"}, {"days": "Sun", "time": "Closed"}], "id": "8124200000", "name": "USPS COLLECTION BOX - PO LOBBY", "address": {"city": "PONCHA SPRINGS", "state": "CO", "street": "6500 US HIGHWAY 285", "postcode": "81242"}}},
{"geometry": {"type": "Point", "coordinates": [-106.0766887014, 38.5140020801]}, "type": "Feature", "properties": {"collection_times": [{"days": "Mon-Fri", "time": "3:30pm"}, {"days": "Sat", "time": "12:00pm"}, {"days": "Sun", "time": "Closed"}], "id": "8124200001", "name": "USPS COLLECTION BOX - BLUE BOX", "address": {"city": "PONCHA SPRINGS", "state": "CO", "street": "6500 US HIGHWAY 285", "postcode": "81242"}}},
{"geometry": {"type": "Point", "coordinates": [-106.0766887014, 38.5140020801]}, "type": "Feature", "properties": {"collection_times": [{"days": "Mon-Fri", "time": "3:30pm"}, {"days": "Sat", "time": "12:00pm"}, {"days": "Sun", "time": "Closed"}], "id": "8124200002", "name": "USPS COLLECTION BOX - BLUE BOX", "address": {"city": "PONCHA SPRINGS", "state": "CO", "street": "6500 US HIGHWAY 285", "postcode": "81242"}}},
{"geometry": {"type": "Point", "coordinates": [-107.129928727, 38.2747168374]}, "type": "Feature", "properties": {"collection_times": [{"days": "Mon-Sat", "time": "12:45pm"}, {"days": "Sun", "time": "Closed"}], "id": "8124300001", "name": "USPS COLLECTION BOX - BLUE BOX", "address": {"city": "POWDERHORN", "state": "CO", "street": "616 COUNTY ROAD 28", "postcode": "81243"}}},
{"geometry": {"type": "Point", "coordinates": [-105.1640083287, 38.3686168053]}, "type": "Feature", "properties": {"collection_times": [{"days": "Mon-Fri", "time": "1:30pm"}, {"days": "Sat", "time": "11:00am"}, {"days": "Sun", "time": "Closed"}], "id": "8124400000", "name": "USPS COLLECTION BOX - BLUE BOX", "address": {"city": "ROCKVALE", "state": "CO", "street": "615 RAILROAD ST", "postcode": "81244"}}},
{"geometry": {"type": "Point", "coordinates": [-105.1640083287, 38.3686168053]}, "type": "Feature", "properties": {"collection_times": [{"days": "Mon-Fri", "time": "1:30pm"}, {"days": "Sat", "time": "11:00am"}, {"days": "Sun", "time": "Closed"}], "id": "8124400001", "name": "USPS COLLECTION BOX - PO LOBBY", "address": {"city": "ROCKVALE", "state": "CO", "street": "615 RAILROAD ST", "postcode": "81244"}}},
{"geometry": {"type": "Point", "coordinates": [-106.419520339, 38.40194412]}, "type": "Feature", "properties": {"collection_times": [{"days": "Mon-Fri", "time": "2:30pm"}, {"days": "Sat", "time": "9:30am"}, {"days": "Sun", "time": "Closed"}], "id": "8124800000", "name": "USPS COLLECTION BOX - BLUE BOX", "address": {"city": "SARGENTS", "state": "CO", "street": "174 MEANS AVE", "postcode": "81248"}}},
{"geometry": {"type": "Point", "coordinates": [-106.419520339, 38.40194412]}, "type": "Feature", "properties": {"collection_times": [{"days": "Mon-Fri", "time": "2:30pm"}, {"days": "Sat", "time": "9:30am"}, {"days": "Sun", "time": "Closed"}], "id": "8124800001", "name": "USPS COLLECTION BOX - PO LOBBY", "address": {"city": "SARGENTS", "state": "CO", "street": "174 MEANS AVE", "postcode": "81248"}}},
{"geometry": {"type": "Point", "coordinates": [-105.4597217239, 38.1327221421]}, "type": "Feature", "properties": {"collection_times": [{"days": "Mon-Sat", "time": "2:15pm"}, {"days": "Sun", "time": "Closed"}], "id": "8125200000", "name": "USPS COLLECTION BOX - BLUE BOX", "address": {"city": "WESTCLIFFE", "state": "CO", "street": "4 BASSICK PL", "postcode": "81252"}}},
{"geometry": {"type": "Point", "coordinates": [-105.4597217239, 38.1327221421]}, "type": "Feature", "properties": {"collection_times": [{"days": "Mon-Fri", "time": "2:15pm"}, {"days": "Sat", "time": "11:00am"}, {"days": "Sun", "time": "Closed"}], "id": "8125200002", "name": "USPS COLLECTION BOX - PO LOBBY", "address": {"city": "WESTCLIFFE", "state": "CO", "street": "4 BASSICK PL", "postcode": "81252"}}},
{"geometry": {"type": "Point", "coordinates": [-105.0899226124, 38.2298250092]}, "type": "Feature", "properties": {"collection_times": [{"days": "Mon-Fri", "time": "1:00pm"}, {"days": "Sat", "time": "12:00pm"}, {"days": "Sun", "time": "Closed"}], "id": "8125300001", "name": "USPS COLLECTION BOX - PO LOBBY", "address": {"city": "WETMORE", "state": "CO", "street": "682 COUNTY ROAD 395", "postcode": "81253"}}}
]}
