{"type": "FeatureCollection", "features": [
{"geometry": {"type": "Point", "coordinates": [-107.8825555042, 37.272564228]}, "type": "Feature", "properties": {"collection_times": [{"days": "Mon-Sat", "time": "3:00pm"}, {"days": "Sun", "time": "Closed"}], "id": "8130100000", "name": "USPS COLLECTION BOX - BLUE BOX", "address": {"city": "DURANGO", "state": "CO", "street": "222 W 8TH ST", "postcode": "81301"}}},
{"geometry": {"type": "Point", "coordinates": [-107.8387491968, 37.3236313383]}, "type": "Feature", "properties": {"collection_times": [{"days": "Mon-Fri", "time": "3:00pm"}, {"days": "Sat", "time": "12:45pm"}, {"days": "Sun", "time": "Closed"}], "id": "8130100003", "name": "USPS COLLECTION BOX - EXPRESS", "address": {"city": "DURANGO", "state": "CO", "street": "222 W 8TH ST", "postcode": "81301"}}},
{"geometry": {"type": "Point", "coordinates": [-107.8809950774, 37.2659560414]}, "type": "Feature", "properties": {"collection_times": [{"days": "Mon-Sat", "time": "1:00pm"}, {"days": "Sun", "time": "Closed"}], "id": "8130100004", "name": "USPS COLLECTION BOX - BLUE BOX", "address": {"city": "DURANGO", "state": "CO", "street": "343 S CAMINO DEL RIO", "postcode": "81301"}}},
{"geometry": {"type": "Point", "coordinates": [-107.8747526856, 37.2463820971]}, "type": "Feature", "properties": {"collection_times": [{"days": "Mon-Sat", "time": "1:00pm"}, {"days": "Sun", "time": "Closed"}], "id": "8130100006", "name": "USPS COLLECTION BOX - BLUE BOX", "address": {"city": "DURANGO", "state": "CO", "street": "15 BODO DR", "postcode": "81301"}}},
{"geometry": {"type": "Point", "coordinates": [-107.878661898, 37.242682471]}, "type": "Feature", "properties": {"collection_times": [{"days": "Mon-Sat", "time": "1:00pm"}, {"days": "Sun", "time": "Closed"}], "id": "8130100007", "name": "USPS COLLECTION BOX - BLUE BOX", "address": {"city": "DURANGO", "state": "CO", "street": "484 TURNER DR", "postcode": "81301"}}},
{"geometry": {"type": "Point", "coordinates": [-107.8819985559, 37.269646669]}, "type": "Feature", "properties": {"collection_times": [{"days": "Mon-Sat", "time": "2:45pm"}, {"days": "Sun", "time": "Closed"}], "id": "8130100010", "name": "USPS COLLECTION BOX - BLUE BOX", "address": {"city": "DURANGO", "state": "CO", "street": "501 MAIN AVE", "postcode": "81301"}}},
{"geometry": {"type": "Point", "coordinates": [-107.8800805061, 37.2750916374]}, "type": "Feature", "properties": {"collection_times": [{"days": "Mon-Sat", "time": "2:40pm"}, {"days": "Sun", "time": "Closed"}], "id": "8130100015", "name": "USPS COLLECTION BOX - BLUE BOX", "address": {"city": "DURANGO", "state": "CO", "street": "1060 MAIN AVE", "postcode": "81301"}}},
{"geometry": {"type": "Point", "coordinates": [-107.8787289183, 37.2748179399]}, "type": "Feature", "properties": {"collection_times": [{"days": "Mon-Sat", "time": "2:50pm"}, {"days": "Sun", "time": "Closed"}], "id": "8130100016", "name": "USPS COLLECTION BOX - BLUE BOX", "address": {"city": "DURANGO", "state": "CO", "street": "1060 E 2ND AVE", "postcode": "81301"}}},
{"geometry": {"type": "Point", "coordinates": [-107.8787289183, 37.2748179399]}, "type": "Feature", "properties": {"collection_times": [{"days": "Mon-Sat", "time": "2:50pm"}, {"days": "Sun", "time": "Closed"}], "id": "8130100017", "name": "USPS COLLECTION BOX - BLUE BOX", "address": {"city": "DURANGO", "state": "CO", "street": "1060 E 2ND AVE", "postcode": "81301"}}},
{"geometry": {"type": "Point", "coordinates": [-107.8787289183, 37.2748179399]}, "type": "Feature", "properties": {"collection_times": [{"days": "Mon-Sat", "time": "2:50pm"}, {"days": "Sun", "time": "Closed"}], "id": "8130100018", "name": "USPS COLLECTION BOX - BLUE BOX", "address": {"city": "DURANGO", "state": "CO", "street": "1060 E 2ND AVE", "postcode": "81301"}}},
{"geometry": {"type": "Point", "coordinates": [-107.8796463304, 37.2724189531]}, "type": "Feature", "properties": {"collection_times": [{"days": "Mon-Sat", "time": "3:00pm"}, {"days": "Sun", "time": "Closed"}], "id": "8130100020", "name": "USPS COLLECTION BOX - BLUE BOX", "address": {"city": "DURANGO", "state": "CO", "street": "835 E 2ND AVE", "postcode": "81301"}}},
{"geometry": {"type": "Point", "coordinates": [-107.8461561442, 37.4420305083]}, "type": "Feature", "properties": {"collection_times": [{"days": "Mon-Sat", "time": "2:30pm"}, {"days": "Sun", "time": "Closed"}], "id": "8130100023", "name": "USPS COLLECTION BOX - BLUE BOX", "address": {"city": "DURANGO", "state": "CO", "street": "6 TOWN PLZ", "postcode": "81301"}}},
{"geometry": {"type": "Point", "coordinates": [-107.8792957827, 37.2777926415]}, "type": "Feature", "properties": {"collection_times": [{"days": "Mon-Sat", "time": "2:35pm"}, {"days": "Sun", "time": "Closed"}], "id": "8130100031", "name": "USPS COLLECTION BOX - BLUE BOX", "address": {"city": "DURANGO", "state": "CO", "street": "1315 MAIN AVE", "postcode": "81301"}}},
{"geometry": {"type": "Point", "coordinates": [-107.8387491968, 37.3236313383]}, "type": "Feature", "properties": {"collection_times": [{"days": "Mon-Sat", "time": "12:00pm"}, {"days": "Sun", "time": "Closed"}], "id": "8130100033", "name": "USPS COLLECTION BOX - BLUE BOX", "address": {"city": "DURANGO", "state": "CO", "street": "499 ASPEN DR", "postcode": "81301"}}},
{"geometry": {"type": "Point", "coordinates": [-107.8387491968, 37.3236313383]}, "type": "Feature", "properties": {"collection_times": [{"days": "Mon-Sat", "time": "11:00am"}, {"days": "Sun", "time": "Closed"}], "id": "8130100036", "name": "USPS COLLECTION BOX - BLUE BOX", "address": {"city": "DURANGO", "state": "CO", "street": "2 TRAIL WOOD DR", "postcode": "81301"}}},
{"geometry": {"type": "Point", "coordinates": [-107.8792481231, 37.2736458493]}, "type": "Feature", "properties": {"collection_times": [{"days": "Mon-Sat", "time": "2:55pm"}, {"days": "Sun", "time": "Closed"}], "id": "8130100037", "name": "USPS COLLECTION BOX - BLUE BOX", "address": {"city": "DURANGO", "state": "CO", "street": "949 E 2ND AVE", "postcode": "81301"}}},
{"geometry": {"type": "Point", "coordinates": [-107.8814506516, 37.276639136]}, "type": "Feature", "properties": {"collection_times": [{"days": "Mon-Sat", "time": "1:00pm"}, {"days": "Sun", "time": "Closed"}], "id": "8130100039", "name": "USPS COLLECTION BOX - BLUE BOX", "address": {"city": "DURANGO", "state": "CO", "street": "1155 S CAMINO DEL RIO", "postcode": "81301"}}},
{"geometry": {"type": "Point", "coordinates": [-107.8825555042, 37.272564228]}, "type": "Feature", "properties": {"collection_times": [{"days": "Mon-Sat", "time": "3:00pm"}, {"days": "Sun", "time": "Closed"}], "id": "8130100041", "name": "USPS COLLECTION BOX - PO LOBBY", "address": {"city": "DURANGO", "state": "CO", "street": "222 W 8TH ST", "postcode": "81301"}}},
{"geometry": {"type": "Point", "coordinates": [-107.8712598451, 37.2995242356]}, "type": "Feature", "properties": {"collection_times": [{"days": "Mon-Sat", "time": "1:00pm"}, {"days": "Sun", "time": "Closed"}], "id": "8130100045", "name": "USPS COLLECTION BOX - BLUE BOX", "address": {"city": "DURANGO", "state": "CO", "street": "3130 MAIN AVE", "postcode": "81301"}}},
{"geometry": {"type": "Point", "coordinates": [-107.8689965224, 37.3035932889]}, "type": "Feature", "properties": {"collection_times": [{"days": "Mon-Sat", "time": "12:00pm"}, {"days": "Sun", "time": "Closed"}], "id": "8130100049", "name": "USPS COLLECTION BOX - BLUE BOX", "address": {"city": "DURANGO", "state": "CO", "street": "3465 MAIN AVE", "postcode": "81301"}}},
{"geometry": {"type": "Point", "coordinates": [-107.8488394249, 37.2982880443]}, "type": "Feature", "properties": {"collection_times": [{"days": "Mon-Sat", "time": "11:30am"}, {"days": "Sun", "time": "Closed"}], "id": "8130100050", "name": "USPS COLLECTION BOX - BLUE BOX", "address": {"city": "DURANGO", "state": "CO", "street": "42 COUNTY ROAD 250", "postcode": "81301"}}},
{"geometry": {"type": "Point", "coordinates": [-107.8825555042, 37.272564228]}, "type": "Feature", "properties": {"collection_times": [{"days": "Mon-Sat", "time": "3:00pm"}, {"days": "Sun", "time": "Closed"}], "id": "8130100052", "name": "USPS COLLECTION BOX - PO LOBBY", "address": {"city": "DURANGO", "state": "CO", "street": "222 W 8TH ST", "postcode": "81301"}}},
{"geometry": {"type": "Point", "coordinates": [-108.8048805943, 37.6439486874]}, "type": "Feature", "properties": {"collection_times": [{"days": "Mon-Fri", "time": "12:45pm"}, {"days": "Sat", "time": "10:45am"}, {"days": "Sun", "time": "Closed"}], "id": "8132000000", "name": "USPS COLLECTION BOX - PO LOBBY", "address": {"city": "CAHONE", "state": "CO", "street": "14042 HIGHWAY 491", "postcode": "81320"}}},
{"geometry": {"type": "Point", "coordinates": [-108.8083161606, 37.659669985]}, "type": "Feature", "properties": {"collection_times": [{"days": "Mon-Fri", "time": "12:45pm"}, {"days": "Sat", "time": "10:30am"}, {"days": "Sun", "time": "Closed"}], "id": "8132000001", "name": "USPS COLLECTION BOX - BLUE BOX", "address": {"city": "CAHONE", "state": "CO", "street": "14042 HIGHWAY 491", "postcode": "81320"}}},
{"geometry": {"type": "Point", "coordinates": [-108.5597852756, 37.3489091992]}, "type": "Feature", "properties": {"collection_times": [{"days": "Mon-Sat", "time": "12:00pm"}, {"days": "Sun", "time": "Closed"}], "id": "8132100000", "name": "USPS COLLECTION BOX - BLUE BOX", "address": {"city": "CORTEZ", "state": "CO", "street": "1835 E MAIN ST", "postcode": "81321"}}},
{"geometry": {"type": "Point", "coordinates": [-108.5783877322, 37.3487805557]}, "type": "Feature", "properties": {"collection_times": [{"days": "Mon-Sat", "time": "12:00pm"}, {"days": "Sun", "time": "Closed"}], "id": "8132100001", "name": "USPS COLLECTION BOX - BLUE BOX", "address": {"city": "CORTEZ", "state": "CO", "street": "508 E MAIN ST", "postcode": "81321"}}},
{"geometry": {"type": "Point", "coordinates": [-108.5866131719, 37.3485552208]}, "type": "Feature", "properties": {"collection_times": [{"days": "Mon-Fri", "time": "12:00pm"}, {"days": "Sat-Sun", "time": "Closed"}], "id": "8132100003", "name": "USPS COLLECTION BOX - BLUE BOX", "address": {"city": "CORTEZ", "state": "CO", "street": "109 W MAIN ST", "postcode": "81321"}}},
{"geometry": {"type": "Point", "coordinates": [-108.5866131719, 37.3485552208]}, "type": "Feature", "properties": {"collection_times": [{"days": "Mon-Sat", "time": "12:00pm"}, {"days": "Sun", "time": "Closed"}], "id": "8132100004", "name": "USPS COLLECTION BOX - BLUE BOX", "address": {"city": "CORTEZ", "state": "CO", "street": "140 W MAIN ST", "postcode": "81321"}}},
{"geometry": {"type": "Point", "coordinates": [-108.5838410982, 37.3482499973]}, "type": "Feature", "properties": {"collection_times": [{"days": "Mon-Sat", "time": "1:00pm"}, {"days": "Sun", "time": "Closed"}], "id": "8132100007", "name": "USPS COLLECTION BOX - BLUE BOX", "address": {"city": "CORTEZ", "state": "CO", "street": "35 S BEECH ST", "postcode": "81321"}}},
{"geometry": {"type": "Point", "coordinates": [-108.5838410982, 37.3482499973]}, "type": "Feature", "properties": {"collection_times": [{"days": "Mon-Sat", "time": "1:00pm"}, {"days": "Sun", "time": "Closed"}], "id": "8132100008", "name": "USPS COLLECTION BOX - BLUE BOX", "address": {"city": "CORTEZ", "state": "CO", "street": "35 S BEECH ST", "postcode": "81321"}}},
{"geometry": {"type": "Point", "coordinates": [-108.5838410982, 37.3482499973]}, "type": "Feature", "properties": {"collection_times": [{"days": "Mon-Sat", "time": "1:00pm"}, {"days": "Sun", "time": "Closed"}], "id": "8132100010", "name": "USPS COLLECTION BOX - PO LOBBY", "address": {"city": "CORTEZ", "state": "CO", "street": "35 S BEECH ST", "postcode": "81321"}}},
{"geometry": {"type": "Point", "coordinates": [-108.4964136076, 37.4743598148]}, "type": "Feature", "properties": {"collection_times": [{"days": "Mon-Fri", "time": "1:45pm"}, {"days": "Sat", "time": "12:00pm"}, {"days": "Sun", "time": "Closed"}], "id": "8132300000", "name": "USPS COLLECTION BOX - BLUE BOX", "address": {"city": "DOLORES", "state": "CO", "street": "1000 RAILROAD AVE N", "postcode": "81323"}}},
{"geometry": {"type": "Point", "coordinates": [-108.4964136076, 37.4743598148]}, "type": "Feature", "properties": {"collection_times": [{"days": "Mon-Fri", "time": "1:45pm"}, {"days": "Sat", "time": "12:00pm"}, {"days": "Sun", "time": "Closed"}], "id": "8132300001", "name": "USPS COLLECTION BOX - PO LOBBY", "address": {"city": "DOLORES", "state": "CO", "street": "1000 RAILROAD AVE N", "postcode": "81323"}}},
{"geometry": {"type": "Point", "coordinates": [-108.4964136076, 37.4743598148]}, "type": "Feature", "properties": {"collection_times": [{"days": "Mon-Fri", "time": "1:45pm"}, {"days": "Sat", "time": "12:00pm"}, {"days": "Sun", "time": "Closed"}], "id": "8132300002", "name": "USPS COLLECTION BOX - PO LOBBY", "address": {"city": "DOLORES", "state": "CO", "street": "1000 RAILROAD AVE N", "postcode": "81323"}}},
{"geometry": {"type": "Point", "coordinates": [-108.9449429662, 37.7307226565]}, "type": "Feature", "properties": {"collection_times": [{"days": "Mon-Fri", "time": "12:30pm"}, {"days": "Sat", "time": "12:00pm"}, {"days": "Sun", "time": "Closed"}], "id": "8132400000", "name": "USPS COLLECTION BOX - BLUE BOX", "address": {"city": "DOVE CREEK", "state": "CO", "street": "80 HIGHWAY 666", "postcode": "81324"}}},
{"geometry": {"type": "Point", "coordinates": [-108.9449429662, 37.7307226565]}, "type": "Feature", "properties": {"collection_times": [{"days": "Mon-Fri", "time": "12:30pm"}, {"days": "Sat", "time": "12:00pm"}, {"days": "Sun", "time": "Closed"}], "id": "8132400001", "name": "USPS COLLECTION BOX - PO LOBBY", "address": {"city": "DOVE CREEK", "state": "CO", "street": "80 HIGHWAY 666", "postcode": "81324"}}},
{"geometry": {"type": "Point", "coordinates": [-108.9405828787, 37.9059358528]}, "type": "Feature", "properties": {"collection_times": [{"days": "Mon-Sat", "time": "11:15am"}, {"days": "Sun", "time": "Closed"}], "id": "8132500001", "name": "USPS COLLECTION BOX - PO LOBBY", "address": {"city": "EGNAR", "state": "CO", "street": "8715 HIGHWAY 141", "postcode": "81325"}}},
{"geometry": {"type": "Point", "coordinates": [-108.0378265127, 37.2892631697]}, "type": "Feature", "properties": {"collection_times": [{"days": "Mon-Fri", "time": "2:15pm"}, {"days": "Sat", "time": "11:00am"}, {"days": "Sun", "time": "Closed"}], "id": "8132600000", "name": "USPS COLLECTION BOX - BLUE BOX", "address": {"city": "HESPERUS", "state": "CO", "street": "10864 HIGHWAY 160", "postcode": "81326"}}},
{"geometry": {"type": "Point", "coordinates": [-108.0378265127, 37.2892631697]}, "type": "Feature", "properties": {"collection_times": [{"days": "Mon-Fri", "time": "2:15pm"}, {"days": "Sat", "time": "11:15am"}, {"days": "Sun", "time": "Closed"}], "id": "8132600001", "name": "USPS COLLECTION BOX - PO LOBBY", "address": {"city": "HESPERUS", "state": "CO", "street": "10864 HIGHWAY 160", "postcode": "81326"}}},
{"geometry": {"type": "Point", "coordinates": [-108.636602782, 37.5149963434]}, "type": "Feature", "properties": {"collection_times": [{"days": "Mon-Fri", "time": "1:30pm"}, {"days": "Sat", "time": "12:00pm"}, {"days": "Sun", "time": "Closed"}], "id": "8132700000", "name": "USPS COLLECTION BOX - BLUE BOX", "address": {"city": "LEWIS", "state": "CO", "street": "18794 HIGHWAY 666", "postcode": "81327"}}},
{"geometry": {"type": "Point", "coordinates": [-108.636602782, 37.5149963434]}, "type": "Feature", "properties": {"collection_times": [{"days": "Mon-Fri", "time": "1:30pm"}, {"days": "Sat", "time": "12:00pm"}, {"days": "Sun", "time": "Closed"}], "id": "8132700001", "name": "USPS COLLECTION BOX - PO LOBBY", "address": {"city": "LEWIS", "state": "CO", "street": "18794 HIGHWAY 666", "postcode": "81327"}}},
{"geometry": {"type": "Point", "coordinates": [-108.2907462671, 37.3413050783]}, "type": "Feature", "properties": {"collection_times": [{"days": "Mon-Sat", "time": "1:30pm"}, {"days": "Sun", "time": "Closed"}], "id": "8132800005", "name": "USPS COLLECTION BOX - PO LOBBY", "address": {"city": "MANCOS", "state": "CO", "street": "291 N WALNUT ST", "postcode": "81328"}}},
{"geometry": {"type": "Point", "coordinates": [-108.2907462671, 37.3413050783]}, "type": "Feature", "properties": {"collection_times": [{"days": "Mon-Sat", "time": "1:30pm"}, {"days": "Sun", "time": "Closed"}], "id": "8132800006", "name": "USPS COLLECTION BOX - PO LOBBY", "address": {"city": "MANCOS", "state": "CO", "street": "291 N WALNUT ST", "postcode": "81328"}}},
{"geometry": {"type": "Point", "coordinates": [-108.2907462671, 37.3413050783]}, "type": "Feature", "properties": {"collection_times": [{"days": "Mon-Sat", "time": "1:30pm"}, {"days": "Sun", "time": "Closed"}], "id": "8132800007", "name": "USPS COLLECTION BOX - BLUE BOX", "address": {"city": "MANCOS", "state": "CO", "street": "291 N WALNUT ST", "postcode": "81328"}}},
{"geometry": {"type": "Point", "coordinates": [-105.5478136962, 38.9985525982]}, "type": "Feature", "properties": {"collection_times": [{"days": "Mon-Sat", "time": "11:00am"}, {"days": "Sun", "time": "Closed"}], "id": "8132900000", "name": "USPS COLLECTION BOX - BLUE BOX", "address": {"city": "MARVEL", "state": "CO", "street": "10383 COUNTY ROAD 100", "postcode": "81329"}}},
{"geometry": {"type": "Point", "coordinates": [-108.41890584, 37.2986193107]}, "type": "Feature", "properties": {"collection_times": [{"days": "Mon-Fri", "time": "12:00pm"}, {"days": "Sat-Sun", "time": "Closed"}], "id": "8133000000", "name": "USPS COLLECTION BOX - PO LOBBY", "address": {"city": "MESA VERDE", "state": "CO", "street": "1 MESA VERDE NATIONAL", "postcode": "81330"}}},
{"geometry": {"type": "Point", "coordinates": [-108.41890584, 37.2986193107]}, "type": "Feature", "properties": {"collection_times": [{"days": "Mon-Fri", "time": "12:00pm"}, {"days": "Sat-Sun", "time": "Closed"}], "id": "8133000005", "name": "USPS COLLECTION BOX - BLUE BOX", "address": {"city": "MESA VERDE", "state": "CO", "street": "1 MESA VERDE NATIONAL", "postcode": "81330"}}},
{"geometry": {"type": "Point", "coordinates": [-108.7657326186, 37.5896331371]}, "type": "Feature", "properties": {"collection_times": [{"days": "Mon-Fri", "time": "1:00pm"}, {"days": "Sat", "time": "11:45am"}, {"days": "Sun", "time": "Closed"}], "id": "8133100000", "name": "USPS COLLECTION BOX - PO LOBBY", "address": {"city": "PLEASANT VIEW", "state": "CO", "street": "26070 HIGHWAY 491", "postcode": "81331"}}},
{"geometry": {"type": "Point", "coordinates": [-108.7655538307, 37.5891975815]}, "type": "Feature", "properties": {"collection_times": [{"days": "Mon-Fri", "time": "1:00pm"}, {"days": "Sat", "time": "11:45am"}, {"days": "Sun", "time": "Closed"}], "id": "8133100001", "name": "USPS COLLECTION BOX - BLUE BOX", "address": {"city": "PLEASANT VIEW", "state": "CO", "street": "26070 HIGHWAY 491", "postcode": "81331"}}},
{"geometry": {"type": "Point", "coordinates": [-108.0314501084, 37.6921629204]}, "type": "Feature", "properties": {"collection_times": [{"days": "Mon-Sat", "time": "12:00pm"}, {"days": "Sun", "time": "Closed"}], "id": "8133200000", "name": "USPS COLLECTION BOX - BLUE BOX", "address": {"city": "RICO", "state": "CO", "street": "28 S GLASGOW AVE", "postcode": "81332"}}},
{"geometry": {"type": "Point", "coordinates": [-108.0315813754, 37.6927450731]}, "type": "Feature", "properties": {"collection_times": [{"days": "Mon-Sat", "time": "12:00pm"}, {"days": "Sun", "time": "Closed"}], "id": "8133200001", "name": "USPS COLLECTION BOX - PO LOBBY", "address": {"city": "RICO", "state": "CO", "street": "28 S GLASGOW AVE", "postcode": "81332"}}},
{"geometry": {"type": "Point", "coordinates": [-108.776618634, 37.0825530531]}, "type": "Feature", "properties": {"collection_times": [{"days": "Mon-Fri", "time": "11:00am"}, {"days": "Sat-Sun", "time": "Closed"}], "id": "8133400000", "name": "USPS COLLECTION BOX - PO LOBBY", "address": {"city": "TOWAOC", "state": "CO", "street": "119.8 MIKE WASH RD", "postcode": "81334"}}},
{"geometry": {"type": "Point", "coordinates": [-108.776618634, 37.0825530531]}, "type": "Feature", "properties": {"collection_times": [{"days": "Mon-Fri", "time": "11:00am"}, {"days": "Sat-Sun", "time": "Closed"}], "id": "8133400001", "name": "USPS COLLECTION BOX - BLUE BOX", "address": {"city": "TOWAOC", "state": "CO", "street": "119.8 MIKE WASH RD", "postcode": "81334"}}},
{"geometry": {"type": "Point", "coordinates": [-108.7195493798, 37.5323430632]}, "type": "Feature", "properties": {"collection_times": [{"days": "Mon-Fri", "time": "1:15pm"}, {"days": "Sat", "time": "11:45am"}, {"days": "Sun", "time": "Closed"}], "id": "8133500000", "name": "USPS COLLECTION BOX - PO LOBBY", "address": {"city": "YELLOW JACKET", "state": "CO", "street": "22009 COUNTY ROAD 18", "postcode": "81335"}}},
{"geometry": {"type": "Point", "coordinates": [-108.7191208739, 37.5300450831]}, "type": "Feature", "properties": {"collection_times": [{"days": "Mon-Fri", "time": "1:15pm"}, {"days": "Sat", "time": "11:45am"}, {"days": "Sun", "time": "Closed"}], "id": "8133500001", "name": "USPS COLLECTION BOX - BLUE BOX", "address": {"city": "YELLOW JACKET", "state": "CO", "street": "22009 COUNTY ROAD 18", "postcode": "81335"}}}
]}
