{"type": "FeatureCollection", "features": [
{"geometry": {"type": "Point", "coordinates": [-107.8763533577, 38.4783502107]}, "type": "Feature", "properties": {"collection_times": [{"days": "Mon-Fri", "time": "5:00pm"}, {"days": "Sat", "time": "12:00pm"}, {"days": "Sun", "time": "Closed"}], "id": "8140100000", "name": "USPS COLLECTION BOX - BLUE BOX", "address": {"city": "MONTROSE", "state": "CO", "street": "321 S 1ST ST", "postcode": "81401"}}},
{"geometry": {"type": "Point", "coordinates": [-107.8763533577, 38.4783502107]}, "type": "Feature", "properties": {"collection_times": [{"days": "Mon-Fri", "time": "5:00pm"}, {"days": "Sat", "time": "12:00pm"}, {"days": "Sun", "time": "Closed"}], "id": "8140100001", "name": "USPS COLLECTION BOX - BLUE BOX", "address": {"city": "MONTROSE", "state": "CO", "street": "321 S 1ST ST", "postcode": "81401"}}},
{"geometry": {"type": "Point", "coordinates": [-107.8765154231, 38.4775824703]}, "type": "Feature", "properties": {"collection_times": [{"days": "Mon-Sat", "time": "12:00pm"}, {"days": "Sun", "time": "Closed"}], "id": "8140100005", "name": "USPS COLLECTION BOX - BLUE BOX", "address": {"city": "MONTROSE", "state": "CO", "street": "128 S TOWNSEND AVE", "postcode": "81401"}}},
{"geometry": {"type": "Point", "coordinates": [-107.8741660665, 38.4811455427]}, "type": "Feature", "properties": {"collection_times": [{"days": "Mon-Sat", "time": "12:00pm"}, {"days": "Sun", "time": "Closed"}], "id": "8140100007", "name": "USPS COLLECTION BOX - BLUE BOX", "address": {"city": "MONTROSE", "state": "CO", "street": "614 E MAIN ST", "postcode": "81401"}}},
{"geometry": {"type": "Point", "coordinates": [-107.8701227128, 38.480272519]}, "type": "Feature", "properties": {"collection_times": [{"days": "Mon-Sat", "time": "12:00pm"}, {"days": "Sun", "time": "Closed"}], "id": "8140100008", "name": "USPS COLLECTION BOX - BLUE BOX", "address": {"city": "MONTROSE", "state": "CO", "street": "230 S NEVADA AVE", "postcode": "81401"}}},
{"geometry": {"type": "Point", "coordinates": [-107.8692307617, 38.4846151614]}, "type": "Feature", "properties": {"collection_times": [{"days": "Mon-Sat", "time": "12:00pm"}, {"days": "Sun", "time": "Closed"}], "id": "8140100010", "name": "USPS COLLECTION BOX - BLUE BOX", "address": {"city": "MONTROSE", "state": "CO", "street": "1101 E MAIN ST", "postcode": "81401"}}},
{"geometry": {"type": "Point", "coordinates": [-107.8623860268, 38.4817013092]}, "type": "Feature", "properties": {"collection_times": [{"days": "Mon-Sat", "time": "1:30pm"}, {"days": "Sun", "time": "Closed"}], "id": "8140100015", "name": "USPS COLLECTION BOX - EXPRESS", "address": {"city": "MONTROSE", "state": "CO", "street": "325 N 2ND ST", "postcode": "81401"}}},
{"geometry": {"type": "Point", "coordinates": [-107.8623860268, 38.4817013092]}, "type": "Feature", "properties": {"collection_times": [{"days": "Mon-Sat", "time": "12:00pm"}, {"days": "Sun", "time": "Closed"}], "id": "8140100019", "name": "USPS COLLECTION BOX - BLUE BOX", "address": {"city": "MONTROSE", "state": "CO", "street": "924 SPRING CREEK RD STE A", "postcode": "81401"}}},
{"geometry": {"type": "Point", "coordinates": [-107.8662331437, 38.4531070493]}, "type": "Feature", "properties": {"collection_times": [{"days": "Mon-Fri", "time": "2:00pm"}, {"days": "Sat", "time": "1:00pm"}, {"days": "Sun", "time": "Closed"}], "id": "8140100022", "name": "USPS COLLECTION BOX - BLUE BOX", "address": {"city": "MONTROSE", "state": "CO", "street": "16400 S TOWNSEND AVE", "postcode": "81401"}}},
{"geometry": {"type": "Point", "coordinates": [-107.8661881913, 38.4495167689]}, "type": "Feature", "properties": {"collection_times": [{"days": "Mon-Fri", "time": "2:00pm"}, {"days": "Sat", "time": "1:00pm"}, {"days": "Sun", "time": "Closed"}], "id": "8140100023", "name": "USPS COLLECTION BOX - BLUE BOX", "address": {"city": "MONTROSE", "state": "CO", "street": "16750 S TOWNSEND AVE", "postcode": "81401"}}},
{"geometry": {"type": "Point", "coordinates": [-107.866745365, 38.4688072807]}, "type": "Feature", "properties": {"collection_times": [{"days": "Mon-Fri", "time": "2:00pm"}, {"days": "Sat", "time": "1:00pm"}, {"days": "Sun", "time": "Closed"}], "id": "8140100024", "name": "USPS COLLECTION BOX - BLUE BOX", "address": {"city": "MONTROSE", "state": "CO", "street": "1329 S TOWNSEND AVE", "postcode": "81401"}}},
{"geometry": {"type": "Point", "coordinates": [-107.8763533577, 38.4783502107]}, "type": "Feature", "properties": {"collection_times": [{"days": "Mon-Fri", "time": "5:00pm"}, {"days": "Sat", "time": "12:00pm"}, {"days": "Sun", "time": "Closed"}], "id": "8140100026", "name": "USPS COLLECTION BOX - PO LOBBY", "address": {"city": "MONTROSE", "state": "CO", "street": "321 S 1ST ST", "postcode": "81401"}}},
{"geometry": {"type": "Point", "coordinates": [-107.8763533577, 38.4783502107]}, "type": "Feature", "properties": {"collection_times": [{"days": "Mon-Fri", "time": "5:00pm"}, {"days": "Sat", "time": "12:00pm"}, {"days": "Sun", "time": "Closed"}], "id": "8140100027", "name": "USPS COLLECTION BOX - PO LOBBY", "address": {"city": "MONTROSE", "state": "CO", "street": "321 S 1ST ST", "postcode": "81401"}}},
{"geometry": {"type": "Point", "coordinates": [-107.8763533577, 38.4783502107]}, "type": "Feature", "properties": {"collection_times": [{"days": "Mon-Fri", "time": "5:00pm"}, {"days": "Sat", "time": "12:00pm"}, {"days": "Sun", "time": "Closed"}], "id": "8140100031", "name": "USPS COLLECTION BOX - BLUE BOX", "address": {"city": "MONTROSE", "state": "CO", "street": "321 S 1ST ST", "postcode": "81401"}}},
{"geometry": {"type": "Point", "coordinates": [-107.8623860268, 38.4817013092]}, "type": "Feature", "properties": {"collection_times": [{"days": "Mon-Sat", "time": "10:30am"}, {"days": "Sun", "time": "Closed"}], "id": "8140100033", "name": "USPS COLLECTION BOX - BLUE BOX", "address": {"city": "MONTROSE", "state": "CO", "street": "62880 LASALLE RD", "postcode": "81401"}}},
{"geometry": {"type": "Point", "coordinates": [-107.8791512807, 38.4805497248]}, "type": "Feature", "properties": {"collection_times": [{"days": "Mon-Sat", "time": "1:30pm"}, {"days": "Sun", "time": "Closed"}], "id": "8140100035", "name": "USPS COLLECTION BOX - BLUE BOX", "address": {"city": "MONTROSE", "state": "CO", "street": "325 N 2ND ST", "postcode": "81401"}}},
{"geometry": {"type": "Point", "coordinates": [-107.8791512807, 38.4805497248]}, "type": "Feature", "properties": {"collection_times": [{"days": "Mon-Sat", "time": "1:30pm"}, {"days": "Sun", "time": "Closed"}], "id": "8140100036", "name": "USPS COLLECTION BOX - BLUE BOX", "address": {"city": "MONTROSE", "state": "CO", "street": "325 N 2ND ST", "postcode": "81401"}}},
{"geometry": {"type": "Point", "coordinates": [-107.8791512807, 38.4805497248]}, "type": "Feature", "properties": {"collection_times": [{"days": "Mon-Sat", "time": "1:30pm"}, {"days": "Sun", "time": "Closed"}], "id": "8140100037", "name": "USPS COLLECTION BOX - BLUE BOX", "address": {"city": "MONTROSE", "state": "CO", "street": "325 N 2ND ST", "postcode": "81401"}}},
{"geometry": {"type": "Point", "coordinates": [-107.7912982141, 38.4973100516]}, "type": "Feature", "properties": {"collection_times": [{"days": "Mon-Sat", "time": "10:30am"}, {"days": "Sun", "time": "Closed"}], "id": "8140100038", "name": "USPS COLLECTION BOX - BLUE BOX", "address": {"city": "MONTROSE", "state": "CO", "street": "611 E STAR CT", "postcode": "81401"}}},
{"geometry": {"type": "Point", "coordinates": [-107.9527821108, 38.7812134631]}, "type": "Feature", "properties": {"collection_times": [{"days": "Mon-Fri", "time": "4:30pm"}, {"days": "Sat", "time": "11:15am"}, {"days": "Sun", "time": "Closed"}], "id": "8141000000", "name": "USPS COLLECTION BOX - BLUE BOX", "address": {"city": "AUSTIN", "state": "CO", "street": "22009 CANAL ST", "postcode": "81410"}}},
{"geometry": {"type": "Point", "coordinates": [-107.9412421812, 38.7959121753]}, "type": "Feature", "properties": {"collection_times": [{"days": "Mon-Fri", "time": "4:30pm"}, {"days": "Sat", "time": "11:15am"}, {"days": "Sun", "time": "Closed"}], "id": "8141000001", "name": "USPS COLLECTION BOX - PO LOBBY", "address": {"city": "AUSTIN", "state": "CO", "street": "22009 CANAL ST", "postcode": "81410"}}},
{"geometry": {"type": "Point", "coordinates": [-107.9412421812, 38.7959121753]}, "type": "Feature", "properties": {"collection_times": [{"days": "Mon-Fri", "time": "4:30pm"}, {"days": "Sat", "time": "11:15am"}, {"days": "Sun", "time": "Closed"}], "id": "8141000002", "name": "USPS COLLECTION BOX - PO LOBBY", "address": {"city": "AUSTIN", "state": "CO", "street": "22009 CANAL ST", "postcode": "81410"}}},
{"geometry": {"type": "Point", "coordinates": [-108.9703636516, 38.3267746473]}, "type": "Feature", "properties": {"collection_times": [{"days": "Mon-Fri", "time": "10:45am"}, {"days": "Sat", "time": "10:30am"}, {"days": "Sun", "time": "Closed"}], "id": "8141100000", "name": "USPS COLLECTION BOX - PO LOBBY", "address": {"city": "BEDROCK", "state": "CO", "street": "1 HWY 90", "postcode": "81411"}}},
{"geometry": {"type": "Point", "coordinates": [-107.9254284103, 38.9000218486]}, "type": "Feature", "properties": {"collection_times": [{"days": "Mon-Fri", "time": "4:00pm"}, {"days": "Sat", "time": "12:00pm"}, {"days": "Sun", "time": "Closed"}], "id": "8141300000", "name": "USPS COLLECTION BOX - BLUE BOX", "address": {"city": "CEDAREDGE", "state": "CO", "street": "155 SW 2ND ST", "postcode": "81413"}}},
{"geometry": {"type": "Point", "coordinates": [-107.9268893647, 38.8909804932]}, "type": "Feature", "properties": {"collection_times": [{"days": "Mon-Sat", "time": "12:00pm"}, {"days": "Sun", "time": "Closed"}], "id": "8141300001", "name": "USPS COLLECTION BOX - BLUE BOX", "address": {"city": "CEDAREDGE", "state": "CO", "street": "210 SE INDEPENDENCE AVE", "postcode": "81413"}}},
{"geometry": {"type": "Point", "coordinates": [-107.9254284103, 38.9000218486]}, "type": "Feature", "properties": {"collection_times": [{"days": "Mon-Fri", "time": "4:00pm"}, {"days": "Sat", "time": "12:00pm"}, {"days": "Sun", "time": "Closed"}], "id": "8141300002", "name": "USPS COLLECTION BOX - PO LOBBY", "address": {"city": "CEDAREDGE", "state": "CO", "street": "155 SW 2ND ST", "postcode": "81413"}}},
{"geometry": {"type": "Point", "coordinates": [-107.9254284103, 38.9000218486]}, "type": "Feature", "properties": {"collection_times": [{"days": "Mon-Fri", "time": "4:00pm"}, {"days": "Sat", "time": "12:00pm"}, {"days": "Sun", "time": "Closed"}], "id": "8141300003", "name": "USPS COLLECTION BOX - PO LOBBY", "address": {"city": "CEDAREDGE", "state": "CO", "street": "155 SW 2ND ST", "postcode": "81413"}}},
{"geometry": {"type": "Point", "coordinates": [-107.9886878759, 38.7899718732]}, "type": "Feature", "properties": {"collection_times": [{"days": "Mon-Fri", "time": "4:15pm"}, {"days": "Sat", "time": "9:45am"}, {"days": "Sun", "time": "Closed"}], "id": "8141400000", "name": "USPS COLLECTION BOX - BLUE BOX", "address": {"city": "CORY", "state": "CO", "street": "9340 HIGHWAY 65", "postcode": "81414"}}},
{"geometry": {"type": "Point", "coordinates": [-107.9886878759, 38.7899718732]}, "type": "Feature", "properties": {"collection_times": [{"days": "Mon-Fri", "time": "4:30pm"}, {"days": "Sat", "time": "9:45am"}, {"days": "Sun", "time": "Closed"}], "id": "8141400001", "name": "USPS COLLECTION BOX - PO LOBBY", "address": {"city": "CORY", "state": "CO", "street": "9340 HIGHWAY 65", "postcode": "81414"}}},
{"geometry": {"type": "Point", "coordinates": [-107.6076879983, 38.7030828401]}, "type": "Feature", "properties": {"collection_times": [{"days": "Mon-Fri", "time": "2:30pm"}, {"days": "Sat", "time": "11:30am"}, {"days": "Sun", "time": "Closed"}], "id": "8141500000", "name": "USPS COLLECTION BOX - BLUE BOX", "address": {"city": "CRAWFORD", "state": "CO", "street": "295 HIGHWAY 92", "postcode": "81415"}}},
{"geometry": {"type": "Point", "coordinates": [-107.6076879983, 38.7030828401]}, "type": "Feature", "properties": {"collection_times": [{"days": "Mon-Fri", "time": "3:30pm"}, {"days": "Sat", "time": "11:30am"}, {"days": "Sun", "time": "Closed"}], "id": "8141500001", "name": "USPS COLLECTION BOX - PO LOBBY", "address": {"city": "CRAWFORD", "state": "CO", "street": "295 HIGHWAY 92", "postcode": "81415"}}},
{"geometry": {"type": "Point", "coordinates": [-107.6076879983, 38.7030828401]}, "type": "Feature", "properties": {"collection_times": [{"days": "Mon-Fri", "time": "3:30pm"}, {"days": "Sat", "time": "11:30am"}, {"days": "Sun", "time": "Closed"}], "id": "8141500002", "name": "USPS COLLECTION BOX - PO LOBBY", "address": {"city": "CRAWFORD", "state": "CO", "street": "295 HIGHWAY 92", "postcode": "81415"}}},
{"geometry": {"type": "Point", "coordinates": [-108.0694666769, 38.7419205659]}, "type": "Feature", "properties": {"collection_times": [{"days": "Mon-Fri", "time": "5:00pm"}, {"days": "Sat", "time": "1:45pm"}, {"days": "Sun", "time": "Closed"}], "id": "8141600000", "name": "USPS COLLECTION BOX - BLUE BOX", "address": {"city": "DELTA", "state": "CO", "street": "360 MEEKER ST", "postcode": "81416"}}},
{"geometry": {"type": "Point", "coordinates": [-108.0694666769, 38.7419205659]}, "type": "Feature", "properties": {"collection_times": [{"days": "Mon-Fri", "time": "5:00pm"}, {"days": "Sat", "time": "1:45pm"}, {"days": "Sun", "time": "Closed"}], "id": "8141600001", "name": "USPS COLLECTION BOX - BLUE BOX", "address": {"city": "DELTA", "state": "CO", "street": "360 MEEKER ST", "postcode": "81416"}}},
{"geometry": {"type": "Point", "coordinates": [-108.056108097, 38.7301704487]}, "type": "Feature", "properties": {"collection_times": [{"days": "Mon-Fri", "time": "4:45pm"}, {"days": "Sat", "time": "11:45am"}, {"days": "Sun", "time": "Closed"}], "id": "8141600002", "name": "USPS COLLECTION BOX - EXPRESS", "address": {"city": "DELTA", "state": "CO", "street": "360 MEEKER ST", "postcode": "81416"}}},
{"geometry": {"type": "Point", "coordinates": [-108.0694666769, 38.7419205659]}, "type": "Feature", "properties": {"collection_times": [{"days": "Mon-Fri", "time": "5:00pm"}, {"days": "Sat", "time": "1:45pm"}, {"days": "Sun", "time": "Closed"}], "id": "8141600003", "name": "USPS COLLECTION BOX - BLUE BOX", "address": {"city": "DELTA", "state": "CO", "street": "360 MEEKER ST", "postcode": "81416"}}},
{"geometry": {"type": "Point", "coordinates": [-108.0720526252, 38.7487900086]}, "type": "Feature", "properties": {"collection_times": [{"days": "Mon-Sat", "time": "10:30am"}, {"days": "Sun", "time": "Closed"}], "id": "8141600006", "name": "USPS COLLECTION BOX - BLUE BOX", "address": {"city": "DELTA", "state": "CO", "street": "122 GUNNISON RIVER DR", "postcode": "81416"}}},
{"geometry": {"type": "Point", "coordinates": [-108.0721460789, 38.7400550396]}, "type": "Feature", "properties": {"collection_times": [{"days": "Mon-Sat", "time": "2:15pm"}, {"days": "Sun", "time": "Closed"}], "id": "8141600007", "name": "USPS COLLECTION BOX - BLUE BOX", "address": {"city": "DELTA", "state": "CO", "street": "501 PALMER ST", "postcode": "81416"}}},
{"geometry": {"type": "Point", "coordinates": [-108.0721460789, 38.7400550396]}, "type": "Feature", "properties": {"collection_times": [{"days": "Mon-Sat", "time": "2:15pm"}, {"days": "Sun", "time": "Closed"}], "id": "8141600008", "name": "USPS COLLECTION BOX - BLUE BOX", "address": {"city": "DELTA", "state": "CO", "street": "501 PALMER ST", "postcode": "81416"}}},
{"geometry": {"type": "Point", "coordinates": [-108.0694666769, 38.7419205659]}, "type": "Feature", "properties": {"collection_times": [{"days": "Mon-Fri", "time": "5:00pm"}, {"days": "Sat", "time": "1:45pm"}, {"days": "Sun", "time": "Closed"}], "id": "8141600012", "name": "USPS COLLECTION BOX - BLUE BOX", "address": {"city": "DELTA", "state": "CO", "street": "360 MEEKER ST", "postcode": "81416"}}},
{"geometry": {"type": "Point", "coordinates": [-108.0694666769, 38.7419205659]}, "type": "Feature", "properties": {"collection_times": [{"days": "Mon-Fri", "time": "5:00pm"}, {"days": "Sat", "time": "1:45pm"}, {"days": "Sun", "time": "Closed"}], "id": "8141600013", "name": "USPS COLLECTION BOX - PO LOBBY", "address": {"city": "DELTA", "state": "CO", "street": "360 MEEKER ST", "postcode": "81416"}}},
{"geometry": {"type": "Point", "coordinates": [-108.0694666769, 38.7419205659]}, "type": "Feature", "properties": {"collection_times": [{"days": "Mon-Fri", "time": "5:00pm"}, {"days": "Sat", "time": "1:45pm"}, {"days": "Sun", "time": "Closed"}], "id": "8141600014", "name": "USPS COLLECTION BOX - PO LOBBY", "address": {"city": "DELTA", "state": "CO", "street": "360 MEEKER ST", "postcode": "81416"}}},
{"geometry": {"type": "Point", "coordinates": [-108.0694666769, 38.7419205659]}, "type": "Feature", "properties": {"collection_times": [{"days": "Mon-Fri", "time": "5:00pm"}, {"days": "Sat", "time": "1:45pm"}, {"days": "Sun", "time": "Closed"}], "id": "8141600015", "name": "USPS COLLECTION BOX - PO LOBBY", "address": {"city": "DELTA", "state": "CO", "street": "360 MEEKER ST", "postcode": "81416"}}},
{"geometry": {"type": "Point", "coordinates": [-108.0694666769, 38.7419205659]}, "type": "Feature", "properties": {"collection_times": [{"days": "Mon-Fri", "time": "5:00pm"}, {"days": "Sat", "time": "1:45pm"}, {"days": "Sun", "time": "Closed"}], "id": "8141600016", "name": "USPS COLLECTION BOX - BLUE BOX", "address": {"city": "DELTA", "state": "CO", "street": "360 MEEKER ST", "postcode": "81416"}}},
{"geometry": {"type": "Point", "coordinates": [-108.0522404284, 38.7526204297]}, "type": "Feature", "properties": {"collection_times": [{"days": "Mon-Sat", "time": "9:30am"}, {"days": "Sun", "time": "Closed"}], "id": "8141600018", "name": "USPS COLLECTION BOX - BLUE BOX", "address": {"city": "DELTA", "state": "CO", "street": "1550 HIGHWAY 92", "postcode": "81416"}}},
{"geometry": {"type": "Point", "coordinates": [-108.0506339702, 38.7492927661]}, "type": "Feature", "properties": {"collection_times": [{"days": "Mon-Sat", "time": "9:30am"}, {"days": "Sun", "time": "Closed"}], "id": "8141600019", "name": "USPS COLLECTION BOX - BLUE BOX", "address": {"city": "DELTA", "state": "CO", "street": "37 STAFFORD LN", "postcode": "81416"}}},
{"geometry": {"type": "Point", "coordinates": [-107.966863914, 38.8365182454]}, "type": "Feature", "properties": {"collection_times": [{"days": "Mon-Fri", "time": "4:15pm"}, {"days": "Sat", "time": "11:15am"}, {"days": "Sun", "time": "Closed"}], "id": "8141800000", "name": "USPS COLLECTION BOX - BLUE BOX", "address": {"city": "ECKERT", "state": "CO", "street": "12570 HIGHWAY 65", "postcode": "81418"}}},
{"geometry": {"type": "Point", "coordinates": [-107.966863914, 38.8365182454]}, "type": "Feature", "properties": {"collection_times": [{"days": "Mon-Fri", "time": "4:15pm"}, {"days": "Sat", "time": "11:15am"}, {"days": "Sun", "time": "Closed"}], "id": "8141800001", "name": "USPS COLLECTION BOX - PO LOBBY", "address": {"city": "ECKERT", "state": "CO", "street": "12570 HIGHWAY 65", "postcode": "81418"}}},
{"geometry": {"type": "Point", "coordinates": [-107.966863914, 38.8365182454]}, "type": "Feature", "properties": {"collection_times": [{"days": "Mon-Fri", "time": "4:15pm"}, {"days": "Sat", "time": "11:15am"}, {"days": "Sun", "time": "Closed"}], "id": "8141800002", "name": "USPS COLLECTION BOX - PO LOBBY", "address": {"city": "ECKERT", "state": "CO", "street": "12570 HIGHWAY 65", "postcode": "81418"}}},
{"geometry": {"type": "Point", "coordinates": [-107.7578927169, 38.8341952275]}, "type": "Feature", "properties": {"collection_times": [{"days": "Mon-Sat", "time": "12:00pm"}, {"days": "Sun", "time": "Closed"}], "id": "8141900001", "name": "USPS COLLECTION BOX - BLUE BOX", "address": {"city": "HOTCHKISS", "state": "CO", "street": "215 6TH ST", "postcode": "81419"}}},
{"geometry": {"type": "Point", "coordinates": [-107.7208403892, 38.7989474687]}, "type": "Feature", "properties": {"collection_times": [{"days": "Mon-Fri", "time": "4:00pm"}, {"days": "Sat", "time": "11:00am"}, {"days": "Sun", "time": "Closed"}], "id": "8141900002", "name": "USPS COLLECTION BOX - BLUE BOX", "address": {"city": "HOTCHKISS", "state": "CO", "street": "103 E BRIDGE ST", "postcode": "81419"}}},
{"geometry": {"type": "Point", "coordinates": [-107.7208403892, 38.7989474687]}, "type": "Feature", "properties": {"collection_times": [{"days": "Mon-Fri", "time": "4:30pm"}, {"days": "Sat", "time": "11:30am"}, {"days": "Sun", "time": "Closed"}], "id": "8141900003", "name": "USPS COLLECTION BOX - PO LOBBY", "address": {"city": "HOTCHKISS", "state": "CO", "street": "103 E BRIDGE ST", "postcode": "81419"}}},
{"geometry": {"type": "Point", "coordinates": [-107.7208403892, 38.7989474687]}, "type": "Feature", "properties": {"collection_times": [{"days": "Mon-Fri", "time": "4:30pm"}, {"days": "Sat", "time": "11:30am"}, {"days": "Sun", "time": "Closed"}], "id": "8141900004", "name": "USPS COLLECTION BOX - PO LOBBY", "address": {"city": "HOTCHKISS", "state": "CO", "street": "103 E BRIDGE ST", "postcode": "81419"}}},
{"geometry": {"type": "Point", "coordinates": [-107.7816311929, 38.7801357785]}, "type": "Feature", "properties": {"collection_times": [{"days": "Mon-Fri", "time": "2:30pm"}, {"days": "Sat", "time": "11:30am"}, {"days": "Sun", "time": "Closed"}], "id": "8142000000", "name": "USPS COLLECTION BOX - BLUE BOX", "address": {"city": "LAZEAR", "state": "CO", "street": "857 3100 RD", "postcode": "81420"}}},
{"geometry": {"type": "Point", "coordinates": [-107.7816311929, 38.7801357785]}, "type": "Feature", "properties": {"collection_times": [{"days": "Mon-Fri", "time": "2:30pm"}, {"days": "Sat", "time": "11:30am"}, {"days": "Sun", "time": "Closed"}], "id": "8142000001", "name": "USPS COLLECTION BOX - PO LOBBY", "address": {"city": "LAZEAR", "state": "CO", "street": "857 3100 RD", "postcode": "81420"}}},
{"geometry": {"type": "Point", "coordinates": [-108.5711177919, 38.217386344]}, "type": "Feature", "properties": {"collection_times": [{"days": "Mon-Fri", "time": "2:30pm"}, {"days": "Sat", "time": "12:00pm"}, {"days": "Sun", "time": "Closed"}], "id": "8142200000", "name": "USPS COLLECTION BOX - BLUE BOX", "address": {"city": "NATURITA", "state": "CO", "street": "211 W MAIN ST", "postcode": "81422"}}},
{"geometry": {"type": "Point", "coordinates": [-108.5711177919, 38.217386344]}, "type": "Feature", "properties": {"collection_times": [{"days": "Mon-Fri", "time": "2:30pm"}, {"days": "Sat", "time": "12:00pm"}, {"days": "Sun", "time": "Closed"}], "id": "8142200001", "name": "USPS COLLECTION BOX - PO LOBBY", "address": {"city": "NATURITA", "state": "CO", "street": "211 W MAIN ST", "postcode": "81422"}}},
{"geometry": {"type": "Point", "coordinates": [-108.5711177919, 38.217386344]}, "type": "Feature", "properties": {"collection_times": [{"days": "Mon-Fri", "time": "2:30pm"}, {"days": "Sat", "time": "12:00pm"}, {"days": "Sun", "time": "Closed"}], "id": "8142200002", "name": "USPS COLLECTION BOX - PO LOBBY", "address": {"city": "NATURITA", "state": "CO", "street": "211 W MAIN ST", "postcode": "81422"}}},
{"geometry": {"type": "Point", "coordinates": [-108.2904001398, 38.1308121102]}, "type": "Feature", "properties": {"collection_times": [{"days": "Mon-Fri", "time": "1:45pm"}, {"days": "Sat", "time": "11:45am"}, {"days": "Sun", "time": "Closed"}], "id": "8142300000", "name": "USPS COLLECTION BOX - BLUE BOX", "address": {"city": "NORWOOD", "state": "CO", "street": "1555 GRAND AVE", "postcode": "81423"}}},
{"geometry": {"type": "Point", "coordinates": [-108.2904001398, 38.1308121102]}, "type": "Feature", "properties": {"collection_times": [{"days": "Mon-Fri", "time": "2:00pm"}, {"days": "Sat", "time": "12:00pm"}, {"days": "Sun", "time": "Closed"}], "id": "8142300001", "name": "USPS COLLECTION BOX - PO LOBBY", "address": {"city": "NORWOOD", "state": "CO", "street": "1555 GRAND AVE", "postcode": "81423"}}},
{"geometry": {"type": "Point", "coordinates": [-108.2904001398, 38.1308121102]}, "type": "Feature", "properties": {"collection_times": [{"days": "Mon-Fri", "time": "2:00pm"}, {"days": "Sat", "time": "12:00pm"}, {"days": "Sun", "time": "Closed"}], "id": "8142300002", "name": "USPS COLLECTION BOX - PO LOBBY", "address": {"city": "NORWOOD", "state": "CO", "street": "1555 GRAND AVE", "postcode": "81423"}}},
{"geometry": {"type": "Point", "coordinates": [-108.2904001398, 38.1308121102]}, "type": "Feature", "properties": {"collection_times": [{"days": "Mon-Fri", "time": "2:00pm"}, {"days": "Sat", "time": "12:00pm"}, {"days": "Sun", "time": "Closed"}], "id": "8142300003", "name": "USPS COLLECTION BOX - PO LOBBY", "address": {"city": "NORWOOD", "state": "CO", "street": "1555 GRAND AVE", "postcode": "81423"}}},
{"geometry": {"type": "Point", "coordinates": [-108.5451341351, 38.2688867274]}, "type": "Feature", "properties": {"collection_times": [{"days": "Mon-Fri", "time": "2:15pm"}, {"days": "Sat", "time": "12:00pm"}, {"days": "Sun", "time": "Closed"}], "id": "8142400000", "name": "USPS COLLECTION BOX - BLUE BOX", "address": {"city": "NUCLA", "state": "CO", "street": "145 W 5TH AVE", "postcode": "81424"}}},
{"geometry": {"type": "Point", "coordinates": [-108.5451341351, 38.2688867274]}, "type": "Feature", "properties": {"collection_times": [{"days": "Mon-Fri", "time": "2:15pm"}, {"days": "Sat", "time": "12:00pm"}, {"days": "Sun", "time": "Closed"}], "id": "8142400001", "name": "USPS COLLECTION BOX - PO LOBBY", "address": {"city": "NUCLA", "state": "CO", "street": "145 W 5TH AVE", "postcode": "81424"}}},
{"geometry": {"type": "Point", "coordinates": [-108.5451341351, 38.2688867274]}, "type": "Feature", "properties": {"collection_times": [{"days": "Mon-Fri", "time": "2:15pm"}, {"days": "Sat", "time": "12:00pm"}, {"days": "Sun", "time": "Closed"}], "id": "8142400002", "name": "USPS COLLECTION BOX - PO LOBBY", "address": {"city": "NUCLA", "state": "CO", "street": "145 W 5TH AVE", "postcode": "81424"}}},
{"geometry": {"type": "Point", "coordinates": [-107.9838144249, 38.6171063475]}, "type": "Feature", "properties": {"collection_times": [{"days": "Mon-Fri", "time": "4:00pm"}, {"days": "Sat", "time": "12:30pm"}, {"days": "Sun", "time": "Closed"}], "id": "8142500000", "name": "USPS COLLECTION BOX - BLUE BOX", "address": {"city": "OLATHE", "state": "CO", "street": "215 HIGHWAY 50 BUSINESS LOOP", "postcode": "81425"}}},
{"geometry": {"type": "Point", "coordinates": [-107.9838144249, 38.6171063475]}, "type": "Feature", "properties": {"collection_times": [{"days": "Mon-Fri", "time": "4:15pm"}, {"days": "Sat", "time": "12:30pm"}, {"days": "Sun", "time": "Closed"}], "id": "8142500001", "name": "USPS COLLECTION BOX - PO LOBBY", "address": {"city": "OLATHE", "state": "CO", "street": "215 HIGHWAY 50 BUSINESS LOOP", "postcode": "81425"}}},
{"geometry": {"type": "Point", "coordinates": [-107.9838144249, 38.6171063475]}, "type": "Feature", "properties": {"collection_times": [{"days": "Mon-Fri", "time": "4:15pm"}, {"days": "Sat", "time": "12:30pm"}, {"days": "Sun", "time": "Closed"}], "id": "8142500002", "name": "USPS COLLECTION BOX - PO LOBBY", "address": {"city": "OLATHE", "state": "CO", "street": "215 HIGHWAY 50 BUSINESS LOOP", "postcode": "81425"}}},
{"geometry": {"type": "Point", "coordinates": [-107.859703705, 37.85833458]}, "type": "Feature", "properties": {"collection_times": [{"days": "Mon-Fri", "time": "3:00pm"}, {"days": "Sat", "time": "11:50am"}, {"days": "Sun", "time": "Closed"}], "id": "8142600001", "name": "USPS COLLECTION BOX - PO LOBBY", "address": {"city": "OPHIR", "state": "CO", "street": "430 COUNTY RD 630", "postcode": "81426"}}},
{"geometry": {"type": "Point", "coordinates": [-107.6715658756, 38.0229030774]}, "type": "Feature", "properties": {"collection_times": [{"days": "Mon-Fri", "time": "4:00pm"}, {"days": "Sat", "time": "12:00pm"}, {"days": "Sun", "time": "Closed"}], "id": "8142700000", "name": "USPS COLLECTION BOX - PO LOBBY", "address": {"city": "OURAY", "state": "CO", "street": "620 MAIN ST", "postcode": "81427"}}},
{"geometry": {"type": "Point", "coordinates": [-107.6715658756, 38.0229030774]}, "type": "Feature", "properties": {"collection_times": [{"days": "Mon-Fri", "time": "4:00pm"}, {"days": "Sat", "time": "12:00pm"}, {"days": "Sun", "time": "Closed"}], "id": "8142700001", "name": "USPS COLLECTION BOX - BLUE BOX", "address": {"city": "OURAY", "state": "CO", "street": "620 MAIN ST", "postcode": "81427"}}},
{"geometry": {"type": "Point", "coordinates": [-107.6715658756, 38.0229030774]}, "type": "Feature", "properties": {"collection_times": [{"days": "Mon-Fri", "time": "4:00pm"}, {"days": "Sat", "time": "12:00pm"}, {"days": "Sun", "time": "Closed"}], "id": "8142700002", "name": "USPS COLLECTION BOX - PO LOBBY", "address": {"city": "OURAY", "state": "CO", "street": "620 MAIN ST", "postcode": "81427"}}},
{"geometry": {"type": "Point", "coordinates": [-107.5977885976, 38.8660302727]}, "type": "Feature", "properties": {"collection_times": [{"days": "Mon-Fri", "time": "4:15pm"}, {"days": "Sat", "time": "3:00pm"}, {"days": "Sun", "time": "Closed"}], "id": "8142800000", "name": "USPS COLLECTION BOX - BLUE BOX", "address": {"city": "PAONIA", "state": "CO", "street": "125 GRAND AVE", "postcode": "81428"}}},
{"geometry": {"type": "Point", "coordinates": [-107.5920245914, 38.9893236391]}, "type": "Feature", "properties": {"collection_times": [{"days": "Mon-Sat", "time": "10:00am"}, {"days": "Sun", "time": "Closed"}], "id": "8142800001", "name": "USPS COLLECTION BOX - BLUE BOX", "address": {"city": "PAONIA", "state": "CO", "street": "282 HIGHWAY 133", "postcode": "81428"}}},
{"geometry": {"type": "Point", "coordinates": [-107.5977885976, 38.8660302727]}, "type": "Feature", "properties": {"collection_times": [{"days": "Mon-Fri", "time": "4:25pm"}, {"days": "Sat", "time": "3:00pm"}, {"days": "Sun", "time": "Closed"}], "id": "8142800002", "name": "USPS COLLECTION BOX - PO LOBBY", "address": {"city": "PAONIA", "state": "CO", "street": "125 GRAND AVE", "postcode": "81428"}}},
{"geometry": {"type": "Point", "coordinates": [-107.5977885976, 38.8660302727]}, "type": "Feature", "properties": {"collection_times": [{"days": "Mon-Fri", "time": "4:25pm"}, {"days": "Sat", "time": "3:00pm"}, {"days": "Sun", "time": "Closed"}], "id": "8142800003", "name": "USPS COLLECTION BOX - PO LOBBY", "address": {"city": "PAONIA", "state": "CO", "street": "125 GRAND AVE", "postcode": "81428"}}},
{"geometry": {"type": "Point", "coordinates": [-108.9622467068, 38.3855113205]}, "type": "Feature", "properties": {"collection_times": [{"days": "Mon-Fri", "time": "12:30pm"}, {"days": "Sat", "time": "10:30am"}, {"days": "Sun", "time": "Closed"}], "id": "8142900000", "name": "USPS COLLECTION BOX - PO LOBBY", "address": {"city": "PARADOX", "state": "CO", "street": "21395 6.00 RD", "postcode": "81429"}}},
{"geometry": {"type": "Point", "coordinates": [-108.9622467068, 38.3855113205]}, "type": "Feature", "properties": {"collection_times": [{"days": "Mon-Fri", "time": "12:30pm"}, {"days": "Sat", "time": "10:30am"}, {"days": "Sun", "time": "Closed"}], "id": "8142900001", "name": "USPS COLLECTION BOX - PO LOBBY", "address": {"city": "PARADOX", "state": "CO", "street": "21395 6.00 RD", "postcode": "81429"}}},
{"geometry": {"type": "Point", "coordinates": [-108.0512580498, 38.0156861354]}, "type": "Feature", "properties": {"collection_times": [{"days": "Mon-Fri", "time": "3:35pm"}, {"days": "Sat", "time": "11:35am"}, {"days": "Sun", "time": "Closed"}], "id": "8143000000", "name": "USPS COLLECTION BOX - BLUE BOX", "address": {"city": "PLACERVILLE", "state": "CO", "street": "300 FRONT ST", "postcode": "81430"}}},
{"geometry": {"type": "Point", "coordinates": [-108.0512580498, 38.0156861354]}, "type": "Feature", "properties": {"collection_times": [{"days": "Mon-Fri", "time": "3:35pm"}, {"days": "Sat", "time": "11:35am"}, {"days": "Sun", "time": "Closed"}], "id": "8143000001", "name": "USPS COLLECTION BOX - PO LOBBY", "address": {"city": "PLACERVILLE", "state": "CO", "street": "300 FRONT ST", "postcode": "81430"}}},
{"geometry": {"type": "Point", "coordinates": [-108.4174710012, 38.1726622493]}, "type": "Feature", "properties": {"collection_times": [{"days": "Mon-Fri", "time": "1:30pm"}, {"days": "Sat", "time": "10:30am"}, {"days": "Sun", "time": "Closed"}], "id": "8143100000", "name": "USPS COLLECTION BOX - BLUE BOX", "address": {"city": "REDVALE", "state": "CO", "street": "404 REDVALE RD", "postcode": "81431"}}},
{"geometry": {"type": "Point", "coordinates": [-108.4174710012, 38.1726622493]}, "type": "Feature", "properties": {"collection_times": [{"days": "Mon-Fri", "time": "2:00pm"}, {"days": "Sat", "time": "10:50am"}, {"days": "Sun", "time": "Closed"}], "id": "8143100001", "name": "USPS COLLECTION BOX - PO LOBBY", "address": {"city": "REDVALE", "state": "CO", "street": "404 REDVALE RD", "postcode": "81431"}}},
{"geometry": {"type": "Point", "coordinates": [-107.7560103571, 38.1524920104]}, "type": "Feature", "properties": {"collection_times": [{"days": "Mon-Fri", "time": "4:15pm"}, {"days": "Sat", "time": "12:00pm"}, {"days": "Sun", "time": "Closed"}], "id": "8143200000", "name": "USPS COLLECTION BOX - BLUE BOX", "address": {"city": "RIDGWAY", "state": "CO", "street": "485 CLINTON ST", "postcode": "81432"}}},
{"geometry": {"type": "Point", "coordinates": [-107.7560103571, 38.1524920104]}, "type": "Feature", "properties": {"collection_times": [{"days": "Mon-Fri", "time": "4:15pm"}, {"days": "Sat", "time": "12:00pm"}, {"days": "Sun", "time": "Closed"}], "id": "8143200004", "name": "USPS COLLECTION BOX - PO LOBBY", "address": {"city": "RIDGWAY", "state": "CO", "street": "485 CLINTON ST", "postcode": "81432"}}},
{"geometry": {"type": "Point", "coordinates": [-107.8002459472, 38.1865601594]}, "type": "Feature", "properties": {"collection_times": [{"days": "Mon-Sat", "time": "12:00pm"}, {"days": "Sun", "time": "Closed"}], "id": "8143200005", "name": "USPS COLLECTION BOX - BLUE BOX", "address": {"city": "RIDGWAY", "state": "CO", "street": "200 PONDEROSA DR", "postcode": "81432"}}},
{"geometry": {"type": "Point", "coordinates": [-107.7747730636, 38.1133656345]}, "type": "Feature", "properties": {"collection_times": [{"days": "Mon-Sat", "time": "10:30am"}, {"days": "Sun", "time": "Closed"}], "id": "8143200006", "name": "USPS COLLECTION BOX - BLUE BOX", "address": {"city": "RIDGWAY", "state": "CO", "street": "1000 ASPEN DR", "postcode": "81432"}}},
{"geometry": {"type": "Point", "coordinates": [-107.7573498878, 38.146369423]}, "type": "Feature", "properties": {"collection_times": [{"days": "Mon-Sat", "time": "12:30pm"}, {"days": "Sun", "time": "Closed"}], "id": "8143200007", "name": "USPS COLLECTION BOX - BLUE BOX", "address": {"city": "RIDGWAY", "state": "CO", "street": "602 SABETA DR", "postcode": "81432"}}},
{"geometry": {"type": "Point", "coordinates": [-107.6761478512, 37.7640358027]}, "type": "Feature", "properties": {"collection_times": [{"days": "Mon-Fri", "time": "2:15pm"}, {"days": "Sat", "time": "12:45pm"}, {"days": "Sun", "time": "Closed"}], "id": "8143300000", "name": "USPS COLLECTION BOX - BLUE BOX", "address": {"city": "SILVERTON", "state": "CO", "street": "138 W 12TH ST", "postcode": "81433"}}},
{"geometry": {"type": "Point", "coordinates": [-107.6761478512, 37.7640358027]}, "type": "Feature", "properties": {"collection_times": [{"days": "Mon-Fri", "time": "2:15pm"}, {"days": "Sat", "time": "12:45pm"}, {"days": "Sun", "time": "Closed"}], "id": "8143300001", "name": "USPS COLLECTION BOX - PO LOBBY", "address": {"city": "SILVERTON", "state": "CO", "street": "138 W 12TH ST", "postcode": "81433"}}},
{"geometry": {"type": "Point", "coordinates": [-107.6761478512, 37.7640358027]}, "type": "Feature", "properties": {"collection_times": [{"days": "Mon-Fri", "time": "2:15pm"}, {"days": "Sat", "time": "12:45pm"}, {"days": "Sun", "time": "Closed"}], "id": "8143300002", "name": "USPS COLLECTION BOX - PO LOBBY", "address": {"city": "SILVERTON", "state": "CO", "street": "138 W 12TH ST", "postcode": "81433"}}},
{"geometry": {"type": "Point", "coordinates": [-107.4852892078, 38.923560444]}, "type": "Feature", "properties": {"collection_times": [{"days": "Mon-Fri", "time": "3:45pm"}, {"days": "Sat", "time": "12:00pm"}, {"days": "Sun", "time": "Closed"}], "id": "8143400000", "name": "USPS COLLECTION BOX - BLUE BOX", "address": {"city": "SOMERSET", "state": "CO", "street": "3722 HIGHWAY 133", "postcode": "81434"}}},
{"geometry": {"type": "Point", "coordinates": [-107.4852892078, 38.923560444]}, "type": "Feature", "properties": {"collection_times": [{"days": "Mon-Fri", "time": "3:45pm"}, {"days": "Sat", "time": "12:00pm"}, {"days": "Sun", "time": "Closed"}], "id": "8143400001", "name": "USPS COLLECTION BOX - PO LOBBY", "address": {"city": "SOMERSET", "state": "CO", "street": "3722 HIGHWAY 133", "postcode": "81434"}}},
{"geometry": {"type": "Point", "coordinates": [-107.4852892078, 38.923560444]}, "type": "Feature", "properties": {"collection_times": [{"days": "Mon-Fri", "time": "3:45pm"}, {"days": "Sat", "time": "12:00pm"}, {"days": "Sun", "time": "Closed"}], "id": "8143400002", "name": "USPS COLLECTION BOX - PO LOBBY", "address": {"city": "SOMERSET", "state": "CO", "street": "3722 HIGHWAY 133", "postcode": "81434"}}},
{"geometry": {"type": "Point", "coordinates": [-107.8088151617, 37.9363338487]}, "type": "Feature", "properties": {"collection_times": [{"days": "Mon-Fri", "time": "3:15pm"}, {"days": "Sat", "time": "12:00pm"}, {"days": "Sun", "time": "Closed"}], "id": "8143500002", "name": "USPS COLLECTION BOX - PO LOBBY", "address": {"city": "TELLURIDE", "state": "CO", "street": "150 S WILLOW ST", "postcode": "81435"}}},
{"geometry": {"type": "Point", "coordinates": [-107.8088151617, 37.9363338487]}, "type": "Feature", "properties": {"collection_times": [{"days": "Mon-Fri", "time": "3:15pm"}, {"days": "Sat", "time": "12:00pm"}, {"days": "Sun", "time": "Closed"}], "id": "8143500003", "name": "USPS COLLECTION BOX - PO LOBBY", "address": {"city": "TELLURIDE", "state": "CO", "street": "150 S WILLOW ST", "postcode": "81435"}}},
{"geometry": {"type": "Point", "coordinates": [-107.8583703703, 37.9401806825]}, "type": "Feature", "properties": {"collection_times": [{"days": "Mon-Sat", "time": "12:30pm"}, {"days": "Sun", "time": "Closed"}], "id": "8143500006", "name": "USPS COLLECTION BOX - BLUE BOX", "address": {"city": "TELLURIDE", "state": "CO", "street": "330 ADAMS RANCH RD", "postcode": "81435"}}},
{"geometry": {"type": "Point", "coordinates": [-107.8488019676, 37.9342036582]}, "type": "Feature", "properties": {"collection_times": [{"days": "Mon-Sat", "time": "11:00am"}, {"days": "Sun", "time": "Closed"}], "id": "8143500011", "name": "USPS COLLECTION BOX - BLUE BOX", "address": {"city": "TELLURIDE", "state": "CO", "street": "620 MOUNTAIN VILLAGE BLVD", "postcode": "81435"}}},
{"geometry": {"type": "Point", "coordinates": [-107.808668819, 37.9366519914]}, "type": "Feature", "properties": {"collection_times": [{"days": "Mon-Sat", "time": "12:00pm"}, {"days": "Sun", "time": "Closed"}], "id": "8143500012", "name": "USPS COLLECTION BOX - BLUE BOX", "address": {"city": "TELLURIDE", "state": "CO", "street": "305 E COLORADO ST", "postcode": "81435"}}},
{"geometry": {"type": "Point", "coordinates": [-107.8088151617, 37.9363338487]}, "type": "Feature", "properties": {"collection_times": [{"days": "Mon-Fri", "time": "3:05pm"}, {"days": "Sat", "time": "12:00pm"}, {"days": "Sun", "time": "Closed"}], "id": "8143500013", "name": "USPS COLLECTION BOX - BLUE BOX", "address": {"city": "TELLURIDE", "state": "CO", "street": "150 S WILLOW ST", "postcode": "81435"}}},
{"geometry": {"type": "Point", "coordinates": [-107.8198342866, 37.9402808737]}, "type": "Feature", "properties": {"collection_times": [{"days": "Mon-Sat", "time": "12:08pm"}, {"days": "Sun", "time": "Closed"}], "id": "8143500014", "name": "USPS COLLECTION BOX - BLUE BOX", "address": {"city": "TELLURIDE", "state": "CO", "street": "700 W COLORADAO AVE", "postcode": "81435"}}},
{"geometry": {"type": "Point", "coordinates": [-107.8778660195, 37.9467001421]}, "type": "Feature", "properties": {"collection_times": [{"days": "Mon-Sat", "time": "12:00pm"}, {"days": "Sun", "time": "Closed"}], "id": "8143500015", "name": "USPS COLLECTION BOX - BLUE BOX", "address": {"city": "TELLURIDE", "state": "CO", "street": "307 SOCIETY DR", "postcode": "81435"}}},
{"geometry": {"type": "Point", "coordinates": [-107.8739536556, 37.9474476527]}, "type": "Feature", "properties": {"collection_times": [{"days": "Mon-Sat", "time": "12:00pm"}, {"days": "Sun", "time": "Closed"}], "id": "8143500016", "name": "USPS COLLECTION BOX - BLUE BOX", "address": {"city": "TELLURIDE", "state": "CO", "street": "100 SOCIETY DR", "postcode": "81435"}}},
{"geometry": {"type": "Point", "coordinates": [-107.8488019676, 37.9342036582]}, "type": "Feature", "properties": {"collection_times": [{"days": "Mon-Sat", "time": "11:00am"}, {"days": "Sun", "time": "Closed"}], "id": "8143500017", "name": "USPS COLLECTION BOX - BLUE BOX", "address": {"city": "TELLURIDE", "state": "CO", "street": "620 MOUNTAIN VILLAGE BLVD", "postcode": "81435"}}},
{"geometry": {"type": "Point", "coordinates": [-107.8609915488, 37.9337314097]}, "type": "Feature", "properties": {"collection_times": [{"days": "Mon-Sat", "time": "11:00am"}, {"days": "Sun", "time": "Closed"}], "id": "8143500018", "name": "USPS COLLECTION BOX - BLUE BOX", "address": {"city": "TELLURIDE", "state": "CO", "street": "456 MOUNTAIN VILLAGE BLVD", "postcode": "81435"}}}
]}
