{"type": "FeatureCollection", "features": [
{"geometry": {"type": "Point", "coordinates": [-108.5661664421, 39.068980934]}, "type": "Feature", "properties": {"collection_times": [{"days": "Mon-Fri", "time": "5:00pm"}, {"days": "Sat", "time": "1:00pm"}, {"days": "Sun", "time": "Closed"}], "id": "8150100000", "name": "USPS COLLECTION BOX - BLUE BOX", "address": {"city": "GRAND JUNCTION", "state": "CO", "street": "241 N 4TH ST", "postcode": "81501"}}},
{"geometry": {"type": "Point", "coordinates": [-108.5661664421, 39.068980934]}, "type": "Feature", "properties": {"collection_times": [{"days": "Mon-Fri", "time": "5:00pm"}, {"days": "Sat", "time": "1:00pm"}, {"days": "Sun", "time": "Closed"}], "id": "8150100001", "name": "USPS COLLECTION BOX - EXPRESS", "address": {"city": "GRAND JUNCTION", "state": "CO", "street": "241 N 4TH ST", "postcode": "81501"}}},
{"geometry": {"type": "Point", "coordinates": [-108.5486361954, 39.0775014984]}, "type": "Feature", "properties": {"collection_times": [{"days": "Mon-Fri", "time": "3:00pm"}, {"days": "Sat-Sun", "time": "Closed"}], "id": "8150100002", "name": "USPS COLLECTION BOX - EXPRESS", "address": {"city": "GRAND JUNCTION", "state": "CO", "street": "600 ROOD AVE", "postcode": "81501"}}},
{"geometry": {"type": "Point", "coordinates": [-108.5661664421, 39.068980934]}, "type": "Feature", "properties": {"collection_times": [{"days": "Mon-Fri", "time": "5:00pm"}, {"days": "Sat", "time": "1:00pm"}, {"days": "Sun", "time": "Closed"}], "id": "8150100023", "name": "USPS COLLECTION BOX - BLUE BOX", "address": {"city": "GRAND JUNCTION", "state": "CO", "street": "241 N 4TH ST", "postcode": "81501"}}},
{"geometry": {"type": "Point", "coordinates": [-108.5668607119, 39.0673050449]}, "type": "Feature", "properties": {"collection_times": [{"days": "Mon-Fri", "time": "3:00pm"}, {"days": "Sat-Sun", "time": "Closed"}], "id": "8150100024", "name": "USPS COLLECTION BOX - BLUE BOX", "address": {"city": "GRAND JUNCTION", "state": "CO", "street": "355 MAIN ST", "postcode": "81501"}}},
{"geometry": {"type": "Point", "coordinates": [-108.5694615197, 39.070449624]}, "type": "Feature", "properties": {"collection_times": [{"days": "Mon-Fri", "time": "3:00pm"}, {"days": "Sat-Sun", "time": "Closed"}], "id": "8150100037", "name": "USPS COLLECTION BOX - BLUE BOX", "address": {"city": "GRAND JUNCTION", "state": "CO", "street": "202 GRAND AVE", "postcode": "81501"}}},
{"geometry": {"type": "Point", "coordinates": [-108.5694615197, 39.070449624]}, "type": "Feature", "properties": {"collection_times": [{"days": "Mon-Fri", "time": "3:00pm"}, {"days": "Sat-Sun", "time": "Closed"}], "id": "8150100039", "name": "USPS COLLECTION BOX - BLUE BOX", "address": {"city": "GRAND JUNCTION", "state": "CO", "street": "202 GRAND AVE", "postcode": "81501"}}},
{"geometry": {"type": "Point", "coordinates": [-108.5280489001, 39.0774598737]}, "type": "Feature", "properties": {"collection_times": [{"days": "Mon-Fri", "time": "1:00pm"}, {"days": "Sat-Sun", "time": "Closed"}], "id": "8150100043", "name": "USPS COLLECTION BOX - BLUE BOX", "address": {"city": "GRAND JUNCTION", "state": "CO", "street": "2830 NORTH AVE", "postcode": "81501"}}},
{"geometry": {"type": "Point", "coordinates": [-108.5661664421, 39.068980934]}, "type": "Feature", "properties": {"collection_times": [{"days": "Mon-Fri", "time": "5:00pm"}, {"days": "Sat", "time": "1:00pm"}, {"days": "Sun", "time": "Closed"}], "id": "8150100066", "name": "USPS COLLECTION BOX - BLUE BOX", "address": {"city": "GRAND JUNCTION", "state": "CO", "street": "241 N 4TH ST", "postcode": "81501"}}},
{"geometry": {"type": "Point", "coordinates": [-108.5694285067, 39.0683809509]}, "type": "Feature", "properties": {"collection_times": [{"days": "Mon-Fri", "time": "1:00pm"}, {"days": "Sat-Sun", "time": "Closed"}], "id": "8150100067", "name": "USPS COLLECTION BOX - BLUE BOX", "address": {"city": "GRAND JUNCTION", "state": "CO", "street": "200 ROOD AVE", "postcode": "81501"}}},
{"geometry": {"type": "Point", "coordinates": [-108.5371821262, 39.0772579304]}, "type": "Feature", "properties": {"collection_times": [{"days": "Mon-Fri", "time": "1:00pm"}, {"days": "Sat-Sun", "time": "Closed"}], "id": "8150100071", "name": "USPS COLLECTION BOX - BLUE BOX", "address": {"city": "GRAND JUNCTION", "state": "CO", "street": "2401 NORTH AVE", "postcode": "81501"}}},
{"geometry": {"type": "Point", "coordinates": [-108.5592798165, 39.0672722983]}, "type": "Feature", "properties": {"collection_times": [{"days": "Mon-Fri", "time": "1:00pm"}, {"days": "Sat-Sun", "time": "Closed"}], "id": "8150100073", "name": "USPS COLLECTION BOX - BLUE BOX", "address": {"city": "GRAND JUNCTION", "state": "CO", "street": "801 MAIN ST", "postcode": "81501"}}},
{"geometry": {"type": "Point", "coordinates": [-108.5661664421, 39.068980934]}, "type": "Feature", "properties": {"collection_times": [{"days": "Mon-Fri", "time": "5:00pm"}, {"days": "Sat", "time": "1:00pm"}, {"days": "Sun", "time": "Closed"}], "id": "8150100075", "name": "USPS COLLECTION BOX - BLUE BOX", "address": {"city": "GRAND JUNCTION", "state": "CO", "street": "241 N 4TH ST", "postcode": "81501"}}},
{"geometry": {"type": "Point", "coordinates": [-108.5453087545, 39.0872736694]}, "type": "Feature", "properties": {"collection_times": [{"days": "Mon-Fri", "time": "12:00pm"}, {"days": "Sat-Sun", "time": "Closed"}], "id": "8150100077", "name": "USPS COLLECTION BOX - BLUE BOX", "address": {"city": "GRAND JUNCTION", "state": "CO", "street": "2236 N 17TH ST", "postcode": "81501"}}},
{"geometry": {"type": "Point", "coordinates": [-108.5611021644, 39.0869740936]}, "type": "Feature", "properties": {"collection_times": [{"days": "Mon-Fri", "time": "1:00pm"}, {"days": "Sat-Sun", "time": "Closed"}], "id": "8150100080", "name": "USPS COLLECTION BOX - BLUE BOX", "address": {"city": "GRAND JUNCTION", "state": "CO", "street": "2131 N 7TH ST", "postcode": "81501"}}},
{"geometry": {"type": "Point", "coordinates": [-108.5626434516, 39.0660955732]}, "type": "Feature", "properties": {"collection_times": [{"days": "Mon-Fri", "time": "3:00pm"}, {"days": "Sat-Sun", "time": "Closed"}], "id": "8150100083", "name": "USPS COLLECTION BOX - BLUE BOX", "address": {"city": "GRAND JUNCTION", "state": "CO", "street": "222 S 6TH ST", "postcode": "81501"}}},
{"geometry": {"type": "Point", "coordinates": [-108.5626434516, 39.0660955732]}, "type": "Feature", "properties": {"collection_times": [{"days": "Mon-Fri", "time": "3:00pm"}, {"days": "Sat-Sun", "time": "Closed"}], "id": "8150100084", "name": "USPS COLLECTION BOX - BLUE BOX", "address": {"city": "GRAND JUNCTION", "state": "CO", "street": "222 S 6TH ST", "postcode": "81501"}}},
{"geometry": {"type": "Point", "coordinates": [-108.5626434516, 39.0660955732]}, "type": "Feature", "properties": {"collection_times": [{"days": "Mon-Fri", "time": "3:00pm"}, {"days": "Sat-Sun", "time": "Closed"}], "id": "8150100085", "name": "USPS COLLECTION BOX - BLUE BOX", "address": {"city": "GRAND JUNCTION", "state": "CO", "street": "222 S 6TH ST", "postcode": "81501"}}},
{"geometry": {"type": "Point", "coordinates": [-108.5645118927, 39.0685739759]}, "type": "Feature", "properties": {"collection_times": [{"days": "Mon-Fri", "time": "3:00pm"}, {"days": "Sat-Sun", "time": "Closed"}], "id": "8150100088", "name": "USPS COLLECTION BOX - BLUE BOX", "address": {"city": "GRAND JUNCTION", "state": "CO", "street": "225 N 5TH ST", "postcode": "81501"}}},
{"geometry": {"type": "Point", "coordinates": [-108.5645118927, 39.0685739759]}, "type": "Feature", "properties": {"collection_times": [{"days": "Mon-Fri", "time": "3:00pm"}, {"days": "Sat-Sun", "time": "Closed"}], "id": "8150100089", "name": "USPS COLLECTION BOX - BLUE BOX", "address": {"city": "GRAND JUNCTION", "state": "CO", "street": "225 N 5TH ST", "postcode": "81501"}}},
{"geometry": {"type": "Point", "coordinates": [-108.5704824615, 39.0647734951]}, "type": "Feature", "properties": {"collection_times": [{"days": "Mon-Fri", "time": "1:00pm"}, {"days": "Sat-Sun", "time": "Closed"}], "id": "8150100091", "name": "USPS COLLECTION BOX - BLUE BOX", "address": {"city": "GRAND JUNCTION", "state": "CO", "street": "337 S 1ST ST", "postcode": "81501"}}},
{"geometry": {"type": "Point", "coordinates": [-108.5634682979, 39.0692368012]}, "type": "Feature", "properties": {"collection_times": [{"days": "Mon-Fri", "time": "3:00pm"}, {"days": "Sat-Sun", "time": "Closed"}], "id": "8150100092", "name": "USPS COLLECTION BOX - BLUE BOX", "address": {"city": "GRAND JUNCTION", "state": "CO", "street": "559 WHITE AVE", "postcode": "81501"}}},
{"geometry": {"type": "Point", "coordinates": [-108.558254766, 39.090026639]}, "type": "Feature", "properties": {"collection_times": [{"days": "Mon-Fri", "time": "3:00pm"}, {"days": "Sat-Sun", "time": "Closed"}], "id": "8150100093", "name": "USPS COLLECTION BOX - BLUE BOX", "address": {"city": "GRAND JUNCTION", "state": "CO", "street": "790 WELLINGTON AVE", "postcode": "81501"}}},
{"geometry": {"type": "Point", "coordinates": [-108.558254766, 39.090026639]}, "type": "Feature", "properties": {"collection_times": [{"days": "Mon-Fri", "time": "3:00pm"}, {"days": "Sat-Sun", "time": "Closed"}], "id": "8150100094", "name": "USPS COLLECTION BOX - BLUE BOX", "address": {"city": "GRAND JUNCTION", "state": "CO", "street": "790 WELLINGTON AVE", "postcode": "81501"}}},
{"geometry": {"type": "Point", "coordinates": [-108.566164176, 39.0687135537]}, "type": "Feature", "properties": {"collection_times": [{"days": "Mon-Fri", "time": "5:00pm"}, {"days": "Sat", "time": "1:00pm"}, {"days": "Sun", "time": "Closed"}], "id": "8150100096", "name": "USPS COLLECTION BOX - BLUE BOX", "address": {"city": "GRAND JUNCTION", "state": "CO", "street": "241 N 4TH ST", "postcode": "81501"}}},
{"geometry": {"type": "Point", "coordinates": [-108.566164176, 39.0687135537]}, "type": "Feature", "properties": {"collection_times": [{"days": "Mon-Fri", "time": "5:00pm"}, {"days": "Sat", "time": "1:00pm"}, {"days": "Sun", "time": "Closed"}], "id": "8150100097", "name": "USPS COLLECTION BOX - BLUE BOX", "address": {"city": "GRAND JUNCTION", "state": "CO", "street": "241 N 4TH ST", "postcode": "81501"}}},
{"geometry": {"type": "Point", "coordinates": [-108.5541418206, 39.0846749255]}, "type": "Feature", "properties": {"collection_times": [{"days": "Mon-Fri", "time": "3:00pm"}, {"days": "Sat-Sun", "time": "Closed"}], "id": "8150100104", "name": "USPS COLLECTION BOX - BLUE BOX", "address": {"city": "GRAND JUNCTION", "state": "CO", "street": "1060 ORCHARD AVE", "postcode": "81501"}}},
{"geometry": {"type": "Point", "coordinates": [-108.5541418206, 39.0846749255]}, "type": "Feature", "properties": {"collection_times": [{"days": "Mon-Fri", "time": "3:00pm"}, {"days": "Sat-Sun", "time": "Closed"}], "id": "8150100105", "name": "USPS COLLECTION BOX - BLUE BOX", "address": {"city": "GRAND JUNCTION", "state": "CO", "street": "1060 ORCHARD AVE", "postcode": "81501"}}},
{"geometry": {"type": "Point", "coordinates": [-108.5627031104, 39.0683587887]}, "type": "Feature", "properties": {"collection_times": [{"days": "Mon-Fri", "time": "3:00pm"}, {"days": "Sat-Sun", "time": "Closed"}], "id": "8150100106", "name": "USPS COLLECTION BOX - BLUE BOX", "address": {"city": "GRAND JUNCTION", "state": "CO", "street": "600 ROOD AVE", "postcode": "81501"}}},
{"geometry": {"type": "Point", "coordinates": [-108.5708286071, 39.0849863529]}, "type": "Feature", "properties": {"collection_times": [{"days": "Mon-Fri", "time": "1:00pm"}, {"days": "Sat-Sun", "time": "Closed"}], "id": "8150100107", "name": "USPS COLLECTION BOX - BLUE BOX", "address": {"city": "GRAND JUNCTION", "state": "CO", "street": "1938 N 1ST ST", "postcode": "81501"}}},
{"geometry": {"type": "Point", "coordinates": [-108.566164176, 39.0687135537]}, "type": "Feature", "properties": {"collection_times": [{"days": "Mon-Fri", "time": "5:00pm"}, {"days": "Sat", "time": "1:00pm"}, {"days": "Sun", "time": "Closed"}], "id": "8150100110", "name": "USPS COLLECTION BOX - PO LOBBY", "address": {"city": "GRAND JUNCTION", "state": "CO", "street": "241 N 4TH ST", "postcode": "81501"}}},
{"geometry": {"type": "Point", "coordinates": [-108.566164176, 39.0687135537]}, "type": "Feature", "properties": {"collection_times": [{"days": "Mon-Fri", "time": "5:00pm"}, {"days": "Sat", "time": "1:00pm"}, {"days": "Sun", "time": "Closed"}], "id": "8150100111", "name": "USPS COLLECTION BOX - PO LOBBY", "address": {"city": "GRAND JUNCTION", "state": "CO", "street": "241 N 4TH ST", "postcode": "81501"}}},
{"geometry": {"type": "Point", "coordinates": [-108.5186517452, 39.0772122619]}, "type": "Feature", "properties": {"collection_times": [{"days": "Mon-Fri", "time": "1:00pm"}, {"days": "Sat-Sun", "time": "Closed"}], "id": "8150100113", "name": "USPS COLLECTION BOX - BLUE BOX", "address": {"city": "GRAND JUNCTION", "state": "CO", "street": "2881 NORTH AVE", "postcode": "81501"}}},
{"geometry": {"type": "Point", "coordinates": [-108.566164176, 39.0687135537]}, "type": "Feature", "properties": {"collection_times": [{"days": "Mon-Fri", "time": "5:00pm"}, {"days": "Sat", "time": "1:00pm"}, {"days": "Sun", "time": "Closed"}], "id": "8150100114", "name": "USPS COLLECTION BOX - APC", "address": {"city": "GRAND JUNCTION", "state": "CO", "street": "241 N 4TH ST", "postcode": "81501"}}},
{"geometry": {"type": "Point", "coordinates": [-108.5371821262, 39.0772579304]}, "type": "Feature", "properties": {"collection_times": [{"days": "Mon-Fri", "time": "1:00pm"}, {"days": "Sat-Sun", "time": "Closed"}], "id": "8150100115", "name": "USPS COLLECTION BOX - BLUE BOX", "address": {"city": "GRAND JUNCTION", "state": "CO", "street": "2401 NORTH AVE", "postcode": "81501"}}},
{"geometry": {"type": "Point", "coordinates": [-108.5569196371, 39.0412023745]}, "type": "Feature", "properties": {"collection_times": [{"days": "Mon-Fri", "time": "1:00pm"}, {"days": "Sat-Sun", "time": "Closed"}], "id": "8150300001", "name": "USPS COLLECTION BOX - BLUE BOX", "address": {"city": "GRAND JUNCTION", "state": "CO", "street": "2680 B 1/2 RD", "postcode": "81503"}}},
{"geometry": {"type": "Point", "coordinates": [-108.5506564009, 39.0411099368]}, "type": "Feature", "properties": {"collection_times": [{"days": "Mon-Fri", "time": "1:00pm"}, {"days": "Sat-Sun", "time": "Closed"}], "id": "8150300002", "name": "USPS COLLECTION BOX - BLUE BOX", "address": {"city": "GRAND JUNCTION", "state": "CO", "street": "2713 B 1/2 RD", "postcode": "81503"}}},
{"geometry": {"type": "Point", "coordinates": [-108.5450430566, 39.0406546849]}, "type": "Feature", "properties": {"collection_times": [{"days": "Mon-Fri", "time": "1:00pm"}, {"days": "Sat-Sun", "time": "Closed"}], "id": "8150300005", "name": "USPS COLLECTION BOX - BLUE BOX", "address": {"city": "GRAND JUNCTION", "state": "CO", "street": "2686 HIGHWAY 50", "postcode": "81503"}}},
{"geometry": {"type": "Point", "coordinates": [-108.5302504898, 39.0362923522]}, "type": "Feature", "properties": {"collection_times": [{"days": "Mon-Fri", "time": "1:00pm"}, {"days": "Sat-Sun", "time": "Closed"}], "id": "8150300006", "name": "USPS COLLECTION BOX - BLUE BOX", "address": {"city": "GRAND JUNCTION", "state": "CO", "street": "2770 HIGHWAY 50", "postcode": "81503"}}},
{"geometry": {"type": "Point", "coordinates": [-108.5962835295, 39.0647502205]}, "type": "Feature", "properties": {"collection_times": [{"days": "Mon-Fri", "time": "1:00pm"}, {"days": "Sat-Sun", "time": "Closed"}], "id": "8150300007", "name": "USPS COLLECTION BOX - BLUE BOX", "address": {"city": "GRAND JUNCTION", "state": "CO", "street": "2512 BROADWAY", "postcode": "81503"}}},
{"geometry": {"type": "Point", "coordinates": [-108.553079039, 39.0483580505]}, "type": "Feature", "properties": {"collection_times": [{"days": "Mon-Fri", "time": "1:00pm"}, {"days": "Sat-Sun", "time": "Closed"}], "id": "8150300008", "name": "USPS COLLECTION BOX - BLUE BOX", "address": {"city": "GRAND JUNCTION", "state": "CO", "street": "2685 UNAWEEP AVE", "postcode": "81503"}}},
{"geometry": {"type": "Point", "coordinates": [-108.5116442723, 39.0772257742]}, "type": "Feature", "properties": {"collection_times": [{"days": "Mon-Fri", "time": "5:00pm"}, {"days": "Sat", "time": "1:00pm"}, {"days": "Sun", "time": "Closed"}], "id": "8150400000", "name": "USPS COLLECTION BOX - BLUE BOX", "address": {"city": "GRAND JUNCTION", "state": "CO", "street": "2923 NORTH AVE", "postcode": "81504"}}},
{"geometry": {"type": "Point", "coordinates": [-108.5116442723, 39.0772257742]}, "type": "Feature", "properties": {"collection_times": [{"days": "Mon-Fri", "time": "5:00pm"}, {"days": "Sat", "time": "1:00pm"}, {"days": "Sun", "time": "Closed"}], "id": "8150400001", "name": "USPS COLLECTION BOX - BLUE BOX", "address": {"city": "GRAND JUNCTION", "state": "CO", "street": "2923 NORTH AVE", "postcode": "81504"}}},
{"geometry": {"type": "Point", "coordinates": [-108.5146991915, 39.0916959483]}, "type": "Feature", "properties": {"collection_times": [{"days": "Mon-Fri", "time": "1:00pm"}, {"days": "Sat-Sun", "time": "Closed"}], "id": "8150400006", "name": "USPS COLLECTION BOX - BLUE BOX", "address": {"city": "GRAND JUNCTION", "state": "CO", "street": "2901 F RD", "postcode": "81504"}}},
{"geometry": {"type": "Point", "coordinates": [-108.5116442723, 39.0772257742]}, "type": "Feature", "properties": {"collection_times": [{"days": "Mon-Fri", "time": "5:00pm"}, {"days": "Sat", "time": "1:00pm"}, {"days": "Sun", "time": "Closed"}], "id": "8150400007", "name": "USPS COLLECTION BOX - PO LOBBY", "address": {"city": "GRAND JUNCTION", "state": "CO", "street": "2923 NORTH AVE", "postcode": "81504"}}},
{"geometry": {"type": "Point", "coordinates": [-108.4834691525, 39.0970262469]}, "type": "Feature", "properties": {"collection_times": [{"days": "Mon-Fri", "time": "1:00pm"}, {"days": "Sat-Sun", "time": "Closed"}], "id": "8150400009", "name": "USPS COLLECTION BOX - BLUE BOX", "address": {"city": "GRAND JUNCTION", "state": "CO", "street": "569 32 RD", "postcode": "81504"}}},
{"geometry": {"type": "Point", "coordinates": [-108.6016305886, 39.0947358793]}, "type": "Feature", "properties": {"collection_times": [{"days": "Mon-Fri", "time": "3:00pm"}, {"days": "Sat-Sun", "time": "Closed"}], "id": "8150500000", "name": "USPS COLLECTION BOX - BLUE BOX", "address": {"city": "GRAND JUNCTION", "state": "CO", "street": "2424 F RD", "postcode": "81505"}}},
{"geometry": {"type": "Point", "coordinates": [-108.5821114214, 39.0919610563]}, "type": "Feature", "properties": {"collection_times": [{"days": "Mon-Fri", "time": "6:00pm"}, {"days": "Sat", "time": "1:00pm"}, {"days": "Sun", "time": "Closed"}], "id": "8150500004", "name": "USPS COLLECTION BOX - BLUE BOX", "address": {"city": "GRAND JUNCTION", "state": "CO", "street": "602 BURKEY ST", "postcode": "81505"}}},
{"geometry": {"type": "Point", "coordinates": [-108.5821114214, 39.0919610563]}, "type": "Feature", "properties": {"collection_times": [{"days": "Mon-Fri", "time": "6:00pm"}, {"days": "Sat", "time": "1:00pm"}, {"days": "Sun", "time": "Closed"}], "id": "8150500006", "name": "USPS COLLECTION BOX - BLUE BOX", "address": {"city": "GRAND JUNCTION", "state": "CO", "street": "602 BURKEY ST", "postcode": "81505"}}},
{"geometry": {"type": "Point", "coordinates": [-108.5814233466, 39.0810560811]}, "type": "Feature", "properties": {"collection_times": [{"days": "Mon-Fri", "time": "1:00pm"}, {"days": "Sat-Sun", "time": "Closed"}], "id": "8150500007", "name": "USPS COLLECTION BOX - BLUE BOX", "address": {"city": "GRAND JUNCTION", "state": "CO", "street": "1040 INDEPENDENT AVE", "postcode": "81505"}}},
{"geometry": {"type": "Point", "coordinates": [-108.6016305886, 39.0947358793]}, "type": "Feature", "properties": {"collection_times": [{"days": "Mon-Fri", "time": "3:00pm"}, {"days": "Sat-Sun", "time": "Closed"}], "id": "8150500009", "name": "USPS COLLECTION BOX - BLUE BOX", "address": {"city": "GRAND JUNCTION", "state": "CO", "street": "2424 F RD", "postcode": "81505"}}},
{"geometry": {"type": "Point", "coordinates": [-108.5854947423, 39.0875323934]}, "type": "Feature", "properties": {"collection_times": [{"days": "Mon-Fri", "time": "3:00pm"}, {"days": "Sat-Sun", "time": "Closed"}], "id": "8150500010", "name": "USPS COLLECTION BOX - BLUE BOX", "address": {"city": "GRAND JUNCTION", "state": "CO", "street": "573 S COMMERCIAL DR", "postcode": "81505"}}},
{"geometry": {"type": "Point", "coordinates": [-108.598129839, 39.0872250848]}, "type": "Feature", "properties": {"collection_times": [{"days": "Mon-Fri", "time": "3:00pm"}, {"days": "Sat-Sun", "time": "Closed"}], "id": "8150500011", "name": "USPS COLLECTION BOX - BLUE BOX", "address": {"city": "GRAND JUNCTION", "state": "CO", "street": "2452 HIGHWAY 6 50", "postcode": "81505"}}},
{"geometry": {"type": "Point", "coordinates": [-108.598129839, 39.0872250848]}, "type": "Feature", "properties": {"collection_times": [{"days": "Mon-Fri", "time": "3:00pm"}, {"days": "Sat-Sun", "time": "Closed"}], "id": "8150500012", "name": "USPS COLLECTION BOX - BLUE BOX", "address": {"city": "GRAND JUNCTION", "state": "CO", "street": "2452 HIGHWAY 6 50", "postcode": "81505"}}},
{"geometry": {"type": "Point", "coordinates": [-108.593978445, 39.0919384737]}, "type": "Feature", "properties": {"collection_times": [{"days": "Mon-Fri", "time": "1:00pm"}, {"days": "Sat-Sun", "time": "Closed"}], "id": "8150500013", "name": "USPS COLLECTION BOX - BLUE BOX", "address": {"city": "GRAND JUNCTION", "state": "CO", "street": "2478 F RD", "postcode": "81505"}}},
{"geometry": {"type": "Point", "coordinates": [-108.5821114214, 39.0919610563]}, "type": "Feature", "properties": {"collection_times": [{"days": "Mon-Fri", "time": "6:00pm"}, {"days": "Sat", "time": "1:00pm"}, {"days": "Sun", "time": "Closed"}], "id": "8150500014", "name": "USPS COLLECTION BOX - BLUE BOX", "address": {"city": "GRAND JUNCTION", "state": "CO", "street": "602 BURKEY ST", "postcode": "81505"}}},
{"geometry": {"type": "Point", "coordinates": [-108.5702627408, 39.0906563412]}, "type": "Feature", "properties": {"collection_times": [{"days": "Mon-Fri", "time": "1:00pm"}, {"days": "Sat-Sun", "time": "Closed"}], "id": "8150500015", "name": "USPS COLLECTION BOX - BLUE BOX", "address": {"city": "GRAND JUNCTION", "state": "CO", "street": "120 W PARK DR", "postcode": "81505"}}},
{"geometry": {"type": "Point", "coordinates": [-108.5341922236, 39.1130385032]}, "type": "Feature", "properties": {"collection_times": [{"days": "Mon-Fri", "time": "3:00pm"}, {"days": "Sat-Sun", "time": "Closed"}], "id": "8150600001", "name": "USPS COLLECTION BOX - BLUE BOX", "address": {"city": "GRAND JUNCTION", "state": "CO", "street": "743 HORIZON CT", "postcode": "81506"}}},
{"geometry": {"type": "Point", "coordinates": [-108.5597304497, 39.0965419345]}, "type": "Feature", "properties": {"collection_times": [{"days": "Mon-Fri", "time": "1:00pm"}, {"days": "Sat-Sun", "time": "Closed"}], "id": "8150600002", "name": "USPS COLLECTION BOX - BLUE BOX", "address": {"city": "GRAND JUNCTION", "state": "CO", "street": "715 HORIZON DR", "postcode": "81506"}}},
{"geometry": {"type": "Point", "coordinates": [-108.5538717601, 39.0966868143]}, "type": "Feature", "properties": {"collection_times": [{"days": "Mon-Fri", "time": "12:15pm"}, {"days": "Sat-Sun", "time": "Closed"}], "id": "8150600008", "name": "USPS COLLECTION BOX - BLUE BOX", "address": {"city": "GRAND JUNCTION", "state": "CO", "street": "3150 LAKESIDE DR", "postcode": "81506"}}},
{"geometry": {"type": "Point", "coordinates": [-108.5616344166, 39.0911895804]}, "type": "Feature", "properties": {"collection_times": [{"days": "Mon-Fri", "time": "1:00pm"}, {"days": "Sat-Sun", "time": "Closed"}], "id": "8150600009", "name": "USPS COLLECTION BOX - BLUE BOX", "address": {"city": "GRAND JUNCTION", "state": "CO", "street": "2635 N 7TH ST", "postcode": "81506"}}},
{"geometry": {"type": "Point", "coordinates": [-108.5476184719, 39.0950867288]}, "type": "Feature", "properties": {"collection_times": [{"days": "Mon-Fri", "time": "12:00pm"}, {"days": "Sat-Sun", "time": "Closed"}], "id": "8150600010", "name": "USPS COLLECTION BOX - BLUE BOX", "address": {"city": "GRAND JUNCTION", "state": "CO", "street": "3032 N 15TH ST", "postcode": "81506"}}},
{"geometry": {"type": "Point", "coordinates": [-108.559812712, 39.0964973976]}, "type": "Feature", "properties": {"collection_times": [{"days": "Mon-Fri", "time": "3:00pm"}, {"days": "Sat-Sun", "time": "Closed"}], "id": "8150600011", "name": "USPS COLLECTION BOX - BLUE BOX", "address": {"city": "GRAND JUNCTION", "state": "CO", "street": "709 HORIZON DR", "postcode": "81506"}}},
{"geometry": {"type": "Point", "coordinates": [-108.5602537041, 39.0962431188]}, "type": "Feature", "properties": {"collection_times": [{"days": "Mon-Fri", "time": "1:00pm"}, {"days": "Sat-Sun", "time": "Closed"}], "id": "8150600012", "name": "USPS COLLECTION BOX - BLUE BOX", "address": {"city": "GRAND JUNCTION", "state": "CO", "street": "681 HORIZON DR", "postcode": "81506"}}},
{"geometry": {"type": "Point", "coordinates": [-108.5341922236, 39.1130385032]}, "type": "Feature", "properties": {"collection_times": [{"days": "Mon-Fri", "time": "3:00pm"}, {"days": "Sat-Sun", "time": "Closed"}], "id": "8150600013", "name": "USPS COLLECTION BOX - BLUE BOX", "address": {"city": "GRAND JUNCTION", "state": "CO", "street": "743 HORIZON CT", "postcode": "81506"}}},
{"geometry": {"type": "Point", "coordinates": [-108.6506077359, 39.0864988926]}, "type": "Feature", "properties": {"collection_times": [{"days": "Mon-Fri", "time": "12:00pm"}, {"days": "Sat-Sun", "time": "Closed"}], "id": "8150700001", "name": "USPS COLLECTION BOX - BLUE BOX", "address": {"city": "GRAND JUNCTION", "state": "CO", "street": "2148 BROADWAY", "postcode": "81507"}}},
{"geometry": {"type": "Point", "coordinates": [-108.6358595684, 39.0793215297]}, "type": "Feature", "properties": {"collection_times": [{"days": "Mon-Fri", "time": "12:00pm"}, {"days": "Sat-Sun", "time": "Closed"}], "id": "8150700002", "name": "USPS COLLECTION BOX - BLUE BOX", "address": {"city": "GRAND JUNCTION", "state": "CO", "street": "2249 BROADWAY", "postcode": "81507"}}},
{"geometry": {"type": "Point", "coordinates": [-108.6573377184, 39.0530046441]}, "type": "Feature", "properties": {"collection_times": [{"days": "Mon-Fri", "time": "12:15pm"}, {"days": "Sat-Sun", "time": "Closed"}], "id": "8150700003", "name": "USPS COLLECTION BOX - BLUE BOX", "address": {"city": "GRAND JUNCTION", "state": "CO", "street": "9 ARBOR CIR", "postcode": "81507"}}},
{"geometry": {"type": "Point", "coordinates": [-108.4497234573, 39.0918345582]}, "type": "Feature", "properties": {"collection_times": [{"days": "Mon-Fri", "time": "5:00pm"}, {"days": "Sat", "time": "12:00pm"}, {"days": "Sun", "time": "Closed"}], "id": "8152000000", "name": "USPS COLLECTION BOX - BLUE BOX", "address": {"city": "CLIFTON", "state": "CO", "street": "3252 F RD", "postcode": "81520"}}},
{"geometry": {"type": "Point", "coordinates": [-108.4582175623, 39.0824802043]}, "type": "Feature", "properties": {"collection_times": [{"days": "Mon-Sat", "time": "12:00pm"}, {"days": "Sun", "time": "Closed"}], "id": "8152000001", "name": "USPS COLLECTION BOX - BLUE BOX", "address": {"city": "CLIFTON", "state": "CO", "street": "3206 MESA AVE", "postcode": "81520"}}},
{"geometry": {"type": "Point", "coordinates": [-108.4497234573, 39.0918345582]}, "type": "Feature", "properties": {"collection_times": [{"days": "Mon-Fri", "time": "5:00pm"}, {"days": "Sat", "time": "12:00pm"}, {"days": "Sun", "time": "Closed"}], "id": "8152000003", "name": "USPS COLLECTION BOX - PO LOBBY", "address": {"city": "CLIFTON", "state": "CO", "street": "3252 F RD", "postcode": "81520"}}},
{"geometry": {"type": "Point", "coordinates": [-108.4497234573, 39.0918345582]}, "type": "Feature", "properties": {"collection_times": [{"days": "Mon-Fri", "time": "5:00pm"}, {"days": "Sat", "time": "12:00pm"}, {"days": "Sun", "time": "Closed"}], "id": "8152000004", "name": "USPS COLLECTION BOX - BLUE BOX", "address": {"city": "CLIFTON", "state": "CO", "street": "3252 F RD", "postcode": "81520"}}},
{"geometry": {"type": "Point", "coordinates": [-108.7340405648, 39.1590834796]}, "type": "Feature", "properties": {"collection_times": [{"days": "Mon-Fri", "time": "5:00pm"}, {"days": "Sat", "time": "2:45pm"}, {"days": "Sun", "time": "Closed"}], "id": "8152100000", "name": "USPS COLLECTION BOX - BLUE BOX", "address": {"city": "FRUITA", "state": "CO", "street": "113 N PARK SQ", "postcode": "81521"}}},
{"geometry": {"type": "Point", "coordinates": [-108.7348564897, 39.1581052641]}, "type": "Feature", "properties": {"collection_times": [{"days": "Mon-Sat", "time": "2:00pm"}, {"days": "Sun", "time": "Closed"}], "id": "8152100001", "name": "USPS COLLECTION BOX - BLUE BOX", "address": {"city": "FRUITA", "state": "CO", "street": "135 S PLUM ST", "postcode": "81521"}}},
{"geometry": {"type": "Point", "coordinates": [-108.7348568708, 39.1523470787]}, "type": "Feature", "properties": {"collection_times": [{"days": "Mon-Sat", "time": "10:30am"}, {"days": "Sun", "time": "Closed"}], "id": "8152100002", "name": "USPS COLLECTION BOX - BLUE BOX", "address": {"city": "FRUITA", "state": "CO", "street": "456 KOKOPELLI BLVD", "postcode": "81521"}}},
{"geometry": {"type": "Point", "coordinates": [-108.7367040151, 39.1505955809]}, "type": "Feature", "properties": {"collection_times": [{"days": "Mon-Sat", "time": "10:40am"}, {"days": "Sun", "time": "Closed"}], "id": "8152100003", "name": "USPS COLLECTION BOX - BLUE BOX", "address": {"city": "FRUITA", "state": "CO", "street": "551 KOKOPELLI BLVD", "postcode": "81521"}}},
{"geometry": {"type": "Point", "coordinates": [-108.7340405648, 39.1590834796]}, "type": "Feature", "properties": {"collection_times": [{"days": "Mon-Fri", "time": "5:00pm"}, {"days": "Sat", "time": "12:00pm"}, {"days": "Sun", "time": "Closed"}], "id": "8152100004", "name": "USPS COLLECTION BOX - PO LOBBY", "address": {"city": "FRUITA", "state": "CO", "street": "113 N PARK SQ", "postcode": "81521"}}},
{"geometry": {"type": "Point", "coordinates": [-108.941074902, 38.7057453139]}, "type": "Feature", "properties": {"collection_times": [{"days": "Mon-Fri", "time": "4:00pm"}, {"days": "Sat", "time": "11:30am"}, {"days": "Sun", "time": "Closed"}], "id": "8152200000", "name": "USPS COLLECTION BOX - PO LOBBY", "address": {"city": "GATEWAY", "state": "CO", "street": "42700 HIGHWAY 141", "postcode": "81522"}}},
{"geometry": {"type": "Point", "coordinates": [-108.941074902, 38.7057453139]}, "type": "Feature", "properties": {"collection_times": [{"days": "Mon-Fri", "time": "4:00pm"}, {"days": "Sat", "time": "11:30am"}, {"days": "Sun", "time": "Closed"}], "id": "8152200001", "name": "USPS COLLECTION BOX - PO LOBBY", "address": {"city": "GATEWAY", "state": "CO", "street": "42700 HIGHWAY 141", "postcode": "81522"}}},
{"geometry": {"type": "Point", "coordinates": [-108.941074902, 38.7057453139]}, "type": "Feature", "properties": {"collection_times": [{"days": "Mon-Fri", "time": "4:00pm"}, {"days": "Sat", "time": "11:30am"}, {"days": "Sun", "time": "Closed"}], "id": "8152200002", "name": "USPS COLLECTION BOX - BLUE BOX", "address": {"city": "GATEWAY", "state": "CO", "street": "42700 HIGHWAY 141", "postcode": "81522"}}},
{"geometry": {"type": "Point", "coordinates": [-108.8129710485, 39.2073065902]}, "type": "Feature", "properties": {"collection_times": [{"days": "Mon-Fri", "time": "4:30pm"}, {"days": "Sat", "time": "11:30am"}, {"days": "Sun", "time": "Closed"}], "id": "8152400001", "name": "USPS COLLECTION BOX - PO LOBBY", "address": {"city": "LOMA", "state": "CO", "street": "1345 13 RD", "postcode": "81524"}}},
{"geometry": {"type": "Point", "coordinates": [-108.8129710485, 39.2073065902]}, "type": "Feature", "properties": {"collection_times": [{"days": "Mon-Fri", "time": "4:30pm"}, {"days": "Sat", "time": "11:30am"}, {"days": "Sun", "time": "Closed"}], "id": "8152400002", "name": "USPS COLLECTION BOX - BLUE BOX", "address": {"city": "LOMA", "state": "CO", "street": "1345 13 RD", "postcode": "81524"}}},
{"geometry": {"type": "Point", "coordinates": [-108.9501430393, 39.2656577993]}, "type": "Feature", "properties": {"collection_times": [{"days": "Mon-Fri", "time": "4:30pm"}, {"days": "Sat", "time": "11:30am"}, {"days": "Sun", "time": "Closed"}], "id": "8152500000", "name": "USPS COLLECTION BOX - BLUE BOX", "address": {"city": "MACK", "state": "CO", "street": "1021 M.8 RD", "postcode": "81525"}}},
{"geometry": {"type": "Point", "coordinates": [-108.9501430393, 39.2656577993]}, "type": "Feature", "properties": {"collection_times": [{"days": "Mon-Fri", "time": "2:15pm"}, {"days": "Sat", "time": "11:30am"}, {"days": "Sun", "time": "Closed"}], "id": "8152500001", "name": "USPS COLLECTION BOX - PO LOBBY", "address": {"city": "MACK", "state": "CO", "street": "1021 M.8 RD", "postcode": "81525"}}},
{"geometry": {"type": "Point", "coordinates": [-108.9501430393, 39.2656577993]}, "type": "Feature", "properties": {"collection_times": [{"days": "Mon-Fri", "time": "2:15pm"}, {"days": "Sat", "time": "11:30am"}, {"days": "Sun", "time": "Closed"}], "id": "8152500002", "name": "USPS COLLECTION BOX - PO LOBBY", "address": {"city": "MACK", "state": "CO", "street": "1021 M.8 RD", "postcode": "81525"}}},
{"geometry": {"type": "Point", "coordinates": [-108.351171397, 39.104163555]}, "type": "Feature", "properties": {"collection_times": [{"days": "Mon-Sat", "time": "10:00am"}, {"days": "Sun", "time": "Closed"}], "id": "8152600000", "name": "USPS COLLECTION BOX - BLUE BOX", "address": {"city": "PALISADE", "state": "CO", "street": "3781 GRANADA DR", "postcode": "81526"}}},
{"geometry": {"type": "Point", "coordinates": [-108.352311003, 39.110283323]}, "type": "Feature", "properties": {"collection_times": [{"days": "Mon-Fri", "time": "4:15pm"}, {"days": "Sat", "time": "12:00pm"}, {"days": "Sun", "time": "Closed"}], "id": "8152600001", "name": "USPS COLLECTION BOX - BLUE BOX", "address": {"city": "PALISADE", "state": "CO", "street": "201 W THIRD ST", "postcode": "81526"}}},
{"geometry": {"type": "Point", "coordinates": [-108.3521597422, 39.1103650466]}, "type": "Feature", "properties": {"collection_times": [{"days": "Mon-Fri", "time": "4:15pm"}, {"days": "Sat", "time": "12:00pm"}, {"days": "Sun", "time": "Closed"}], "id": "8152600002", "name": "USPS COLLECTION BOX - BLUE BOX", "address": {"city": "PALISADE", "state": "CO", "street": "200 W 3RD ST", "postcode": "81526"}}},
{"geometry": {"type": "Point", "coordinates": [-108.352311003, 39.110283323]}, "type": "Feature", "properties": {"collection_times": [{"days": "Mon-Fri", "time": "4:15pm"}, {"days": "Sat", "time": "12:00pm"}, {"days": "Sun", "time": "Closed"}], "id": "8152600003", "name": "USPS COLLECTION BOX - PO LOBBY", "address": {"city": "PALISADE", "state": "CO", "street": "201 W THIRD ST", "postcode": "81526"}}},
{"geometry": {"type": "Point", "coordinates": [-108.4518293641, 38.9899882373]}, "type": "Feature", "properties": {"collection_times": [{"days": "Mon-Fri", "time": "4:30pm"}, {"days": "Sat", "time": "11:30am"}, {"days": "Sun", "time": "Closed"}], "id": "8152700001", "name": "USPS COLLECTION BOX - PO LOBBY", "address": {"city": "WHITEWATER", "state": "CO", "street": "109 SHORT ST", "postcode": "81527"}}},
{"geometry": {"type": "Point", "coordinates": [-108.4518293641, 38.9899882373]}, "type": "Feature", "properties": {"collection_times": [{"days": "Mon-Fri", "time": "4:30pm"}, {"days": "Sat", "time": "11:30am"}, {"days": "Sun", "time": "Closed"}], "id": "8152700002", "name": "USPS COLLECTION BOX - BLUE BOX", "address": {"city": "WHITEWATER", "state": "CO", "street": "109 SHORT ST", "postcode": "81527"}}},
{"geometry": {"type": "Point", "coordinates": [-108.4518293641, 38.9899882373]}, "type": "Feature", "properties": {"collection_times": [{"days": "Mon-Fri", "time": "4:30pm"}, {"days": "Sat", "time": "11:30am"}, {"days": "Sun", "time": "Closed"}], "id": "8152700003", "name": "USPS COLLECTION BOX - PO LOBBY", "address": {"city": "WHITEWATER", "state": "CO", "street": "109 SHORT ST", "postcode": "81527"}}}
]}
