{"type": "FeatureCollection", "features": [
{"geometry": {"type": "Point", "coordinates": [-107.3250637231, 39.5365200174]}, "type": "Feature", "properties": {"collection_times": [{"days": "Mon-Sat", "time": "4:30pm"}, {"days": "Sun", "time": "Closed"}], "id": "8160100001", "name": "USPS COLLECTION BOX - BLUE BOX", "address": {"city": "GLENWOOD SPGS", "state": "CO", "street": "1605 GRAND AVE", "postcode": "81601"}}},
{"geometry": {"type": "Point", "coordinates": [-107.3201769196, 39.5211557464]}, "type": "Feature", "properties": {"collection_times": [{"days": "Mon-Sat", "time": "4:30pm"}, {"days": "Sun", "time": "Closed"}], "id": "8160100003", "name": "USPS COLLECTION BOX - BLUE BOX", "address": {"city": "GLENWOOD SPGS", "state": "CO", "street": "3010 BLAKE AVE", "postcode": "81601"}}},
{"geometry": {"type": "Point", "coordinates": [-107.3251891167, 39.5299581441]}, "type": "Feature", "properties": {"collection_times": [{"days": "Mon-Sat", "time": "4:30pm"}, {"days": "Sun", "time": "Closed"}], "id": "8160100004", "name": "USPS COLLECTION BOX - BLUE BOX", "address": {"city": "GLENWOOD SPGS", "state": "CO", "street": "2200 GRAND AVE", "postcode": "81601"}}},
{"geometry": {"type": "Point", "coordinates": [-107.3250208076, 39.5396707212]}, "type": "Feature", "properties": {"collection_times": [{"days": "Mon-Fri", "time": "4:15pm"}, {"days": "Sat", "time": "4:30pm"}, {"days": "Sun", "time": "Closed"}], "id": "8160100005", "name": "USPS COLLECTION BOX - BLUE BOX", "address": {"city": "GLENWOOD SPGS", "state": "CO", "street": "1414 GRAND AVE", "postcode": "81601"}}},
{"geometry": {"type": "Point", "coordinates": [-107.3256141822, 39.5467850286]}, "type": "Feature", "properties": {"collection_times": [{"days": "Mon-Sat", "time": "4:30pm"}, {"days": "Sun", "time": "Closed"}], "id": "8160100007", "name": "USPS COLLECTION BOX - BLUE BOX", "address": {"city": "GLENWOOD SPGS", "state": "CO", "street": "315 8TH ST", "postcode": "81601"}}},
{"geometry": {"type": "Point", "coordinates": [-107.343234754, 39.5542975239]}, "type": "Feature", "properties": {"collection_times": [{"days": "Mon-Sat", "time": "4:30pm"}, {"days": "Sun", "time": "Closed"}], "id": "8160100008", "name": "USPS COLLECTION BOX - BLUE BOX", "address": {"city": "GLENWOOD SPGS", "state": "CO", "street": "40 MARKET ST", "postcode": "81601"}}},
{"geometry": {"type": "Point", "coordinates": [-107.3657220227, 39.5617880209]}, "type": "Feature", "properties": {"collection_times": [{"days": "Mon-Sat", "time": "4:30pm"}, {"days": "Sun", "time": "Closed"}], "id": "8160100009", "name": "USPS COLLECTION BOX - BLUE BOX", "address": {"city": "GLENWOOD SPGS", "state": "CO", "street": "51027 HIGHWAY 6 AND 24", "postcode": "81601"}}},
{"geometry": {"type": "Point", "coordinates": [-107.3266654495, 39.5467395999]}, "type": "Feature", "properties": {"collection_times": [{"days": "Mon-Sat", "time": "4:30pm"}, {"days": "Sun", "time": "Closed"}], "id": "8160100010", "name": "USPS COLLECTION BOX - BLUE BOX", "address": {"city": "GLENWOOD SPGS", "state": "CO", "street": "109 8TH ST", "postcode": "81601"}}},
{"geometry": {"type": "Point", "coordinates": [-107.3227535468, 39.5332851873]}, "type": "Feature", "properties": {"collection_times": [{"days": "Mon-Sat", "time": "4:30pm"}, {"days": "Sun", "time": "Closed"}], "id": "8160100014", "name": "USPS COLLECTION BOX - BLUE BOX", "address": {"city": "GLENWOOD SPGS", "state": "CO", "street": "1999 BLAKE AVE", "postcode": "81601"}}},
{"geometry": {"type": "Point", "coordinates": [-107.3260337494, 39.5502245971]}, "type": "Feature", "properties": {"collection_times": [{"days": "Mon-Sat", "time": "10:00am"}, {"days": "Sun", "time": "Closed"}], "id": "8160100015", "name": "USPS COLLECTION BOX - BLUE BOX", "address": {"city": "GLENWOOD SPGS", "state": "CO", "street": "114 6TH ST", "postcode": "81601"}}},
{"geometry": {"type": "Point", "coordinates": [-107.32668, 39.545464]}, "type": "Feature", "properties": {"collection_times": [{"days": "Mon-Sat", "time": "5:30pm"}, {"days": "Sun", "time": "Closed"}], "id": "8160100020", "name": "USPS COLLECTION BOX - EXPRESS", "address": {"city": "GLENWOOD SPGS", "state": "CO", "street": "113 9TH ST", "postcode": "81601"}}},
{"geometry": {"type": "Point", "coordinates": [-107.3244071808, 39.5453862949]}, "type": "Feature", "properties": {"collection_times": [{"days": "Mon-Sat", "time": "5:30pm"}, {"days": "Sun", "time": "Closed"}], "id": "8160100021", "name": "USPS COLLECTION BOX - PO LOBBY", "address": {"city": "GLENWOOD SPGS", "state": "CO", "street": "113 9TH ST", "postcode": "81601"}}},
{"geometry": {"type": "Point", "coordinates": [-107.3244071808, 39.5453862949]}, "type": "Feature", "properties": {"collection_times": [{"days": "Mon-Sat", "time": "5:30pm"}, {"days": "Sun", "time": "Closed"}], "id": "8160100022", "name": "USPS COLLECTION BOX - PO LOBBY", "address": {"city": "GLENWOOD SPGS", "state": "CO", "street": "113 9TH ST", "postcode": "81601"}}},
{"geometry": {"type": "Point", "coordinates": [-107.3244071808, 39.5453862949]}, "type": "Feature", "properties": {"collection_times": [{"days": "Mon-Sat", "time": "5:30pm"}, {"days": "Sun", "time": "Closed"}], "id": "8160100023", "name": "USPS COLLECTION BOX - PO LOBBY", "address": {"city": "GLENWOOD SPGS", "state": "CO", "street": "113 9TH ST", "postcode": "81601"}}},
{"geometry": {"type": "Point", "coordinates": [-107.3348463315, 39.552350454]}, "type": "Feature", "properties": {"collection_times": [{"days": "Mon-Sat", "time": "4:30pm"}, {"days": "Sun", "time": "Closed"}], "id": "8160100024", "name": "USPS COLLECTION BOX - BLUE BOX", "address": {"city": "GLENWOOD SPGS", "state": "CO", "street": "201 CENTENNIAL DR", "postcode": "81601"}}},
{"geometry": {"type": "Point", "coordinates": [-107.325035332, 39.5376071567]}, "type": "Feature", "properties": {"collection_times": [{"days": "Mon-Sat", "time": "4:30pm"}, {"days": "Sun", "time": "Closed"}], "id": "8160100025", "name": "USPS COLLECTION BOX - BLUE BOX", "address": {"city": "GLENWOOD SPGS", "state": "CO", "street": "1512 GRAND AVE", "postcode": "81601"}}},
{"geometry": {"type": "Point", "coordinates": [-107.3252364351, 39.5258804845]}, "type": "Feature", "properties": {"collection_times": [{"days": "Mon-Sat", "time": "4:30pm"}, {"days": "Sun", "time": "Closed"}], "id": "8160100026", "name": "USPS COLLECTION BOX - BLUE BOX", "address": {"city": "GLENWOOD SPGS", "state": "CO", "street": "2520 GRAND AVE", "postcode": "81601"}}},
{"geometry": {"type": "Point", "coordinates": [-107.3244071808, 39.5453862949]}, "type": "Feature", "properties": {"collection_times": [{"days": "Mon-Sat", "time": "5:30pm"}, {"days": "Sun", "time": "Closed"}], "id": "8160100027", "name": "USPS COLLECTION BOX - BLUE BOX", "address": {"city": "GLENWOOD SPGS", "state": "CO", "street": "113 9TH ST", "postcode": "81601"}}},
{"geometry": {"type": "Point", "coordinates": [-109.0096390652, 40.2455762131]}, "type": "Feature", "properties": {"collection_times": [{"days": "Mon-Fri", "time": "2:00pm"}, {"days": "Sat", "time": "10:45am"}, {"days": "Sun", "time": "Closed"}], "id": "8161000000", "name": "USPS COLLECTION BOX - BLUE BOX", "address": {"city": "DINOSAUR", "state": "CO", "street": "114 STEGOSAURUS FWY", "postcode": "81610"}}},
{"geometry": {"type": "Point", "coordinates": [-109.0096390652, 40.2455762131]}, "type": "Feature", "properties": {"collection_times": [{"days": "Mon-Fri", "time": "2:00pm"}, {"days": "Sat", "time": "11:00am"}, {"days": "Sun", "time": "Closed"}], "id": "8161000002", "name": "USPS COLLECTION BOX - PO LOBBY", "address": {"city": "DINOSAUR", "state": "CO", "street": "114 STEGOSAURUS FWY", "postcode": "81610"}}},
{"geometry": {"type": "Point", "coordinates": [-106.8189974267, 39.1935884942]}, "type": "Feature", "properties": {"collection_times": [{"days": "Mon-Fri", "time": "3:00pm"}, {"days": "Sat", "time": "4:00pm"}, {"days": "Sun", "time": "Closed"}], "id": "8161100003", "name": "USPS COLLECTION BOX - BLUE BOX", "address": {"city": "ASPEN", "state": "CO", "street": "235 PUPPY SMITH ST", "postcode": "81611"}}},
{"geometry": {"type": "Point", "coordinates": [-106.8189974267, 39.1935884942]}, "type": "Feature", "properties": {"collection_times": [{"days": "Mon-Fri", "time": "3:00pm"}, {"days": "Sat", "time": "4:00pm"}, {"days": "Sun", "time": "Closed"}], "id": "8161100004", "name": "USPS COLLECTION BOX - BLUE BOX", "address": {"city": "ASPEN", "state": "CO", "street": "235 PUPPY SMITH ST", "postcode": "81611"}}},
{"geometry": {"type": "Point", "coordinates": [-106.8177387584, 39.1903814925]}, "type": "Feature", "properties": {"collection_times": [{"days": "Mon-Fri", "time": "3:00pm"}, {"days": "Sat", "time": "1:00pm"}, {"days": "Sun", "time": "Closed"}], "id": "8161100005", "name": "USPS COLLECTION BOX - BLUE BOX", "address": {"city": "ASPEN", "state": "CO", "street": "506 E MAIN ST", "postcode": "81611"}}},
{"geometry": {"type": "Point", "coordinates": [-106.8166433384, 39.1892837065]}, "type": "Feature", "properties": {"collection_times": [{"days": "Mon-Fri", "time": "3:00pm"}, {"days": "Sat", "time": "1:00pm"}, {"days": "Sun", "time": "Closed"}], "id": "8161100007", "name": "USPS COLLECTION BOX - BLUE BOX", "address": {"city": "ASPEN", "state": "CO", "street": "600 E HOPKINS AVE", "postcode": "81611"}}},
{"geometry": {"type": "Point", "coordinates": [-106.8173641584, 39.1885472178]}, "type": "Feature", "properties": {"collection_times": [{"days": "Mon-Fri", "time": "3:00pm"}, {"days": "Sat", "time": "1:00pm"}, {"days": "Sun", "time": "Closed"}], "id": "8161100008", "name": "USPS COLLECTION BOX - BLUE BOX", "address": {"city": "ASPEN", "state": "CO", "street": "300 S HUNTER ST", "postcode": "81611"}}},
{"geometry": {"type": "Point", "coordinates": [-106.8159288311, 39.1874359246]}, "type": "Feature", "properties": {"collection_times": [{"days": "Mon-Fri", "time": "3:00pm"}, {"days": "Sat", "time": "1:00pm"}, {"days": "Sun", "time": "Closed"}], "id": "8161100009", "name": "USPS COLLECTION BOX - BLUE BOX", "address": {"city": "ASPEN", "state": "CO", "street": "711 E COOPER AVE", "postcode": "81611"}}},
{"geometry": {"type": "Point", "coordinates": [-106.8183953006, 39.1871390019]}, "type": "Feature", "properties": {"collection_times": [{"days": "Mon-Fri", "time": "3:00pm"}, {"days": "Sat", "time": "1:00pm"}, {"days": "Sun", "time": "Closed"}], "id": "8161100010", "name": "USPS COLLECTION BOX - BLUE BOX", "address": {"city": "ASPEN", "state": "CO", "street": "520 E DURANT AVE", "postcode": "81611"}}},
{"geometry": {"type": "Point", "coordinates": [-106.8186307094, 39.1886283473]}, "type": "Feature", "properties": {"collection_times": [{"days": "Mon-Fri", "time": "3:00pm"}, {"days": "Sat", "time": "1:00pm"}, {"days": "Sun", "time": "Closed"}], "id": "8161100011", "name": "USPS COLLECTION BOX - BLUE BOX", "address": {"city": "ASPEN", "state": "CO", "street": "434 E COOPER AVE", "postcode": "81611"}}},
{"geometry": {"type": "Point", "coordinates": [-106.8208523064, 39.1896776319]}, "type": "Feature", "properties": {"collection_times": [{"days": "Mon-Fri", "time": "3:00pm"}, {"days": "Sat", "time": "1:00pm"}, {"days": "Sun", "time": "Closed"}], "id": "8161100012", "name": "USPS COLLECTION BOX - BLUE BOX", "address": {"city": "ASPEN", "state": "CO", "street": "215 S MONARCH ST", "postcode": "81611"}}},
{"geometry": {"type": "Point", "coordinates": [-106.8605866361, 39.218143997]}, "type": "Feature", "properties": {"collection_times": [{"days": "Mon-Fri", "time": "2:00pm"}, {"days": "Sat", "time": "1:00pm"}, {"days": "Sun", "time": "Closed"}], "id": "8161100014", "name": "USPS COLLECTION BOX - BLUE BOX", "address": {"city": "ASPEN", "state": "CO", "street": "119 AABC", "postcode": "81611"}}},
{"geometry": {"type": "Point", "coordinates": [-106.8213941016, 39.1911539647]}, "type": "Feature", "properties": {"collection_times": [{"days": "Mon-Fri", "time": "3:00pm"}, {"days": "Sat", "time": "1:00pm"}, {"days": "Sun", "time": "Closed"}], "id": "8161100016", "name": "USPS COLLECTION BOX - BLUE BOX", "address": {"city": "ASPEN", "state": "CO", "street": "200 E MAIN ST", "postcode": "81611"}}},
{"geometry": {"type": "Point", "coordinates": [-106.8382975517, 39.1909610316]}, "type": "Feature", "properties": {"collection_times": [{"days": "Mon-Fri", "time": "3:00pm"}, {"days": "Sat", "time": "1:00pm"}, {"days": "Sun", "time": "Closed"}], "id": "8161100017", "name": "USPS COLLECTION BOX - BLUE BOX", "address": {"city": "ASPEN", "state": "CO", "street": "405 CASTLE CREEK RD", "postcode": "81611"}}},
{"geometry": {"type": "Point", "coordinates": [-106.8196801597, 39.1890184727]}, "type": "Feature", "properties": {"collection_times": [{"days": "Mon-Fri", "time": "3:00pm"}, {"days": "Sat", "time": "1:00pm"}, {"days": "Sun", "time": "Closed"}], "id": "8161100020", "name": "USPS COLLECTION BOX - BLUE BOX", "address": {"city": "ASPEN", "state": "CO", "street": "401 E HYMAN AVE", "postcode": "81611"}}},
{"geometry": {"type": "Point", "coordinates": [-106.8283789979, 39.1951816273]}, "type": "Feature", "properties": {"collection_times": [{"days": "Mon-Fri", "time": "3:00pm"}, {"days": "Sat", "time": "11:45am"}, {"days": "Sun", "time": "Closed"}], "id": "8161100021", "name": "USPS COLLECTION BOX - EXPRESS", "address": {"city": "ASPEN", "state": "CO", "street": "235 PUPPY SMITH ST", "postcode": "81611"}}},
{"geometry": {"type": "Point", "coordinates": [-106.8664547419, 39.2236133707]}, "type": "Feature", "properties": {"collection_times": [{"days": "Mon-Fri", "time": "2:00pm"}, {"days": "Sat", "time": "1:00pm"}, {"days": "Sun", "time": "Closed"}], "id": "8161100026", "name": "USPS COLLECTION BOX - BLUE BOX", "address": {"city": "ASPEN", "state": "CO", "street": "233 W AIRPORT RD", "postcode": "81611"}}},
{"geometry": {"type": "Point", "coordinates": [-106.8189974267, 39.1935884942]}, "type": "Feature", "properties": {"collection_times": [{"days": "Mon-Fri", "time": "3:00pm"}, {"days": "Sat", "time": "4:00pm"}, {"days": "Sun", "time": "Closed"}], "id": "8161100030", "name": "USPS COLLECTION BOX - PO LOBBY", "address": {"city": "ASPEN", "state": "CO", "street": "235 PUPPY SMITH ST", "postcode": "81611"}}},
{"geometry": {"type": "Point", "coordinates": [-106.8189974267, 39.1935884942]}, "type": "Feature", "properties": {"collection_times": [{"days": "Mon-Fri", "time": "3:00pm"}, {"days": "Sat", "time": "4:00pm"}, {"days": "Sun", "time": "Closed"}], "id": "8161100031", "name": "USPS COLLECTION BOX - PO LOBBY", "address": {"city": "ASPEN", "state": "CO", "street": "235 PUPPY SMITH ST", "postcode": "81611"}}},
{"geometry": {"type": "Point", "coordinates": [-106.8177387584, 39.1903814925]}, "type": "Feature", "properties": {"collection_times": [{"days": "Mon-Fri", "time": "3:00pm"}, {"days": "Sat", "time": "1:00pm"}, {"days": "Sun", "time": "Closed"}], "id": "8161100033", "name": "USPS COLLECTION BOX - BLUE BOX", "address": {"city": "ASPEN", "state": "CO", "street": "506 E MAIN ST", "postcode": "81611"}}},
{"geometry": {"type": "Point", "coordinates": [-106.8189974267, 39.1935884942]}, "type": "Feature", "properties": {"collection_times": [{"days": "Mon-Fri", "time": "3:00pm"}, {"days": "Sat", "time": "4:00pm"}, {"days": "Sun", "time": "Closed"}], "id": "8161100034", "name": "USPS COLLECTION BOX - APC", "address": {"city": "ASPEN", "state": "CO", "street": "235 PUPPY SMITH ST", "postcode": "81611"}}},
{"geometry": {"type": "Point", "coordinates": [-106.8283789979, 39.1951816273]}, "type": "Feature", "properties": {"collection_times": [{"days": "Mon-Fri", "time": "3:00pm"}, {"days": "Sat", "time": "4:00pm"}, {"days": "Sun", "time": "Closed"}], "id": "8161100035", "name": "USPS COLLECTION BOX - PO LOBBY", "address": {"city": "ASPEN", "state": "CO", "street": "235 PUPPY SMITH ST", "postcode": "81611"}}},
{"geometry": {"type": "Point", "coordinates": [-106.9460420408, 39.2112246358]}, "type": "Feature", "properties": {"collection_times": [{"days": "Mon-Fri", "time": "3:00pm"}, {"days": "Sat", "time": "1:00pm"}, {"days": "Sun", "time": "Closed"}], "id": "8161500000", "name": "USPS COLLECTION BOX - BLUE BOX", "address": {"city": "SNOWMASS VILLAGE", "state": "CO", "street": "016 KEARNS RD", "postcode": "81615"}}},
{"geometry": {"type": "Point", "coordinates": [-106.9455768312, 39.2111104175]}, "type": "Feature", "properties": {"collection_times": [{"days": "Mon-Fri", "time": "3:00pm"}, {"days": "Sat", "time": "1:00pm"}, {"days": "Sun", "time": "Closed"}], "id": "8161500002", "name": "USPS COLLECTION BOX - PO LOBBY", "address": {"city": "SNOWMASS VILLAGE", "state": "CO", "street": "016 KEARNS RD", "postcode": "81615"}}},
{"geometry": {"type": "Point", "coordinates": [-106.9455768312, 39.2111104175]}, "type": "Feature", "properties": {"collection_times": [{"days": "Mon-Fri", "time": "3:00pm"}, {"days": "Sat", "time": "1:00pm"}, {"days": "Sun", "time": "Closed"}], "id": "8161500003", "name": "USPS COLLECTION BOX - PO LOBBY", "address": {"city": "SNOWMASS VILLAGE", "state": "CO", "street": "016 KEARNS RD", "postcode": "81615"}}},
{"geometry": {"type": "Point", "coordinates": [-106.5238207481, 39.635750853]}, "type": "Feature", "properties": {"collection_times": [{"days": "Mon-Fri", "time": "3:40pm"}, {"days": "Sat", "time": "12:30pm"}, {"days": "Sun", "time": "Closed"}], "id": "8162000000", "name": "USPS COLLECTION BOX - PO LOBBY", "address": {"city": "AVON", "state": "CO", "street": "111 W BEAVER CREEK BLVD", "postcode": "81620"}}},
{"geometry": {"type": "Point", "coordinates": [-106.5238207481, 39.635750853]}, "type": "Feature", "properties": {"collection_times": [{"days": "Mon-Fri", "time": "3:40pm"}, {"days": "Sat", "time": "12:30pm"}, {"days": "Sun", "time": "Closed"}], "id": "8162000001", "name": "USPS COLLECTION BOX - PO LOBBY", "address": {"city": "AVON", "state": "CO", "street": "111 W BEAVER CREEK BLVD", "postcode": "81620"}}},
{"geometry": {"type": "Point", "coordinates": [-106.5238207481, 39.635750853]}, "type": "Feature", "properties": {"collection_times": [{"days": "Mon-Fri", "time": "3:40pm"}, {"days": "Sat", "time": "12:30pm"}, {"days": "Sun", "time": "Closed"}], "id": "8162000002", "name": "USPS COLLECTION BOX - BLUE BOX", "address": {"city": "AVON", "state": "CO", "street": "111 W BEAVER CREEK BLVD", "postcode": "81620"}}},
{"geometry": {"type": "Point", "coordinates": [-106.5238207481, 39.635750853]}, "type": "Feature", "properties": {"collection_times": [{"days": "Mon-Fri", "time": "3:40pm"}, {"days": "Sat", "time": "12:30pm"}, {"days": "Sun", "time": "Closed"}], "id": "8162000003", "name": "USPS COLLECTION BOX - BLUE BOX", "address": {"city": "AVON", "state": "CO", "street": "111 W BEAVER CREEK BLVD", "postcode": "81620"}}},
{"geometry": {"type": "Point", "coordinates": [-106.5241069527, 39.6362431356]}, "type": "Feature", "properties": {"collection_times": [{"days": "Mon-Fri", "time": "2:25pm"}, {"days": "Sat", "time": "12:30pm"}, {"days": "Sun", "time": "Closed"}], "id": "8162000004", "name": "USPS COLLECTION BOX - EXPRESS", "address": {"city": "AVON", "state": "CO", "street": "111 W BEAVER CREEK BLVD", "postcode": "81620"}}},
{"geometry": {"type": "Point", "coordinates": [-107.0342604696, 39.3688012783]}, "type": "Feature", "properties": {"collection_times": [{"days": "Mon-Sat", "time": "12:00pm"}, {"days": "Sun", "time": "Closed"}], "id": "8162100001", "name": "USPS COLLECTION BOX - BLUE BOX", "address": {"city": "BASALT", "state": "CO", "street": "137 MIDLAND AVE", "postcode": "81621"}}},
{"geometry": {"type": "Point", "coordinates": [-107.037210647, 39.365784911]}, "type": "Feature", "properties": {"collection_times": [{"days": "Mon-Fri", "time": "3:00pm"}, {"days": "Sat", "time": "12:00pm"}, {"days": "Sun", "time": "Closed"}], "id": "8162100002", "name": "USPS COLLECTION BOX - BLUE BOX", "address": {"city": "BASALT", "state": "CO", "street": "12 MIDLAND AVE", "postcode": "81621"}}},
{"geometry": {"type": "Point", "coordinates": [-107.0239259704, 39.369503248]}, "type": "Feature", "properties": {"collection_times": [{"days": "Mon-Fri", "time": "3:00pm"}, {"days": "Sat", "time": "11:45am"}, {"days": "Sun", "time": "Closed"}], "id": "8162100003", "name": "USPS COLLECTION BOX - EXPRESS", "address": {"city": "BASALT", "state": "CO", "street": "12 MIDLAND AVE", "postcode": "81621"}}},
{"geometry": {"type": "Point", "coordinates": [-107.037210647, 39.365784911]}, "type": "Feature", "properties": {"collection_times": [{"days": "Mon-Fri", "time": "3:00pm"}, {"days": "Sat", "time": "12:00pm"}, {"days": "Sun", "time": "Closed"}], "id": "8162100005", "name": "USPS COLLECTION BOX - PO LOBBY", "address": {"city": "BASALT", "state": "CO", "street": "12 MIDLAND AVE", "postcode": "81621"}}},
{"geometry": {"type": "Point", "coordinates": [-107.037210647, 39.365784911]}, "type": "Feature", "properties": {"collection_times": [{"days": "Mon-Fri", "time": "3:00pm"}, {"days": "Sat", "time": "12:00pm"}, {"days": "Sun", "time": "Closed"}], "id": "8162100006", "name": "USPS COLLECTION BOX - PO LOBBY", "address": {"city": "BASALT", "state": "CO", "street": "12 MIDLAND AVE", "postcode": "81621"}}},
{"geometry": {"type": "Point", "coordinates": [-107.037210647, 39.365784911]}, "type": "Feature", "properties": {"collection_times": [{"days": "Mon-Fri", "time": "3:00pm"}, {"days": "Sat", "time": "12:00pm"}, {"days": "Sun", "time": "Closed"}], "id": "8162100007", "name": "USPS COLLECTION BOX - PO LOBBY", "address": {"city": "BASALT", "state": "CO", "street": "12 MIDLAND AVE", "postcode": "81621"}}},
{"geometry": {"type": "Point", "coordinates": [-107.0239259704, 39.369503248]}, "type": "Feature", "properties": {"collection_times": [{"days": "Mon-Fri", "time": "3:00pm"}, {"days": "Sat", "time": "11:45am"}, {"days": "Sun", "time": "Closed"}], "id": "8162100008", "name": "USPS COLLECTION BOX - EXPRESS", "address": {"city": "BASALT", "state": "CO", "street": "12 MIDLAND AVE", "postcode": "81621"}}},
{"geometry": {"type": "Point", "coordinates": [-107.037210647, 39.365784911]}, "type": "Feature", "properties": {"collection_times": [{"days": "Mon-Fri", "time": "3:00pm"}, {"days": "Sat", "time": "12:00pm"}, {"days": "Sun", "time": "Closed"}], "id": "8162100010", "name": "USPS COLLECTION BOX - BLUE BOX", "address": {"city": "BASALT", "state": "CO", "street": "12 MIDLAND AVE", "postcode": "81621"}}},
{"geometry": {"type": "Point", "coordinates": [-107.037210647, 39.365784911]}, "type": "Feature", "properties": {"collection_times": [{"days": "Mon-Fri", "time": "3:00pm"}, {"days": "Sat", "time": "12:00pm"}, {"days": "Sun", "time": "Closed"}], "id": "8162100011", "name": "USPS COLLECTION BOX - BLUE BOX", "address": {"city": "BASALT", "state": "CO", "street": "12 MIDLAND AVE", "postcode": "81621"}}},
{"geometry": {"type": "Point", "coordinates": [-107.0772540597, 39.3757361385]}, "type": "Feature", "properties": {"collection_times": [{"days": "Mon-Fri", "time": "12:00pm"}, {"days": "Sat-Sun", "time": "Closed"}], "id": "8162100012", "name": "USPS COLLECTION BOX - BLUE BOX", "address": {"city": "BASALT", "state": "CO", "street": "1450 E VALLEY RD", "postcode": "81621"}}},
{"geometry": {"type": "Point", "coordinates": [-107.0239259704, 39.369503248]}, "type": "Feature", "properties": {"collection_times": [{"days": "Mon-Sat", "time": "11:00am"}, {"days": "Sun", "time": "Closed"}], "id": "8162100015", "name": "USPS COLLECTION BOX - BLUE BOX", "address": {"city": "BASALT", "state": "CO", "street": "136 EMMA RD", "postcode": "81621"}}},
{"geometry": {"type": "Point", "coordinates": [-107.2145995758, 39.4004943071]}, "type": "Feature", "properties": {"collection_times": [{"days": "Mon-Fri", "time": "3:00pm"}, {"days": "Sat", "time": "2:45pm"}, {"days": "Sun", "time": "Closed"}], "id": "8162300000", "name": "USPS COLLECTION BOX - BLUE BOX", "address": {"city": "CARBONDALE", "state": "CO", "street": "655 MAIN ST", "postcode": "81623"}}},
{"geometry": {"type": "Point", "coordinates": [-107.2204869301, 39.4025143498]}, "type": "Feature", "properties": {"collection_times": [{"days": "Mon-Sat", "time": "11:00am"}, {"days": "Sun", "time": "Closed"}], "id": "8162300002", "name": "USPS COLLECTION BOX - BLUE BOX", "address": {"city": "CARBONDALE", "state": "CO", "street": "1051 HIGHWAY 133", "postcode": "81623"}}},
{"geometry": {"type": "Point", "coordinates": [-107.2376832761, 39.1829584249]}, "type": "Feature", "properties": {"collection_times": [{"days": "Mon-Sat", "time": "10:30am"}, {"days": "Sun", "time": "Closed"}], "id": "8162300003", "name": "USPS COLLECTION BOX - BLUE BOX", "address": {"city": "CARBONDALE", "state": "CO", "street": "292 REDSTONE BLVD", "postcode": "81623"}}},
{"geometry": {"type": "Point", "coordinates": [-107.0869747381, 39.3914000414]}, "type": "Feature", "properties": {"collection_times": [{"days": "Mon-Sat", "time": "11:00am"}, {"days": "Sun", "time": "Closed"}], "id": "8162300004", "name": "USPS COLLECTION BOX - BLUE BOX", "address": {"city": "CARBONDALE", "state": "CO", "street": "250 E VALLEY RD", "postcode": "81623"}}},
{"geometry": {"type": "Point", "coordinates": [-107.2145995758, 39.4004943071]}, "type": "Feature", "properties": {"collection_times": [{"days": "Mon-Fri", "time": "3:00pm"}, {"days": "Sat", "time": "2:45pm"}, {"days": "Sun", "time": "Closed"}], "id": "8162300005", "name": "USPS COLLECTION BOX - BLUE BOX", "address": {"city": "CARBONDALE", "state": "CO", "street": "655 MAIN ST", "postcode": "81623"}}},
{"geometry": {"type": "Point", "coordinates": [-107.2145995758, 39.4004943071]}, "type": "Feature", "properties": {"collection_times": [{"days": "Mon-Fri", "time": "3:00pm"}, {"days": "Sat", "time": "2:45pm"}, {"days": "Sun", "time": "Closed"}], "id": "8162300006", "name": "USPS COLLECTION BOX - PO LOBBY", "address": {"city": "CARBONDALE", "state": "CO", "street": "655 MAIN ST", "postcode": "81623"}}},
{"geometry": {"type": "Point", "coordinates": [-107.1906950212, 39.0702244635]}, "type": "Feature", "properties": {"collection_times": [{"days": "Mon-Sat", "time": "10:00am"}, {"days": "Sun", "time": "Closed"}], "id": "8162300009", "name": "USPS COLLECTION BOX - BLUE BOX", "address": {"city": "CARBONDALE", "state": "CO", "street": "300 W PARK ST", "postcode": "81623"}}},
{"geometry": {"type": "Point", "coordinates": [-107.2145995758, 39.4004943071]}, "type": "Feature", "properties": {"collection_times": [{"days": "Mon-Fri", "time": "3:00pm"}, {"days": "Sat", "time": "2:45pm"}, {"days": "Sun", "time": "Closed"}], "id": "8162300010", "name": "USPS COLLECTION BOX - PO LOBBY", "address": {"city": "CARBONDALE", "state": "CO", "street": "655 MAIN ST", "postcode": "81623"}}},
{"geometry": {"type": "Point", "coordinates": [-107.9608791739, 39.2388357294]}, "type": "Feature", "properties": {"collection_times": [{"days": "Mon-Fri", "time": "4:30pm"}, {"days": "Sat", "time": "12:00pm"}, {"days": "Sun", "time": "Closed"}], "id": "8162400001", "name": "USPS COLLECTION BOX - BLUE BOX", "address": {"city": "COLLBRAN", "state": "CO", "street": "110 MAIN ST", "postcode": "81624"}}},
{"geometry": {"type": "Point", "coordinates": [-107.9608791739, 39.2388357294]}, "type": "Feature", "properties": {"collection_times": [{"days": "Mon-Fri", "time": "4:30pm"}, {"days": "Sat", "time": "12:00pm"}, {"days": "Sun", "time": "Closed"}], "id": "8162400002", "name": "USPS COLLECTION BOX - PO LOBBY", "address": {"city": "COLLBRAN", "state": "CO", "street": "110 MAIN ST", "postcode": "81624"}}},
{"geometry": {"type": "Point", "coordinates": [-107.5544171968, 40.515164135]}, "type": "Feature", "properties": {"collection_times": [{"days": "Mon-Sat", "time": "3:00pm"}, {"days": "Sun", "time": "Closed"}], "id": "8162500000", "name": "USPS COLLECTION BOX - BLUE BOX", "address": {"city": "CRAIG", "state": "CO", "street": "556 PERSHING ST", "postcode": "81625"}}},
{"geometry": {"type": "Point", "coordinates": [-107.5544171968, 40.515164135]}, "type": "Feature", "properties": {"collection_times": [{"days": "Mon-Sat", "time": "3:00pm"}, {"days": "Sun", "time": "Closed"}], "id": "8162500001", "name": "USPS COLLECTION BOX - PO LOBBY", "address": {"city": "CRAIG", "state": "CO", "street": "556 PERSHING ST", "postcode": "81625"}}},
{"geometry": {"type": "Point", "coordinates": [-107.5620462116, 40.5238234791]}, "type": "Feature", "properties": {"collection_times": [{"days": "Mon-Sat", "time": "3:00pm"}, {"days": "Sun", "time": "Closed"}], "id": "8162500002", "name": "USPS COLLECTION BOX - BLUE BOX", "address": {"city": "CRAIG", "state": "CO", "street": "300 W 4TH ST", "postcode": "81625"}}},
{"geometry": {"type": "Point", "coordinates": [-107.5471370808, 40.5142246037]}, "type": "Feature", "properties": {"collection_times": [{"days": "Mon-Sat", "time": "3:00pm"}, {"days": "Sun", "time": "Closed"}], "id": "8162500003", "name": "USPS COLLECTION BOX - BLUE BOX", "address": {"city": "CRAIG", "state": "CO", "street": "11 E VICTORY WAY", "postcode": "81625"}}},
{"geometry": {"type": "Point", "coordinates": [-107.5544171968, 40.515164135]}, "type": "Feature", "properties": {"collection_times": [{"days": "Mon-Sat", "time": "3:00pm"}, {"days": "Sun", "time": "Closed"}], "id": "8162500004", "name": "USPS COLLECTION BOX - BLUE BOX", "address": {"city": "CRAIG", "state": "CO", "street": "556 PERSHING ST", "postcode": "81625"}}},
{"geometry": {"type": "Point", "coordinates": [-108.213785988, 39.332810836]}, "type": "Feature", "properties": {"collection_times": [{"days": "Mon-Fri", "time": "4:30pm"}, {"days": "Sat", "time": "11:30am"}, {"days": "Sun", "time": "Closed"}], "id": "8163000000", "name": "USPS COLLECTION BOX - BLUE BOX", "address": {"city": "DE BEQUE", "state": "CO", "street": "347 MINTER AVE", "postcode": "81630"}}},
{"geometry": {"type": "Point", "coordinates": [-108.213785988, 39.332810836]}, "type": "Feature", "properties": {"collection_times": [{"days": "Mon-Fri", "time": "4:30pm"}, {"days": "Sat", "time": "11:30am"}, {"days": "Sun", "time": "Closed"}], "id": "8163000001", "name": "USPS COLLECTION BOX - PO LOBBY", "address": {"city": "DE BEQUE", "state": "CO", "street": "347 MINTER AVE", "postcode": "81630"}}},
{"geometry": {"type": "Point", "coordinates": [-106.8240927101, 39.6600744753]}, "type": "Feature", "properties": {"collection_times": [{"days": "Mon-Fri", "time": "3:25pm"}, {"days": "Sat", "time": "12:00pm"}, {"days": "Sun", "time": "Closed"}], "id": "8163100000", "name": "USPS COLLECTION BOX - BLUE BOX", "address": {"city": "EAGLE", "state": "CO", "street": "264 CHAMBERS AVE", "postcode": "81631"}}},
{"geometry": {"type": "Point", "coordinates": [-106.8240927101, 39.6600744753]}, "type": "Feature", "properties": {"collection_times": [{"days": "Mon-Fri", "time": "3:25pm"}, {"days": "Sat", "time": "12:00pm"}, {"days": "Sun", "time": "Closed"}], "id": "8163100001", "name": "USPS COLLECTION BOX - PO LOBBY", "address": {"city": "EAGLE", "state": "CO", "street": "264 CHAMBERS AVE", "postcode": "81631"}}},
{"geometry": {"type": "Point", "coordinates": [-106.7100850819, 39.5614538726]}, "type": "Feature", "properties": {"collection_times": [{"days": "Mon-Fri", "time": "3:00pm"}, {"days": "Sat", "time": "12:00pm"}, {"days": "Sun", "time": "Closed"}], "id": "8163100002", "name": "USPS COLLECTION BOX - BLUE BOX", "address": {"city": "EAGLE", "state": "CO", "street": "0103 NE INTERCHANGE DR", "postcode": "81631"}}},
{"geometry": {"type": "Point", "coordinates": [-106.8277405032, 39.6541682211]}, "type": "Feature", "properties": {"collection_times": [{"days": "Mon-Fri", "time": "3:00pm"}, {"days": "Sat", "time": "12:00pm"}, {"days": "Sun", "time": "Closed"}], "id": "8163100003", "name": "USPS COLLECTION BOX - BLUE BOX", "address": {"city": "EAGLE", "state": "CO", "street": "0301 BROADWAY SW", "postcode": "81631"}}},
{"geometry": {"type": "Point", "coordinates": [-106.8240927101, 39.6600744753]}, "type": "Feature", "properties": {"collection_times": [{"days": "Mon-Fri", "time": "3:25pm"}, {"days": "Sat", "time": "12:00pm"}, {"days": "Sun", "time": "Closed"}], "id": "8163100004", "name": "USPS COLLECTION BOX - PO LOBBY", "address": {"city": "EAGLE", "state": "CO", "street": "264 CHAMBERS AVE", "postcode": "81631"}}},
{"geometry": {"type": "Point", "coordinates": [-106.635678004, 39.6354306196]}, "type": "Feature", "properties": {"collection_times": [{"days": "Mon-Fri", "time": "3:00pm"}, {"days": "Sat", "time": "12:00pm"}, {"days": "Sun", "time": "Closed"}], "id": "8163200000", "name": "USPS COLLECTION BOX - BLUE BOX", "address": {"city": "EDWARDS", "state": "CO", "street": "105 EDWARDS VILLAGE BLVD", "postcode": "81632"}}},
{"geometry": {"type": "Point", "coordinates": [-106.6283434127, 39.6547699852]}, "type": "Feature", "properties": {"collection_times": [{"days": "Mon-Sat", "time": "10:00am"}, {"days": "Sun", "time": "Closed"}], "id": "8163200001", "name": "USPS COLLECTION BOX - BLUE BOX", "address": {"city": "EDWARDS", "state": "CO", "street": "4923 LAKE CREEK VILLAGE DR", "postcode": "81632"}}},
{"geometry": {"type": "Point", "coordinates": [-106.635678004, 39.6354306196]}, "type": "Feature", "properties": {"collection_times": [{"days": "Mon-Fri", "time": "3:00pm"}, {"days": "Sat", "time": "12:00pm"}, {"days": "Sun", "time": "Closed"}], "id": "8163200002", "name": "USPS COLLECTION BOX - PO LOBBY", "address": {"city": "EDWARDS", "state": "CO", "street": "105 EDWARDS VILLAGE BLVD", "postcode": "81632"}}},
{"geometry": {"type": "Point", "coordinates": [-106.635678004, 39.6354306196]}, "type": "Feature", "properties": {"collection_times": [{"days": "Mon-Fri", "time": "3:00pm"}, {"days": "Sat", "time": "12:00pm"}, {"days": "Sun", "time": "Closed"}], "id": "8163200003", "name": "USPS COLLECTION BOX - PO LOBBY", "address": {"city": "EDWARDS", "state": "CO", "street": "105 EDWARDS VILLAGE BLVD", "postcode": "81632"}}},
{"geometry": {"type": "Point", "coordinates": [-106.635678004, 39.6354306196]}, "type": "Feature", "properties": {"collection_times": [{"days": "Mon-Fri", "time": "3:00pm"}, {"days": "Sat", "time": "12:00pm"}, {"days": "Sun", "time": "Closed"}], "id": "8163200004", "name": "USPS COLLECTION BOX - PO LOBBY", "address": {"city": "EDWARDS", "state": "CO", "street": "105 EDWARDS VILLAGE BLVD", "postcode": "81632"}}},
{"geometry": {"type": "Point", "coordinates": [-106.635678004, 39.6354306196]}, "type": "Feature", "properties": {"collection_times": [{"days": "Mon-Fri", "time": "3:00pm"}, {"days": "Sat", "time": "12:00pm"}, {"days": "Sun", "time": "Closed"}], "id": "8163200005", "name": "USPS COLLECTION BOX - PO LOBBY", "address": {"city": "EDWARDS", "state": "CO", "street": "105 EDWARDS VILLAGE BLVD", "postcode": "81632"}}},
{"geometry": {"type": "Point", "coordinates": [-106.635678004, 39.6354306196]}, "type": "Feature", "properties": {"collection_times": [{"days": "Mon-Fri", "time": "3:00pm"}, {"days": "Sat", "time": "12:00pm"}, {"days": "Sun", "time": "Closed"}], "id": "8163200006", "name": "USPS COLLECTION BOX - BLUE BOX", "address": {"city": "EDWARDS", "state": "CO", "street": "105  EDWARDS VILLAGE BLVD", "postcode": "81632"}}},
{"geometry": {"type": "Point", "coordinates": [-106.5928554925, 39.6443720801]}, "type": "Feature", "properties": {"collection_times": [{"days": "Mon-Sat", "time": "12:00pm"}, {"days": "Sun", "time": "Closed"}], "id": "8163200007", "name": "USPS COLLECTION BOX - BLUE BOX", "address": {"city": "EDWARDS", "state": "CO", "street": "27 MAIN ST", "postcode": "81632"}}},
{"geometry": {"type": "Point", "coordinates": [-106.6439574166, 39.6288165783]}, "type": "Feature", "properties": {"collection_times": [{"days": "Mon-Sat", "time": "11:30am"}, {"days": "Sun", "time": "Closed"}], "id": "8163200008", "name": "USPS COLLECTION BOX - BLUE BOX", "address": {"city": "EDWARDS", "state": "CO", "street": "360 CARTERVILLE RD", "postcode": "81632"}}},
{"geometry": {"type": "Point", "coordinates": [-108.0513200864, 39.4543457729]}, "type": "Feature", "properties": {"collection_times": [{"days": "Mon-Fri", "time": "3:30pm"}, {"days": "Sat", "time": "11:30am"}, {"days": "Sun", "time": "Closed"}], "id": "8163500005", "name": "USPS COLLECTION BOX - BLUE BOX", "address": {"city": "PARACHUTE", "state": "CO", "street": "120 N RAILROAD AVE", "postcode": "81635"}}},
{"geometry": {"type": "Point", "coordinates": [-108.0243332435, 39.4449093093]}, "type": "Feature", "properties": {"collection_times": [{"days": "Mon-Fri", "time": "12:00pm"}, {"days": "Sat", "time": "11:30am"}, {"days": "Sun", "time": "Closed"}], "id": "8163500009", "name": "USPS COLLECTION BOX - BLUE BOX", "address": {"city": "PARACHUTE", "state": "CO", "street": "71 SIPPRELLE DR", "postcode": "81635"}}},
{"geometry": {"type": "Point", "coordinates": [-108.0513200864, 39.4543457729]}, "type": "Feature", "properties": {"collection_times": [{"days": "Mon-Fri", "time": "3:30pm"}, {"days": "Sat", "time": "11:30am"}, {"days": "Sun", "time": "Closed"}], "id": "8163500010", "name": "USPS COLLECTION BOX - PO LOBBY", "address": {"city": "PARACHUTE", "state": "CO", "street": "120 N RAILROAD AVE", "postcode": "81635"}}},
{"geometry": {"type": "Point", "coordinates": [-108.0513200864, 39.4543457729]}, "type": "Feature", "properties": {"collection_times": [{"days": "Mon-Fri", "time": "3:30pm"}, {"days": "Sat", "time": "11:30am"}, {"days": "Sun", "time": "Closed"}], "id": "8163500011", "name": "USPS COLLECTION BOX - PO LOBBY", "address": {"city": "PARACHUTE", "state": "CO", "street": "120 N RAILROAD AVE", "postcode": "81635"}}},
{"geometry": {"type": "Point", "coordinates": [-106.9474191798, 39.645554606]}, "type": "Feature", "properties": {"collection_times": [{"days": "Mon-Fri", "time": "4:00pm"}, {"days": "Sat", "time": "12:00pm"}, {"days": "Sun", "time": "Closed"}], "id": "8163700000", "name": "USPS COLLECTION BOX - BLUE BOX", "address": {"city": "GYPSUM", "state": "CO", "street": "100 OAKRIDGE CT", "postcode": "81637"}}},
{"geometry": {"type": "Point", "coordinates": [-106.9474191798, 39.645554606]}, "type": "Feature", "properties": {"collection_times": [{"days": "Mon-Fri", "time": "4:00pm"}, {"days": "Sat", "time": "12:00pm"}, {"days": "Sun", "time": "Closed"}], "id": "8163700001", "name": "USPS COLLECTION BOX - PO LOBBY", "address": {"city": "GYPSUM", "state": "CO", "street": "100 OAKRIDGE CT", "postcode": "81637"}}},
{"geometry": {"type": "Point", "coordinates": [-106.9474191798, 39.645554606]}, "type": "Feature", "properties": {"collection_times": [{"days": "Mon-Fri", "time": "4:00pm"}, {"days": "Sat", "time": "12:00pm"}, {"days": "Sun", "time": "Closed"}], "id": "8163700002", "name": "USPS COLLECTION BOX - PO LOBBY", "address": {"city": "GYPSUM", "state": "CO", "street": "100 OAKRIDGE CT", "postcode": "81637"}}},
{"geometry": {"type": "Point", "coordinates": [-107.6416541612, 40.4397955726]}, "type": "Feature", "properties": {"collection_times": [{"days": "Mon-Sat", "time": "1:30pm"}, {"days": "Sun", "time": "Closed"}], "id": "8163800000", "name": "USPS COLLECTION BOX - PO LOBBY", "address": {"city": "HAMILTON", "state": "CO", "street": "17436 S HIGHWAY 13", "postcode": "81638"}}},
{"geometry": {"type": "Point", "coordinates": [-107.6416541612, 40.4397955726]}, "type": "Feature", "properties": {"collection_times": [{"days": "Mon-Sat", "time": "1:30pm"}, {"days": "Sun", "time": "Closed"}], "id": "8163800001", "name": "USPS COLLECTION BOX - PO LOBBY", "address": {"city": "HAMILTON", "state": "CO", "street": "17436 S HIGHWAY 13", "postcode": "81638"}}},
{"geometry": {"type": "Point", "coordinates": [-107.2663603302, 40.493927344]}, "type": "Feature", "properties": {"collection_times": [{"days": "Mon-Fri", "time": "3:00pm"}, {"days": "Sat", "time": "12:30pm"}, {"days": "Sun", "time": "Closed"}], "id": "8163900001", "name": "USPS COLLECTION BOX - PO LOBBY", "address": {"city": "HAYDEN", "state": "CO", "street": "850 W JEFFERSON AVE", "postcode": "81639"}}},
{"geometry": {"type": "Point", "coordinates": [-107.2663603302, 40.493927344]}, "type": "Feature", "properties": {"collection_times": [{"days": "Mon-Fri", "time": "3:00pm"}, {"days": "Sat", "time": "12:30pm"}, {"days": "Sun", "time": "Closed"}], "id": "8163900002", "name": "USPS COLLECTION BOX - PO LOBBY", "address": {"city": "HAYDEN", "state": "CO", "street": "850 W JEFFERSON AVE", "postcode": "81639"}}},
{"geometry": {"type": "Point", "coordinates": [-107.2663603302, 40.493927344]}, "type": "Feature", "properties": {"collection_times": [{"days": "Mon-Fri", "time": "3:00pm"}, {"days": "Sat", "time": "12:30pm"}, {"days": "Sun", "time": "Closed"}], "id": "8163900006", "name": "USPS COLLECTION BOX - BLUE BOX", "address": {"city": "HAYDEN", "state": "CO", "street": "850 W JEFFERSON AVE", "postcode": "81639"}}},
{"geometry": {"type": "Point", "coordinates": [-108.0854560923, 40.5171691902]}, "type": "Feature", "properties": {"collection_times": [{"days": "Mon-Sat", "time": "10:30am"}, {"days": "Sun", "time": "Closed"}], "id": "8164000001", "name": "USPS COLLECTION BOX - PO LOBBY", "address": {"city": "MAYBELL", "state": "CO", "street": "200 COLLUM ST", "postcode": "81640"}}},
{"geometry": {"type": "Point", "coordinates": [-107.9139461629, 40.0380199953]}, "type": "Feature", "properties": {"collection_times": [{"days": "Mon-Fri", "time": "4:00pm"}, {"days": "Sat", "time": "11:45am"}, {"days": "Sun", "time": "Closed"}], "id": "8164100000", "name": "USPS COLLECTION BOX - BLUE BOX", "address": {"city": "MEEKER", "state": "CO", "street": "365 6TH ST", "postcode": "81641"}}},
{"geometry": {"type": "Point", "coordinates": [-107.9139461629, 40.0380199953]}, "type": "Feature", "properties": {"collection_times": [{"days": "Mon-Fri", "time": "4:00pm"}, {"days": "Sat", "time": "12:00pm"}, {"days": "Sun", "time": "Closed"}], "id": "8164100001", "name": "USPS COLLECTION BOX - PO LOBBY", "address": {"city": "MEEKER", "state": "CO", "street": "365 6TH ST", "postcode": "81641"}}},
{"geometry": {"type": "Point", "coordinates": [-107.9139461629, 40.0380199953]}, "type": "Feature", "properties": {"collection_times": [{"days": "Mon-Fri", "time": "4:00pm"}, {"days": "Sat", "time": "12:00pm"}, {"days": "Sun", "time": "Closed"}], "id": "8164100002", "name": "USPS COLLECTION BOX - PO LOBBY", "address": {"city": "MEEKER", "state": "CO", "street": "365 6TH ST", "postcode": "81641"}}},
{"geometry": {"type": "Point", "coordinates": [-106.5716693644, 39.3243390619]}, "type": "Feature", "properties": {"collection_times": [{"days": "Mon-Sat", "time": "11:30am"}, {"days": "Sun", "time": "Closed"}], "id": "8164200000", "name": "USPS COLLECTION BOX - BLUE BOX", "address": {"city": "MEREDITH", "state": "CO", "street": "22971 FRYING PAN RD", "postcode": "81642"}}},
{"geometry": {"type": "Point", "coordinates": [-106.5716693644, 39.3243390619]}, "type": "Feature", "properties": {"collection_times": [{"days": "Mon-Sat", "time": "11:30am"}, {"days": "Sun", "time": "Closed"}], "id": "8164200001", "name": "USPS COLLECTION BOX - PO LOBBY", "address": {"city": "MEREDITH", "state": "CO", "street": "22971 FRYING PAN RD", "postcode": "81642"}}},
{"geometry": {"type": "Point", "coordinates": [-108.1384043784, 39.1662991215]}, "type": "Feature", "properties": {"collection_times": [{"days": "Mon-Fri", "time": "4:30pm"}, {"days": "Sat", "time": "11:30am"}, {"days": "Sun", "time": "Closed"}], "id": "8164300000", "name": "USPS COLLECTION BOX - PO LOBBY", "address": {"city": "MESA", "state": "CO", "street": "49012 KE RD", "postcode": "81643"}}},
{"geometry": {"type": "Point", "coordinates": [-106.430076964, 39.5864089935]}, "type": "Feature", "properties": {"collection_times": [{"days": "Mon-Fri", "time": "3:00pm"}, {"days": "Sat", "time": "11:00am"}, {"days": "Sun", "time": "Closed"}], "id": "8164500000", "name": "USPS COLLECTION BOX - PO LOBBY", "address": {"city": "MINTURN", "state": "CO", "street": "301 BOULDER ST", "postcode": "81645"}}},
{"geometry": {"type": "Point", "coordinates": [-106.430076964, 39.5864089935]}, "type": "Feature", "properties": {"collection_times": [{"days": "Mon-Fri", "time": "3:00pm"}, {"days": "Sat", "time": "11:00am"}, {"days": "Sun", "time": "Closed"}], "id": "8164500001", "name": "USPS COLLECTION BOX - PO LOBBY", "address": {"city": "MINTURN", "state": "CO", "street": "301 BOULDER ST", "postcode": "81645"}}},
{"geometry": {"type": "Point", "coordinates": [-106.430076964, 39.5864089935]}, "type": "Feature", "properties": {"collection_times": [{"days": "Mon-Fri", "time": "3:00pm"}, {"days": "Sat", "time": "11:00am"}, {"days": "Sun", "time": "Closed"}], "id": "8164500002", "name": "USPS COLLECTION BOX - PO LOBBY", "address": {"city": "MINTURN", "state": "CO", "street": "301 BOULDER ST", "postcode": "81645"}}},
{"geometry": {"type": "Point", "coordinates": [-108.060431106, 39.188484081]}, "type": "Feature", "properties": {"collection_times": [{"days": "Mon-Fri", "time": "4:30pm"}, {"days": "Sat", "time": "11:30am"}, {"days": "Sun", "time": "Closed"}], "id": "8164600000", "name": "USPS COLLECTION BOX - BLUE BOX", "address": {"city": "MOLINA", "state": "CO", "street": "53169 KE RD", "postcode": "81646"}}},
{"geometry": {"type": "Point", "coordinates": [-108.060431106, 39.188484081]}, "type": "Feature", "properties": {"collection_times": [{"days": "Mon-Fri", "time": "11:45am"}, {"days": "Sat", "time": "11:50am"}, {"days": "Sun", "time": "Closed"}], "id": "8164600001", "name": "USPS COLLECTION BOX - PO LOBBY", "address": {"city": "MOLINA", "state": "CO", "street": "53169 KE RD", "postcode": "81646"}}},
{"geometry": {"type": "Point", "coordinates": [-107.531991637, 39.5714800037]}, "type": "Feature", "properties": {"collection_times": [{"days": "Mon-Fri", "time": "4:30pm"}, {"days": "Sat", "time": "11:30am"}, {"days": "Sun", "time": "Closed"}], "id": "8164700001", "name": "USPS COLLECTION BOX - PO LOBBY", "address": {"city": "NEW CASTLE", "state": "CO", "street": "112 W MAIN ST", "postcode": "81647"}}},
{"geometry": {"type": "Point", "coordinates": [-107.5142543503, 39.5693601413]}, "type": "Feature", "properties": {"collection_times": [{"days": "Mon-Sat", "time": "12:10pm"}, {"days": "Sun", "time": "Closed"}], "id": "8164700002", "name": "USPS COLLECTION BOX - BLUE BOX", "address": {"city": "NEW CASTLE", "state": "CO", "street": "850 CASTLE VALLEY BLVD", "postcode": "81647"}}},
{"geometry": {"type": "Point", "coordinates": [-107.5189991987, 39.5687804914]}, "type": "Feature", "properties": {"collection_times": [{"days": "Mon-Sat", "time": "10:30am"}, {"days": "Sun", "time": "Closed"}], "id": "8164700003", "name": "USPS COLLECTION BOX - BLUE BOX", "address": {"city": "NEW CASTLE", "state": "CO", "street": "791 BURNING MOUNTAIN AVE", "postcode": "81647"}}},
{"geometry": {"type": "Point", "coordinates": [-107.542339726, 39.5672852051]}, "type": "Feature", "properties": {"collection_times": [{"days": "Mon-Sat", "time": "12:00pm"}, {"days": "Sun", "time": "Closed"}], "id": "8164700004", "name": "USPS COLLECTION BOX - BLUE BOX", "address": {"city": "NEW CASTLE", "state": "CO", "street": "5033 CO RD 335", "postcode": "81647"}}},
{"geometry": {"type": "Point", "coordinates": [-108.7991844197, 40.0874624507]}, "type": "Feature", "properties": {"collection_times": [{"days": "Mon-Fri", "time": "3:00pm"}, {"days": "Sat", "time": "11:45am"}, {"days": "Sun", "time": "Closed"}], "id": "8164800000", "name": "USPS COLLECTION BOX - BLUE BOX", "address": {"city": "RANGELY", "state": "CO", "street": "104 S BIRCH AVE", "postcode": "81648"}}},
{"geometry": {"type": "Point", "coordinates": [-108.7991844197, 40.0874624507]}, "type": "Feature", "properties": {"collection_times": [{"days": "Mon-Fri", "time": "3:00pm"}, {"days": "Sat", "time": "11:45am"}, {"days": "Sun", "time": "Closed"}], "id": "8164800001", "name": "USPS COLLECTION BOX - PO LOBBY", "address": {"city": "RANGELY", "state": "CO", "street": "104 S BIRCH AVE", "postcode": "81648"}}},
{"geometry": {"type": "Point", "coordinates": [-108.7991844197, 40.0874624507]}, "type": "Feature", "properties": {"collection_times": [{"days": "Mon-Fri", "time": "3:00pm"}, {"days": "Sat", "time": "11:45am"}, {"days": "Sun", "time": "Closed"}], "id": "8164800002", "name": "USPS COLLECTION BOX - PO LOBBY", "address": {"city": "RANGELY", "state": "CO", "street": "104 S BIRCH AVE", "postcode": "81648"}}},
{"geometry": {"type": "Point", "coordinates": [-106.368103095, 39.5130750167]}, "type": "Feature", "properties": {"collection_times": [{"days": "Mon-Fri", "time": "3:00pm"}, {"days": "Sat", "time": "11:30am"}, {"days": "Sun", "time": "Closed"}], "id": "8164900001", "name": "USPS COLLECTION BOX - PO LOBBY", "address": {"city": "REDCLIFF", "state": "CO", "street": "102 WATER ST", "postcode": "81649"}}},
{"geometry": {"type": "Point", "coordinates": [-106.368103095, 39.5130750167]}, "type": "Feature", "properties": {"collection_times": [{"days": "Mon-Fri", "time": "3:00pm"}, {"days": "Sat", "time": "11:30am"}, {"days": "Sun", "time": "Closed"}], "id": "8164900002", "name": "USPS COLLECTION BOX - BLUE BOX", "address": {"city": "REDCLIFF", "state": "CO", "street": "102 WATER ST", "postcode": "81649"}}},
{"geometry": {"type": "Point", "coordinates": [-107.7750863308, 39.5336900566]}, "type": "Feature", "properties": {"collection_times": [{"days": "Mon-Sat", "time": "11:00am"}, {"days": "Sun", "time": "Closed"}], "id": "8165000000", "name": "USPS COLLECTION BOX - BLUE BOX", "address": {"city": "RIFLE", "state": "CO", "street": "525 ASPEN AVE", "postcode": "81650"}}},
{"geometry": {"type": "Point", "coordinates": [-107.7759300748, 39.5312800402]}, "type": "Feature", "properties": {"collection_times": [{"days": "Mon-Sat", "time": "11:00am"}, {"days": "Sun", "time": "Closed"}], "id": "8165000001", "name": "USPS COLLECTION BOX - BLUE BOX", "address": {"city": "RIFLE", "state": "CO", "street": "250 UTE AVE", "postcode": "81650"}}},
{"geometry": {"type": "Point", "coordinates": [-107.7834106377, 39.5418303202]}, "type": "Feature", "properties": {"collection_times": [{"days": "Mon-Sat", "time": "10:00am"}, {"days": "Sun", "time": "Closed"}], "id": "8165000005", "name": "USPS COLLECTION BOX - BLUE BOX", "address": {"city": "RIFLE", "state": "CO", "street": "1320 RAILROAD AVE", "postcode": "81650"}}},
{"geometry": {"type": "Point", "coordinates": [-107.7832446575, 39.5319054194]}, "type": "Feature", "properties": {"collection_times": [{"days": "Mon-Fri", "time": "5:00pm"}, {"days": "Sat", "time": "3:30pm"}, {"days": "Sun", "time": "Closed"}], "id": "8165000006", "name": "USPS COLLECTION BOX - BLUE BOX", "address": {"city": "RIFLE", "state": "CO", "street": "330 RAILROAD AVE", "postcode": "81650"}}},
{"geometry": {"type": "Point", "coordinates": [-107.7517332749, 39.5351060658]}, "type": "Feature", "properties": {"collection_times": [{"days": "Mon-Sat", "time": "9:00am"}, {"days": "Sun", "time": "Closed"}], "id": "8165000007", "name": "USPS COLLECTION BOX - BLUE BOX", "address": {"city": "RIFLE", "state": "CO", "street": "27653 HIGHWAY 6", "postcode": "81650"}}},
{"geometry": {"type": "Point", "coordinates": [-107.7837920695, 39.5479567138]}, "type": "Feature", "properties": {"collection_times": [{"days": "Mon-Sat", "time": "12:00pm"}, {"days": "Sun", "time": "Closed"}], "id": "8165000009", "name": "USPS COLLECTION BOX - BLUE BOX", "address": {"city": "RIFLE", "state": "CO", "street": "200 W 20TH ST", "postcode": "81650"}}},
{"geometry": {"type": "Point", "coordinates": [-107.7832446575, 39.5319054194]}, "type": "Feature", "properties": {"collection_times": [{"days": "Mon-Fri", "time": "5:00pm"}, {"days": "Sat", "time": "3:30pm"}, {"days": "Sun", "time": "Closed"}], "id": "8165000010", "name": "USPS COLLECTION BOX - BLUE BOX", "address": {"city": "RIFLE", "state": "CO", "street": "330 RAILROAD AVE", "postcode": "81650"}}},
{"geometry": {"type": "Point", "coordinates": [-107.7832446575, 39.5319054194]}, "type": "Feature", "properties": {"collection_times": [{"days": "Mon-Fri", "time": "5:00pm"}, {"days": "Sat", "time": "3:30pm"}, {"days": "Sun", "time": "Closed"}], "id": "8165000011", "name": "USPS COLLECTION BOX - BLUE BOX", "address": {"city": "RIFLE", "state": "CO", "street": "330 RAILROAD AVE", "postcode": "81650"}}},
{"geometry": {"type": "Point", "coordinates": [-107.7831995076, 39.5313549526]}, "type": "Feature", "properties": {"collection_times": [{"days": "Mon-Fri", "time": "5:00pm"}, {"days": "Sat", "time": "3:30pm"}, {"days": "Sun", "time": "Closed"}], "id": "8165000012", "name": "USPS COLLECTION BOX - PO LOBBY", "address": {"city": "RIFLE", "state": "CO", "street": "330 RAILROAD AVE", "postcode": "81650"}}},
{"geometry": {"type": "Point", "coordinates": [-107.7673779949, 39.5230638592]}, "type": "Feature", "properties": {"collection_times": [{"days": "Mon-Sat", "time": "10:00am"}, {"days": "Sun", "time": "Closed"}], "id": "8165000016", "name": "USPS COLLECTION BOX - BLUE BOX", "address": {"city": "RIFLE", "state": "CO", "street": "1000 AIRPORT RD", "postcode": "81650"}}},
{"geometry": {"type": "Point", "coordinates": [-107.7831995076, 39.5313549526]}, "type": "Feature", "properties": {"collection_times": [{"days": "Mon-Fri", "time": "5:00pm"}, {"days": "Sat", "time": "3:30pm"}, {"days": "Sun", "time": "Closed"}], "id": "8165000019", "name": "USPS COLLECTION BOX - PO LOBBY", "address": {"city": "RIFLE", "state": "CO", "street": "330 RAILROAD AVE", "postcode": "81650"}}},
{"geometry": {"type": "Point", "coordinates": [-107.642000906, 39.5460558497]}, "type": "Feature", "properties": {"collection_times": [{"days": "Mon-Fri", "time": "4:30pm"}, {"days": "Sat", "time": "12:00pm"}, {"days": "Sun", "time": "Closed"}], "id": "8165200004", "name": "USPS COLLECTION BOX - BLUE BOX", "address": {"city": "SILT", "state": "CO", "street": "116 LYON BLVD", "postcode": "81652"}}},
{"geometry": {"type": "Point", "coordinates": [-107.642000906, 39.5460558497]}, "type": "Feature", "properties": {"collection_times": [{"days": "Mon-Fri", "time": "4:30pm"}, {"days": "Sat", "time": "12:00pm"}, {"days": "Sun", "time": "Closed"}], "id": "8165200005", "name": "USPS COLLECTION BOX - BLUE BOX", "address": {"city": "SILT", "state": "CO", "street": "116 LYON BLVD", "postcode": "81652"}}},
{"geometry": {"type": "Point", "coordinates": [-107.642000906, 39.5460558497]}, "type": "Feature", "properties": {"collection_times": [{"days": "Mon-Fri", "time": "5:00pm"}, {"days": "Sat", "time": "12:00pm"}, {"days": "Sun", "time": "Closed"}], "id": "8165200006", "name": "USPS COLLECTION BOX - PO LOBBY", "address": {"city": "SILT", "state": "CO", "street": "116 LYON BLVD", "postcode": "81652"}}},
{"geometry": {"type": "Point", "coordinates": [-107.642000906, 39.5460558497]}, "type": "Feature", "properties": {"collection_times": [{"days": "Mon-Fri", "time": "5:00pm"}, {"days": "Sat", "time": "12:00pm"}, {"days": "Sun", "time": "Closed"}], "id": "8165200007", "name": "USPS COLLECTION BOX - PO LOBBY", "address": {"city": "SILT", "state": "CO", "street": "116 LYON BLVD", "postcode": "81652"}}},
{"geometry": {"type": "Point", "coordinates": [-107.642000906, 39.5460558497]}, "type": "Feature", "properties": {"collection_times": [{"days": "Mon-Fri", "time": "5:00pm"}, {"days": "Sat", "time": "12:00pm"}, {"days": "Sun", "time": "Closed"}], "id": "8165200009", "name": "USPS COLLECTION BOX - PO LOBBY", "address": {"city": "SILT", "state": "CO", "street": "116 LYON BLVD", "postcode": "81652"}}},
{"geometry": {"type": "Point", "coordinates": [-107.3523806775, 40.9995668505]}, "type": "Feature", "properties": {"collection_times": [{"days": "Mon-Fri", "time": "12:50pm"}, {"days": "Sat", "time": "9:50am"}, {"days": "Sun", "time": "Closed"}], "id": "8165300000", "name": "USPS COLLECTION BOX - BLUE BOX", "address": {"city": "SLATER", "state": "CO", "street": "681 COUNTY ROAD 129", "postcode": "81653"}}},
{"geometry": {"type": "Point", "coordinates": [-107.3523806775, 40.9995668505]}, "type": "Feature", "properties": {"collection_times": [{"days": "Mon-Fri", "time": "1:10pm"}, {"days": "Sat", "time": "9:50am"}, {"days": "Sun", "time": "Closed"}], "id": "8165300001", "name": "USPS COLLECTION BOX - PO LOBBY", "address": {"city": "SLATER", "state": "CO", "street": "681 COUNTY ROAD 129", "postcode": "81653"}}},
{"geometry": {"type": "Point", "coordinates": [-106.9831684719, 39.3305361047]}, "type": "Feature", "properties": {"collection_times": [{"days": "Mon-Fri", "time": "3:00pm"}, {"days": "Sat", "time": "11:30am"}, {"days": "Sun", "time": "Closed"}], "id": "8165400000", "name": "USPS COLLECTION BOX - PO LOBBY", "address": {"city": "SNOWMASS", "state": "CO", "street": "26900 HIGHWAY 82", "postcode": "81654"}}},
{"geometry": {"type": "Point", "coordinates": [-106.9831684719, 39.3305361047]}, "type": "Feature", "properties": {"collection_times": [{"days": "Mon-Fri", "time": "3:00pm"}, {"days": "Sat", "time": "11:30am"}, {"days": "Sun", "time": "Closed"}], "id": "8165400001", "name": "USPS COLLECTION BOX - BLUE BOX", "address": {"city": "SNOWMASS", "state": "CO", "street": "26900 HIGHWAY 82", "postcode": "81654"}}},
{"geometry": {"type": "Point", "coordinates": [-106.9831684719, 39.3305361047]}, "type": "Feature", "properties": {"collection_times": [{"days": "Mon-Fri", "time": "3:00pm"}, {"days": "Sat", "time": "11:30am"}, {"days": "Sun", "time": "Closed"}], "id": "8165400002", "name": "USPS COLLECTION BOX - PO LOBBY", "address": {"city": "SNOWMASS", "state": "CO", "street": "26900 HIGHWAY 82", "postcode": "81654"}}},
{"geometry": {"type": "Point", "coordinates": [-106.4052684446, 39.6381222734]}, "type": "Feature", "properties": {"collection_times": [{"days": "Mon-Fri", "time": "3:00pm"}, {"days": "Sat", "time": "10:00am"}, {"days": "Sun", "time": "Closed"}], "id": "8165500000", "name": "USPS COLLECTION BOX - BLUE BOX", "address": {"city": "WOLCOTT", "state": "CO", "street": "28000 HIGHWAY 6", "postcode": "81655"}}},
{"geometry": {"type": "Point", "coordinates": [-106.4052684446, 39.6381222734]}, "type": "Feature", "properties": {"collection_times": [{"days": "Mon-Fri", "time": "3:00pm"}, {"days": "Sat", "time": "10:00am"}, {"days": "Sun", "time": "Closed"}], "id": "8165500001", "name": "USPS COLLECTION BOX - PO LOBBY", "address": {"city": "WOLCOTT", "state": "CO", "street": "28000 HIGHWAY 6", "postcode": "81655"}}},
{"geometry": {"type": "Point", "coordinates": [-106.4052684446, 39.6381222734]}, "type": "Feature", "properties": {"collection_times": [{"days": "Mon-Fri", "time": "3:00pm"}, {"days": "Sat", "time": "10:00am"}, {"days": "Sun", "time": "Closed"}], "id": "8165500002", "name": "USPS COLLECTION BOX - PO LOBBY", "address": {"city": "WOLCOTT", "state": "CO", "street": "28000 HIGHWAY 6", "postcode": "81655"}}},
{"geometry": {"type": "Point", "coordinates": [-106.4052684446, 39.6381222734]}, "type": "Feature", "properties": {"collection_times": [{"days": "Mon-Fri", "time": "3:00pm"}, {"days": "Sat", "time": "10:00am"}, {"days": "Sun", "time": "Closed"}], "id": "8165500003", "name": "USPS COLLECTION BOX - PO LOBBY", "address": {"city": "WOLCOTT", "state": "CO", "street": "28000 HIGHWAY 6", "postcode": "81655"}}},
{"geometry": {"type": "Point", "coordinates": [-106.8837547379, 39.2770510743]}, "type": "Feature", "properties": {"collection_times": [{"days": "Mon-Fri", "time": "2:30pm"}, {"days": "Sat", "time": "11:00am"}, {"days": "Sun", "time": "Closed"}], "id": "8165600000", "name": "USPS COLLECTION BOX - BLUE BOX", "address": {"city": "WOODY CREEK", "state": "CO", "street": "7909 UPPER RIVER RD", "postcode": "81656"}}},
{"geometry": {"type": "Point", "coordinates": [-106.8837547379, 39.2770510743]}, "type": "Feature", "properties": {"collection_times": [{"days": "Mon-Fri", "time": "2:30pm"}, {"days": "Sat", "time": "11:00am"}, {"days": "Sun", "time": "Closed"}], "id": "8165600001", "name": "USPS COLLECTION BOX - PO LOBBY", "address": {"city": "WOODY CREEK", "state": "CO", "street": "7909 UPPER RIVER RD", "postcode": "81656"}}},
{"geometry": {"type": "Point", "coordinates": [-106.4022066713, 39.6399392482]}, "type": "Feature", "properties": {"collection_times": [{"days": "Mon-Sat", "time": "3:00pm"}, {"days": "Sun", "time": "Closed"}], "id": "8165700000", "name": "USPS COLLECTION BOX - BLUE BOX", "address": {"city": "VAIL", "state": "CO", "street": "1300 N FRONTAGE RD W", "postcode": "81657"}}},
{"geometry": {"type": "Point", "coordinates": [-106.3718970651, 39.6390804242]}, "type": "Feature", "properties": {"collection_times": [{"days": "Mon-Fri", "time": "3:00pm"}, {"days": "Sat", "time": "11:45am"}, {"days": "Sun", "time": "Closed"}], "id": "8165700001", "name": "USPS COLLECTION BOX - EXPRESS", "address": {"city": "VAIL", "state": "CO", "street": "1300 N FRONTAGE RD W", "postcode": "81657"}}},
{"geometry": {"type": "Point", "coordinates": [-106.3731614861, 39.6406724566]}, "type": "Feature", "properties": {"collection_times": [{"days": "Mon-Fri", "time": "1:00pm"}, {"days": "Sat", "time": "2:15pm"}, {"days": "Sun", "time": "Closed"}], "id": "8165700003", "name": "USPS COLLECTION BOX - BLUE BOX", "address": {"city": "VAIL", "state": "CO", "street": "263 E GORE CREEK DR", "postcode": "81657"}}},
{"geometry": {"type": "Point", "coordinates": [-106.3782233675, 39.6415371996]}, "type": "Feature", "properties": {"collection_times": [{"days": "Mon-Fri", "time": "1:00pm"}, {"days": "Sat", "time": "2:15pm"}, {"days": "Sun", "time": "Closed"}], "id": "8165700005", "name": "USPS COLLECTION BOX - BLUE BOX", "address": {"city": "VAIL", "state": "CO", "street": "17 VAIL RD", "postcode": "81657"}}},
{"geometry": {"type": "Point", "coordinates": [-106.3805749958, 39.6436736849]}, "type": "Feature", "properties": {"collection_times": [{"days": "Mon-Fri", "time": "1:00pm"}, {"days": "Sat", "time": "2:15pm"}, {"days": "Sun", "time": "Closed"}], "id": "8165700006", "name": "USPS COLLECTION BOX - BLUE BOX", "address": {"city": "VAIL", "state": "CO", "street": "108 S FRONTAGE RD W", "postcode": "81657"}}},
{"geometry": {"type": "Point", "coordinates": [-106.3869666172, 39.6441266967]}, "type": "Feature", "properties": {"collection_times": [{"days": "Mon-Fri", "time": "1:00pm"}, {"days": "Sat", "time": "2:15pm"}, {"days": "Sun", "time": "Closed"}], "id": "8165700008", "name": "USPS COLLECTION BOX - BLUE BOX", "address": {"city": "VAIL", "state": "CO", "street": "520 E LIONSHEAD CIR", "postcode": "81657"}}},
{"geometry": {"type": "Point", "coordinates": [-106.3965379382, 39.641352658]}, "type": "Feature", "properties": {"collection_times": [{"days": "Mon-Fri", "time": "1:00pm"}, {"days": "Sat", "time": "2:15pm"}, {"days": "Sun", "time": "Closed"}], "id": "8165700011", "name": "USPS COLLECTION BOX - BLUE BOX", "address": {"city": "VAIL", "state": "CO", "street": "953 S FRONTAGE RD W", "postcode": "81657"}}},
{"geometry": {"type": "Point", "coordinates": [-106.4178596989, 39.6302794724]}, "type": "Feature", "properties": {"collection_times": [{"days": "Mon-Fri", "time": "1:00pm"}, {"days": "Sat", "time": "2:15pm"}, {"days": "Sun", "time": "Closed"}], "id": "8165700012", "name": "USPS COLLECTION BOX - BLUE BOX", "address": {"city": "VAIL", "state": "CO", "street": "2151 N FRONTAGE RD W", "postcode": "81657"}}},
{"geometry": {"type": "Point", "coordinates": [-106.4154456052, 39.6320716771]}, "type": "Feature", "properties": {"collection_times": [{"days": "Mon-Fri", "time": "1:00pm"}, {"days": "Sat", "time": "2:15pm"}, {"days": "Sun", "time": "Closed"}], "id": "8165700013", "name": "USPS COLLECTION BOX - BLUE BOX", "address": {"city": "VAIL", "state": "CO", "street": "2109 N FRONTAGE RD W", "postcode": "81657"}}},
{"geometry": {"type": "Point", "coordinates": [-106.3718970651, 39.6390804242]}, "type": "Feature", "properties": {"collection_times": [{"days": "Mon-Sat", "time": "12:00pm"}, {"days": "Sun", "time": "Closed"}], "id": "8165700015", "name": "USPS COLLECTION BOX - BLUE BOX", "address": {"city": "VAIL", "state": "CO", "street": "3971 BIG HORN RD", "postcode": "81657"}}},
{"geometry": {"type": "Point", "coordinates": [-106.4022066713, 39.6399392482]}, "type": "Feature", "properties": {"collection_times": [{"days": "Mon-Sat", "time": "3:00pm"}, {"days": "Sun", "time": "Closed"}], "id": "8165700017", "name": "USPS COLLECTION BOX - PO LOBBY", "address": {"city": "VAIL", "state": "CO", "street": "1300 N FRONTAGE RD W", "postcode": "81657"}}},
{"geometry": {"type": "Point", "coordinates": [-106.4022066713, 39.6399392482]}, "type": "Feature", "properties": {"collection_times": [{"days": "Mon-Sat", "time": "3:00pm"}, {"days": "Sun", "time": "Closed"}], "id": "8165700018", "name": "USPS COLLECTION BOX - PO LOBBY", "address": {"city": "VAIL", "state": "CO", "street": "1300 N FRONTAGE RD W", "postcode": "81657"}}}
]}
